~VERSION INFORMATION
 VERS.                2.0:   CWLS LOG ASCII STANDARD - VERSION 2.0
 WRAP.                 NO:   ONE LINE PER DEPTH STEP
~WELL INFORMATION
#MNEM.UNIT      DATA TYPE    INFORMATION
#----------   ------------   ------------------------------
 STRT.F            2.0000:   START DEPTH
 STOP.F          548.0000:   STOP DEPTH
 STEP.F            0.1000:   STEP LENGTH
 NULL.          -999.2500:   NO VALUE
 COMP.       F D SERV INC:   COMPANY
 WELL. NAVAL PETROLEUM RESERVE 3 SX-3 #88-10-3:   WELL
 FLD .             TEAPOT:   FIELD
 LOC .       S3 T38N R78W:   LOCATION
 CNTY.            NATRONA:   COUNTY
 STAT.            WYOMING:   STATE
 CTRY. UNITED STATES OF AMERICA:   COUNTRY
 SRVC.     Atlas Wireline:   SERVICE COMPANY
 DATE.        19-OCT-1992:   LOGDATE
 API .       490252254600:   API NUMBER
~CURVE INFORMATION
#MNEM.UNIT       API CODE    CURVE DESCRIPTION
#----------   ------------   ------------------------------
 DEPT.F                  :   
 GRR .GAPI   07 310 01 00:   GAMMA RAY
 ILD .OHMM   07 120 46 00:   INDUCTION LOG DEEP
 ILM .OHMM   07 120 44 00:   INDUCTION LOG MEDIUM
~PARAMETER INFORMATION
#MNEM.UNIT          VALUE    DESCRIPTION
#----------   ------------   ------------------------------
 PD  .                 GL:   PERMANENT DATUM
 EPD .F              5126:   ELEVATION PERMANENT DATUM
 LMF .                 KB:   LOG MEASURED FROM
 DAPD.F                10:   FEET ABOVE PERMANENT DATUM
 DMF .                 KB:   DRILLING MEASURED FROM
 EKB .F              5136:   KELLING BUSHING
 EDF .F              5135:   DRILLING FLOOR
 EGL .F              5126:   GROUND LEVEL
 DATE.        19-OCT-1992:   RUN DATE
 RUN .                  1:   RUN NUMBER
 DD  .F               566:   DEPTH DRILLER
 DL  .F               558:   DEPTH LOGGER
 BLI .F               550:   BOTTOM LOG INTERVAL
 TLI .F                98:   TOP LOG INTERVAL
 CS  .IN            8.625:   CASING SIZE
 CBD .F                85:   CASING BOTTOM DRILLER
 CBL .F                98:   CASING BOTTOM LOGGER
 BS  .IN            7.875:   BIT SIZE
 BSD .F               566:   BIT SIZE AT DEPTH
 DFT .           AIR FOAM:   DRILLING FLUID TYPE
 TCS .HRS               2:   TIME CURCULATED STOPPED
 MRT .F                73:   MAXIMUM RECORDED TEMPERATURE
 LUN .            HL-6274:   LOGGING UNIT NUMBER
 LUL .             CASPER:   LOGGING UNIT LOCATION
 ENGI.             RAUTIO:   RECORDING ENGINEER
 WITN.        GARY STRONG:   WITNESSED BY
 CLNT.            A2DTECH:   CLIENT CODE
 ORIG.           5" PRINT:   ORIGIN OF DATA
 UWI .       490252254600:   UNIQUE WELL ID
 DICO. A2D Technologies, Inc.:   DIGITIZING COMPANY
~OTHER INFORMATION
~A    DEPT     GRR        ILD        ILM   
# ...
  420.6000    83.8531    25.6894    24.6578
  420.7000    84.0986    25.6880    24.6558
  420.8000    84.3474    25.6866    24.6537
  420.9000    85.0875    25.6851    24.6514
  421.0000    85.4403    25.6837    24.5251
  421.1000    85.5473    25.6823    24.4763
  421.2000    85.5455    25.6808    24.4121
  421.3000    85.5437    25.7293    24.3022
  421.4000    85.5417    25.8938    24.3001
  421.5000    85.7599    26.2199    24.2981
  421.6000    85.8409    26.3548    24.2961
  421.7000    85.8390    26.4009    24.2940
  421.8000    85.8913    26.3994    24.2445
  421.9000    86.1380    26.4359    24.1212
  422.0000    86.3822    26.5815    24.1190
  422.1000    86.6277    26.5797    24.1172
  422.2000    86.8732    26.5784    24.1151
  422.3000    87.1989    26.5770    24.1131
  422.4000    87.6667    26.5755    24.1111
  422.5000    87.9423    26.5740    24.1091
  422.6000    88.1577    26.5724    24.1067
  422.7000    88.5650    26.5710    24.1050
  422.8000    88.9513    26.5695    24.1030
  422.9000    89.2479    26.4907    24.1010
  423.0000    89.7488    26.3817    24.0800
  423.1000    90.2336    26.3802    23.9294
  423.2000    90.1624    26.3786    23.9276
  423.3000    89.9133    26.3773    23.9256
  423.4000    89.5093    26.2794    23.9235
  423.5000    88.8099    26.1908    23.9215
  423.6000    88.5274    26.1588    23.9195
  423.7000    88.0974    26.0056    23.9172
  423.8000    87.7599    25.8575    23.9155
  423.9000    87.4071    25.7083    23.9135
  424.0000    86.9108    25.6407    23.9115
  424.1000    86.4006    25.6393    23.9095
  424.2000    85.6775    25.6207    23.9074
  424.3000    85.1189    25.4579    23.9055
  424.4000    84.6225    25.4566    23.9035
  424.5000    84.1261    25.4552    23.9015
  424.6000    83.6684    25.3862    23.8995
  424.7000    83.6663    25.2752    23.8975
  424.8000    83.4534    25.2738    23.8952
  424.9000    83.3604    25.2721    23.8935
  425.0000    83.4594    25.2710    23.8915
  425.1000    83.6596    25.2696    23.8895
  425.2000    83.6574    25.3229    23.8875
  425.3000    83.8933    25.4440    23.8854
  425.4000    84.1388    25.4423    23.7545
  425.5000    84.3843    25.5788    23.7156
  425.6000    84.7016    25.6178    23.7136
  425.7000    85.1778    25.6164    23.7117
  425.8000    85.4617    25.6575    23.7097
  425.9000    85.8773    25.7931    23.7074
  426.0000    86.3701    25.7913    23.7057
  426.1000    86.7649    25.7901    23.6193
  426.2000    87.0532    25.7887    23.5371
  426.3000    87.5709    25.7872    23.5351
  426.4000    87.8039    25.7858    23.5330
  426.5000    88.2289    25.7843    23.4020
  426.6000    88.5975    25.7829    23.3657
  426.7000    88.8430    25.7815    23.3637
  426.8000    89.0748    25.6992    23.3618
  426.9000    89.0726    25.5992    23.3598
  427.0000    89.0711    25.5978    23.3576
  427.1000    89.0693    25.5962    23.3559
  427.2000    89.0675    25.5949    23.3540
  427.3000    89.0657    25.4942    23.2961
  427.4000    89.0637    25.3470    23.1878
  427.5000    89.0620    25.2006    23.1859
  427.6000    89.2369    25.0550    23.1840
  427.7000    89.4824    24.8827    23.0818
  427.8000    89.7279    24.8816    23.0190
  427.9000    89.9734    24.8802    22.9340
  428.0000    90.2629    24.8257    22.6838
  428.1000    90.4644    24.6604    22.5366
  428.2000    90.7098    24.3602    22.3107
  428.3000    90.9553    24.2283    22.2211
  428.4000    91.2008    24.1881    22.1640
  428.5000    91.4643    24.1867    22.0630
  428.6000    91.4626    24.1459    22.0611
  428.7000    91.6347    24.0158    22.0593
  428.8000    91.7616    24.0142    22.0575
  428.9000    91.6964    24.0131    22.0556
  429.0000    91.4554    24.0992    22.0959
  429.1000    91.4532    24.1786    22.2064
  429.2000    91.4517    24.1773    22.2041
  429.3000    91.4499    24.1759    22.2025
  429.4000    91.4481    24.1746    22.2861
  429.5000    91.4463    24.2794    22.4119
  429.6000    91.4443    24.4177    22.5086
  429.7000    91.6690    24.5567    22.5067
  429.8000    91.7434    24.6810    22.6352
  429.9000    91.7416    24.6793    22.6604
  430.0000    91.7398    24.8049    22.7325
  430.1000    91.7380    24.8496    22.8151
  430.2000    91.7362    24.8482    22.8300
  430.3000    91.7343    24.8812    22.9707
  430.4000    91.7325    25.0196    23.0886
  430.5000    91.7307    25.0179    23.2189
  430.6000    91.7289    25.1327    23.2876
  430.7000    91.7269    25.2759    23.3517
  430.8000    91.5018    25.3657    23.6178
  430.9000    91.4209    25.3866    23.9398
  431.0000    91.3061    25.5405    24.0488
  431.1000    91.0570    25.5392    24.3479
  431.2000    90.8078    25.5378    24.6626
  431.3000    90.5588    25.5364    24.8223
  431.4000    90.3097    25.5349    25.1270
  431.5000    90.0605    25.5335    24.9929
  431.6000    89.8113    25.5319    24.8485
  431.7000    89.5336    25.5306    24.7730
  431.8000    88.9838    25.5292    24.7339
  431.9000    88.7615    25.5278    24.5967
  432.0000    88.1815    25.5264    24.5943
  432.1000    87.2175    25.5249    24.4777
  432.2000    85.8697    25.3810    24.3362
  432.3000    84.1337    25.2344    24.1435
  432.4000    82.4037    25.0887    23.8885
  432.5000    80.4791    24.9438    23.7420
  432.6000    78.4988    24.7997    23.6132
  432.7000    76.9240    24.6407    23.4768
  432.8000    76.2061    24.5142    23.3411
  432.9000    75.6506    24.2794    23.1697
  433.0000    75.4312    24.1260    22.9042
  433.1000    75.5072    24.0920    22.5995
  433.2000    75.9673    23.9502    22.5979
  433.3000    76.7074    23.6217    22.3600
  433.4000    77.4572    23.4048    22.0766
  433.5000    78.4317    23.1367    21.9057
  433.6000    79.6079    22.9193    21.5142
  433.7000    80.8427    22.7675    21.2796
  433.8000    82.1556    22.4887    20.9488
  433.9000    83.6373    22.2488    20.7113
  434.0000    85.3129    22.0839    20.5574
  434.1000    87.2464    21.8943    20.3219
  434.2000    88.9912    21.6776    20.0550
  434.3000    90.2642    21.5600    19.8598
  434.4000    91.2517    21.5586    19.7032
  434.5000    92.2632    21.4536    19.5893
  434.6000    92.2614    21.2536    19.4342
  434.7000    92.2596    21.0590    19.0919
  434.8000    92.2578    20.9373    18.9850
  434.9000    92.3314    20.8132    18.8753
  435.0000    92.5569    20.5812    18.7099
  435.1000    92.5547    20.4336    18.5607
  435.2000    92.5531    20.3784    18.5499
  435.3000    92.5513    20.3027    18.4284
  435.4000    92.5495    20.0697    18.3361
  435.5000    92.5477    19.8136    18.2975
  435.6000    92.5458    19.7123    18.2960
  435.7000    92.5440    19.4496    18.2945
  435.8000    92.7254    19.2150    18.2929
  435.9000    92.8430    19.0787    18.1888
  436.0000    92.9138    18.8615    18.1628
  436.1000    93.1420    18.7527    18.1050
  436.2000    93.1398    18.6444    18.0336
  436.3000    93.1383    18.5368    18.0321
  436.4000    93.2906    18.4297    18.0304
  436.5000    93.5360    18.3232    18.0291
  436.6000    93.7383    18.2099    17.9596
  436.7000    93.7361    18.2089    17.9008
  436.8000    93.9699    18.2079    17.8768
  436.9000    94.2155    18.1555    17.7735
  437.0000    94.4610    18.0792    17.7720
  437.1000    94.7064    18.0721    17.7705
  437.2000    94.9519    17.9512    17.7124
  437.3000    95.2378    17.8641    17.6441
  437.4000    95.6494    17.8245    17.6307
  437.5000    95.9909    17.8235    17.5184
  437.6000    96.1404    17.8033    17.5171
  437.7000    96.2200    17.6974    17.5156
  437.8000    96.7418    17.6965    17.5141
  437.9000    97.2056    17.6193    17.4891
  438.0000    97.5209    17.5714    17.3895
  438.1000    97.8887    17.5067    17.3881
  438.2000    98.3815    17.3257    17.3079
  438.3000    98.8626    17.3247    17.2644
  438.4000    99.1513    17.2364    17.2629
  438.5000    99.3535    17.2023    17.2483
  438.6000    99.4505    17.2013    17.1400
  438.7000    99.5419    17.1777    17.0495
