~VERSION INFORMATION
 VERS.                2.0:   CWLS LOG ASCII STANDARD - VERSION 2.0
 WRAP.                 NO:   ONE LINE PER DEPTH STEP
~WELL INFORMATION
#MNEM.UNIT      DATA TYPE    INFORMATION
#----------   ------------   ------------------------------
 STRT.F           67.0000:   START DEPTH
 STOP.F          510.0000:   STOP DEPTH
 STEP.F            0.5000:   STEP LENGTH
 NULL.          -999.2500:   NO VALUE
 COMP.       F D SERV INC:   COMPANY
 WELL.    77-5 SX 3 #77-3:   WELL
 FLD .             TEAPOT:   FIELD
 LOC .       S3 T38N R78W:   LOCATION
 CNTY.            NATRONA:   COUNTY
 STAT.            WYOMING:   STATE
 CTRY. UNITED STATES OF AMERICA:   COUNTRY
 SRVC.     Atlas Wireline:   SERVICE COMPANY
 DATE.        24-NOV-1992:   LOGDATE
 API .       490252254400:   API NUMBER
~CURVE INFORMATION
#MNEM.UNIT       API CODE    CURVE DESCRIPTION
#----------   ------------   ------------------------------
 DEPT.F                  :   
 PORZ.DEC    45 890 12 00:   DENSITY POROSITY
 NPOR.DEC    42 890 03 00:   NEUTRON POROSITY SANDSTONE
 C13 .IN     45 280 13 00:   CALIPER 1 - 3
 GRD .GAPI   45 310 01 00:   GAMMA RAY FROM DENSITY LOG
 ZCOR.G/C3   45 356 01 00:   DENSITY CORRECTION
 ZDEN.G/C3   45 350 01 00:   BULK DENSITY
~PARAMETER INFORMATION
#MNEM.UNIT          VALUE    DESCRIPTION
#----------   ------------   ------------------------------
 PD  .                 GL:   PERMANENT DATUM
 EPD .F              5137:   ELEVATION PERMANENT DATUM
 LMF .                 KB:   LOG MEASURED FROM
 DAPD.F                10:   FEET ABOVE PERMANENT DATUM
 DMF .                 KB:   DRILLING MEASURED FROM
 EKB .F              5147:   KELLING BUSHING
 EDF .F              5146:   DRILLING FLOOR
 EGL .F              5137:   GROUND LEVEL
 DATE.        24-NOV-1992:   RUN DATE
 RUN .                  1:   RUN NUMBER
 DD  .F               510:   DEPTH DRILLER
 DL  .F               512:   DEPTH LOGGER
 BLI .F               510:   BOTTOM LOG INTERVAL
 TLI .F                99:   TOP LOG INTERVAL
 CS  .IN            8.625:   CASING SIZE
 CBD .F                97:   CASING BOTTOM DRILLER
 CBL .F                99:   CASING BOTTOM LOGGER
 BS  .IN            7.875:   BIT SIZE
 BSD .F               510:   BIT SIZE AT DEPTH
 DFT .           AIR FOAM:   DRILLING FLUID TYPE
 MRT .F                70:   MAXIMUM RECORDED TEMPERATURE
 LUN .            HL-6274:   LOGGING UNIT NUMBER
 LUL .             CASPER:   LOGGING UNIT LOCATION
 WITN.           G.STRONG:   WITNESSED BY
 CLNT.            A2DTECH:   CLIENT CODE
 ORIG.           5" PRINT:   ORIGIN OF DATA
 UWI .       490252254400:   UNIQUE WELL ID
 DICO. A2D Technologies, Inc.:   DIGITIZING COMPANY
~OTHER INFORMATION
~A   DEPT     PORZ       NPOR        C13        GRD       ZCOR       ZDEN   
# ...
  431.0000     0.1073     0.2657     7.8809   142.0615     0.0219     2.4718
  431.5000     0.1057     0.2664     7.8805   142.3709     0.0173     2.4740
  432.0000     0.1037     0.2664     7.8955   139.8422     0.0158     2.4771
  432.5000     0.1028     0.2664     7.8951   137.8099     0.0143     2.4801
  433.0000     0.1053     0.2661     7.8948   137.2289     0.0158     2.4809
  433.5000     0.1086     0.2655     7.8945   141.1817     0.0113     2.4747
  434.0000     0.1107     0.2619     7.8942   142.0966     0.0098     2.4687
  434.5000     0.1086     0.2538     7.8939   137.8551     0.0158     2.4671
  435.0000     0.0987     0.2445     7.9088   137.2526     0.0279     2.4838
  435.5000     0.0874     0.2369     7.9085   136.6530     0.0233     2.4970
  436.0000     0.0762     0.2319     7.9082   133.6241     0.0171     2.5137
  436.5000     0.0665     0.2389     7.9057   129.9881     0.0098     2.5339
  437.0000     0.0687     0.2474     7.8923   128.7800     0.0083     2.5405
  437.5000     0.0805     0.2560     7.8920   132.4279     0.0113     2.5269
  438.0000     0.0863     0.2614     7.8918   139.1675     0.0219     2.5117
  438.5000     0.0893     0.2660     7.8915   140.6340     0.0370     2.5019
  439.0000     0.0924     0.2681     7.8760   138.8205     0.0370     2.4973
  439.5000     0.0957     0.2702     7.8757   139.7369     0.0249     2.4927
  440.0000     0.0988     0.2709     7.8906   141.2603     0.0189     2.4867
  440.5000     0.1006     0.2709     7.8903   142.7837     0.0189     2.4836
  441.0000     0.0997     0.2706     7.8900   143.7001     0.0251     2.4844
  441.5000     0.0982     0.2706     7.8897   144.0080     0.0356     2.4867
  442.0000     0.0970     0.2706     7.8742   143.4082     0.0324     2.4897
  442.5000     0.1004     0.2719     7.8738   142.8073     0.0249     2.4911
  443.0000     0.1007     0.2740     7.8583   142.5098     0.0173     2.4873
  443.5000     0.0962     0.2758     7.8580   142.5159     0.0158     2.4850
  444.0000     0.0907     0.2780     7.8577   142.5232     0.0158     2.4896
  444.5000     0.0880     0.2789     7.8574   142.5291     0.0143     2.4971
  445.0000     0.0871     0.2792     7.8724   142.2301     0.0143     2.5047
  445.5000     0.0920     0.2798     7.8872   142.2375     0.0158     2.5062
  446.0000     0.0981     0.2805     7.9021   143.4574     0.0158     2.4925
  446.5000     0.1017     0.2811     7.9170   145.2842     0.0189     2.4850
  447.0000     0.0993     0.2817     7.9167   146.5041     0.0234     2.4827
  447.5000     0.0951     0.2823     7.9164   147.4205     0.0264     2.4895
  448.0000     0.0917     0.2836     7.9161   147.4265     0.0204     2.4985
  448.5000     0.0921     0.2855     7.9158   144.9400     0.0158     2.5016
  449.0000     0.0924     0.2894     7.9155   141.6720     0.0144     2.4993
  449.5000     0.0918     0.2942     7.9152   148.3562     0.0159     2.4993
  450.0000     0.0909     0.3043     7.9181   154.9918     0.0113     2.5015
  450.5000     0.1050     0.3236     7.9293   161.3799     0.0098     2.4863
  451.0000     0.1239     0.3437     7.9130   173.3074     0.0158     2.4532
  451.5000     0.1395     0.3514     7.9121   177.2378     0.0279     2.4196
  452.0000     0.1392     0.3258     7.8960   174.7986     0.0475     2.4225
  452.5000     0.1150     0.2979     7.9053   165.0897     0.0520     2.4556
  453.0000     0.0874     0.2810     7.9094   153.8656     0.0413     2.4885
  453.5000     0.0819     0.2771     7.8933   147.4900     0.0291     2.5133
  454.0000     0.0832     0.2768     7.8618   141.4175     0.0215     2.5148
  454.5000     0.0844     0.2768     7.8609   141.4055     0.0202     2.5132
  455.0000     0.0826     0.2768     7.8448   141.6966     0.0217     2.5156
  455.5000     0.0769     0.2775     7.8594   141.9876     0.0217     2.5254
  456.0000     0.0745     0.2790     7.8582   142.8848     0.0232     2.5293
  456.5000     0.0757     0.2802     7.8573   145.6162     0.0247     2.5267
  457.0000     0.0798     0.2806     7.8719   148.0607     0.0247     2.5221
  457.5000     0.0809     0.2803     7.8707   150.1615     0.0262     2.5145
  458.0000     0.0767     0.2797     7.8698   151.8504     0.0262     2.5228
  458.5000     0.0743     0.2788     7.8690   155.5492     0.0276     2.5288
  459.0000     0.0755     0.2773     7.8681   156.4494     0.0291     2.5264
  459.5000     0.0783     0.2767     7.8672   151.5859     0.0306     2.5219
  460.0000     0.0825     0.2768     7.8663   150.0588     0.0306     2.5158
  460.5000     0.0856     0.2765     7.8806   149.7438     0.0306     2.5096
  461.0000     0.0835     0.2756     7.8797   150.0349     0.0291     2.5081
  461.5000     0.0741     0.2747     7.8785   150.6290     0.0291     2.5202
  462.0000     0.0686     0.2738     7.8776   151.8291     0.0291     2.5315
  462.5000     0.0687     0.2763     7.8922   152.1232     0.0290     2.5376
  463.0000     0.0720     0.2787     7.8911   152.1082     0.0260     2.5343
  463.5000     0.0752     0.2805     7.8902   151.4902     0.0200     2.5253
  464.0000     0.0794     0.2781     7.8893   151.1752     0.0124     2.5192
  464.5000     0.0824     0.2754     7.8884   150.8603     0.0063     2.5153
  465.0000     0.0809     0.2745     7.8875   150.5453     0.0048     2.5130
  465.5000     0.0794     0.2746     7.8866   150.2303     0.0214     2.5153
  466.0000     0.0803     0.2746     7.8857   148.6669     0.0274     2.5220
  466.5000     0.0883     0.2746     7.8848   145.3010     0.0229     2.5121
  467.0000     0.0940     0.2746     7.8839   142.7878     0.0183     2.5007
  467.5000     0.0947     0.2731     7.8830   139.8764     0.0183     2.4946
  468.0000     0.0938     0.2689     7.8821   138.3493     0.0198     2.4953
  468.5000     0.0902     0.2662     7.8812   141.6707     0.0243     2.5021
  469.0000     0.0868     0.2659     7.8801   145.9011     0.0242     2.5081
  469.5000     0.0850     0.2684     7.8792   146.4982     0.0183     2.5119
  470.0000     0.0860     0.2714     7.8783   146.7893     0.0167     2.5087
  470.5000     0.0869     0.2730     7.8774   146.7743     0.0243     2.5057
  471.0000     0.0845     0.2718     7.8765   146.4593     0.0303     2.5087
  471.5000     0.0797     0.2700     7.8756   143.7201     0.0273     2.5147
  472.0000     0.0773     0.2697     7.8747   140.6778     0.0212     2.5207
  472.5000     0.0794     0.2709     7.8738   141.2719     0.0182     2.5230
  473.0000     0.0806     0.2721     7.8729   146.4115     0.0182     2.5214
  473.5000     0.0795     0.2713     7.8720   148.5207     0.0181     2.5183
  474.0000     0.0810     0.2707     7.8711   150.6303     0.0196     2.5130
  474.5000     0.0825     0.2704     7.8246   150.9212     0.0226     2.5084
  475.0000     0.0835     0.2719     7.7933   150.9091     0.0241     2.5080
  475.5000     0.0844     0.2744     7.7772   150.8971     0.0226     2.5129
  476.0000     0.0859     0.2768     7.7763   153.7743     0.0166     2.5090
  476.5000     0.0869     0.2799     7.7752   158.2908     0.0105     2.5067
  477.0000     0.0879     0.2829     7.7897   162.9795     0.0060     2.5043
  477.5000     0.0887     0.2842     7.7886   166.3008     0.0142     2.5020
  478.0000     0.0862     0.2854     7.8031   165.9859     0.0271     2.5012
  478.5000     0.0830     0.2866     7.8020   165.0648     0.0301     2.5103
  479.0000     0.0800     0.2882     7.8011   164.4468     0.0300     2.5148
  479.5000     0.0803     0.2895     7.8002   163.5257     0.0285     2.5155
  480.0000     0.0819     0.2916     7.7993   165.0319     0.0255     2.5154
  480.5000     0.0816     0.2943     7.7984   165.0169     0.0240     2.5154
  481.0000     0.0825     0.2992     7.7823   164.7020     0.0285     2.5154
  481.5000     0.0850     0.3032     7.7814   164.9930     0.0285     2.5138
  482.0000     0.0892     0.3041     7.7805   168.0114     0.0254     2.5069
  482.5000     0.0895     0.3047     7.7644   171.3327     0.0179     2.5001
