~VERSION INFORMATION
 VERS.                2.0:   CWLS LOG ASCII STANDARD - VERSION 2.0
 WRAP.                 NO:   ONE LINE PER DEPTH STEP
~WELL INFORMATION
#MNEM.UNIT      DATA TYPE    INFORMATION
#----------   ------------   ------------------------------
 STRT.F            0.0000:   START DEPTH
 STOP.F          534.0000:   STOP DEPTH
 STEP.F            0.1000:   STEP LENGTH
 NULL.          -999.2500:   NO VALUE
 COMP.       F D SERV INC:   COMPANY
 WELL. NAVAL PETROLEUM RESERVE 3 SX-1 #71-2-10:   WELL
 FLD .            N.P.R 3:   FIELD
 LOC .      S10 T38N R78W:   LOCATION
 CNTY.            NATRONA:   COUNTY
 STAT.            WYOMING:   STATE
 CTRY. UNITED STATES OF AMERICA:   COUNTRY
 SRVC.     Atlas Wireline:   SERVICE COMPANY
 DATE.        07-DEC-1992:   LOGDATE
 API .       490252257200:   API NUMBER
~CURVE INFORMATION
#MNEM.UNIT       API CODE    CURVE DESCRIPTION
#----------   ------------   ------------------------------
 DEPT.F                  :   
 GRR .GAPI   07 310 01 00:   GAMMA RAY
 RILD.OHMM   07 120 46 00:   INDUCTION LOG DEEP RESISTIVITY
 RILM.OHMM   07 120 44 00:   RESITIVITY LONG MEDIUM
~PARAMETER INFORMATION
#MNEM.UNIT          VALUE    DESCRIPTION
#----------   ------------   ------------------------------
 PD  .                 GL:   PERMANENT DATUM
 EPD .F              5165:   ELEVATION PERMANENT DATUM
 LMF .                 KB:   LOG MEASURED FROM
 DAPD.F                10:   FEET ABOVE PERMANENT DATUM
 DMF .                 KB:   DRILLING MEASURED FROM
 EKB .F              5175:   KELLING BUSHING
 EDF .F              5174:   DRILLING FLOOR
 EGL .F              5165:   GROUND LEVEL
 DATE.        07-DEC-1992:   RUN DATE
 RUN .                  1:   RUN NUMBER
 DD  .F               540:   DEPTH DRILLER
 DL  .F               542:   DEPTH LOGGER
 BLI .F               534:   BOTTOM LOG INTERVAL
 CS  .IN            8.625:   CASING SIZE
 CBD .F                78:   CASING BOTTOM DRILLER
 CBL .F                82:   CASING BOTTOM LOGGER
 BS  .IN            7.875:   BIT SIZE
 BSD .F               540:   BIT SIZE AT DEPTH
 DFT .           AIR FOAM:   DRILLING FLUID TYPE
 BHT .F                70:   BOTTOM HOLE TEMPERATURE
 MRT .F                70:   MAXIMUM RECORDED TEMPERATURE
 LUN .           HL- 6345:   LOGGING UNIT NUMBER
 LUL .         FT. MORGAN:   LOGGING UNIT LOCATION
 ENGI.             BURLEY:   RECORDING ENGINEER
 WITN.        GARY STRONG:   WITNESSED BY
 CLNT.            A2DTECH:   CLIENT CODE
 ORIG.           5" PRINT:   ORIGIN OF DATA
 UWI .       490252257200:   UNIQUE WELL ID
 DICO. A2D Technologies, Inc.:   DIGITIZING COMPANY
~OTHER INFORMATION
~A    DEPT      GRR      RILD       RILM   
# ...
  364.0000    98.1002    15.0580    15.0703
  364.1000    98.8988    15.0141    15.0013
  364.2000    99.1300    14.9883    14.9646
  364.3000    99.1976    14.9088    14.9642
  364.4000    99.1951    14.9083    14.9497
  364.5000    99.1927    14.9080    14.8593
  364.6000    99.1903    14.8500    14.7772
  364.7000    99.1875    14.8034    14.7552
  364.8000    98.7500    14.8030    14.7548
  364.9000    98.2470    14.8026    14.7544
  365.0000    97.7441    14.8021    14.7437
  365.1000    97.2411    14.8017    14.6509
  365.2000    96.7381    14.7475    14.6506
  365.3000    96.1379    14.6979    14.6502
  365.4000    95.5302    14.6975    14.6497
  365.5000    94.7770    14.6964    14.6493
  365.6000    94.1192    14.5943    14.6489
  365.7000    93.7008    14.5940    14.6485
  365.8000    93.6982    14.5438    14.6481
  365.9000    93.6959    14.4917    14.6477
  366.0000    93.7214    14.4764    14.6473
  366.1000    93.7565    14.3900    14.6469
  366.2000    93.7916    14.3896    14.6465
  366.3000    93.8267    14.3892    14.6460
  366.4000    93.8618    14.3429    14.6457
  366.5000    93.8970    14.2883    14.5933
  366.6000    93.9321    14.2765    14.5430
  366.7000    93.9672    14.1880    14.5426
  366.8000    94.1426    14.1877    14.5422
  366.9000    94.2786    14.1873    14.5418
  367.0000    94.2175    14.1869    14.5414
  367.1000    93.9593    14.1865    14.5410
  367.2000    93.3604    14.1861    14.5406
  367.3000    93.1559    14.1856    14.5402
  367.4000    92.7539    14.1853    14.5397
  367.5000    92.3470    14.1849    14.5394
  367.6000    92.0943    14.1845    14.5389
  367.7000    91.8312    14.1841    14.5385
  367.8000    91.8288    14.1837    14.5381
  367.9000    91.8264    14.1832    14.5377
  368.0000    91.8240    14.1829    14.5373
  368.1000    91.8215    14.1825    14.5369
  368.2000    91.8191    14.1821    14.5950
  368.3000    91.8164    14.1817    14.6379
  368.4000    92.7109    14.1813    14.6375
  368.5000    93.3677    14.1809    14.6371
  368.6000    93.8659    14.1805    14.6366
  368.7000    94.3641    14.1801    14.7092
  368.8000    94.8396    14.1797    14.7383
  368.9000    94.8366    14.1637    14.7379
  369.0000    94.8346    14.0803    14.7375
  369.1000    94.8322    14.0799    14.7371
  369.2000    94.8297    14.0795    14.7366
  369.3000    94.8273    14.0791    14.6671
  369.4000    94.8248    14.0787    14.6334
  369.5000    94.8225    14.0659    14.6330
  369.6000    94.8200    13.9799    14.6326
  369.7000    94.8176    13.9796    14.6322
  369.8000    94.6428    13.9198    14.5492
  369.9000    94.2058    13.8815    14.4650
  370.0000    94.2031    13.8554    14.3814
  370.1000    93.7408    13.7842    14.2982
  370.2000    93.2377    13.7837    14.2274
  370.3000    92.9821    13.7114    14.2270
  370.4000    92.9797    13.6871    14.1499
  370.5000    92.9772    13.6867    14.1273
  370.6000    92.9745    13.6863    14.0846
  370.7000    92.9724    13.6859    14.0032
  370.8000    92.9699    13.6855    13.9221
  370.9000    92.9675    13.6852    13.8331
  371.0000    92.9651    13.6327    13.8328
  371.1000    92.9627    13.5892    13.7778
  371.2000    92.9602    13.5888    13.7358
  371.3000    92.9578    13.5855    13.7142
  371.4000    92.9554    13.4934    13.6349
  371.5000    93.0450    13.4287    13.5443
  371.6000    93.2929    13.3509    13.5439
  371.7000    93.5549    13.3053    13.4935
  371.8000    93.5527    13.3049    13.4155
  371.9000    93.5502    13.3045    13.3551
  372.0000    93.5478    13.3041    13.3548
  372.1000    93.5454    13.2432    13.3543
  372.2000    93.5429    13.2108    13.2920
  372.3000    93.5402    13.2105    13.2151
  372.4000    93.5381    13.1974    13.1387
  372.5000    93.5357    13.1178    13.0763
  372.6000    93.5332    13.1174    13.0759
  372.7000    93.5308    13.1171    13.0756
  372.8000    93.5284    13.1167    13.0177
  372.9000    93.5255    13.1163    12.9839
  373.0000    93.5235    13.1160    12.9836
  373.1000    93.3700    13.1156    12.9832
  373.2000    93.1173    13.1152    12.9828
  373.3000    92.8645    13.1149    12.9825
  373.4000    92.6033    13.1145    12.9283
  373.5000    92.3591    13.1141    12.8915
  373.6000    92.2950    13.1138    12.8686
  373.7000    92.1572    13.1134    12.8011
  373.8000    91.9866    13.1130    12.8007
  373.9000    91.9842    13.1127    12.7352
  374.0000    91.9816    13.1123    12.7111
  374.1000    91.9794    13.1119    12.7107
  374.2000    91.9769    13.1116    12.6914
  374.3000    91.9745    13.1111    12.6216
  374.4000    91.9721    13.0471    12.6212
  374.5000    91.9697    13.0192    12.6209
  374.6000    91.9668    13.0189    12.6206
  374.7000    91.9648    13.0185    12.6202
  374.8000    91.9624    13.0172    12.6199
  374.9000    92.0638    12.9271    12.6195
  375.0000    92.2610    12.9268    12.6191
  375.1000    92.2585    12.8820    12.6188
  375.2000    92.7514    12.8362    12.5756
  375.3000    93.0551    12.8224    12.5304
  375.4000    93.3030    12.7461    12.5300
  375.5000    93.7269    12.7458    12.5296
  375.6000    94.4056    12.6891    12.5293
  375.7000    94.6718    12.6156    12.4745
  375.8000    94.6695    12.5680    12.4415
  375.9000    94.8458    12.5676    12.4411
  376.0000    94.9681    12.5672    12.4316
  376.1000    94.8935    12.5669    12.3539
  376.2000    94.6598    12.5139    12.3536
  376.3000    94.6570    12.4788    12.3533
  376.4000    94.6549    12.4784    12.3172
  376.5000    94.6525    12.4781    12.2667
  376.6000    94.6501    12.4777    12.2663
  376.7000    94.7041    12.4774    12.2660
  376.8000    94.9487    12.4770    12.2657
  376.9000    94.9458    12.4767    12.2653
  377.0000    95.1442    12.4763    12.2650
  377.1000    95.3920    12.4807    12.2646
  377.2000    95.6398    12.5630    12.2643
  377.3000    95.9284    12.5627    12.2639
  377.4000    96.4515    12.5624    12.2636
  377.5000    96.9246    12.5620    12.2633
  377.6000    97.6073    12.5617    12.2629
  377.7000    98.2244    12.5613    12.2773
  377.8000    98.6444    12.5609    12.3481
  377.9000    98.8676    12.5606    12.3477
  378.0000    98.8647    12.5602    12.3474
  378.1000    98.8625    12.5599    12.3471
  378.2000    98.8601    12.5739    12.3467
  378.3000    98.7421    12.6472    12.3581
  378.4000    98.4894    12.6468    12.4324
  378.5000    98.2458    12.6465    12.4321
  378.6000    98.2430    12.6461    12.4318
  378.7000    97.8286    12.6458    12.4701
  378.8000    97.3256    12.6454    12.5181
  378.9000    97.0222    12.6451    12.5265
  379.0000    96.9732    12.7144    12.6050
  379.1000    96.7137    12.7330    12.6047
  379.2000    96.4677    12.7326    12.6557
  379.3000    96.2150    12.7564    12.6923
  379.4000    95.9624    12.8212    12.7129
  379.5000    95.7936    12.8207    12.7804
  379.6000    95.7297    12.8204    12.7800
  379.7000    95.1816    12.8201    12.7797
  379.8000    94.7237    12.8197    12.8281
  379.9000    94.2208    12.8193    12.9021
  380.0000    93.9605    12.8250    12.9582
  380.1000    93.9581    12.9084    12.9579
  380.2000    93.9557    12.9081    12.9574
  380.3000    93.9529    12.9077    12.9571
  380.4000    93.9508    12.9416    12.9568
  380.5000    93.9484    13.0163    12.9564
  380.6000    93.9460    13.0882    12.9709
  380.7000    93.9435    13.0877    13.0464
  380.8000    93.9411    13.0874    13.0460
  380.9000    93.9387    13.1346    13.0457
  381.0000    93.9363    13.1784    13.0453
  381.1000    93.7908    13.1780    13.0449
  381.2000    93.6279    13.1777    13.0446
  381.3000    93.6255    13.1773    13.0442
  381.4000    93.6229    13.1769    13.0438
  381.5000    93.6206    13.2215    13.0435
  381.6000    93.6182    13.2395    13.0431
  381.7000    93.6158    13.1758    13.0428
  381.8000    93.5393    13.1754    13.0424
  381.9000    93.3074    13.1019    13.0420
  382.0000    93.3047    13.0260    13.0417
  382.1000    93.3026    12.9916    12.9893
