~VERSION INFORMATION
 VERS.                2.0:   CWLS LOG ASCII STANDARD - VERSION 2.0
 WRAP.                 NO:   ONE LINE PER DEPTH STEP
~WELL INFORMATION
#MNEM.UNIT      DATA TYPE    INFORMATION
#----------   ------------   ------------------------------
 STRT.F            0.0000:   START DEPTH
 STOP.F          530.0000:   STOP DEPTH
 STEP.F            0.5000:   STEP LENGTH
 NULL.          -999.2500:   NO VALUE
 COMP. FENIX & SCISSON INC:   COMPANY
 WELL.      74 SX 3 #74-3:   WELL
 FLD .             TEAPOT:   FIELD
 LOC .       S3 T38N R78W:   LOCATION
 CNTY.            NATRONA:   COUNTY
 STAT.            WYOMING:   STATE
 CTRY. UNITED STATES OF AMERICA:   COUNTRY
 SRVC.            Unknown:   SERVICE COMPANY
 DATE.        20-SEP-1978:   LOGDATE
 API .       490251072200:   API NUMBER
~CURVE INFORMATION
#MNEM.UNIT       API CODE    CURVE DESCRIPTION
#----------   ------------   ------------------------------
 DEPT.F                  :   
 CALD.IN     45 280 60 00:   CALIPER
 GRD .GAPI   45 310 01 00:   GAMMA RAY FROM DENSITY LOG
 RHOB.G/C3   45 350 01 00:   BULK DENSITY
 DPHI.DEC    45 890 12 00:   DENSITY POROSITY SANDSTONE
 CORR.G/C3   45 356 01 00:   DENSITY CORRECTION
 SPR .MV     05 010 01 00:   SPONTANEOUS POTENTIAL FROM RES.
 SN  .OHMM   05 040 16 00:   SHORT NORMAL 16"
 ILD .OHMM   05 120 46 00:   INDUCTION LOG DEEP
~PARAMETER INFORMATION
#MNEM.UNIT          VALUE    DESCRIPTION
#----------   ------------   ------------------------------
 PD  .                 GL:   PERMANENT DATUM
 EPD .F              5139:   ELEVATION PERMANENT DATUM
 LMF .                 KB:   LOG MEASURED FROM
 DAPD.F                 4:   FEET ABOVE PERMANENT DATUM
 DMF .                 KB:   DRILLING MEASURED FROM
 EKB .F              5143:   KELLING BUSHING
 EGL .F              5139:   GROUND LEVEL
 DATE.            9-20-78:   RUN DATE
 RUN .                  1:   RUN NUMBER
 DD  .F               532:   DEPTH DRILLER
 DL  .F               530:   DEPTH LOGGER
 BLI .F               524:   BOTTOM LOG INTERVAL
 TLI .F                40:   TOP LOG INTERVAL
 CS  .IN            8.625:   CASING SIZE
 CBD .F                40:   CASING BOTTOM DRILLER
 CBL .F                40:   CASING BOTTOM LOGGER
 BS  .IN            7.875:   BIT SIZE
 BSD .F               532:   BIT SIZE AT DEPTH
 DFT .                KCL:   DRILLING FLUID TYPE
 DFD .                8.8:   DRILLING FLUID DENSITY
 DFV .                 38:   DRILLING FLUID VISCOSITY
 DFPH.                  9:   DRILLING FLUID PH
 DFL .                6.2:   DRILLING FLUID LOSS
 MSS .                PIT:   MUD SAMPLE SOURCE
 BHT .F                69:   BOTTOM HOLE TEMPERATURE
 TCS .HRS               3:   TIME CURCULATED STOPPED
 MRT .F                69:   MAXIMUM RECORDED TEMPERATURE
 LUN .               2958:   LOGGING UNIT NUMBER
 LUL .             CASPER:   LOGGING UNIT LOCATION
 ENGI.           REYNOLDS:   RECORDING ENGINEER
 WITN.           DINSMORE:   WITNESSED BY
 CLNT.            A2DTECH:   CLIENT CODE
 ORIG.       2", 5" PRINT:   ORIGIN OF DATA
 UWI .       490251072200:   UNIQUE WELL ID
 DICO. A2D Technologies, Inc.:   DIGITIZING COMPANY
~OTHER INFORMATION
~A    DEPT    CALD         GRD      RHOB       DPHI       CORR        SPR         SN        ILD   
# ...
  445.5000     7.4114    56.3978     2.4017     0.1634     0.0284   -25.9140    14.5549    15.2804
  446.0000     7.4118    56.0765     2.4027     0.1606     0.0285   -26.0385    14.4130    15.1110
  446.5000     7.4121    54.9036     2.4058     0.1578     0.0286   -26.1593    14.2727    14.9435
  447.0000     7.4124    53.6894     2.4097     0.1551     0.0287   -26.2799    14.1415    14.7778
  447.5000     7.4128    52.6203     2.4148     0.1523     0.0288   -26.4004    14.0326    14.6138
  448.0000     7.4131    52.0860     2.4199     0.1487     0.0289   -26.5192    13.9303    14.4516
  448.5000     7.4134    51.5446     2.4250     0.1422     0.0290   -26.6515    13.8288    14.2911
  449.0000     7.4138    51.0035     2.4323     0.1349     0.0291   -27.0604    13.7479    14.2662
  449.5000     7.4141    50.9223     2.4408     0.1394     0.0275   -27.4636    13.7163    14.2564
  450.0000     7.4144    51.1539     2.4471     0.1447     0.0253   -27.8633    13.6851    14.2468
  450.5000     7.4148    52.6294     2.4412     0.1494     0.0229   -28.2285    13.6539    14.2371
  451.0000     7.4151    54.0924     2.4311     0.1484     0.0206   -28.2195    13.6227    14.2274
  451.5000     7.4154    54.7443     2.4279     0.1471     0.0195   -28.2179    13.5917    14.2176
  452.0000     7.4158    51.9541     2.4301     0.1437     0.0229   -28.2178    13.5606    14.2079
  452.5000     7.4161    49.8958     2.4327     0.1386     0.0263   -28.2180    13.5297    14.1982
  453.0000     7.4164    50.9999     2.4372     0.1334     0.0297   -28.2176    13.4988    14.1885
  453.5000     7.4167    52.0425     2.4461     0.1282     0.0331   -28.2194    13.4680    14.1788
  454.0000     7.4171    52.8685     2.4566     0.1276     0.0349   -28.0234    13.4373    14.1692
  454.5000     7.4174    53.1661     2.4580     0.1301     0.0313   -27.6776    13.4065    14.1598
  455.0000     7.4177    53.1751     2.4590     0.1296     0.0330   -27.9613    13.3817    14.1498
  455.5000     7.4181    52.9852     2.4601     0.1289     0.0349   -28.2435    13.3820    14.1134
  456.0000     7.4184    52.7704     2.4613     0.1282     0.0369   -28.3037    13.3820    13.9759
  456.5000     7.4187    52.7290     2.4633     0.1257     0.0368   -28.3687    13.3821    13.8398
  457.0000     7.4191    53.2564     2.4652     0.1237     0.0365   -28.5312    13.3778    13.7049
  457.5000     7.4194    53.7645     2.4672     0.1238     0.0361   -29.0928    13.3572    13.6307
  458.0000     7.4198    53.9244     2.4689     0.1238     0.0357   -29.5952    13.3372    13.6307
  458.5000     7.4201    53.2910     2.4689     0.1239     0.0353   -29.5845    13.3172    13.6307
  459.0000     7.4204    52.6379     2.4689     0.1239     0.0355   -29.5607    13.2972    13.6307
  459.5000     7.4207    52.0436     2.4689     0.1240     0.0361   -29.5389    13.2773    13.6307
  460.0000     7.4211    51.0000     2.4692     0.1240     0.0368   -29.5176    13.2574    13.6470
  460.5000     7.4214    56.6633     2.4698     0.1231     0.0374   -29.4963    13.2375    13.6623
  461.0000     7.4217    56.0604     2.4704     0.1201     0.0381   -29.4750    13.2177    13.6774
  461.5000     7.4221    55.8164     2.4718     0.1163     0.0387   -29.4537    13.1979    13.6926
  462.0000     7.4224    55.6950     2.4776     0.1126     0.0385   -29.4323    13.1781    13.7078
  462.5000     7.4227    56.0393     2.4832     0.1096     0.0367   -29.4091    13.1583    13.7229
  463.0000     7.4231    56.4104     2.4890     0.1089     0.0349   -29.4633    13.1386    13.7379
  463.5000     7.4234    57.1184     2.4918     0.1081     0.0332   -29.5402    13.1377    13.7555
  464.0000     7.4237    57.1425     2.4941     0.1072     0.0331   -29.6654    13.1378    13.7196
  464.5000     7.4241    54.9301     2.4963     0.1063     0.0331   -30.0339    13.1379    13.6712
  465.0000     7.4244    54.5820     2.4979     0.1054     0.0331   -30.3853    13.1379    13.6231
  465.5000     7.4247    55.9385     2.4975     0.1045     0.0340   -30.3984    13.1393    13.5752
  466.0000     7.4251    55.3896     2.4970     0.1037     0.0380   -30.3965    13.1083    13.5275
  466.5000     7.4254    55.0434     2.4986     0.1039     0.0418   -30.3960    13.0393    13.4799
  467.0000     7.4257    58.3260     2.5009     0.1054     0.0456   -30.3960    12.9702    13.4325
  467.5000     7.4261    59.5694     2.4978     0.1072     0.0494   -30.3960    12.9015    13.3853
  468.0000     7.4264    60.1231     2.4942     0.1096     0.0532   -30.3960    12.8331    13.3382
  468.5000     7.4267    60.3910     2.4906     0.1112     0.0570   -30.3960    12.7651    13.2913
  469.0000     7.4271    60.6684     2.4888     0.1109     0.0608   -30.3957    12.6974    13.2446
  469.5000     7.4274    60.9465     2.4884     0.1106     0.0631   -30.3943    12.6163    13.1980
  470.0000     7.4277    61.2248     2.4879     0.1104     0.0627   -30.4075    12.5212    13.1516
  470.5000     7.4281    61.4996     2.4875     0.1113     0.0623   -30.6292    12.4268    13.0568
  471.0000     7.4284    61.3342     2.4870     0.1121     0.0619   -30.8449    12.3331    12.9425
  471.5000     7.4287    60.4162     2.4870     0.1130     0.0614   -31.1242    12.2401    12.8291
  472.0000     7.4290    59.5106     2.4870     0.1136     0.0563   -31.5460    12.1478    12.7168
  472.5000     7.4294    59.1786     2.4869     0.1118     0.0420   -31.9625    12.0562    12.6054
  473.0000     7.4297    59.4012     2.4889     0.1101     0.0372   -31.9858    11.9652    12.4950
  473.5000     7.4300    59.3457     2.4917     0.1083     0.0371   -31.6407    11.8723    12.3855
  474.0000     7.4303    58.8022     2.4946     0.1065     0.0389   -31.0386    11.6756    12.2301
  474.5000     7.4305    58.1363     2.4950     0.1056     0.0414   -30.7425    11.4762    12.0002
  475.0000     7.4307    57.4222     2.4950     0.1064     0.0439   -30.6501    11.2803    11.7746
  475.5000     7.4309    59.2076     2.4950     0.1071     0.0466   -30.7130    11.0880    11.5532
  476.0000     7.4311    61.5300     2.4950     0.1061     0.0472   -31.0159    10.8977    11.3360
  476.5000     7.4313    62.8789     2.4950     0.1067     0.0448   -31.2518    10.6729    11.1229
  477.0000     7.4316    63.6917     2.4936     0.1087     0.0388   -31.3993    10.4271    10.9138
  477.5000     7.4318    64.4665     2.4911     0.1108     0.0352   -31.5476    10.1884    10.7086
  478.0000     7.4320    65.8823     2.4885     0.1174     0.0351   -31.6948     9.9503    10.5073
  478.5000     7.4322    67.3573     2.4861     0.1228     0.0351   -31.8392     9.5397    10.3062
  479.0000     7.4324    68.2201     2.4750     0.1259     0.0351   -32.0103     9.0465     9.8447
  479.5000     7.4326    67.9961     2.4627     0.1291     0.0351   -32.6734     8.5823     9.2663
  480.0000     7.4329    67.2921     2.4574     0.1321     0.0349   -33.3257     8.1417     8.7262
  480.5000     7.4331    66.5706     2.4519     0.1409     0.0435   -34.0003     7.7238     8.2175
  481.0000     7.4333    69.6928     2.4445     0.1457     0.0494   -34.1566     7.2210     7.7017
  481.5000     7.4335    63.4940     2.4364     0.1364     0.0533   -34.1612     7.2942     7.4232
  482.0000     7.4337    64.1529     2.4386     0.1298     0.0532   -33.8947     7.3966     7.3478
  482.5000     7.4339    64.7020     2.4594     0.1233     0.0532   -33.5173     7.8449     7.2210
  483.0000     7.4342    65.1221     2.4799     0.1167     0.0512   -33.3971     8.7292     7.2717
  483.5000     7.4344    65.8143     2.4915     0.1102     0.0480   -33.2709     9.7673     8.3609
  484.0000     7.4346    72.3559     2.4981     0.1045     0.0449   -33.1460    10.4672     9.7760
  484.5000     7.4348    76.7309     2.5010     0.1055     0.0441   -33.0210    10.7366    10.2781
  485.0000     7.4350    80.1317     2.4988     0.1066     0.0433   -32.8958    10.9208    10.6959
  485.5000     7.4352    78.1400     2.4964     0.1076     0.0425   -32.7709    11.1081    10.8629
