~VERSION INFORMATION
 VERS.                2.0:   CWLS LOG ASCII STANDARD - VERSION 2.0
 WRAP.                 NO:   ONE LINE PER DEPTH STEP
~WELL INFORMATION
#MNEM.UNIT      DATA TYPE    INFORMATION
#----------   ------------   ------------------------------
 STRT.F            0.0000:   START DEPTH
 STOP.F          479.0000:   STOP DEPTH
 STEP.F            0.5000:   STEP LENGTH
 NULL.          -999.2500:   NO VALUE
 COMP. BROWN JOHN E&C INC:   COMPANY
 WELL.  63-3 SX-10 #63-10:   WELL
 FLD .             TEAPOT:   FIELD
 LOC .      S10 T38N R78W:   LOCATION
 CNTY.            NATRONA:   COUNTY
 STAT.            WYOMING:   STATE
 CTRY. UNITED STATES OF AMERICA:   COUNTRY
 SRVC.     Atlas Wireline:   SERVICE COMPANY
 DATE.        25-APR-1992:   LOGDATE
 API .       490252252900:   API NUMBER
~CURVE INFORMATION
#MNEM.UNIT       API CODE    CURVE DESCRIPTION
#----------   ------------   ------------------------------
 DEPT.F                  :   
 GRR .GAPI   07 310 01 00:   GAMMA RAY
 SPR .MV     07 010 01 00:   SPONTANEOUS POTENTIAL
 RILD.OHMM   07 120 46 00:   INDUCTION LOG DEEP RESISTIVITY
 RILM.OHMM   07 120 44 00:   INDUCTION LOG MEDIUM RESISTIVITY
 RFOC.OHMM   07 220 04 00:   RESISTIVITY FOCUSED LOG
 PORD.DEC    45 890 12 00:   POROSITY DENSITY SANDSTONE
 CNC .DEC    42 890 03 00:   NEUTRON POROSITY SANDSTONE
 CALD.IN     45 280 60 00:   CALIPER FROM DENSITY
 CORR.G/C3   45 356 01 00:   DENSITY CORRECTION
 DEN .G/C3   45 350 01 00:   COMPENSATED BULK DENSTIY
~PARAMETER INFORMATION
#MNEM.UNIT          VALUE    DESCRIPTION
#----------   ------------   ------------------------------
 PD  .                 GL:   PERMANENT DATUM
 EPD .F              5189:   ELEVATION PERMANENT DATUM
 LMF .                 KB:   LOG MEASURED FROM
 DAPD.F                10:   FEET ABOVE PERMANENT DATUM
 DMF .                 KB:   DRILLING MEASURED FROM
 EKB .F              5199:   KELLING BUSHING
 EGL .F              5189:   GROUND LEVEL
 DATE.        25-APR-1992:   RUN DATE
 RUN .                  1:   RUN NUMBER
 DD  .F               480:   DEPTH DRILLER
 DL  .F               482:   DEPTH LOGGER
 BLI .F               480:   BOTTOM LOG INTERVAL
 CS  .IN            8.625:   CASING SIZE
 CBD .F               130:   CASING BOTTOM DRILLER
 CBL .F               143:   CASING BOTTOM LOGGER
 BS  .IN            7.875:   BIT SIZE
 BSD .F               480:   BIT SIZE AT DEPTH
 DFT .     DISP. WEIGHTED:   DRILLING FLUID TYPE
 DFD .               15.1:   DRILLING FLUID DENSITY
 DFV .                 44:   DRILLING FLUID VISCOSITY
 DFPH.                8.4:   DRILLING FLUID PH
 DFL .                  7:   DRILLING FLUID LOSS
 MSS .           FLOWLINE:   MUD SAMPLE SOURCE
 TCS .HRS            0230:   TIME CURCULATED STOPPED
 LUN .           HL- 6272:   LOGGING UNIT NUMBER
 LUL .             CASPER:   LOGGING UNIT LOCATION
 ENGI.       P. RASMUSSEN:   RECORDING ENGINEER
 WITN.          G. STRONG:   WITNESSED BY
 CLNT.            A2DTECH:   CLIENT CODE
 ORIG.           5" PRINT:   ORIGIN OF DATA
 UWI .       490252252900:   UNIQUE WELL ID
 DICO. A2D Technologies, Inc.:   DIGITIZING COMPANY
~OTHER INFORMATION
~A    DEPT      GRR       SPR       RILD       RILM       RFOC       PORD        CNC       CALD       CORR        DEN   
# ...
  301.5000    72.5803   -67.0913    18.1414    16.8638    15.3448     0.1551     0.2737     7.6998    -0.0016     2.3930
  302.0000    71.6606   -65.7411    18.1414    16.4007    15.3437     0.1527     0.2695     7.6991    -0.0098     2.3968
  302.5000    71.3460   -64.2380    17.8903    16.1739    15.2361     0.1497     0.2668     7.7135    -0.0039     2.4043
  303.0000    71.0314   -63.3392    17.5203    15.9503    15.1293     0.1448     0.2698     7.7128     0.0021     2.4134
  303.5000    72.2297   -62.5914    17.2779    15.6206    14.9189     0.1397     0.2758     7.7272     0.0065     2.4202
  304.0000    73.7306   -61.9946    16.8030    15.5122    14.7115     0.1370     0.2795     7.7112     0.0065     2.4225
  304.5000    74.3237   -61.7000    16.6863    15.4046    14.5995     0.1361     0.2801     7.7105    -0.0030     2.4232
  305.0000    72.7788   -61.5564    16.8030    15.9503    14.2919     0.1349     0.2783     7.7249    -0.0058     2.4300
  305.5000    71.8790   -61.5639    17.2779    16.7468    14.0887     0.1285     0.2726     7.7242     0.0003     2.4421
  306.0000    71.8992   -61.4199    17.6428    17.3442    13.9099     0.1005     0.2562     7.7234     0.0046     2.4942
  306.5000    72.4603   -61.4278    17.7661    17.8297    15.3339     0.0594     0.2248     7.7226     0.0011     2.5426
  307.0000    69.2586   -61.5863    17.7661    18.3332    18.2756     0.0410     0.2064     7.7219    -0.0093     2.5721
  307.5000    64.8691   -61.7448    17.5203    18.2060    24.9241     0.0489     0.1989     7.7211    -0.0138     2.5766
  308.0000    61.8313   -61.9034    17.2779    17.8297    30.3455     0.0652     0.2100     7.7204    -0.0047     2.5290
  308.5000    60.9116   -62.3640    17.0238    16.5153    23.4480     0.1041     0.2451     7.7196     0.0042     2.4723
  309.0000    63.3202   -62.5227    16.6863    14.8776    19.4931     0.1198     0.2632     7.7188     0.0071     2.4541
  309.5000    65.7288   -62.8463    16.2278    14.4691    15.3255     0.1213     0.2737     7.7181     0.0055     2.4473
  310.0000    68.1374   -63.1420    15.6722    14.4691    13.0574     0.1222     0.2786     7.7173     0.0039     2.4443
  310.5000    70.2434   -63.3006    15.1357    14.5701    12.8758     0.1262     0.2810     7.7166     0.0053     2.4375
  311.0000    71.7473   -63.6117    14.6175    14.5701    12.7855     0.1305     0.2819     7.7158     0.0052     2.4322
  311.5000    72.6400   -63.7703    14.2157    14.6719    12.9640     0.1346     0.2825     7.7150     0.0066     2.4284
  312.0000    71.7203   -63.7778    14.1171    14.5701    13.0538     0.1336     0.2828     7.7295     0.0080     2.4291
  312.5000    72.3134   -63.6323    14.4152    14.5701    13.0529     0.1331     0.2825     7.7287     0.0079     2.4292
  313.0000    73.2122   -63.1885    14.6175    14.5701    12.8711     0.1331     0.2809     7.7279     0.0048     2.4299
  313.5000    71.6843   -62.7428    14.5160    14.4691    12.7809     0.1337     0.2792     7.7424     0.0047     2.4291
  314.0000    70.4620   -62.5973    14.4152    14.0717    12.7800     0.1343     0.2771     7.7416     0.0031     2.4299
  314.5000    69.5423   -62.6067    14.2157    13.4960    12.7791     0.1301     0.2768     7.7257     0.0061     2.4307
  315.0000    68.9252   -62.7652    14.1171    13.1254    12.6895     0.1244     0.2795     7.7249     0.0090     2.4361
  315.5000    68.3080   -62.6198    13.9217    12.8541    12.4262     0.1178     0.2840     7.7241     0.0119     2.4481
  316.0000    68.5991   -62.4762    13.8251    12.7649    12.1684     0.1132     0.2900     7.7234     0.0149     2.4579
  316.5000    70.4021   -62.0324    13.6338    12.5884    11.7510     0.1126     0.2928     7.7226     0.0133     2.4646
  317.0000    72.5081   -61.4356    13.4451    12.4144    11.5071     0.1208     0.2949     7.7219     0.0071     2.4585
  317.5000    72.8139   -61.2902    13.3518    12.4144    11.9142     0.1241     0.2973     7.7211     0.0010     2.4487
  318.0000    70.3661   -61.2995    13.1658    12.5011    12.3359     0.1238     0.2994     7.7203     0.0054     2.4434
  318.5000    67.6308   -61.3349    12.9848    12.6764    12.2492     0.1193     0.2994     7.7196     0.0084     2.4502
  319.0000    68.5625   -60.8610    12.8947    12.7649    11.9950     0.1134     0.2979     7.7036     0.0113     2.4585
  319.5000    71.2961   -60.7175    12.7162    12.5011    11.6646     0.1107     0.2958     7.7029     0.0112     2.4668
  320.0000    74.3722   -60.8763    12.6279    12.4144    11.5828     0.1075     0.2916     7.7021     0.0081     2.4698
  320.5000    77.3678   -61.3369    12.6279    12.4144    11.5016     0.1072     0.2873     7.7013     0.0080     2.4721
  321.0000    79.9734   -62.0997    12.6279    12.4144    11.5008     0.1081     0.2870     7.7006     0.0079     2.4729
  321.5000    79.6589   -62.2663    12.6279    12.5011    11.5000     0.1118     0.2879     7.7150     0.0078     2.4683
  322.0000    77.2263   -62.5680    12.8051    12.6764    11.4992     0.1151     0.2876     7.7143     0.0077     2.4615
  322.5000    72.6757   -62.7266    12.9848    12.7649    11.4984     0.1142     0.2837     7.7135     0.0076     2.4592
  323.0000    69.9406   -62.7341    13.1670    13.0343    11.5898     0.1124     0.2804     7.7127     0.0090     2.4607
  323.5000    69.6290   -62.7432    13.3518    13.3094    11.8215     0.1100     0.2786     7.7120     0.0090     2.4645
  324.0000    72.9423   -62.7506    13.4451    13.1254    11.9866     0.1105     0.2765     7.7112     0.0104     2.4683
  324.5000    77.1663   -62.7581    13.6338    12.9439    12.1539     0.1118     0.2758     7.7105     0.0118     2.4675
  325.0000    77.4599   -62.7656    13.7291    12.8541    12.2382     0.1133     0.2774     7.7249     0.0117     2.4652
  325.5000    74.7218   -62.7731    13.8251    12.9439    12.1522     0.1148     0.2768     7.7241     0.0101     2.4622
  326.0000    71.0789   -62.6276    13.8251    13.1254    12.0670     0.1157     0.2731     7.7234     0.0100     2.4599
  326.5000    68.6463   -62.4859    13.6338    13.2171    12.3211     0.1169     0.2713     7.7226     0.0084     2.4592
  327.0000    70.1472   -62.0402    13.3518    12.7649    12.8463     0.1172     0.2716     7.7219     0.0099     2.4592
  327.5000    74.3712   -61.7437    13.0756    12.5884    12.4922     0.1154     0.2726     7.7211     0.0128     2.4599
  328.0000    76.7798   -60.9978    12.8051    12.5011    12.2330     0.1133     0.2734     7.7203     0.0157     2.4629
  328.5000    77.3759   -60.5502    12.6279    12.3283    11.9791     0.1112     0.2734     7.7044     0.0171     2.4674
  329.0000    76.1507   -60.2556    12.3667    12.0734    11.7305     0.1094     0.2734     7.7036     0.0170     2.4720
  329.5000    75.2310   -59.9609    12.1883    11.9065    11.4871     0.1072     0.2737     7.7028     0.0154     2.4765
  330.0000    75.5215   -59.8174    12.0269    11.7419    11.0161     0.1039     0.2749     7.7021     0.0138     2.4803
  330.5000    75.8121   -59.6756    11.9285    11.5795    11.3266     0.1012     0.2762     7.7013     0.0183     2.4833
  331.0000    76.1027   -59.6831    11.7781    11.4992    11.0146     0.0988     0.2758     7.7006     0.0212     2.4863
  331.5000    77.6036   -59.5991    11.6963    11.4992    10.8614     0.0994     0.2749     7.6998     0.0181     2.4840
  332.0000    80.3147   -59.9101    11.6963    11.4194    10.9366     0.1040     0.2746     7.7144     0.0059     2.4712
  332.5000    78.1392   -60.2192    11.6963    11.3402    11.2475     0.1082     0.2765     7.6983    -0.0002     2.4674
  333.0000    73.8056   -60.9809    11.9434    11.8239    11.3227     0.1127     0.2837     7.6975    -0.0034     2.4636
  333.5000    69.8789   -62.1950    12.5403    12.5884    11.3219     0.1194     0.2864     7.6968     0.0011     2.4575
  334.0000    67.1589   -63.7107    13.4451    13.5903    11.4141     0.1287     0.2879     7.6960    -0.0011     2.4160
  334.5000    66.3364   -64.7740    14.7197    14.6719    12.9224     0.1453     0.2885     7.6952    -0.0193     2.3978
