~VERSION INFORMATION
 VERS.                2.0:   CWLS LOG ASCII STANDARD - VERSION 2.0
 WRAP.                 NO:   ONE LINE PER DEPTH STEP
~WELL INFORMATION
#MNEM.UNIT      DATA TYPE    INFORMATION
#----------   ------------   ------------------------------
 STRT.F           45.5000:   START DEPTH
 STOP.F          740.0000:   STOP DEPTH
 STEP.F            0.5000:   STEP LENGTH
 NULL.          -999.2500:   NO VALUE
 COMP. FENIX & SCISSON INC:   COMPANY
 WELL.       NPR 3 #22-14:   WELL
 FLD .             TEAPOT:   FIELD
 LOC .      S14 T38N R78W:   LOCATION
 CNTY.            NATRONA:   COUNTY
 STAT.            WYOMING:   STATE
 CTRY. UNITED STATES OF AMERICA:   COUNTRY
 SRVC.           BIRDWELL:   SERVICE COMPANY
 DATE.        23-DEC-1978:   LOGDATE
 API .       490251075800:   API NUMBER
~CURVE INFORMATION
#MNEM.UNIT       API CODE    CURVE DESCRIPTION
#----------   ------------   ------------------------------
 DEPT.F                  :   
 SPR .MV     05 010 01 00:   SPONTANEOUS POTENTIAL FROM RES.
 SN  .OHMM   05 040 16 00:   SHORT NORMAL 16"
 IL  .OHMM   05 120 00 00:   INDUCTION LOG
 CALD.IN     45 280 60 00:   CALIPER
 GRD .GAPI   45 310 01 00:   GAMMA RAY FROM DENSITY LOG
 RHOB.G/C3   45 350 01 00:   BULK DENSITY
 DPHI.DEC    45 890 12 00:   DENSITY POROSITY SANDSTONE
 CORR.G/C3   45 356 01 00:   DENSITY CORRECTION
~PARAMETER INFORMATION
#MNEM.UNIT          VALUE    DESCRIPTION
#----------   ------------   ------------------------------
 PD  .                 GL:   PERMANENT DATUM
 EPD .F              5212:   ELEVATION PERMANENT DATUM
 LMF .                 KB:   LOG MEASURED FROM
 DAPD.F                 4:   FEET ABOVE PERMANENT DATUM
 DMF .                 KB:   DRILLING MEASURED FROM
 EKB .F              5216:   KELLING BUSHING
 EGL .F              5212:   GROUND LEVEL
 DATE.           12-23-78:   RUN DATE
 RUN .                  1:   RUN NUMBER
 DD  .F               735:   DEPTH DRILLER
 DL  .F               740:   DEPTH LOGGER
 BLI .F               733:   BOTTOM LOG INTERVAL
 TLI .F                50:   TOP LOG INTERVAL
 CS  .IN            8.625:   CASING SIZE
 CBD .F                40:   CASING BOTTOM DRILLER
 CBL .F                40:   CASING BOTTOM LOGGER
 BS  .IN            7.875:   BIT SIZE
 BSD .F               735:   BIT SIZE AT DEPTH
 DFT .                KCL:   DRILLING FLUID TYPE
 DFD .                8.7:   DRILLING FLUID DENSITY
 DFV .                 35:   DRILLING FLUID VISCOSITY
 DFPH.               10.5:   DRILLING FLUID PH
 DFL .               11.6:   DRILLING FLUID LOSS
 MSS .           FLOWLINE:   MUD SAMPLE SOURCE
 RMS .OHMM             .5:   RESISTIVITY MUD SAMPLE
 MST .F                60:   MUD SAMPLE TEMPERATURE
 RMF .OHMM             .5:   RESISTIVITY MUD FILTRATE SAMPLE
 MFST.F                60:   MUD FILTRATE SAMPLE TEMPERATURE
 RMC .OHMM             .7:   RESISTIVITY MUD CAKE
 MCST.F                60:   MUD CAKE SAMPLE TEMPERATURE
 MFSS.           MEASURED:   MUD FILTRATE SAMPLE SOURCE
 MCSS.           MEASURED:   MUD CAKE SAMPLE SOURCE
 RMB .OHMM           .518:   RESISTIVITY MUD AT BHT
 BHT .F                58:   BOTTOM HOLE TEMPERATURE
 TCS .HRS               5:   TIME CURCULATED STOPPED
 MRT .F                58:   MAXIMUM RECORDED TEMPERATURE
 LUN .               2958:   LOGGING UNIT NUMBER
 LUL .             CASPER:   LOGGING UNIT LOCATION
 ENGI.         B. ROLLINS:   RECORDING ENGINEER
 WITN.              IMMEL:   WITNESSED BY
 CLNT.            A2DTECH:   CLIENT CODE
 ORIG.           5" PRINT:   ORIGIN OF DATA
 UWI .       490251075800:   UNIQUE WELL ID
 DICO. A2D Technologies, Inc.:   DIGITIZING COMPANY
~OTHER INFORMATION
~A   DEPT      SPR         SN         IL       CALD         GRD      RHOB       DPHI       CORR   
# ...
  653.0000   -44.3960    12.0460    13.5610     7.7900    79.5690     2.4760     0.1380     0.1420
  653.5000   -44.3910    12.0280    13.3770     7.7900    78.7630     2.4530     0.1410     0.1700
  654.0000   -44.6830    12.0100    13.2950     7.7900    76.8390     2.4490     0.1270     0.1690
  654.5000   -45.0140    11.9920    13.2560     7.7900    75.7020     2.4650     0.1120     0.1580
  655.0000   -45.1450    11.9740    13.2180     7.7900    74.7770     2.4870     0.0960     0.1060
  655.5000   -45.0560    11.9560    13.1800     7.7900    73.9350     2.5090     0.0940     0.0500
  656.0000   -44.9910    11.9380    13.1420     7.7900    74.0250     2.5320     0.0930     0.0210
  656.5000   -44.9900    11.9210    13.1040     7.7900    76.6990     2.5510     0.1000     0.0140
  657.0000   -44.5150    11.9030    13.0660     7.7900    78.3150     2.5280     0.1160     0.0080
  657.5000   -43.9500    11.8850    13.0270     7.7900    78.9400     2.5010     0.1140     0.0010
  658.0000   -43.7450    11.8670    12.9890     7.7900    78.8950     2.4910     0.1080    -0.0030
  658.5000   -43.6710    11.8490    12.9510     7.7900    78.4020     2.4990     0.1130    -0.0050
  659.0000   -43.6020    11.8310    12.9130     7.7870    77.9120     2.4940     0.1180    -0.0070
  659.5000   -43.5330    11.8140    12.8750     7.7700    77.3990     2.4870     0.1190    -0.0080
  660.0000   -43.4640    11.7960    12.8400     7.7540    79.0070     2.4840     0.1190    -0.0060
  660.5000   -43.4000    11.7780    12.8190     7.7370    82.0560     2.4820     0.1190    -0.0040
  661.0000   -44.3090    11.7600    12.8000     7.7200    84.7270     2.4820     0.1190     0.0010
  661.5000   -45.7680    11.7420    12.7810     7.7100    84.7130     2.4810     0.1190     0.0080
  662.0000   -45.8110    11.7240    12.7620     7.7100    83.1030     2.4810     0.1180     0.0140
  662.5000   -45.8150    11.6900    12.7440     7.7100    81.7500     2.4830     0.1120     0.0160
  663.0000   -45.8260    11.6150    12.7230     7.7100    83.3340     2.4980     0.1070     0.0170
  663.5000   -45.8360    11.5400    12.6420     7.7100    85.7610     2.5140     0.1010     0.0190
  664.0000   -45.8470    11.4660    12.5510     7.7100    86.6000     2.5350     0.0990     0.0200
  664.5000   -45.8580    11.3910    12.4610     7.7100    87.3810     2.5290     0.1020     0.0220
  665.0000   -45.8700    11.3170    12.3710     7.7210    88.1590     2.5180     0.1050     0.0230
  665.5000   -45.8810    11.2420    12.2810     7.7340    88.7990     2.5060     0.1060     0.0200
  666.0000   -45.8920    11.1680    12.1910     7.7470    87.7430     2.5040     0.1040     0.0140
  666.5000   -45.9030    11.0930    12.1010     7.7600    85.2320     2.5130     0.1030     0.0080
  667.0000   -45.9140    11.0190    12.0100     7.7720    83.5710     2.5120     0.1080     0.0020
  667.5000   -45.9250    10.9250    11.9290     7.7850    83.5950     2.5050     0.1150     0.0040
  668.0000   -45.9360    10.8130    11.5970     7.8160    83.3150     2.4990     0.1150     0.0070
  668.5000   -45.9470    10.7000    11.2950     7.8560    82.6740     2.4910     0.1160     0.0100
  669.0000   -45.9580    10.5880    11.0830     7.8980    82.7750     2.4880     0.1150     0.0140
  669.5000   -45.9690    10.4750    11.0830     7.9040    83.0550     2.4890     0.1130     0.0200
  670.0000   -45.9800    10.3630    11.0830     7.8970    84.7160     2.4930     0.1120     0.0270
  670.5000   -45.9910    10.2500    11.0830     7.8890    86.3590     2.4970     0.1100     0.0340
  671.0000   -46.0020    10.1380    11.0830     7.8810    86.6040     2.4990     0.1090     0.0370
  671.5000   -46.0130    10.0250    10.8940     7.8730    85.8040     2.5000     0.1090     0.0390
  672.0000   -46.0240     9.9130    10.6850     7.8650    85.1120     2.5000     0.1090     0.0410
  672.5000   -46.0350     9.8000    10.4750     7.8570    84.9490     2.4990     0.1080     0.0430
  673.0000   -46.0460     9.6760    10.2650     7.8490    84.7970     2.4990     0.1040     0.0410
  673.5000   -46.0570     9.4480     9.9970     7.8400    84.8310     2.5070     0.1010     0.0330
  674.0000   -46.0680     9.2210     9.7040     7.8320    84.8710     2.5170     0.0970     0.0260
  674.5000   -46.0790     8.9930     9.4100     7.8240    84.9110     2.5270     0.0940     0.0190
  675.0000   -46.0910     8.7660     9.1170     7.8160    84.9480     2.5290     0.0990     0.0120
  675.5000   -46.1020     8.5380     8.8160     7.8080    85.0050     2.5180     0.1040     0.0130
  676.0000   -46.1130     8.3330     8.5090     7.8000    85.9030     2.5110     0.1090     0.0140
  676.5000   -46.1240     7.7820     8.2020     7.7920    87.5360     2.5030     0.1140     0.0140
  677.0000   -46.1350     7.3110     7.8950     7.7900    89.5440     2.4950     0.1160     0.0150
  677.5000   -46.1460     6.8700     7.5880     7.7900    92.4580     2.4900     0.1190     0.0160
  678.0000   -46.1570     6.4300     7.2810     7.7900    94.0420     2.4870     0.1280     0.0190
  678.5000   -46.1670     5.9890     7.1270     7.7900    95.5390     2.4760     0.1370     0.0230
  679.0000   -46.1810     5.7680     7.4880     7.7900    97.9440     2.4610     0.1460     0.0270
  679.5000   -46.2110     6.1280     7.8890     7.7900   101.1550     2.4460     0.1540     0.0310
  680.0000   -45.9720     6.7490     8.2900     7.7900   110.8260     2.4310     0.1360     0.0350
  680.5000   -45.9410     7.7150     9.1310     7.7930   118.6170     2.4460     0.1160     0.0370
  681.0000   -45.9030     8.6800    10.1600     7.7970   118.5480     2.4790     0.0960     0.0370
  681.5000   -45.8680     9.1820    10.9170     7.8000   110.3380     2.5110     0.0810     0.0380
  682.0000   -45.8340     9.5130    11.0350     7.8040   100.6130     2.5490     0.0860     0.0480
  682.5000   -45.8250     9.6250    11.1540     7.8070    91.4820     2.5420     0.0910     0.0600
  683.0000   -44.8290     9.7380    11.2730     7.7920    89.2880     2.5310     0.0970     0.0730
  683.5000   -43.6640     9.8500    11.3920     7.7420    88.0500     2.5190     0.0930     0.0840
  684.0000   -43.5890     9.9630    11.4980     7.6910    86.7570     2.5200     0.0890     0.0840
  684.5000   -43.5870    10.0750    11.7410     7.6830    86.6760     2.5290     0.0840     0.0860
  685.0000   -43.5860    10.2730    11.9610     7.7050    88.1710     2.5380     0.0800     0.1000
  685.5000   -43.5870    10.5060    12.1810     7.7260    89.4250     2.5420     0.0810     0.1130
  686.0000   -43.5870    10.7400    12.4010     7.7480    89.4130     2.5280     0.0810     0.1190
  686.5000   -43.5870    10.9740    12.6220     7.7690    88.8740     2.5190     0.0820     0.1130
  687.0000   -43.5870    11.2070    12.8420     7.7500    88.2340     2.5260     0.0820     0.1020
  687.5000   -43.5870    11.4410    13.0620     7.7300    87.8140     2.5350     0.0790     0.0910
  688.0000   -43.5870    11.6260    13.2820     7.7100    90.3680     2.5430     0.0780     0.0960
  688.5000   -43.5870    11.6980    13.5030     7.6920    94.3330     2.5460     0.0850     0.1010
  689.0000   -43.5880    11.7690    13.5690     7.7400    95.1760     2.5410     0.0870     0.1030
  689.5000   -43.5880    11.8400    13.5690     7.7910    96.8670     2.5360     0.0710     0.0970
  690.0000   -43.5170    11.9120    13.5690     7.8160    98.5720     2.5470     0.0760     0.0900
  690.5000   -43.0180    11.9830    13.5690     7.8270    99.8390     2.5560     0.0820     0.0850
  691.0000   -42.5530    12.0550    13.5690     7.8380   100.2110     2.5520     0.0880     0.0990
  691.5000   -42.3170    12.1260    13.5690     7.8480    99.3540     2.5420     0.0920     0.1280
  692.0000   -42.0820    12.1980    13.5690     7.8690    97.2110     2.5310     0.0890     0.1580
  692.5000   -41.8410    12.2690    13.5600     7.8870    92.0230     2.5180     0.0860     0.1690
  693.0000   -41.7910    12.3410    13.5510     7.8280    89.0570     2.5230     0.0850     0.1530
