~VERSION INFORMATION
 VERS.                2.0:   CWLS LOG ASCII STANDARD - VERSION 2.0
 WRAP.                 NO:   ONE LINE PER DEPTH STEP
~WELL INFORMATION
#MNEM.UNIT      DATA TYPE    INFORMATION
#----------   ------------   ------------------------------
 STRT.F          371.0000:   START DEPTH
 STOP.F         1998.0000:   STOP DEPTH
 STEP.F            0.5000:   STEP LENGTH
 NULL.          -999.2500:   NO VALUE
 COMP.       ANADARKO PET:   COMPANY
 WELL. StX-21 NPR #3 #17-21:   WELL
 FLD .             TEAPOT:   FIELD
 LOC .      S21 T39N R78W:   LOCATION
 CNTY.            NATRONA:   COUNTY
 STAT.            WYOMING:   STATE
 CTRY. UNITED STATES OF AMERICA:   COUNTRY
 SRVC.            Unknown:   SERVICE COMPANY
 DATE.        11-OCT-1994:   LOGDATE
 API .       490252266400:   API NUMBER
~CURVE INFORMATION
#MNEM.UNIT       API CODE    CURVE DESCRIPTION
#----------   ------------   ------------------------------
 DEPT.F                  :   
 ROP .MIN/FT 91 810 01 00:   RATE OF DRILLING PENETRATION
 TGAS.UNITS  91 830 01 00:   TOTAL GAS FROM HOTWIRE
~PARAMETER INFORMATION
#MNEM.UNIT          VALUE    DESCRIPTION
#----------   ------------   ------------------------------
 DATE.         10-11-1994:   RUN DATE
 RUN .                  1:   RUN NUMBER
 DD  .F              1997:   DEPTH DRILLER
 BLI .F              2000:   BOTTOM LOG INTERVAL
 TLI .F               360:   TOP LOG INTERVAL
 CS  .IN                7:   CASING SIZE
 CBD .F               344:   CASING BOTTOM DRILLER
 ENGI.   C. TOWER R. HUSK:   RECORDING ENGINEER
 CLNT.            A2DTECH:   CLIENT CODE
 ORIG.         2.5" PRINT:   ORIGIN OF DATA
 UWI .       490252266400:   UNIQUE WELL ID
 DICO. A2D Technologies, Inc.:   DIGITIZING COMPANY
~OTHER INFORMATION
~A   DEPT        ROP       TGAS 
# ...
  735.5000     0.5172     0.0000
  736.0000     0.5177     0.0000
  736.5000     0.5182     0.0000
  737.0000     0.5188     0.0000
  737.5000     0.5193     0.0000
  738.0000     0.5199     0.0000
  738.5000     0.5204     0.0000
  739.0000     0.5210     0.0000
  739.5000     0.5215     0.0000
  740.0000     0.5036     0.0000
  740.5000     0.5042     0.0000
  741.0000     0.5048     0.0000
  741.5000     0.5053     0.0000
  742.0000     0.5060     0.0000
  742.5000     0.5065     0.0000
  743.0000     0.5071     0.0000
  743.5000     0.5076     0.0000
  744.0000     0.5081     0.0000
  744.5000     0.5087     0.0000
  745.0000     0.5092     0.0000
  745.5000     0.5098     0.0000
  746.0000     0.5103     0.0000
  746.5000     0.5108     0.0000
  747.0000     0.5114     0.0000
  747.5000     0.5119     0.0000
  748.0000     0.5125     0.0000
  748.5000     0.5131     0.0000
  749.0000     0.5136     0.0000
  749.5000     0.5143     0.0000
  750.0000     0.5148     0.0000
  750.5000     0.5153     0.0000
  751.0000     0.5159     0.0000
  751.5000     0.5164     0.0000
  752.0000     0.5169     0.0000
  752.5000     0.5175     0.0000
  753.0000     0.5364     0.0000
  753.5000     0.5369     0.0000
  754.0000     0.5375     0.0000
  754.5000     0.5381     0.0000
  755.0000     0.5386     0.0000
  755.5000     0.5392     0.0000
  756.0000     0.5397     0.0000
  756.5000     0.5403     0.0000
  757.0000     0.5409     0.0000
  757.5000     0.5414     0.0000
  758.0000     0.5420     0.0000
  758.5000     0.5425     0.0000
  759.0000     0.5431     0.0000
  759.5000     0.5436     0.0000
  760.0000     0.5441     0.0000
  760.5000     0.5447     0.0000
  761.0000     0.5452     0.0000
  761.5000     0.5458     0.0000
  762.0000     0.5463     0.0000
  762.5000     0.5469     0.0000
  763.0000     0.5474     0.0000
  763.5000     0.5480     0.0000
  764.0000     0.5412     0.0000
  764.5000     0.5307     0.0000
  765.0000     0.5313     0.0000
  765.5000     0.5319     0.0000
  766.0000     0.5324     0.0000
  766.5000     0.5329     0.0000
  767.0000     0.5335     0.0000
  767.5000     0.5340     0.0000
  768.0000     0.5346     0.0000
  768.5000     0.5351     0.0000
  769.0000     0.5357     0.0000
  769.5000     0.5362     0.0000
  770.0000     0.5429     0.0000
  770.5000     0.5557     0.0000
  771.0000     0.5562     0.0000
  771.5000     0.5568     0.0000
  772.0000     0.5575     0.0000
  772.5000     0.5580     0.0000
  773.0000     0.5585     0.0000
  773.5000     0.5591     0.0000
  774.0000     0.5596     0.0000
  774.5000     0.5601     0.0000
  775.0000     0.5423     0.0000
  775.5000     0.5428     0.0000
  776.0000     0.5434     0.0000
  776.5000     0.5439     0.0000
  777.0000     0.5445     0.0000
  777.5000     0.5450     0.0000
  778.0000     0.5456     0.0000
  778.5000     0.5461     0.0000
  779.0000     0.5467     0.0000
  779.5000     0.5473     0.0000
  780.0000     0.5479     0.0000
  780.5000     0.5484     0.0000
  781.0000     0.5490     0.0000
  781.5000     0.5495     0.0000
  782.0000     0.4949     0.0000
  782.5000     0.4770     0.0000
  783.0000     0.4776     0.0000
  783.5000     0.4781     0.0000
  784.0000     0.4787     0.0000
  784.5000     0.4792     0.0000
  785.0000     0.4798     0.0000
  785.5000     0.4803     0.0000
  786.0000     0.4809     0.0000
  786.5000     0.4814     0.0000
  787.0000     0.4821     0.0000
  787.5000     0.4826     0.0000
  788.0000     0.4832     0.0000
  788.5000     0.4653     0.0000
  789.0000     0.4658     0.0000
  789.5000     0.4664     0.0000
  790.0000     0.4669     0.0000
  790.5000     0.4491     0.0000
  791.0000     0.4680     0.0000
  791.5000     0.4686     0.0000
  792.0000     0.4691     0.0000
  792.5000     0.4697     0.0000
  793.0000     0.4702     0.0000
  793.5000     0.4708     0.0000
  794.0000     0.4713     0.0000
  794.5000     0.4720     0.0000
  795.0000     0.4725     0.0000
  795.5000     0.4730     0.0000
  796.0000     0.4920     0.0000
  796.5000     0.4925     0.0000
  797.0000     0.4930     0.0000
  797.5000     0.4936     0.0000
  798.0000     0.4941     0.0000
  798.5000     0.4971     0.0000
  799.0000     0.5136     0.0000
  799.5000     0.5142     0.0000
  800.0000     0.4228     0.0000
  800.5000     0.4229     0.0000
  801.0000     0.4230     0.0000
  801.5000     0.4415     0.0000
  802.0000     0.4391     0.0000
  802.5000     0.4416     0.0000
  803.0000     0.4417     0.0000
  803.5000     0.4234     0.0000
  804.0000     0.4223     0.0000
  804.5000     0.4031     0.0000
  805.0000     0.3869     0.0000
  805.5000     0.3870     0.0000
  806.0000     0.3871     0.0000
  806.5000     0.3872     0.0000
  807.0000     0.3873     0.0000
  807.5000     0.3797     0.0000
  808.0000     0.3691     0.0000
  808.5000     0.3876     0.0000
  809.0000     0.3877     0.0000
  809.5000     0.3878     0.0000
  810.0000     0.3879     0.0000
  810.5000     0.3880     0.0000
  811.0000     0.3881     0.0000
  811.5000     0.3882     0.0000
  812.0000     0.3882     0.0000
  812.5000     0.3883     0.0000
  813.0000     0.3884     0.0000
  813.5000     0.3894     0.0000
  814.0000     0.5553     0.0000
  814.5000     0.5725     0.0000
  815.0000     0.5542     0.0000
  815.5000     0.5543     0.1382
  816.0000     0.5360     0.3719
  816.5000     0.5361     0.3719
  817.0000     0.5362     0.3719
  817.5000     0.5363     0.0000
  818.0000     0.5180     0.0000
  818.5000     0.5181     0.0000
  819.0000     0.5182     0.3719
  819.5000     0.5183     0.3719
  820.0000     0.5184     0.3719
  820.5000     0.5185     0.3719
  821.0000     0.5002     0.0000
  821.5000     0.5003     0.0000
  822.0000     0.5004     0.0000
  822.5000     0.5005     0.0000
  823.0000     0.5006     0.0000
  823.5000     0.5006     0.0000
  824.0000     0.5007     0.0000
  824.5000     0.5008     0.0000
  825.0000     0.5193     0.0000
  825.5000     0.5194     0.0000
  826.0000     0.5195     0.1958
  826.5000     0.5196     1.1763
  827.0000     0.5381     1.4876
  827.5000     0.5458     1.4876
  828.0000     0.5652     1.4876
  828.5000     0.5751     1.4876
  829.0000     0.5752     1.4876
  829.5000     0.5753     1.1157
  830.0000     0.5754     0.3719
  830.5000     0.5755     0.3639
  831.0000     0.5756     0.0000
  831.5000     0.5757     0.0000
  832.0000     0.5757     0.0000
  832.5000     0.5758     0.0000
  833.0000     0.5759     0.0000
  833.5000     0.5760     0.0000
  834.0000     0.5761     0.0000
  834.5000     0.5762     0.0000
  835.0000     0.5763     0.0000
  835.5000     0.5764     0.0000
  836.0000     0.5765     0.0000
  836.5000     0.5766     0.0000
  837.0000     0.5767     0.0000
  837.5000     0.5767     0.0000
  838.0000     0.5585     0.0000
  838.5000     0.5585     0.0000
  839.0000     0.5586     0.0000
  839.5000     0.5403     0.0000
  840.0000     0.5405     0.0000
  840.5000     0.5222     0.0000
  841.0000     0.5223     0.0000
  841.5000     0.5223     0.0000
  842.0000     0.5224     0.0000
  842.5000     0.5225     0.0000
  843.0000     0.5042     0.0000
  843.5000     0.5043     0.0000
  844.0000     0.4860     0.0000
  844.5000     0.4677     0.0000
  845.0000     0.4648     0.0000
  845.5000     0.4495     0.0000
  846.0000     0.4496     0.0000
  846.5000     0.4497     0.0000
  847.0000     0.4498     0.0000
  847.5000     0.4499     0.0000
  848.0000     0.4500     0.0000
  848.5000     0.4572     0.0000
  849.0000     0.4686     0.0000
  849.5000     0.4687     0.0000
  850.0000     0.4688     0.0000
  850.5000     0.4689     0.0000
  851.0000     0.4689     0.0000
  851.5000     0.4690     0.0000
  852.0000     0.4691     0.0000
  852.5000     0.4692     0.0000
  853.0000     0.4693     0.0000
  853.5000     0.4694     0.0000
  854.0000     0.4695     0.0000
  854.5000     0.4696     0.0000
  855.0000     0.4881     0.0000
  855.5000     0.4921     0.0000
  856.0000     0.5066     0.0000
  856.5000     0.5067     0.0000
