~VERSION INFORMATION
 VERS.                2.0:   CWLS LOG ASCII STANDARD - VERSION 2.0
 WRAP.                 NO:   ONE LINE PER DEPTH STEP
~WELL INFORMATION
#MNEM.UNIT      DATA TYPE    INFORMATION
#----------   ------------   ------------------------------
 STRT.F           20.0000:   START DEPTH
 STOP.F          710.0000:   STOP DEPTH
 STEP.F            0.5000:   STEP LENGTH
 NULL.          -999.2500:   NO VALUE
 COMP. FENIX & SCISSON INC:   COMPANY
 WELL.     NPR-3 #42SX-34:   WELL
 FLD .             TEAPOT:   FIELD
 LOC .      S34 T39N R78W:   LOCATION
 CNTY.            NATRONA:   COUNTY
 STAT.            WYOMING:   STATE
 CTRY. UNITED STATES OF AMERICA:   COUNTRY
 SRVC.           BIRDWELL:   SERVICE COMPANY
 DATE.        30-AUG-1978:   LOGDATE
 API .       490251070800:   API NUMBER
~CURVE INFORMATION
#MNEM.UNIT       API CODE    CURVE DESCRIPTION
#----------   ------------   ------------------------------
 DEPT.F                  :   
 SPR .MV     05 010 01 00:   SPONTANEOUS POTENTIAL
 SN  .OHMM   05 040 16 00:   SHORT NORMAL 16'
 ILD .OHMM   05 120 46 00:   INDUCTION LOG DEEP RESISTIVITY
 GRD .GAPI   45 310 01 00:   GAMMA RAY FROM DENSITY LOG
 CALD.IN     45 280 60 00:   CALIPER
 RHOB.G/C3   45 350 01 00:   BULK DENSITY
 DPHI.DEC    45 890 12 00:   DENSITY POROSITY SANDSTONE
 CORR.G/C3   45 356 01 00:   DENSITY CORRECTION
~PARAMETER INFORMATION
#MNEM.UNIT          VALUE    DESCRIPTION
#----------   ------------   ------------------------------
 PD  .                 GL:   PERMANENT DATUM
 EPD .F              5079:   ELEVATION PERMANENT DATUM
 LMF .                 KB:   LOG MEASURED FROM
 DAPD.F                 4:   FEET ABOVE PERMANENT DATUM
 DMF .                 KB:   DRILLING MEASURED FROM
 EKB .F              5083:   KELLING BUSHING
 EGL .F              5079:   GROUND LEVEL
 DATE.            8-30-78:   RUN DATE
 RUN .                  1:   RUN NUMBER
 DD  .F               705:   DEPTH DRILLER
 DL  .F               708:   DEPTH LOGGER
 BLI .F               702:   BOTTOM LOG INTERVAL
 TLI .F                50:   TOP LOG INTERVAL
 CS  .IN            8.625:   CASING SIZE
 CBD .F                40:   CASING BOTTOM DRILLER
 CBL .F                40:   CASING BOTTOM LOGGER
 BS  .IN            7.875:   BIT SIZE
 BSD .F               705:   BIT SIZE AT DEPTH
 DFT .                KCL:   DRILLING FLUID TYPE
 DFD .                8.6:   DRILLING FLUID DENSITY
 DFV .                 34:   DRILLING FLUID VISCOSITY
 DFPH.                  9:   DRILLING FLUID PH
 DFL .                7.4:   DRILLING FLUID LOSS
 MSS .           FLOWLINE:   MUD SAMPLE SOURCE
 RMS .OHMM             .3:   RESISTIVITY MUD SAMPLE
 MST .F                80:   MUD SAMPLE TEMPERATURE
 RMF .OHMM             .4:   RESISTIVITY MUD FILTRATE SAMPLE
 MFST.F                80:   MUD FILTRATE SAMPLE TEMPERATURE
 RMC .OHMM             .5:   RESISTIVITY MUD CAKE
 MCST.F                82:   MUD CAKE SAMPLE TEMPERATURE
 MFSS.               MEAS:   MUD FILTRATE SAMPLE SOURCE
 MCSS.               MEAS:   MUD CAKE SAMPLE SOURCE
 RMB .OHMM            .32:   RESISTIVITY MUD AT BHT
 BHT .F                73:   BOTTOM HOLE TEMPERATURE
 TCS .HRS               3:   TIME CURCULATED STOPPED
 MRT .F                73:   MAXIMUM RECORDED TEMPERATURE
 LUN .               3006:   LOGGING UNIT NUMBER
 LUL .               CASP:   LOGGING UNIT LOCATION
 ENGI.            POINTER:   RECORDING ENGINEER
 WITN.              AMEND:   WITNESSED BY
 CLNT.            A2DTECH:   CLIENT CODE
 ORIG.           5" PRINT:   ORIGIN OF DATA
 UWI .       490251070800:   UNIQUE WELL ID
 DICO. A2D Technologies, Inc.:   DIGITIZING COMPANY
~OTHER INFORMATION
~A   DEPT      SPR         SN        ILD         GRD      CALD       RHOB       DPHI       CORR   
# ...
  425.0000   -48.1947     8.6902     7.4167    99.2683     8.8609     2.5545     0.0929     0.0904
  425.5000   -48.2015     8.7953     7.6952   102.3604     8.8719     2.5351     0.1246     0.0521
  426.0000   -48.1991     8.9016     7.9831   103.6943     8.8828     2.4845     0.1420     0.0299
  426.5000   -48.1992     9.0093     8.1851   103.6639     8.8938     2.4513     0.1420     0.0324
  427.0000   -48.2000     9.1182     8.3397   100.6351     8.9055     2.4515     0.1392     0.0365
  427.5000   -48.2000     9.2291     8.3357    97.6152     8.9123     2.4530     0.1339     0.0403
  428.0000   -48.2000     9.3120     8.3399    94.7660     8.9118     2.4605     0.1286     0.0420
  428.5000   -48.2000     9.3118     8.3396    92.1345     8.9092     2.4714     0.1236     0.0419
  429.0000   -48.2000     9.3118     8.3366    95.1109     8.9029     2.4827     0.1258     0.0419
  429.5000   -48.2000     9.3118     8.3371    97.9011     8.8968     2.4820     0.1290     0.0419
  430.0000   -48.2000     9.3118     8.3373   100.9854     8.8907     2.4700     0.1324     0.0440
  430.5000   -48.1999     9.3118     8.3374   104.1480     8.8844     2.4613     0.1304     0.0500
  431.0000   -48.1999     9.3118     8.3374   105.9351     8.8785     2.4644     0.1283     0.0560
  431.5000   -48.1999     9.3118     8.3374   105.9884     8.8719     2.4668     0.1249     0.0582
  432.0000   -48.1996     9.3117     8.3375   106.2260     8.8715     2.4722     0.1208     0.0582
  432.5000   -48.2000     9.3119     8.3376   106.0770     8.8714     2.4781     0.1199     0.0557
  433.0000   -48.2000     9.3119     8.3375   105.1048     8.8715     2.4827     0.1210     0.0489
  433.5000   -48.1980     9.3118     8.3379   104.2056     8.8715     2.4810     0.1220     0.0423
  434.0000   -48.2197     9.3130     8.3380   103.3141     8.8715     2.4797     0.1230     0.0421
  434.5000   -48.2650     9.3122     8.3373   102.3562     8.8715     2.4779     0.1241     0.0419
  435.0000   -48.3083     9.3133     8.3374   102.6071     8.8715     2.4764     0.1244     0.0420
  435.5000   -48.3513     9.3138     8.2780   103.4210     8.8715     2.4752     0.1246     0.0420
  436.0000   -48.3949     9.2534     8.1932   104.1393     8.8715     2.4767     0.1248     0.0420
  436.5000   -48.4383     9.1429     8.1092   105.1815     8.8715     2.4783     0.1249     0.0420
  437.0000   -48.4816     9.0334     8.0261   106.4399     8.8715     2.4786     0.1251     0.0420
  437.5000   -48.5250     8.8329     7.9438   107.4064     8.8715     2.4734     0.1311     0.0427
  438.0000   -48.5683     8.5398     7.7960   110.6649     8.8715     2.4613     0.1399     0.0446
  438.5000   -48.6117     8.2563     7.5199   116.2885     8.8715     2.4497     0.1486     0.0482
  439.0000   -48.6550     7.8892     7.2535   120.3427     8.8715     2.4314     0.1527     0.0551
  439.5000   -48.6987     7.9059     6.9967   123.3247     8.8715     2.4368     0.1382     0.0547
  440.0000   -48.7421     7.9695     6.6839   117.9072     8.8715     2.4520     0.1289     0.0453
  440.5000   -48.7871     8.0336     6.8082   112.6026     8.8715     2.4670     0.1306     0.0364
  441.0000   -48.8295     8.0982     6.8400   106.7438     8.8715     2.4654     0.1340     0.0339
  441.5000   -48.8721     8.1852     6.8950   104.3641     8.8715     2.4568     0.1374     0.0339
  442.0000   -48.9237     8.1574     6.9347   104.9878     8.8715     2.4528     0.1408     0.0340
  442.5000   -48.9541     8.0599     6.9347   105.4034     8.8715     2.4508     0.1465     0.0338
  443.0000   -48.9757     7.9636     6.9347   105.8500     8.8715     2.4425     0.1535     0.0341
  443.5000   -48.5195     7.8685     6.7725   108.3170     8.8715     2.4279     0.1606     0.0345
  444.0000   -48.0808     7.7745     6.6116   110.5899     8.8715     2.4132     0.1671     0.0469
  444.5000   -47.6175     7.6816     6.4546   113.0934     8.8715     2.4047     0.1632     0.0663
  445.0000   -47.1542     7.5898     6.3246   113.6099     8.8715     2.4180     0.1537     0.0746
  445.5000   -46.7189     7.4650     6.3246   109.8861     8.8715     2.4462     0.1388     0.0739
  446.0000   -46.2290     7.6340     6.5619   105.6549     8.8716     2.4622     0.1279     0.0753
  446.5000   -46.2051     7.9142     6.8137   101.4083     8.8714     2.4694     0.1264     0.0801
  447.0000   -46.1918     8.2048     7.1207    98.0764     8.8712     2.4740     0.1249     0.0845
  447.5000   -46.2027     8.4656     7.4415    97.6635     8.8647     2.4789     0.1234     0.0889
  448.0000   -46.2001     8.7014     7.7768   101.3803     8.8580     2.4773     0.1220     0.0938
  448.5000   -46.2000     8.9749     8.0358   105.3873     8.8511     2.4659     0.1347     0.0979
  449.0000   -46.2052     8.9749     8.0358   104.9640     8.8443     2.4676     0.1204     0.1011
  449.5000   -46.1943     8.9749     8.0358   103.6303     8.8374     2.4779     0.1222     0.0900
  450.0000   -46.1891     8.8257     7.7015   100.7717     8.8306     2.4773     0.1273     0.0802
  450.5000   -45.5734     8.5719     7.3666    97.9616     8.8237     2.4692     0.1324     0.0692
  451.0000   -44.8009     8.3254     7.0479    96.7103     8.8169     2.4619     0.1376     0.0678
  451.5000   -44.0068     8.0861     6.7430    99.1127     8.8101     2.4547     0.1427     0.0716
  452.0000   -43.8112     7.8536     6.4513   100.3934     8.8032     2.4467     0.1479     0.0785
  452.5000   -43.8544     7.6277     6.2048   100.2381     8.7964     2.4404     0.1539     0.0917
  453.0000   -43.8920     7.3288     6.2120    98.8784     8.7896     2.4345     0.1420     0.0973
  453.5000   -43.9214     7.5402     6.2044    97.2237     8.7828     2.4595     0.1277     0.0936
  454.0000   -43.9566     7.8888     6.2046    95.5074     8.7761     2.4847     0.1133     0.0907
  454.5000   -43.9908     8.2536     6.4445    93.8352     8.7691     2.5017     0.1082     0.0914
  455.0000   -44.0248     8.6352     6.8212    92.1852     8.7624     2.5040     0.1059     0.0930
  455.5000   -44.0591     9.0344     7.2529    90.4928     8.7560     2.5077     0.1035     0.0948
  456.0000   -44.0918     9.4522     7.7122    90.7934     8.7387     2.5108     0.1015     0.0966
  456.5000   -44.1271     9.8892     8.2007    91.8523     8.7032     2.5126     0.1003     0.0980
  457.0000   -44.1587    10.2215     8.7200    93.4398     8.6684     2.5184     0.0997     0.0987
  457.5000   -44.1916    10.2606     8.9800    95.5809     8.6333     2.5258     0.0999     0.0994
  458.0000   -44.2607    10.2999     8.9716    97.7483     8.5978     2.5287     0.1001     0.1001
  458.5000   -44.4230    10.3398     9.0057    99.9963     8.5633     2.5238     0.1004     0.1005
  459.0000   -44.5775    10.3792     9.0283   100.6283     8.5278     2.5140     0.1032     0.1016
  459.5000   -44.7329    10.4188     9.0510    96.8921     8.4904     2.5070     0.1061     0.1027
  460.0000   -44.8899    10.4586     9.0738    94.2007     8.4679     2.5030     0.1090     0.1179
  460.5000   -45.0457    10.4985     9.0966    92.8216     8.4764     2.4999     0.1116     0.1329
  461.0000   -45.2018    10.5387     9.1195    91.0659     8.4826     2.4988     0.1107     0.1477
  461.5000   -45.3580    10.5932     9.1418    90.8107     8.4889     2.5004     0.1079     0.1649
  462.0000   -45.5143    10.5868     9.1558    91.7537     8.4958     2.5071     0.1052     0.1696
  462.5000   -45.6703    10.5596     9.1773   102.3704     8.5024     2.5138     0.1025     0.1751
  463.0000   -45.8274    10.5331     9.2000   101.0260     8.5099     2.5182     0.1002     0.1796
  463.5000   -45.9829    10.5070     9.2227    98.0863     8.5285     2.5201     0.0983     0.1845
  464.0000   -46.1383    10.4805     9.2451    94.4514     8.5506     2.5223     0.0965     0.1902
  464.5000   -46.2998    10.4541     9.2657    93.0128     8.5726     2.5243     0.0947     0.2005
  465.0000   -46.4480    10.4286     9.2849    94.6252     8.5945     2.5266     0.0924     0.2135
