~VERSION INFORMATION
 VERS.                2.0:   CWLS LOG ASCII STANDARD - VERSION 2.0
 WRAP.                 NO:   ONE LINE PER DEPTH STEP
~WELL INFORMATION
#MNEM.UNIT      DATA TYPE    INFORMATION
#----------   ------------   ------------------------------
 STRT.F          436.0000:   START DEPTH
 STOP.F         2160.0000:   STOP DEPTH
 STEP.F            0.5000:   STEP LENGTH
 NULL.          -999.2500:   NO VALUE
 COMP.   FLUOR DANIEL INC:   COMPANY
 WELL. NAVAL PETROLEUM RESERVE 3 X-29 #31-29:   WELL
 FLD .            WILDCAT:   FIELD
 LOC .      S29 T39N R78W:   LOCATION
 CNTY.            NATRONA:   COUNTY
 STAT.            WYOMING:   STATE
 CTRY. UNITED STATES OF AMERICA:   COUNTRY
 SRVC.            Unknown:   SERVICE COMPANY
 DATE.        25-JUN-1995:   LOGDATE
 API .       490252272300:   API NUMBER
~CURVE INFORMATION
#MNEM.UNIT       API CODE    CURVE DESCRIPTION
#----------   ------------   ------------------------------
 DEPT.F                  :   
 ROP .FT/HR  91 810 01 00:   RAT OF DRILLING PENETRATION
 TGAS.TC/CC  91 830 01 00:   TOTAL GAS UNIT
~PARAMETER INFORMATION
#MNEM.UNIT          VALUE    DESCRIPTION
#----------   ------------   ------------------------------
 EPD .F              5058:   ELEVATION PERMANENT DATUM
 EKB .F              5068:   KELLING BUSHING
 EGL .F              5058:   GROUND LEVEL
 DATE.        25-JUN-1995:   RUN DATE
 RUN .                  1:   RUN NUMBER
 ENGI.     C.TOWER/R.HUSK:   RECORDING ENGINEER
 CLNT.            A2DTECH:   CLIENT CODE
 ORIG.           5" PRINT:   ORIGIN OF DATA
 UWI .       490252272300:   UNIQUE WELL ID
 DICO. A2D Technologies, Inc.:   DIGITIZING COMPANY
~OTHER INFORMATION
~A   DEPT        ROP     TGAS   
# ...
 1165.0000     0.6382     1.0754
 1165.5000     0.6385     0.8849
 1166.0000     0.6481     0.8830
 1166.5000     0.6390     0.8811
 1167.0000     0.6393     0.8792
 1167.5000     0.6301     0.8770
 1168.0000     0.6210     0.8752
 1168.5000     0.6025     0.8736
 1169.0000     0.6028     0.8717
 1169.5000     0.6031     0.8696
 1170.0000     0.6034     0.8679
 1170.5000     0.6037     0.6254
 1171.0000     0.6133     0.4868
 1171.5000     0.6231     0.4849
 1172.0000     0.6328     0.6717
 1172.5000     0.6424     0.8586
 1173.0000     0.6521     0.8751
 1173.5000     0.6429     1.0436
 1174.0000     0.6432     1.1113
 1174.5000     0.6435     1.2286
 1175.0000     0.6438     1.2264
 1175.5000     0.6347     1.2244
 1176.0000     0.6255     1.0339
 1176.5000     0.6259     1.0321
 1177.0000     0.6168     0.8415
 1177.5000     0.6076     0.8396
 1178.0000     0.6079     0.8377
 1178.5000     0.6270     0.8355
 1179.0000     0.6461     0.8337
 1179.5000     0.6463     0.8318
 1180.0000     0.5877     0.8300
 1180.5000     0.5717     0.8282
 1181.0000     0.5720     0.8263
 1181.5000     0.5723     0.8245
 1182.0000     0.5726     0.8226
 1182.5000     0.5729     0.8726
 1183.0000     0.5731     1.0076
 1183.5000     0.5734     1.0053
 1184.0000     0.5737     1.0038
 1184.5000     0.5740     1.0019
 1185.0000     0.5743     0.9998
 1185.5000     0.5746     0.9979
 1186.0000     0.5748     0.9962
 1186.5000     0.5845     0.9943
 1187.0000     0.5848     0.8037
 1187.5000     0.5851     0.8019
 1188.0000     0.5853     0.8000
 1188.5000     0.5762     0.7981
 1189.0000     0.5781     0.7962
 1189.5000     0.5862     0.7941
 1190.0000     0.5865     0.9809
 1190.5000     0.5868     0.9792
 1191.0000     0.5871     0.9772
 1191.5000     0.5779     0.7867
 1192.0000     0.5782     0.7849
 1192.5000     0.5785     0.7830
 1193.0000     0.5694     0.7811
 1193.5000     0.5791     0.7792
 1194.0000     0.5794     0.7770
 1194.5000     0.5796     0.7755
 1195.0000     0.5799     0.7736
 1195.5000     0.5802     0.7715
 1196.0000     0.5805     0.7698
 1196.5000     0.5807     0.7679
 1197.0000     0.5810     0.7659
 1197.5000     0.5813     0.7641
 1198.0000     0.5816     0.9509
 1198.5000     0.5819     0.9591
 1199.0000     0.6010     1.1359
 1199.5000     0.6952     1.1336
 1200.0000     0.7613     1.1150
 1200.5000     0.7143     0.9039
 1201.0000     0.7033     0.6929
 1201.5000     0.6955     0.4818
 1202.0000     0.6767     0.2707
 1202.5000     0.6767     0.0596
 1203.0000     0.6767     0.1887
 1203.5000     0.6861     0.5660
 1204.0000     0.6861     0.7823
 1204.5000     0.6861     0.9434
 1205.0000     0.6888     0.7547
 1205.5000     0.6955     0.7547
 1206.0000     0.7003     0.7547
 1206.5000     0.7049     0.7547
 1207.0000     0.6955     0.7547
 1207.5000     0.7049     0.7547
 1208.0000     0.7143     0.7547
 1208.5000     0.7143     0.7547
 1209.0000     0.7143     0.7547
 1209.5000     0.7018     0.5660
 1210.0000     0.6955     0.5660
 1210.5000     0.6955     0.5660
 1211.0000     0.6955     0.5660
 1211.5000     0.6955     0.5660
 1212.0000     0.6962     0.5660
 1212.5000     0.7049     0.5660
 1213.0000     0.7049     0.5660
 1213.5000     0.7143     0.5660
 1214.0000     0.7143     0.5660
 1214.5000     0.7237     0.3774
 1215.0000     0.7237     0.1887
 1215.5000     0.7237     0.1887
 1216.0000     0.5545     0.1887
 1216.5000     0.5075     0.1887
 1217.0000     0.5075     0.1887
 1217.5000     0.5075     0.1887
 1218.0000     0.5075     0.3774
 1218.5000     0.5075     0.7727
 1219.0000     0.5075     0.9434
 1219.5000     0.5075     0.9434
 1220.0000     0.5169     0.7547
 1220.5000     0.5263     0.7547
 1221.0000     0.5263     0.7547
 1221.5000     0.5357     0.5660
 1222.0000     0.5357     0.7547
 1222.5000     0.5367     0.7547
 1223.0000     0.5263     0.7547
 1223.5000     0.4974     0.7547
 1224.0000     0.4699     0.7748
 1224.5000     0.4699     0.9434
 1225.0000     0.4605     0.9434
 1225.5000     0.4605     0.9434
 1226.0000     0.4605     0.9434
 1226.5000     0.4699     0.9434
 1227.0000     0.4699     0.9434
 1227.5000     0.4699     0.9434
 1228.0000     0.4699     0.9434
 1228.5000     0.4699     0.9434
 1229.0000     0.4793     1.3208
 1229.5000     0.4887     1.3208
 1230.0000     0.4981     1.3208
 1230.5000     0.5075     1.3208
 1231.0000     0.5075     1.3208
 1231.5000     0.5169     1.3208
 1232.0000     0.5263     0.7547
 1232.5000     0.5169     0.5660
 1233.0000     0.5075     0.5579
 1233.5000     0.5075     0.3774
 1234.0000     0.5075     0.5660
 1234.5000     0.4981     0.5660
 1235.0000     0.4881     0.5660
 1235.5000     0.4793     0.5660
 1236.0000     0.4793     0.5660
 1236.5000     0.4793     0.3774
 1237.0000     0.4793     0.1887
 1237.5000     0.4887     0.1887
 1238.0000     0.4887     0.3774
 1238.5000     0.4887     0.3774
 1239.0000     0.4887     0.3774
 1239.5000     0.4887     0.3774
 1240.0000     0.4887     0.3774
 1240.5000     0.4793     0.3774
 1241.0000     0.4793     0.3774
 1241.5000     0.4887     0.3774
 1242.0000     0.4793     0.1887
 1242.5000     0.9774     0.1887
 1243.0000     0.9586     0.1887
 1243.5000     1.0056     0.1887
 1244.0000     1.0714     0.3774
 1244.5000     1.0620     0.4642
 1245.0000     1.0620     0.5660
 1245.5000     1.0620     0.7547
 1246.0000     0.7895     0.9434
 1246.5000     0.7900     0.9434
 1247.0000     0.7895     0.9434
 1247.5000     0.7613     0.9434
 1248.0000     0.7519     0.9434
 1248.5000     0.7519     0.9434
 1249.0000     0.7519     0.9434
 1249.5000     0.7519     0.9434
 1250.0000     0.7527     0.9434
 1250.5000     0.7574     0.9434
 1251.0000     0.7622     0.9434
 1251.5000     0.7669     0.7547
 1252.0000     0.7699     0.7547
 1252.5000     0.7697     0.7547
 1253.0000     0.7507     0.7547
 1253.5000     0.7506     0.9434
 1254.0000     0.7504     0.9434
 1254.5000     0.7502     0.9434
 1255.0000     0.7500     0.9434
 1255.5000     0.7592     0.9434
 1256.0000     0.7684     0.9434
 1256.5000     0.7682     0.9434
 1257.0000     0.7680     0.9434
 1257.5000     0.7678     0.9434
 1258.0000     0.7583     0.9434
 1258.5000     0.7487     0.9434
 1259.0000     0.7776     0.7547
 1259.5000     0.8141     0.7547
 1260.0000     0.8045     0.7547
 1260.5000     0.7949     0.9434
 1261.0000     0.7759     0.9434
 1261.5000     0.7757     0.9434
 1262.0000     0.7662     0.9434
 1262.5000     0.7660     0.7547
 1263.0000     0.7658     0.7547
 1263.5000     0.7656     0.7547
 1264.0000     0.7654     0.7547
 1264.5000     0.7746     0.7547
 1265.0000     0.7744     0.7547
 1265.5000     0.7837     0.7547
 1266.0000     0.7834     0.7547
 1266.5000     0.7927     0.9434
 1267.0000     0.7925     0.9434
 1267.5000     0.8017     0.9434
 1268.0000     0.8015     0.9434
 1268.5000     0.7919     0.9434
 1269.0000     0.7823     0.9434
 1269.5000     0.7727     0.9434
 1270.0000     0.7725     0.7547
 1270.5000     0.7724     0.7547
 1271.0000     0.7816     0.5660
 1271.5000     0.7814     0.5660
 1272.0000     0.7812     0.5660
 1272.5000     0.7810     0.5660
 1273.0000     0.7808     0.5660
 1273.5000     0.7806     0.5660
 1274.0000     0.7899     0.5660
 1274.5000     0.7896     0.5660
 1275.0000     0.7989     0.5660
 1275.5000     0.8081     0.5660
 1276.0000     0.8079     0.7547
 1276.5000     0.8171     0.7547
 1277.0000     0.8075     0.9434
 1277.5000     0.7039     0.9434
 1278.0000     0.7037     0.9434
 1278.5000     0.7036     0.9434
 1279.0000     0.7034     0.9434
 1279.5000     0.7032     0.9434
 1280.0000     0.7030     0.9434
 1280.5000     0.7028     0.9434
 1281.0000     0.7026     0.9434
 1281.5000     0.7024     0.9434
 1282.0000     0.7022     1.0384
 1282.5000     0.7115     1.3208
 1283.0000     0.7113     1.5094
 1283.5000     0.7017     1.3208
 1284.0000     0.6827     1.3208
 1284.5000     0.6825     1.3208
 1285.0000     0.7027     1.3208
 1285.5000     0.7385     1.3208
 1286.0000     0.7572     1.3208
