~VERSION INFORMATION
 VERS.                2.0:   CWLS LOG ASCII STANDARD - VERSION 2.0
 WRAP.                 NO:   ONE LINE PER DEPTH STEP
~WELL INFORMATION
#MNEM.UNIT      DATA TYPE    INFORMATION
#----------   ------------   ------------------------------
 STRT.F          484.0000:   START DEPTH
 STOP.F         2291.5000:   STOP DEPTH
 STEP.F            0.5000:   STEP LENGTH
 NULL.          -999.2500:   NO VALUE
 COMP. FENIX & SCISSON INC:   COMPANY
 WELL.     45 SHX 3 #45-3:   WELL
 FLD .             TEAPOT:   FIELD
 LOC .       S3 T38N R78W:   LOCATION
 CNTY.            NATRONA:   COUNTY
 STAT.            WYOMING:   STATE
 CTRY. UNITED STATES OF AMERICA:   COUNTRY
 SRVC.              Welex:   SERVICE COMPANY
 DATE.        20-APR-1980:   LOGDATE
 API .       490251080400:   API NUMBER
~CURVE INFORMATION
#MNEM.UNIT       API CODE    CURVE DESCRIPTION
#----------   ------------   ------------------------------
 DEPT.F                  :   
 CALD.IN     45 280 60 00:   CALIPER
 GRD .GAPI   45 310 01 00:   GAMMA RAY FROM DENSITY LOG
 CORR.G/C3   45 356 01 00:   DENSITY CORRECTION
 RHOB.G/C3   45 350 01 00:   BULK DENSITY
 DPHI.DEC    45 890 12 00:   DENSITY POROSITY SANDSTONE
~PARAMETER INFORMATION
#MNEM.UNIT          VALUE    DESCRIPTION
#----------   ------------   ------------------------------
 PD  .                 GL:   PERMANENT DATUM
 EPD .F              5186:   ELEVATION PERMANENT DATUM
 LMF .                 KB:   LOG MEASURED FROM
 DAPD.F                10:   FEET ABOVE PERMANENT DATUM
 DMF .                 KB:   DRILLING MEASURED FROM
 EKB .F              5196:   KELLING BUSHING
 EGL .F              5186:   GROUND LEVEL
 DATE.            4-20-80:   RUN DATE
 RUN .                  1:   RUN NUMBER
 DD  .F              2341:   DEPTH DRILLER
 DL  .F              2293:   DEPTH LOGGER
 BLI .F              2291:   BOTTOM LOG INTERVAL
 TLI .F               500:   TOP LOG INTERVAL
 CS  .IN            9.625:   CASING SIZE
 BS  .IN             8.75:   BIT SIZE
 BSD .F              2341:   BIT SIZE AT DEPTH
 DFT .                OIL:   DRILLING FLUID TYPE
 TCS .HRS               2:   TIME CURCULATED STOPPED
 MRT .F               218:   MAXIMUM RECORDED TEMPERATURE
 ENGI.            TOTHILL:   RECORDING ENGINEER
 WITN.           DINSMORE:   WITNESSED BY
 CLNT.            A2DTECH:   CLIENT CODE
 ORIG.           5" PRINT:   ORIGIN OF DATA
 UWI .       490251080400:   UNIQUE WELL ID
 DICO. A2D Technologies, Inc.:   DIGITIZING COMPANY
~OTHER INFORMATION
~A   DEPT     CALD         GRD      CORR       RHOB       DPHI   
# ...
 2131.0000     8.7530    64.4456    -0.0173     2.4764     0.0971
 2131.5000     8.7525    63.8978    -0.0089     2.4879     0.0917
 2132.0000     8.7521    63.8977    -0.0013     2.4995     0.0848
 2132.5000     8.7520    63.9912    -0.0027     2.5034     0.0826
 2133.0000     8.7511    64.0812    -0.0044     2.5004     0.0853
 2133.5000     8.7473    63.8105    -0.0170     2.4885     0.0959
 2134.0000     8.7437    63.1571    -0.0325     2.4744     0.1054
 2134.5000     8.7401    62.4812    -0.0409     2.4667     0.1016
 2135.0000     8.7364    62.3234    -0.0278     2.4803     0.0949
 2135.5000     8.7324    62.3960    -0.0136     2.4914     0.0904
 2136.0000     8.7435    63.0031    -0.0158     2.4906     0.0897
 2136.5000     8.7595    63.7084    -0.0179     2.4871     0.0919
 2137.0000     8.7757    64.9262    -0.0149     2.4835     0.0941
 2137.5000     8.7915    66.1581    -0.0120     2.4803     0.0946
 2138.0000     8.7842    67.3947    -0.0092     2.4815     0.0928
 2138.5000     8.7754    68.6187    -0.0110     2.4788     0.0956
 2139.0000     8.7667    68.8631    -0.0135     2.4744     0.0998
 2139.5000     8.7580    69.0538    -0.0156     2.4783     0.0982
 2140.0000     8.7493    69.2919    -0.0164     2.4758     0.0958
 2140.5000     8.7405    70.6074    -0.0170     2.4774     0.0962
 2141.0000     8.7322    71.9882    -0.0171     2.4784     0.0953
 2141.5000     8.7360    73.3655    -0.0171     2.4769     0.0968
 2142.0000     8.7403    74.7417    -0.0171     2.4766     0.0989
 2142.5000     8.7445    76.1159    -0.0171     2.4725     0.1011
 2143.0000     8.7487    77.5082    -0.0171     2.4683     0.1026
 2143.5000     8.7521    78.2408    -0.0137     2.4667     0.1055
 2144.0000     8.7520    78.8035    -0.0087     2.4632     0.1084
 2144.5000     8.7520    79.2051    -0.0053     2.4590     0.1099
 2145.0000     8.7520    79.0305    -0.0129     2.4553     0.1102
 2145.5000     8.7520    78.8753    -0.0206     2.4555     0.1115
 2146.0000     8.7520    79.8384    -0.0281     2.4577     0.1140
 2146.5000     8.7520    81.8669    -0.0307     2.4469     0.1165
 2147.0000     8.7520    83.8338    -0.0231     2.4415     0.1183
 2147.5000     8.7520    85.7856    -0.0154     2.4443     0.1178
 2148.0000     8.7520    87.7376    -0.0080     2.4451     0.1175
 2148.5000     8.7520    89.6926    -0.0053     2.4409     0.1184
 2149.0000     8.7521    91.6453    -0.0037     2.4397     0.1195
 2149.5000     8.7499    93.3884     0.0112     2.4483     0.1106
 2150.0000     8.7470    94.0357     0.0271     2.4655     0.1005
 2150.5000     8.7440    94.0217     0.0433     2.4822     0.0905
 2151.0000     8.7410    93.9046     0.0623     2.4989     0.0804
 2151.5000     8.7380    92.9362     0.0714     2.5160     0.0724
 2152.0000     8.7350    91.9484     0.0680     2.5214     0.0772
 2152.5000     8.7320    91.7911     0.0399     2.5013     0.0838
 2153.0000     8.7336    91.6088     0.0258     2.4894     0.0905
 2153.5000     8.7356    91.7554     0.0156     2.4778     0.0972
 2154.0000     8.7376    91.9256     0.0104     2.4708     0.1014
 2154.5000     8.7395    92.0951     0.0145     2.4755     0.0989
 2155.0000     8.7415    92.2632     0.0160     2.4753     0.0995
 2155.5000     8.7434    92.4341     0.0039     2.4677     0.1052
 2156.0000     8.7454    92.3853    -0.0106     2.4529     0.1109
 2156.5000     8.7473    92.1805    -0.0077     2.4500     0.1143
 2157.0000     8.7493    91.9728    -0.0010     2.4570     0.1080
 2157.5000     8.7512    91.7644     0.0017     2.4586     0.1088
 2158.0000     8.7533    91.5949    -0.0052     2.4521     0.1117
 2158.5000     8.7554    91.7260    -0.0106     2.4465     0.1147
 2159.0000     8.7575    92.4377    -0.0041     2.4529     0.1123
 2159.5000     8.7596    93.1542     0.0004     2.4588     0.1075
 2160.0000     8.7617    92.8588    -0.0032     2.4544     0.1129
 2160.5000     8.7638    91.9909    -0.0071     2.4498     0.1147
 2161.0000     8.7659    91.1090    -0.0009     2.4542     0.1086
 2161.5000     8.7681    90.2255     0.0064     2.4650     0.1034
 2162.0000     8.7702    90.2678    -0.0020     2.4657     0.1038
 2162.5000     8.7721    90.6783     0.0019     2.4668     0.1027
 2163.0000     8.7707    91.0881     0.0071     2.4733     0.1004
 2163.5000     8.7692    91.4975     0.0087     2.4755     0.1004
 2164.0000     8.7678    91.9032     0.0061     2.4732     0.1011
 2164.5000     8.7663    92.2207     0.0035     2.4708     0.1018
 2165.0000     8.7649    92.4525     0.0009     2.4690     0.1029
 2165.5000     8.7634    92.6874    -0.0018     2.4682     0.1035
 2166.0000     8.7620    92.9217    -0.0046     2.4683     0.1034
 2166.5000     8.7605    93.1590     0.0012     2.4727     0.0992
 2167.0000     8.7591    93.3938     0.0096     2.4839     0.0938
 2167.5000     8.7576    92.9548     0.0019     2.4744     0.0997
 2168.0000     8.7562    92.4931    -0.0098     2.4625     0.1075
 2168.5000     8.7547    92.5036    -0.0181     2.4581     0.1093
 2169.0000     8.7533    92.5047    -0.0205     2.4585     0.1083
 2169.5000     8.7520    92.5074    -0.0229     2.4592     0.1093
 2170.0000     8.7520    92.0747    -0.0254     2.4564     0.1127
 2170.5000     8.7520    91.2773    -0.0278     2.4533     0.1103
 2171.0000     8.7520    90.4766    -0.0302     2.4521     0.1124
 2171.5000     8.7520    89.6479    -0.0305     2.4525     0.1135
 2172.0000     8.7520    89.7760    -0.0206     2.4602     0.1032
 2172.5000     8.7520    90.1517    -0.0099     2.4776     0.0966
 2173.0000     8.7520    90.5344    -0.0056     2.4807     0.0949
 2173.5000     8.7520    90.9214    -0.0012     2.4880     0.0920
 2174.0000     8.7520    91.0665     0.0021     2.4963     0.0856
 2174.5000     8.7520    91.1567     0.0070     2.5045     0.0827
 2175.0000     8.7520    91.2403     0.0119     2.5085     0.0784
 2175.5000     8.7520    91.0503     0.0096     2.5038     0.0815
 2176.0000     8.7520    90.4188     0.0029     2.4969     0.0852
 2176.5000     8.7520    89.7920    -0.0015     2.4976     0.0853
 2177.0000     8.7520    89.1985     0.0078     2.4986     0.0865
 2177.5000     8.7520    89.1816    -0.0025     2.4830     0.0936
 2178.0000     8.7520    89.2624    -0.0126     2.4634     0.1012
 2178.5000     8.7520    89.6531    -0.0070     2.4705     0.1033
 2179.0000     8.7520    90.0340     0.0040     2.4766     0.0996
 2179.5000     8.7520    90.4122     0.0111     2.4801     0.0960
 2180.0000     8.7520    90.7008     0.0093     2.4814     0.0946
 2180.5000     8.7521    90.6966    -0.0010     2.4713     0.1017
 2181.0000     8.7573    90.6932    -0.0017     2.4660     0.1033
 2181.5000     8.7805    90.5461     0.0031     2.4743     0.0998
 2182.0000     8.7875    89.8965     0.0099     2.4844     0.0964
 2182.5000     8.7773    89.2695     0.0109     2.4918     0.0893
 2183.0000     8.7672    88.6560     0.0076     2.4887     0.0921
 2183.5000     8.7570    88.3332     0.0034     2.4969     0.0859
 2184.0000     8.7469    88.0531     0.0084     2.5020     0.0876
 2184.5000     8.7367    87.6179     0.0050     2.4870     0.0909
 2185.0000     8.7266    87.1113    -0.0040     2.4756     0.0941
 2185.5000     8.7165    86.6055    -0.0045     2.4728     0.0962
 2186.0000     8.7064    86.1468    -0.0026     2.4755     0.0980
 2186.5000     8.6961    86.0993    -0.0020     2.4789     0.0958
 2187.0000     8.6971    86.0425     0.0044     2.4856     0.0905
 2187.5000     8.7072    85.9846    -0.0010     2.4797     0.0950
 2188.0000     8.7173    85.9278    -0.0007     2.4829     0.0970
 2188.5000     8.7275    85.8591     0.0037     2.4854     0.0929
 2189.0000     8.7277    85.4580     0.0083     2.4878     0.0892
 2189.5000     8.7205    85.0317     0.0126     2.4950     0.0892
 2190.0000     8.7128    84.6056     0.0102     2.4840     0.0929
 2190.5000     8.7242    84.1786    -0.0047     2.4716     0.1012
 2191.0000     8.7402    83.7695    -0.0201     2.4588     0.1095
 2191.5000     8.7564    83.5990    -0.0185     2.4536     0.1105
