~VERSION INFORMATION
 VERS.                2.0:   CWLS LOG ASCII STANDARD - VERSION 2.0
 WRAP.                 NO:   ONE LINE PER DEPTH STEP
~WELL INFORMATION
#MNEM.UNIT      DATA TYPE    INFORMATION
#----------   ------------   ------------------------------
 STRT.F            0.0000:   START DEPTH
 STOP.F          663.0000:   STOP DEPTH
 STEP.F            0.1000:   STEP LENGTH
 NULL.          -999.2500:   NO VALUE
 COMP.   FLUOR DANIEL INC:   COMPANY
 WELL.     62-6 X 3 #62-3:   WELL
 FLD .             TEAPOT:   FIELD
 LOC .       S3 T38N R78W:   LOCATION
 CNTY.            NATRONA:   COUNTY
 STAT.            WYOMING:   STATE
 CTRY. UNITED STATES OF AMERICA:   COUNTRY
 SRVC.      Western Atlas:   SERVICE COMPANY
 DATE.        11-APR-1995:   LOGDATE
 API .       490252270400:   API NUMBER
~CURVE INFORMATION
#MNEM.UNIT       API CODE    CURVE DESCRIPTION
#----------   ------------   ------------------------------
 DEPT.F                  :   
 GRR .GAPI   07 310 01 00:   GAMMA RAY
 RILD.OHMM   07 120 46 00:   INDUCTION LOG DEEP RESISTIVITY
 RILM.OHMM   07 120 44 00:   INDUCTION LOG MEDIUM RESISTIVITY
~PARAMETER INFORMATION
#MNEM.UNIT          VALUE    DESCRIPTION
#----------   ------------   ------------------------------
 PD  .                 GL:   PERMANENT DATUM
 EPD .F              5157:   ELEVATION PERMANENT DATUM
 LMF .                 KB:   LOG MEASURED FROM
 DAPD.F                10:   FEET ABOVE PERMANENT DATUM
 DMF .                 KB:   DRILLING MEASURED FROM
 EKB .F              5167:   KELLING BUSHING
 EDF .F              5166:   DRILLING FLOOR
 EGL .F              5157:   GROUND LEVEL
 DATE.        11-APR-1995:   RUN DATE
 RUN .                  1:   RUN NUMBER
 DD  .F               671:   DEPTH DRILLER
 DL  .F               671:   DEPTH LOGGER
 BLI .F               663:   BOTTOM LOG INTERVAL
 TLI .F                95:   TOP LOG INTERVAL
 CS  .IN            9.625:   CASING SIZE
 CBD .F                95:   CASING BOTTOM DRILLER
 CBL .F                95:   CASING BOTTOM LOGGER
 BS  .IN             8.75:   BIT SIZE
 BSD .F               671:   BIT SIZE AT DEPTH
 DFT .                AIR:   DRILLING FLUID TYPE
 MRT .F                90:   MAXIMUM RECORDED TEMPERATURE
 LUN .            HL 6530:   LOGGING UNIT NUMBER
 LUL .             CASPER:   LOGGING UNIT LOCATION
 ENGI.      PAT RASMUSSEN:   RECORDING ENGINEER
 WITN.        GARY STRONG:   WITNESSED BY
 CLNT.            A2DTECH:   CLIENT CODE
 ORIG.           5" PRINT:   ORIGIN OF DATA
 UWI .       490252270400:   UNIQUE WELL ID
 DICO. A2D Technologies, Inc.:   DIGITIZING COMPANY
~OTHER INFORMATION
~A    DEPT      GRR      RILD       RILM   
# ...
  345.8000   112.6129     6.2695     6.3226
  345.9000   112.8530     6.1517     6.2181
  346.0000   112.8556     6.0051     6.1636
  346.1000   113.1032     5.8000     6.0817
  346.2000   113.5726     5.6835     6.0059
  346.3000   113.9321     5.5256     5.9481
  346.4000   114.4482     5.3617     5.8414
  346.5000   115.0623     5.2025     5.7365
  346.6000   115.4193     5.0687     5.6574
  346.7000   116.1992     5.0059     5.5718
  346.8000   116.7907     4.9095     5.4493
  346.9000   117.2497     4.8286     5.3537
  347.0000   117.5863     4.7642     5.2775
  347.1000   117.7012     4.6900     5.1829
  347.2000   117.7036     4.6317     5.0899
  347.3000   117.7060     4.5956     4.9916
  347.4000   117.6787     4.5449     4.9642
  347.5000   117.4097     4.5178     4.9117
  347.6000   117.4125     4.4867     4.8530
  347.7000   116.9913     4.4869     4.8217
  347.8000   116.6426     4.4872     4.8131
  347.9000   116.5157     4.4874     4.7799
  348.0000   116.4257     4.4877     4.7227
  348.1000   116.2193     4.4879     4.6902
  348.2000   116.2089     4.4903     4.6905
  348.3000   115.9231     4.5198     4.6908
  348.4000   115.6908     4.5200     4.6912
  348.5000   115.6265     4.5413     4.6915
  348.6000   115.4739     4.5691     4.6918
  348.7000   115.3301     4.5970     4.6921
  348.8000   115.3325     4.6250     4.6925
  348.9000   115.3349     4.6490     4.7456
  349.0000   115.3374     4.6492     4.7814
  349.1000   115.3402     4.6495     4.8107
  349.2000   115.1245     4.6497     4.8676
  349.3000   115.0434     4.6695     4.9385
  349.4000   114.7694     4.6980     4.9782
  349.5000   114.3474     4.7267     5.0696
  349.6000   114.0297     4.7556     5.1055
  349.7000   113.5050     4.7824     5.1585
  349.8000   112.9257     4.7826     5.2217
  349.9000   112.3464     4.8096     5.3031
  350.0000   111.7671     4.8616     5.3752
  350.1000   111.1878     4.9026     5.4313
  350.2000   110.6085     4.9188     5.5619
  350.3000   109.9511     4.9374     5.6720
  350.4000   109.7325     4.9929     5.7042
  350.5000   109.4799     5.0234     5.7932
  350.6000   109.2273     5.0942     5.8777
  350.7000   109.0614     5.1826     5.9665
  350.8000   109.0651     5.2870     6.0761
  350.9000   109.0687     5.3915     6.1819
  351.0000   109.3742     5.4959     6.2576
  351.1000   109.5851     5.6004     6.3905
  351.2000   109.6819     5.7045     6.4238
  351.3000   109.6855     5.7981     6.4905
  351.4000   109.6892     5.8743     6.5700
  351.5000   109.6928     5.9817     6.6504
  351.6000   109.6966     6.1510     6.7224
  351.7000   109.7000     6.2465     6.7636
  351.8000   109.5092     6.3078     6.8083
  351.9000   109.2566     6.3671     6.8854
  352.0000   109.0040     6.4448     6.9373
  352.1000   108.8108     6.5142     6.9799
  352.2000   108.8290     6.5570     7.0425
  352.3000   109.1197     6.6432     7.1154
  352.4000   109.3486     6.6806     7.1524
  352.5000   109.6084     6.7844     7.1529
  352.6000   109.8683     6.8573     7.2036
  352.7000   110.0373     6.9186     7.2783
  352.8000   110.0867     6.9898     7.3058
  352.9000   110.3474     7.0325     7.3302
  353.0000   110.9524     7.0754     7.3580
  353.1000   111.1675     7.1253     7.3585
  353.2000   111.4273     7.1989     7.3625
  353.3000   111.9313     7.2260     7.4112
  353.4000   112.6265     7.2499     7.4951
  353.5000   113.1426     7.2772     7.5164
  353.6000   113.6845     7.2777     7.5450
  353.7000   113.9313     7.2781     7.5701
  353.8000   114.3896     7.2785     7.5707
  353.9000   114.7522     7.3195     7.5718
  354.0000   115.2289     7.3301     7.5762
  354.1000   115.8743     7.3305     7.5806
  354.2000   116.1712     7.3309     7.5849
  354.3000   117.0233     7.3314     7.5893
  354.4000   117.2562     7.3386     7.5937
  354.5000   117.5160     7.3834     7.5981
  354.6000   117.7759     7.3839     7.6025
  354.7000   118.0358     7.4220     7.6069
  354.8000   118.2458     7.4362     7.6112
  354.9000   118.2494     7.4366     7.6156
  355.0000   118.2536     7.4370     7.6200
  355.1000   118.2566     7.4479     7.6244
  355.2000   118.4313     7.4898     7.6256
  355.3000   118.5651     7.4903     7.6541
  355.4000   118.5687     7.4907     7.6799
  355.5000   118.5723     7.4911     7.6804
  355.6000   118.5760     7.4915     7.6852
  355.7000   118.5795     7.5129     7.7351
  355.8000   118.5831     7.5447     7.7355
  355.9000   118.4293     7.5451     7.7359
  356.0000   118.2892     7.5455     7.7363
  356.1000   118.2928     7.5987     7.7368
  356.2000   118.2964     7.5991     7.7372
  356.3000   118.3003     7.5995     7.7376
  356.4000   118.3036     7.5999     7.7381
  356.5000   118.1185     7.6003     7.7385
  356.6000   117.7221     7.6114     7.7389
  356.7000   117.1144     7.6543     7.7394
  356.8000   116.5108     7.6548     7.7398
  356.9000   116.5322     7.6551     7.7402
  357.0000   117.1210     7.6556     7.7407
  357.1000   117.3442     7.6560     7.7412
  357.2000   117.4289     7.6564     7.7415
  357.3000   117.5626     7.6569     7.7420
  357.4000   117.9076     7.6573     7.7424
  357.5000   118.3836     7.6577     7.7428
  357.6000   118.6483     7.6582     7.7433
  357.7000   119.5561     7.6586     7.7437
  357.8000   119.7654     7.6590     7.7442
  357.9000   120.0253     7.6594     7.7446
  358.0000   120.5181     7.6421     7.7450
  358.1000   121.0044     7.6071     7.7454
  358.2000   120.7518     7.6040     7.7459
  358.3000   120.4810     7.5552     7.7463
  358.4000   119.2957     7.5137     7.7467
  358.5000   118.4035     7.5036     7.7472
  358.6000   117.6385     7.4763     7.7476
  358.7000   116.8735     7.4524     7.7480
  358.8000   116.1085     7.4390     7.7485
  358.9000   115.3434     7.3947     7.7370
  359.0000   114.4824     7.3506     7.6954
  359.1000   113.8133     7.3510     7.6959
  359.2000   112.8691     7.3140     7.6963
  359.3000   111.9819     7.3008     7.6629
  359.4000   111.1277     7.3012     7.6436
  359.5000   110.2825     7.3016     7.6440
  359.6000   111.1904     7.3020     7.6343
  359.7000   111.7970     7.3024     7.5916
  359.8000   112.4312     7.3029     7.5921
  359.9000   113.3690     7.3032     7.5925
  360.0000   114.8796     7.2699     7.5929
  360.1000   116.7820     7.2534     7.5933
  360.2000   118.2924     7.2538     7.5776
  360.3000   119.6496     7.2542     7.5413
  360.4000   120.6201     7.2546     7.5418
  360.5000   121.4519     7.2550     7.5422
  360.6000   121.6168     7.2051     7.5426
  360.7000   121.4711     7.2055     7.5132
  360.8000   121.4129     7.2059     7.4910
  360.9000   121.1095     7.2063     7.4914
  361.0000   119.9763     7.2067     7.4984
  361.1000   118.3828     7.2071     7.5447
  361.2000   116.9592     7.2075     7.5452
  361.3000   115.6815     7.2079     7.5456
  361.4000   114.5902     7.2083     7.5460
  361.5000   113.9216     7.2087     7.5464
  361.6000   113.6691     7.2091     7.5468
  361.7000   113.3753     7.2095     7.5472
  361.8000   113.5928     7.2099     7.5477
  361.9000   113.8526     7.2103     7.5481
  362.0000   114.4859     7.2107     7.5485
  362.1000   115.4349     7.2111     7.5489
  362.2000   116.1381     7.2115     7.5493
  362.3000   116.4086     7.2119     7.5498
  362.4000   116.9036     7.2123     7.5502
  362.5000   117.4197     7.2127     7.5507
  362.6000   117.6241     7.2031     7.5510
  362.7000   117.7385     7.1634     7.5515
  362.8000   117.9983     7.1639     7.5770
  362.9000   118.2582     7.1245     7.6052
  363.0000   118.5425     7.1149     7.6056
  363.1000   118.5458     7.0890     7.6043
  363.2000   118.7365     7.0273     7.5536
  363.3000   118.8542     6.9562     7.5540
  363.4000   118.9550     6.9083     7.5544
  363.5000   119.2671     6.8258     7.5315
  363.6000   119.7830     6.7318     7.4872
  363.7000   120.3752     6.6979     7.4432
  363.8000   121.2523     6.6303     7.3995
  363.9000   122.6279     6.5637     7.3999
