~VERSION INFORMATION
 VERS.                2.0:   CWLS LOG ASCII STANDARD - VERSION 2.0
 WRAP.                 NO:   ONE LINE PER DEPTH STEP
~WELL INFORMATION
#MNEM.UNIT      DATA TYPE    INFORMATION
#----------   ------------   ------------------------------
 STRT.F            0.0000:   START DEPTH
 STOP.F          561.0000:   STOP DEPTH
 STEP.F            0.1000:   STEP LENGTH
 NULL.          -999.2500:   NO VALUE
 COMP.       F D SERV INC:   COMPANY
 WELL.  83-1 sx 10 #83-10:   WELL
 FLD .             TEAPOT:   FIELD
 LOC .      S10 T38N R78W:   LOCATION
 CNTY.            NATRONA:   COUNTY
 STAT.            WYOMING:   STATE
 CTRY. UNITED STATES OF AMERICA:   COUNTRY
 SRVC.     Atlas Wireline:   SERVICE COMPANY
 DATE.        10-DEC-1992:   LOGDATE
 API .       490252258000:   API NUMBER
~CURVE INFORMATION
#MNEM.UNIT       API CODE    CURVE DESCRIPTION
#----------   ------------   ------------------------------
 DEPT.F                  :   
 GRR .GAPI   07 310 01 00:   GAMMA RAY
 RILD.OHMM   07 120 46 00:   INDUCTION LOG DEEP RESISTIVITY
 RILM.OHMM   07 120 44 00:   INDUCTION LOG MEDIUM RESISTIVITY
~PARAMETER INFORMATION
#MNEM.UNIT          VALUE    DESCRIPTION
#----------   ------------   ------------------------------
 PD  .                 GL:   PERMANENT DATUM
 EPD .F              5170:   ELEVATION PERMANENT DATUM
 LMF .                 KB:   LOG MEASURED FROM
 DAPD.F                10:   FEET ABOVE PERMANENT DATUM
 DMF .                 KB:   DRILLING MEASURED FROM
 EKB .F              5180:   KELLING BUSHING
 EDF .F              5179:   DRILLING FLOOR
 EGL .F              5170:   GROUND LEVEL
 DATE.        10-DEC-1992:   RUN DATE
 RUN .                  1:   RUN NUMBER
 DD  .F               567:   DEPTH DRILLER
 DL  .F               569:   DEPTH LOGGER
 BLI .F               560:   BOTTOM LOG INTERVAL
 TLI .F                97:   TOP LOG INTERVAL
 CS  .IN            8.625:   CASING SIZE
 CBD .F                97:   CASING BOTTOM DRILLER
 CBL .F                97:   CASING BOTTOM LOGGER
 BS  .IN            7.875:   BIT SIZE
 BSD .F               567:   BIT SIZE AT DEPTH
 DFT .           AIR FOAM:   DRILLING FLUID TYPE
 MRT .F                65:   MAXIMUM RECORDED TEMPERATURE
 LUN .           HL- 6274:   LOGGING UNIT NUMBER
 LUL .             CASPER:   LOGGING UNIT LOCATION
 ENGI.       P. RASMUSSEN:   RECORDING ENGINEER
 WITN.          G. STRONG:   WITNESSED BY
 CLNT.            A2DTECH:   CLIENT CODE
 ORIG.           5" PRINT:   ORIGIN OF DATA
 UWI .       490252258000:   UNIQUE WELL ID
 DICO. A2D Technologies, Inc.:   DIGITIZING COMPANY
~OTHER INFORMATION
~A    DEPT      GRR      RILD       RILM   
# ...
  546.0000  -999.2500     6.5640     6.6208
  546.1000  -999.2500     6.5557     6.6210
  546.2000  -999.2500     6.5560     6.5754
  546.3000  -999.2500     6.5563     6.5755
  546.4000  -999.2500     6.5565     6.5757
  546.5000  -999.2500     6.5568     6.5578
  546.6000  -999.2500     6.5571     6.5305
  546.7000  -999.2500     6.5574     6.5307
  546.8000  -999.2500     6.5576     6.5309
  546.9000  -999.2500     6.5579     6.5311
  547.0000  -999.2500     6.5747     6.5619
  547.1000  -999.2500     6.6044     6.5770
  547.2000  -999.2500     6.6047     6.5948
  547.3000  -999.2500     6.6050     6.6232
  547.4000  -999.2500     6.6053     6.6277
  547.5000  -999.2500     6.6055     6.6697
  547.6000  -999.2500     6.6284     6.7073
  547.7000  -999.2500     6.6524     6.7475
  547.8000  -999.2500     6.6619     6.7636
  547.9000  -999.2500     6.7020     6.7989
  548.0000  -999.2500     6.7468     6.8803
  548.1000  -999.2500     6.7471     6.9627
  548.2000  -999.2500     6.7765     7.0522
  548.3000  -999.2500     6.8173     7.1306
  548.4000  -999.2500     6.8584     7.2488
  548.5000  -999.2500     6.8997     7.3534
  548.6000  -999.2500     6.9430     7.4415
  548.7000  -999.2500     7.0376     7.5306
  548.8000  -999.2500     7.0745     7.6171
  548.9000  -999.2500     7.0181     7.6667
  549.0000  -999.2500     6.9770     7.7506
  549.1000  -999.2500     7.0109     7.8088
  549.2000  -999.2500     7.0845     7.8825
  549.3000  -999.2500     7.1288     7.9577
  549.4000  -999.2500     7.2238     8.0053
  549.5000  -999.2500     7.2995     8.0532
  549.6000  -999.2500     7.3863     8.1064
  549.7000  -999.2500     7.4742     8.1499
  549.8000  -999.2500     7.5630     8.1987
  549.9000  -999.2500     7.6610     8.2478
  550.0000  -999.2500     7.7978     8.2780
  550.1000  -999.2500     7.9621     8.3359
  550.2000  -999.2500     8.0402     8.3774
  550.3000  -999.2500     8.1359     8.4276
  550.4000  -999.2500     8.2326     8.5030
  550.5000  -999.2500     8.3158     8.6049
  550.6000  -999.2500     8.3651     8.6998
  550.7000  -999.2500     8.4175     8.7527
  550.8000  -999.2500     8.4646     8.8306
  550.9000  -999.2500     8.5148     8.9096
  551.0000  -999.2500     8.5653     8.9377
  551.1000  -999.2500     8.6160     8.9634
  551.2000  -999.2500     8.6671     9.0005
  551.3000  -999.2500     8.7184     9.0008
  551.4000  -999.2500     8.7760     9.0010
  551.5000  -999.2500     8.8222     9.0640
  551.6000  -999.2500     8.8745     9.0642
  551.7000  -999.2500     8.9271     9.0645
  551.8000  -999.2500     8.9800     9.0898
  551.9000  -999.2500     9.0332     9.1282
  552.0000  -999.2500     9.0868     9.1352
  552.1000  -999.2500     9.1497     9.1923
  552.2000  -999.2500     9.1948     9.1926
  552.3000  -999.2500     9.2494     9.2359
  552.4000  -999.2500     9.3042     9.2572
  552.5000  -999.2500     9.3594     9.2822
  552.6000  -999.2500     9.4077     9.3222
  552.7000  -999.2500     9.4077     9.3286
  552.8000  -999.2500     9.4077     9.3877
  552.9000  -999.2500     9.4510     9.3880
  553.0000  -999.2500     9.4733     9.4314
  553.1000  -999.2500     9.4733     9.4879
  553.2000  -999.2500     9.4733     9.5447
  553.3000  -999.2500     9.4733     9.5867
  553.4000  -999.2500     9.4733     9.5924
  553.5000  -999.2500     9.4733     9.6541
  553.6000  -999.2500     9.4733     9.6543
  553.7000  -999.2500     9.4733     9.6981
  553.8000  -999.2500     9.4733     9.7562
  553.9000  -999.2500     9.4733     9.7902
  554.0000  -999.2500     9.4724     9.8050
  554.1000  -999.2500     9.4077     9.8590
  554.2000  -999.2500     9.4077     9.8593
  554.3000  -999.2500     9.4077     9.8595
  554.4000  -999.2500     9.4077     9.8598
  554.5000  -999.2500     9.3904     9.8938
  554.6000  -999.2500     9.3425     9.9291
  554.7000  -999.2500     9.3425     9.9294
  554.8000  -999.2500     9.3425     9.9296
  554.9000  -999.2500     9.3425     9.9299
  555.0000  -999.2500     9.3425     9.8775
  555.1000  -999.2500     9.3188     9.8617
  555.2000  -999.2500     9.2778     9.8620
  555.3000  -999.2500     9.2735     9.8623
  555.4000  -999.2500     9.2135     9.8561
  555.5000  -999.2500     9.2135     9.8272
  555.6000  -999.2500     9.1740     9.7949
  555.7000  -999.2500     9.1497     9.7440
  555.8000  -999.2500     9.1295     9.6866
  555.9000  -999.2500     9.0863     9.6294
  556.0000  -999.2500     9.0863     9.5726
  556.1000  -999.2500     9.0863     9.5162
  556.2000  -999.2500     9.0410     9.4621
  556.3000  -999.2500     9.0234     9.4624
  556.4000  -999.2500     9.0234     9.4140
  556.5000  -999.2500     9.0234     9.3974
  556.6000  -999.2500     9.0234     9.3682
  556.7000  -999.2500     9.0234     9.3328
  556.8000  -999.2500     9.0234     9.3331
  556.9000  -999.2500     9.0234     9.3334
  557.0000  -999.2500     9.0234     9.3336
  557.1000  -999.2500  -999.2500     9.2868
  557.2000  -999.2500  -999.2500     9.2695
  557.3000  -999.2500  -999.2500     9.2698
  557.4000  -999.2500  -999.2500     9.2891
  557.5000  -999.2500  -999.2500     9.3349
  557.6000  -999.2500  -999.2500     9.3352
  557.7000  -999.2500  -999.2500     9.3355
  557.8000  -999.2500  -999.2500     9.3357
  557.9000  -999.2500  -999.2500     9.3731
  558.0000  -999.2500  -999.2500     9.4013
  558.1000  -999.2500  -999.2500     9.4015
  558.2000  -999.2500  -999.2500     9.4018
  558.3000  -999.2500  -999.2500     9.4021
  558.4000  -999.2500  -999.2500     9.4024
  558.5000  -999.2500  -999.2500     9.4026
  558.6000  -999.2500  -999.2500     9.3665
  558.7000  -999.2500  -999.2500     9.3380
  558.8000  -999.2500  -999.2500     9.3383
  558.9000  -999.2500  -999.2500     9.3385
  559.0000  -999.2500  -999.2500     9.3388
  559.1000  -999.2500  -999.2500     9.3391
  559.2000  -999.2500  -999.2500     9.3393
  559.3000  -999.2500  -999.2500     9.3396
  559.4000  -999.2500  -999.2500     9.3398
  559.5000  -999.2500  -999.2500     9.3401
  559.6000  -999.2500  -999.2500     9.3404
  559.7000  -999.2500  -999.2500     9.3406
  559.8000  -999.2500  -999.2500     9.3409
  559.9000  -999.2500  -999.2500     9.3411
  560.0000  -999.2500  -999.2500     9.3069
  560.1000  -999.2500  -999.2500     9.2770
  560.2000  -999.2500  -999.2500     9.2772
  560.3000  -999.2500  -999.2500     9.2711
  560.4000  -999.2500  -999.2500     9.2136
  560.5000  -999.2500  -999.2500     9.2138
  560.6000  -999.2500  -999.2500     9.2141
  560.7000  -999.2500  -999.2500     9.2143
  560.8000  -999.2500  -999.2500     9.1906
  560.9000  -999.2500  -999.2500     9.1510
  561.0000  -999.2500  -999.2500     9.1458
