~VERSION INFORMATION
 VERS.                2.0:   CWLS LOG ASCII STANDARD - VERSION 2.0
 WRAP.                 NO:   ONE LINE PER DEPTH STEP
~WELL INFORMATION
#MNEM.UNIT      DATA TYPE    INFORMATION
#----------   ------------   ------------------------------
 STRT.F          484.0000:   START DEPTH
 STOP.F         2291.5000:   STOP DEPTH
 STEP.F            0.5000:   STEP LENGTH
 NULL.          -999.2500:   NO VALUE
 COMP. FENIX & SCISSON INC:   COMPANY
 WELL.     45 SHX 3 #45-3:   WELL
 FLD .             TEAPOT:   FIELD
 LOC .       S3 T38N R78W:   LOCATION
 CNTY.            NATRONA:   COUNTY
 STAT.            WYOMING:   STATE
 CTRY. UNITED STATES OF AMERICA:   COUNTRY
 SRVC.              Welex:   SERVICE COMPANY
 DATE.        20-APR-1980:   LOGDATE
 API .       490251080400:   API NUMBER
~CURVE INFORMATION
#MNEM.UNIT       API CODE    CURVE DESCRIPTION
#----------   ------------   ------------------------------
 DEPT.F                  :   
 CALD.IN     45 280 60 00:   CALIPER
 GRD .GAPI   45 310 01 00:   GAMMA RAY FROM DENSITY LOG
 CORR.G/C3   45 356 01 00:   DENSITY CORRECTION
 RHOB.G/C3   45 350 01 00:   BULK DENSITY
 DPHI.DEC    45 890 12 00:   DENSITY POROSITY SANDSTONE
~PARAMETER INFORMATION
#MNEM.UNIT          VALUE    DESCRIPTION
#----------   ------------   ------------------------------
 PD  .                 GL:   PERMANENT DATUM
 EPD .F              5186:   ELEVATION PERMANENT DATUM
 LMF .                 KB:   LOG MEASURED FROM
 DAPD.F                10:   FEET ABOVE PERMANENT DATUM
 DMF .                 KB:   DRILLING MEASURED FROM
 EKB .F              5196:   KELLING BUSHING
 EGL .F              5186:   GROUND LEVEL
 DATE.            4-20-80:   RUN DATE
 RUN .                  1:   RUN NUMBER
 DD  .F              2341:   DEPTH DRILLER
 DL  .F              2293:   DEPTH LOGGER
 BLI .F              2291:   BOTTOM LOG INTERVAL
 TLI .F               500:   TOP LOG INTERVAL
 CS  .IN            9.625:   CASING SIZE
 BS  .IN             8.75:   BIT SIZE
 BSD .F              2341:   BIT SIZE AT DEPTH
 DFT .                OIL:   DRILLING FLUID TYPE
 TCS .HRS               2:   TIME CURCULATED STOPPED
 MRT .F               218:   MAXIMUM RECORDED TEMPERATURE
 ENGI.            TOTHILL:   RECORDING ENGINEER
 WITN.           DINSMORE:   WITNESSED BY
 CLNT.            A2DTECH:   CLIENT CODE
 ORIG.           5" PRINT:   ORIGIN OF DATA
 UWI .       490251080400:   UNIQUE WELL ID
 DICO. A2D Technologies, Inc.:   DIGITIZING COMPANY
~OTHER INFORMATION
~A   DEPT     CALD         GRD      CORR       RHOB       DPHI   
# ...
  850.0000     8.9147    65.2006     0.0291     2.5142     0.0738
  850.5000     9.0937    65.1061     0.0321     2.5164     0.0717
  851.0000     9.1428    65.0112     0.0350     2.5189     0.0708
  851.5000     9.1597    64.9157     0.0321     2.5187     0.0711
  852.0000     9.1752    64.8207     0.0217     2.5118     0.0745
  852.5000     9.1919    64.7720     0.0189     2.5077     0.0788
  853.0000     9.1858    65.0760     0.0159     2.5038     0.0809
  853.5000     9.1725    65.3805     0.0080     2.4952     0.0847
  854.0000     9.1598    65.6838     0.0029     2.4920     0.0855
  854.5000     9.0908    65.9875     0.0040     2.4952     0.0846
  855.0000     9.0032    66.2903     0.0049     2.4962     0.0841
  855.5000     8.9125    66.5650     0.0027     2.4926     0.0866
  856.0000     8.9061    66.6194     0.0059     2.4944     0.0839
  856.5000     8.9292    66.6791     0.0187     2.5130     0.0736
  857.0000     8.9526    66.7391     0.0262     2.5168     0.0717
  857.5000     8.9585    66.7999     0.0317     2.5214     0.0684
  858.0000     8.9661    66.9100     0.0340     2.5287     0.0643
  858.5000     8.9766    67.2915     0.0309     2.5199     0.0697
  859.0000     9.0050    67.6750     0.0259     2.5134     0.0751
  859.5000     8.9968    68.0375     0.0178     2.5021     0.0805
  860.0000     9.0951    67.7451     0.0144     2.4967     0.0841
  860.5000     9.0697    67.4174     0.0179     2.5035     0.0799
  861.0000     8.9964    67.1451     0.0170     2.5075     0.0785
  861.5000     9.0050    67.1448     0.0139     2.5070     0.0804
  862.0000     9.0200    67.4388     0.0109     2.5064     0.0796
  862.5000     9.0330    67.7990     0.0112     2.5120     0.0748
  863.0000     9.0050    68.1598     0.0161     2.5187     0.0704
  863.5000     8.9753    68.5251     0.0153     2.5110     0.0758
  864.0000     8.9456    68.5599     0.0014     2.4967     0.0829
  864.5000     8.9162    68.4012    -0.0078     2.4836     0.0919
  865.0000     8.8945    68.2387    -0.0086     2.4833     0.0909
  865.5000     8.9054    68.0759    -0.0080     2.4832     0.0933
  866.0000     8.9157    67.9135    -0.0074     2.4792     0.0958
  866.5000     8.9257    67.7646    -0.0082     2.4753     0.0985
  867.0000     8.9292    67.4909    -0.0130     2.4714     0.1011
  867.5000     8.9067    67.7955    -0.0188     2.4675     0.1012
  868.0000     8.8849    68.2022    -0.0129     2.4703     0.0994
  868.5000     8.8738    68.6119    -0.0079     2.4732     0.0975
  869.0000     8.8941    69.0194    -0.0099     2.4720     0.0984
  869.5000     8.9129    69.4348    -0.0120     2.4718     0.0990
  870.0000     8.9135    69.3973    -0.0026     2.4828     0.0899
  870.5000     8.9202    69.1488     0.0069     2.4957     0.0808
  871.0000     8.9510    68.8928     0.0133     2.5038     0.0789
  871.5000     8.9139    68.6826     0.0171     2.5076     0.0781
  872.0000     8.8674    69.0637     0.0171     2.5060     0.0780
  872.5000     8.8625    69.4501     0.0127     2.4981     0.0819
  873.0000     8.8737    69.8408     0.0017     2.4866     0.0888
  873.5000     8.8899    69.3335    -0.0015     2.4831     0.0924
  874.0000     8.9324    68.7318    -0.0054     2.4771     0.0942
  874.5000     8.9767    68.6564    -0.0236     2.4637     0.1022
  875.0000     9.0230    68.8598    -0.0303     2.4648     0.1055
  875.5000     9.0402    69.1375    -0.0284     2.4616     0.1026
  876.0000     9.0485    69.4191    -0.0244     2.4781     0.0950
  876.5000     9.0413    69.7009    -0.0244     2.4760     0.0999
  877.0000     8.9955    69.9737    -0.0236     2.4672     0.1018
  877.5000     8.9617    69.9680    -0.0151     2.4807     0.0922
  878.0000     8.9372    69.3006    -0.0027     2.4917     0.0854
  878.5000     8.9130    69.6412     0.0127     2.4971     0.0820
  879.0000     8.8893    70.0752     0.0183     2.5011     0.0809
  879.5000     8.8727    70.2525     0.0213     2.5050     0.0780
  880.0000     8.8730    70.5126     0.0215     2.5073     0.0797
  880.5000     8.8729    70.7604     0.0219     2.5103     0.0768
  881.0000     8.8729    70.5393     0.0223     2.5140     0.0736
  881.5000     8.8733    70.2871     0.0226     2.5178     0.0703
  882.0000     8.8931    69.6846     0.0229     2.5225     0.0688
  882.5000     8.9521    68.8085     0.0301     2.5285     0.0629
  883.0000     9.0105    67.9322     0.0311     2.5332     0.0637
  883.5000     9.0690    67.0401     0.0311     2.5292     0.0647
  884.0000     9.1274    66.2343     0.0367     2.5339     0.0617
  884.5000     9.1767    66.5607     0.0417     2.5386     0.0584
  885.0000     9.1759    67.1124     0.0452     2.5418     0.0577
  885.5000     9.1406    67.6478     0.0389     2.5345     0.0615
  886.0000     9.0816    68.1681     0.0320     2.5265     0.0665
  886.5000     9.0223    68.7495     0.0250     2.5185     0.0715
  887.0000     8.9629    69.3363     0.0188     2.5095     0.0769
  887.5000     8.9034    69.6133     0.0068     2.4962     0.0845
  888.0000     8.8427    69.6987    -0.0063     2.4852     0.0902
  888.5000     8.8462    69.7805    -0.0010     2.4874     0.0887
  889.0000     8.8630    69.8620     0.0010     2.4874     0.0906
  889.5000     8.8802    69.9440     0.0008     2.4816     0.0941
  890.0000     8.8923    70.0263    -0.0103     2.4679     0.0996
  890.5000     8.8591    70.1077    -0.0129     2.4655     0.1030
  891.0000     8.8242    70.1509    -0.0071     2.4734     0.0964
  891.5000     8.8539    70.0386     0.0025     2.4891     0.0896
  892.0000     8.9171    69.9300     0.0084     2.4930     0.0866
  892.5000     8.9444    69.8217    -0.0018     2.4909     0.0873
  893.0000     8.8979    69.7136     0.0059     2.4940     0.0854
  893.5000     8.8738    69.6042     0.0128     2.4970     0.0839
  894.0000     8.8978    69.5675     0.0114     2.4971     0.0851
  894.5000     8.9217    69.5671     0.0110     2.4965     0.0825
  895.0000     8.9459    69.5708     0.0110     2.4964     0.0823
  895.5000     8.9568    69.7694     0.0111     2.4998     0.0811
  896.0000     8.9719    70.2114     0.0120     2.5034     0.0798
  896.5000     8.9864    70.6501     0.0133     2.4994     0.0835
  897.0000     9.0008    71.0905    -0.0001     2.4903     0.0913
  897.5000     9.0153    71.5309    -0.0024     2.4890     0.0885
  898.0000     9.0295    71.9710     0.0048     2.4970     0.0842
  898.5000     9.0113    72.3043     0.0121     2.5049     0.0799
  899.0000     8.9640    71.9514     0.0146     2.5117     0.0763
  899.5000     8.9169    71.2588     0.0164     2.5129     0.0747
  900.0000     8.8950    70.5857     0.0182     2.5137     0.0731
  900.5000     8.9028    69.9176     0.0178     2.5160     0.0716
  901.0000     8.9101    69.2500     0.0153     2.5131     0.0747
  901.5000     8.9176    68.5762     0.0129     2.5082     0.0780
  902.0000     8.9249    68.2930     0.0104     2.5052     0.0779
  902.5000     8.9323    68.1876     0.0079     2.5040     0.0787
  903.0000     8.9391    68.0851     0.0054     2.5027     0.0809
  903.5000     8.9459    67.9824     0.0030     2.5015     0.0808
  904.0000     8.9533    67.8795     0.0080     2.5024     0.0800
  904.5000     8.9262    67.7779     0.0147     2.5116     0.0740
  905.0000     8.9135    67.6056     0.0207     2.5170     0.0729
  905.5000     8.9136    67.4506     0.0155     2.5071     0.0740
  906.0000     8.9359    67.4521     0.0078     2.4977     0.0838
  906.5000     8.9963    67.4627    -0.0046     2.4882     0.0902
  907.0000     9.0553    67.8149    -0.0082     2.4822     0.0925
  907.5000     9.0816    68.1907    -0.0120     2.4792     0.0945
  908.0000     9.0411    68.5813    -0.0144     2.4766     0.0962
  908.5000     9.0105    68.4834    -0.0093     2.4852     0.0901
  909.0000     8.9860    68.2449    -0.0014     2.4972     0.0811
  909.5000     8.9608    68.0026     0.0134     2.5099     0.0723
  910.0000     8.9361    67.7613     0.0220     2.5228     0.0676
  910.5000     8.9334    67.5204     0.0288     2.5260     0.0661
