~VERSION INFORMATION
 VERS.                2.0:   CWLS LOG ASCII STANDARD - VERSION 2.0
 WRAP.                 NO:   ONE LINE PER DEPTH STEP
~WELL INFORMATION
#MNEM.UNIT      DATA TYPE    INFORMATION
#----------   ------------   ------------------------------
 STRT.F           14.0000:   START DEPTH
 STOP.F          513.0000:   STOP DEPTH
 STEP.F            0.1000:   STEP LENGTH
 NULL.          -999.2500:   NO VALUE
 COMP.       F D SERV INC:   COMPANY
 WELL.    52-1 SX-3 #52-3:   WELL
 FLD .             TEAPOT:   FIELD
 LOC .       S3 T38N R78W:   LOCATION
 CNTY.            NATRONA:   COUNTY
 STAT.            WYOMING:   STATE
 CTRY. UNITED STATES OF AMERICA:   COUNTRY
 SRVC.     Atlas Wireline:   SERVICE COMPANY
 DATE.        21-APR-1992:   LOGDATE
 API .       490252251400:   API NUMBER
~CURVE INFORMATION
#MNEM.UNIT       API CODE    CURVE DESCRIPTION
#----------   ------------   ------------------------------
 DEPT.F                  :   
 GRR .GAPI   07 310 01 00:   GAMMA RAY
 RILD.OHMM   07 120 46 00:   INDUCTION LOG DEEP RESISTIVITY
 RILM.OHMM   07 120 44 00:   INDUCTION LOG MEDIUM RESISTIVITY
~PARAMETER INFORMATION
#MNEM.UNIT          VALUE    DESCRIPTION
#----------   ------------   ------------------------------
 PD  .                 GL:   PERMANENT DATUM
 EPD .F              5115:   ELEVATION PERMANENT DATUM
 LMF .                 KB:   LOG MEASURED FROM
 DAPD.F                 5:   FEET ABOVE PERMANENT DATUM
 DMF .                 KB:   DRILLING MEASURED FROM
 EKB .F              5120:   KELLING BUSHING
 EDF .F              5119:   DRILLING FLOOR
 EGL .F              5115:   GROUND LEVEL
 DATE.        21-APR-1992:   RUN DATE
 RUN .                  1:   RUN NUMBER
 DD  .F               515:   DEPTH DRILLER
 DL  .F               520:   DEPTH LOGGER
 BLI .F               517:   BOTTOM LOG INTERVAL
 TLI .F                50:   TOP LOG INTERVAL
 CS  .IN            9.625:   CASING SIZE
 CBD .F                45:   CASING BOTTOM DRILLER
 CBL .F                50:   CASING BOTTOM LOGGER
 BS  .IN            7.875:   BIT SIZE
 BSD .F               515:   BIT SIZE AT DEPTH
 DFT .                AIR:   DRILLING FLUID TYPE
 LUN .            HL-6272:   LOGGING UNIT NUMBER
 LUL .             CASPER:   LOGGING UNIT LOCATION
 ENGI.       P. RASMUSSEN:   RECORDING ENGINEER
 WITN.          G. STRONG:   WITNESSED BY
 CLNT.            A2DTECH:   CLIENT CODE
 ORIG.           5" PRINT:   ORIGIN OF DATA
 UWI .       490252251400:   UNIQUE WELL ID
 DICO. A2D Technologies, Inc.:   DIGITIZING COMPANY
~OTHER INFORMATION
~A   DEPT      GRR       RILD       RILM   
# ...
   86.8000   139.5938     6.5093     8.1748
   86.9000   139.3587     6.2894     8.1745
   87.0000   138.5781     6.2172     8.1741
   87.1000   137.5895     6.1127     8.1738
   87.2000   136.6010     6.0352     8.1734
   87.3000   135.6020     5.9851     8.1731
   87.4000   134.1409     5.9508     8.1728
   87.5000   133.5347     5.9201     8.1724
   87.6000   132.7927     5.9197     8.1721
   87.7000   132.2312     5.9194     8.1717
   87.8000   132.0169     5.9191     8.1714
   87.9000   132.0143     5.9188     8.1711
   88.0000   132.2377     5.9185     8.1707
   88.1000   132.4818     5.9181     8.1703
   88.2000   132.7259     5.9178     8.1700
   88.3000   133.0288     5.9175     8.1697
   88.4000   133.5194     5.9355     8.1485
   88.5000   134.0101     5.9581     8.1124
   88.6000   134.3065     5.9612     8.1121
   88.7000   134.8278     5.9990     8.1117
   88.8000   135.4819     6.0287     8.1114
   88.9000   136.0000     6.1084     8.1111
   89.0000   136.8215     6.2288     8.1107
   89.1000   137.2560     6.3794     8.1104
   89.2000   137.7466     6.5650     8.1100
   89.3000   138.1301     6.8291     8.0684
   89.4000   138.3226     7.0755     8.0532
   89.5000   138.3202     7.3209     8.0529
   89.6000   138.3178     7.5462     8.0418
   89.7000   138.1285     7.7062     7.9964
   89.8000   138.0109     7.7552     7.9961
   89.9000   137.9327     7.7936     7.9958
   90.0000   137.6838     7.8376     7.9696
   90.1000   137.3990     7.8245     7.9397
   90.2000   137.1859     7.7445     7.9394
   90.3000   136.9370     7.6994     7.9390
   90.4000   136.6880     7.6133     7.9387
   90.5000   136.4391     7.5268     7.9076
   90.6000   136.1787     7.4186     7.8831
   90.7000   135.9412     7.3055     7.8827
   90.8000   135.6922     7.2186     7.8824
   90.9000   135.5674     7.0803     7.8821
   91.0000   135.5650     6.9757     7.8817
   91.1000   135.5497     6.8825     7.8814
   91.2000   135.2576     6.8042     7.8652
   91.3000   135.2556     6.7345     7.8262
   91.4000   135.4014     6.6952     7.8258
   91.5000   135.5529     6.6206     7.8255
   91.6000   135.5504     6.5453     7.8252
   91.7000   135.5479     6.4906     7.8040
   91.8000   135.5456     6.4420     7.7703
   91.9000   135.7156     6.3686     7.7700
   92.0000   136.0765     6.2868     7.7696
   92.1000   136.5059     6.2247     7.7694
   92.2000   136.7557     6.1765     7.7434
   92.3000   137.2463     6.1264     7.7149
   92.4000   137.9335     6.0636     7.7146
   92.5000   138.6707     6.0281     7.7142
   92.6000   139.5787     5.9943     7.7139
   92.7000   140.8684     5.9345     7.7136
   92.8000   142.7719     5.9027     7.7133
   92.9000   143.6528     5.8919     7.7130
   93.0000   145.1319     5.8611     7.7126
   93.1000   146.7456     5.8607     7.7123
   93.2000   148.0605     5.8604     7.7120
   93.3000   148.8024     5.8601     7.7376
   93.4000   148.8000     5.8598     7.7652
   93.5000   148.7976     5.8661     7.7648
   93.6000   148.7952     5.9000     7.7645
   93.7000   148.7928     5.9326     7.7642
   93.8000   148.7903     5.9919     7.7951
   93.9000   148.7876     6.0602     7.8177
   94.0000   148.5720     6.1292     7.8174
   94.1000   148.1651     6.2052     7.8170
   94.2000   147.4650     6.3671     7.8166
   94.3000   146.3831     6.4938     7.8164
   94.4000   144.8483     6.6186     7.8427
   94.5000   142.9445     6.7485     7.8702
   94.6000   141.1521     6.9032     7.8699
   94.7000   139.2976     7.0654     7.8696
   94.8000   137.6065     7.2644     7.8693
   94.9000   136.6485     7.4417     7.8689
   95.0000   136.0721     7.5894     7.8906
   95.1000   136.0701     7.7333     7.9232
   95.2000   136.2183     7.8989     7.9249
   95.3000   136.3674     7.9497     7.9777
   95.4000   136.4044     8.0279     7.9774
   95.5000   136.6645     8.0897     8.0045
   95.6000   137.3535     8.1354     8.0324
   95.7000   138.0906     8.1813     8.0394
   95.8000   139.0662     8.2288     8.0877
   95.9000   140.4238     8.2741     8.0874
   96.0000   142.1550     8.2854     8.0871
   96.1000   144.5047     8.3098     8.0868
   96.2000   145.2987     8.3568     8.0991
   96.3000   145.5654     8.4001     8.1425
   96.4000   145.2286     8.3995     8.1421
   96.5000   144.7331     8.3991     8.1804
   96.6000   144.1907     8.4292     8.2268
   96.7000   143.9654     8.4768     8.2551
   96.8000   143.5488     8.5247     8.2626
   96.9000   143.0534     8.5743     8.3120
   97.0000   142.6143     8.5738     8.3116
   97.1000   142.3645     8.6099     8.3113
   97.2000   141.8691     8.6327     8.3347
   97.3000   141.3736     8.6322     8.3820
   97.4000   140.8781     8.6318     8.4294
   97.5000   140.4632     8.6312     8.4850
   97.6000   140.1893     8.6731     8.5252
   97.7000   139.6323     8.6906     8.5435
   97.8000   139.4143     8.7105     8.5624
   97.9000   139.3257     8.7597     8.6108
   98.0000   139.3233     8.8108     8.6620
   98.1000   139.3208     8.8104     8.7087
   98.2000   139.3184     8.8473     8.7217
   98.3000   139.3160     8.8709     8.7466
   98.4000   139.1291     8.8704     8.7818
   98.5000   138.7513     8.8738     8.7847
   98.6000   138.2558     8.9312     8.8423
   98.7000   137.7603     8.9308     8.8846
   98.8000   137.1888     8.9303     8.9349
   98.9000   136.5607     8.9298     8.9650
   99.0000   135.8187     8.9293     8.9738
   99.1000   135.2717     8.9288     9.0268
   99.2000   135.0228     8.9775     9.0264
   99.3000   134.7600     8.9902     9.0260
   99.4000   134.5249     8.9897     9.0256
   99.5000   134.2759     8.9892     9.0253
   99.6000   134.1486     8.9887     9.0249
   99.7000   134.1462     8.9881     9.0245
   99.8000   134.1438     8.9877     9.0241
   99.9000   134.1409     8.9872     9.0238
  100.0000   135.6490     8.9867     8.8988
  100.1000   139.0288     8.9862     8.8475
  100.2000   141.0851     8.9856     8.8354
  100.3000   142.0258     8.9362     8.8068
  100.4000   143.1895     8.9224     8.7725
  100.5000   144.4199     8.9219     8.7717
  100.6000   145.7184     8.9067     8.7707
  100.7000   147.1337     8.8557     8.7700
  100.8000   147.4221     8.7971     8.7361
  100.9000   147.0155     8.7546     8.7075
  101.0000   146.3746     8.7045     8.6958
  101.1000   145.6344     8.6741     8.6455
  101.2000   144.9297     8.6652     8.6447
  101.3000   144.3951     8.6130     8.6059
  101.4000   143.4900     8.6126     8.5831
  101.5000   142.6737     8.5767     8.5662
  101.6000   141.9335     8.5276     8.5220
  101.7000   141.1933     8.4922     8.5211
  101.8000   140.4588     8.4890     8.5204
  101.9000   140.2113     8.4323     8.5195
  102.0000   140.1571     8.4319     8.4975
  102.1000   140.4310     8.4023     8.4589
  102.2000   140.8407     8.3725     8.4580
  102.3000   141.0858     8.3644     8.4572
  102.4000   141.3606     8.3135     8.4194
  102.5000   141.5760     8.3131     8.3708
  102.6000   141.8212     8.2789     8.3225
  102.7000   141.9613     8.2545     8.2795
  102.8000   141.9110     8.2415     8.2786
  102.9000   141.6568     8.1964     8.2779
  103.0000   141.1762     8.1958     8.2461
  103.1000   140.4985     8.1955     8.2189
  103.2000   139.7583     8.1673     8.2181
  103.3000   138.9459     8.1377     8.2173
  103.4000   137.9758     8.1304     8.1703
  103.5000   137.1176     8.0804     8.1232
  103.6000   136.2884     8.0376     8.1015
  103.7000   135.3019     8.0235     8.0858
  103.8000   134.2200     8.0013     8.0438
  103.9000   132.9872     7.9670     8.0429
  104.0000   131.6736     7.9666     8.0422
  104.1000   130.2912     7.9660     8.0115
  104.2000   128.8121     7.9292     7.9850
  104.3000   127.4516     7.8838     7.9746
  104.4000   126.2187     7.8548     7.9281
  104.5000   125.0000     7.8481     7.9274
  104.6000   124.1133     7.7994     7.8921
  104.7000   123.5196     7.7990     7.8709
  104.8000   122.9213     7.7680     7.8557
  104.9000   122.4274     7.7441     7.8149
