~VERSION INFORMATION
 VERS.                2.0:   CWLS LOG ASCII STANDARD - VERSION 2.0
 WRAP.                 NO:   ONE LINE PER DEPTH STEP
~WELL INFORMATION
#MNEM.UNIT      DATA TYPE    INFORMATION
#----------   ------------   ------------------------------
 STRT.F            2.0000:   START DEPTH
 STOP.F          592.0000:   STOP DEPTH
 STEP.F            0.1000:   STEP LENGTH
 NULL.          -999.2500:   NO VALUE
 COMP. BROWN JOHN E&C INC:   COMPANY
 WELL. NAVAL PETROLEUM RESERVE 3 SX-3 #73-3:   WELL
 FLD .             TEAPOT:   FIELD
 LOC .       S3 T38N R78W:   LOCATION
 CNTY.            NATRONA:   COUNTY
 STAT.            WYOMING:   STATE
 CTRY. UNITED STATES OF AMERICA:   COUNTRY
 SRVC.     Atlas Wireline:   SERVICE COMPANY
 DATE.        22-APR-1992:   LOGDATE
 API .       490252251000:   API NUMBER
~CURVE INFORMATION
#MNEM.UNIT       API CODE    CURVE DESCRIPTION
#----------   ------------   ------------------------------
 DEPT.F                  :   
 GRR .GAPI   07 310 01 00:   GAMMA RAY
 RILD.OHMM   07 120 46 00:   INDUCTION LOG DEEP RESISTIVITY
 RILM.OHMM   07 120 44 00:   INDUCTION LOG MEDIUM RESISTIVITY
~PARAMETER INFORMATION
#MNEM.UNIT          VALUE    DESCRIPTION
#----------   ------------   ------------------------------
 PD  .                 GL:   PERMANENT DATUM
 EPD .F              5148:   ELEVATION PERMANENT DATUM
 LMF .                 KB:   LOG MEASURED FROM
 DAPD.F                 5:   FEET ABOVE PERMANENT DATUM
 DMF .                 KB:   DRILLING MEASURED FROM
 EKB .F              5153:   KELLING BUSHING
 EDF .F              5152:   DRILLING FLOOR
 EGL .F              5148:   GROUND LEVEL
 DATE.        22-APR-1992:   RUN DATE
 RUN .                  1:   RUN NUMBER
 DD  .F               600:   DEPTH DRILLER
 DL  .F               601:   DEPTH LOGGER
 BLI .F               592:   BOTTOM LOG INTERVAL
 TLI .F                51:   TOP LOG INTERVAL
 CS  .IN            8.625:   CASING SIZE
 CBD .F                48:   CASING BOTTOM DRILLER
 CBL .F                51:   CASING BOTTOM LOGGER
 BS  .IN            7.875:   BIT SIZE
 BSD .F               600:   BIT SIZE AT DEPTH
 DFT .                AIR:   DRILLING FLUID TYPE
 LUN .            HL-5272:   LOGGING UNIT NUMBER
 LUL .             CASPER:   LOGGING UNIT LOCATION
 ENGI.       P. RAGMUSSEN:   RECORDING ENGINEER
 WITN.          G. STRONG:   WITNESSED BY
 CLNT.            A2DTECH:   CLIENT CODE
 ORIG.           5" PRINT:   ORIGIN OF DATA
 UWI .       490252251000:   UNIQUE WELL ID
 DICO. A2D Technologies, Inc.:   DIGITIZING COMPANY
~OTHER INFORMATION
~A    DEPT      GRR      RILD       RILM   
# ...
  420.6000    84.6714    19.3121    19.9144
  420.7000    84.9204    19.3137    19.9164
  420.8000    85.4785    19.3152    19.9183
  420.9000    86.6899    19.3171    19.8066
  421.0000    87.8134    19.3185    19.7840
  421.1000    89.0871    19.3201    19.7859
  421.2000    90.9064    19.3218    19.7501
  421.3000    92.9214    19.3234    19.6522
  421.4000    94.9364    19.3250    19.6546
  421.5000    96.9514    19.3265    19.6563
  421.6000    98.9941    19.3282    19.5840
  421.7000   101.4090    19.3298    19.5237
  421.8000   102.5316    19.3314    19.5015
  421.9000   103.0914    19.3280    19.3921
  422.0000   103.3404    19.2008    19.3940
  422.1000   103.5324    19.2021    19.3110
  422.2000   103.5354    19.2037    19.2631
  422.3000   102.7973    19.1651    19.2295
  422.4000   101.6794    19.0581    19.1331
  422.5000   100.4527    18.9431    19.1353
  422.6000    98.9063    18.8461    19.0418
  422.7000    96.8166    18.8147    19.0061
  422.8000    95.7108    18.7665    18.9615
  422.9000    95.2843    18.6873    18.8779
  423.0000    94.7955    18.6888    18.8798
  423.1000    94.4098    18.6904    18.7762
  423.2000    94.1667    18.6082    18.6716
  423.3000    93.9156    18.5638    18.5675
  423.4000    93.9185    18.5296    18.4639
  423.5000    94.1036    18.4262    18.3608
  423.6000    94.3526    18.3119    18.2448
  423.7000    94.5310    18.2211    18.1567
  423.8000    94.5489    18.1877    18.0555
  423.9000    94.8391    18.1442    17.9548
  424.0000    94.8416    18.0428    17.8741
  424.1000    94.8446    17.9408    17.8762
  424.2000    94.9414    17.9423    17.7793
  424.3000    95.1524    17.8663    17.7556
  424.4000    95.1556    17.8207    17.7044
  424.5000    95.1584    17.7909    17.6056
  424.6000    95.1614    17.6999    17.5151
  424.7000    95.1644    17.7017    17.5172
  424.8000    95.1674    17.6169    17.4337
  424.9000    95.1705    17.5816    17.3988
  425.0000    95.1735    17.5424    17.4005
  425.1000    94.9808    17.4624    17.3840
  425.2000    94.5978    17.4641    17.2832
  425.3000    94.1088    17.3709    17.2848
  425.4000    93.6202    17.3458    17.2865
  425.5000    93.0773    17.2975    17.2882
  425.6000    92.6423    17.2284    17.2899
  425.7000    92.1533    17.2298    17.2850
  425.8000    91.6644    17.2315    17.1735
  425.9000    91.2273    17.1517    17.1749
  426.0000    90.9804    17.1145    17.1163
  426.1000    90.7415    17.1160    17.0591
  426.2000    90.6848    17.1174    17.0441
  426.3000    90.6878    17.1189    16.9442
  426.4000    90.7656    17.0303    16.9458
  426.5000    91.0146    16.9353    16.9474
  426.6000    91.3006    16.8864    16.9007
  426.7000    91.9314    16.8878    16.8331
  426.8000    92.5185    16.8892    16.8294
  426.9000    93.0134    16.7737    16.7198
  427.0000    93.5931    16.6988    16.6422
  427.1000    94.6336    16.6056    16.6068
  427.2000    95.5667    16.5129    16.5722
  427.3000    97.2604    16.4207    16.4797
  427.4000    98.7467    16.3197    16.3821
  427.5000    99.4721    16.3209    16.2965
  427.6000    99.4751    16.2601    16.2056
  427.7000    99.4787    16.2104    16.1602
  427.8000    99.4811    16.1914    16.1617
  427.9000    99.4842    16.1007    16.1593
  428.0000    99.4872    16.1020    16.0531
  428.1000    99.4902    16.1034    16.0544
  428.2000    99.4935    16.1047    16.0559
  428.3000    99.2732    16.0768    16.0575
  428.4000    99.0303    15.9955    16.0590
  428.5000    98.8990    15.9972    16.0607
  428.6000    98.8461    15.9983    16.0621
  428.7000    98.6030    15.9996    16.0637
  428.8000    98.3603    16.0010    16.0653
  428.9000    98.3077    16.0024    16.0669
  429.0000    98.3108    16.0037    16.0715
  429.1000    98.3138    16.0050    16.1826
  429.2000    98.3168    16.0064    16.1839
  429.3000    98.3202    16.0077    16.2396
  429.4000    98.3228    16.0355    16.3001
  429.5000    98.3258    16.1222    16.3146
  429.6000    98.3288    16.1238    16.4173
  429.7000    98.3319    16.1249    16.4187
  429.8000    98.3350    16.1263    16.4203
  429.9000    98.3379    16.1634    16.4659
  430.0000    98.5218    16.2416    16.5383
  430.1000    98.6455    16.2431    16.5399
  430.2000    98.6486    16.3312    16.5415
  430.3000    98.6516    16.3592    16.5431
  430.4000    98.6551    16.4060    16.5447
  430.5000    98.8617    16.4762    16.5795
  430.6000    98.9623    16.4809    16.6636
  430.7000    98.9653    16.5944    16.6653
  430.8000    98.9684    16.5955    16.6668
  430.9000    98.9716    16.5969    16.6684
  431.0000    98.7472    16.6323    16.6700
  431.1000    98.5042    16.7156    16.6717
  431.2000    98.2613    16.7171    16.6733
  431.3000    98.0184    16.7184    16.6750
  431.4000    97.7709    16.7198    16.6766
  431.5000    97.2822    16.7648    16.6782
  431.6000    96.5986    16.8394    16.7122
  431.7000    96.0027    16.8408    16.7980
  431.8000    95.5139    16.8422    16.7998
  431.9000    95.0524    16.8436    16.8013
  432.0000    94.7816    16.8451    16.8029
  432.1000    94.5665    16.8150    16.8045
  432.2000    94.3235    16.7308    16.8062
  432.3000    94.1870    16.7325    16.8078
  432.4000    94.1900    16.7338    16.8094
  432.5000    94.1931    16.7352    16.8111
  432.6000    94.1961    16.7366    16.8127
  432.7000    94.0138    16.7380    16.8143
  432.8000    93.9005    16.7394    16.8160
  432.9000    93.8297    16.7408    16.8178
  433.0000    93.5867    16.7421    16.8192
  433.1000    93.3066    16.7435    16.8209
  433.2000    93.1008    16.7164    16.7811
  433.3000    92.8579    16.6301    16.7074
  433.4000    92.7119    16.6318    16.7091
  433.5000    92.6736    16.6330    16.7107
  433.6000    92.4165    16.6344    16.7123
  433.7000    92.4193    16.5982    16.6628
  433.8000    92.2465    16.5215    16.5996
  433.9000    92.1237    16.5232    16.6013
  434.0000    92.1267    16.4358    16.6031
  434.1000    92.1383    16.4112    16.5227
  434.2000    92.4350    16.3664    16.4909
  434.3000    92.4374    16.2502    16.4530
  434.4000    92.4405    16.0719    16.3612
  434.5000    92.6186    15.9661    16.2677
  434.6000    93.1133    15.8930    16.1793
  434.7000    93.6564    15.7513    16.0207
  434.8000    94.1031    15.6398    15.8410
  434.9000    94.5981    15.6283    15.6901
  435.0000    95.2037    15.5340    15.6025
  435.1000    96.1639    15.4544    15.5032
  435.2000    97.8944    15.3682    15.4291
  435.3000   100.3486    15.3229    15.3984
  435.4000   101.6750    15.3242    15.3640
  435.5000   102.2605    15.3255    15.2943
  435.6000   102.5874    15.3267    15.2961
  435.7000   103.0377    15.3280    15.2139
  435.8000   103.0411    15.3293    15.2572
  435.9000   103.0437    15.3306    15.3006
  436.0000   103.0467    15.3219    15.3020
  436.1000   102.8475    15.2269    15.3035
  436.2000   102.3129    15.2281    15.3052
  436.3000   101.5476    15.1722    15.3065
  436.4000   100.3718    15.0875    15.3080
  436.5000    98.0655    15.0213    15.3095
  436.6000    96.1087    15.0225    15.3110
  436.7000    95.0189    14.9397    15.3125
  436.8000    94.3100    14.8565    15.2312
  436.9000    94.0247    14.7736    15.1463
  437.0000    94.0272    14.7170    15.0618
  437.1000    93.8828    14.7111    14.9778
  437.2000    93.7315    14.6175    14.8942
  437.3000    93.7707    14.6186    14.7975
  437.4000    94.0395    14.6198    14.7286
  437.5000    94.0423    14.6210    14.6975
  437.6000    94.2159    14.6221    14.6989
  437.7000    94.4648    14.6234    14.6866
  437.8000    94.7139    14.5454    14.5999
  437.9000    94.9627    14.5244    14.6012
  438.0000    95.2118    14.5256    14.6027
  438.1000    95.4607    14.5268    14.5632
  438.2000    95.7096    14.5280    14.5042
  438.3000    95.9587    14.5294    14.5056
  438.4000    96.2076    14.4621    14.5072
  438.5000    96.4860    14.4308    14.4406
  438.6000    96.7055    14.4321    14.4091
  438.7000    96.7934    14.4333    14.3797
