~VERSION INFORMATION
 VERS.                2.0:   CWLS LOG ASCII STANDARD - VERSION 2.0
 WRAP.                 NO:   ONE LINE PER DEPTH STEP
~WELL INFORMATION
#MNEM.UNIT      DATA TYPE    INFORMATION
#----------   ------------   ------------------------------
 STRT.F           93.0000:   START DEPTH
 STOP.F         1921.0000:   STOP DEPTH
 STEP.F            0.5000:   STEP LENGTH
 NULL.          -999.2500:   NO VALUE
 COMP. LAWRENCE-ALLISON &AS:   COMPANY
 WELL.  NPR 3 #15-1SHX2/T:   WELL
 FLD .             NPR #3:   :   FIELD
 LOC .       S2 T38N R78W:   LOCATION
 CNTY.            NATRONA:   COUNTY
 STAT.            WYOMING:   STATE
 CTRY. UNITED STATES OF AMERICA:   COUNTRY
 SRVC.       Schlumberger:   SERVICE COMPANY
 DATE.        10-JUN-1982:   LOGDATE
 API .       490251077600:   API NUMBER
~CURVE INFORMATION
#MNEM.UNIT       API CODE    CURVE DESCRIPTION
#----------   ------------   ------------------------------
 DEPT.F                  :   
 GR  .GAPI   70 310 01 00:   GAMMA RAY
 CALI.IN     70 280 01 00:   CALIPER
~PARAMETER INFORMATION
#MNEM.UNIT          VALUE    DESCRIPTION
#----------   ------------   ------------------------------
 PD  .                 GL:   PERMANENT DATUM
 EPD .F              5116:   ELEVATION PERMANENT DATUM
 LMF .                 KB:   LOG MEASURED FROM
 DAPD.F                10:   FEET ABOVE PERMANENT DATUM
 DMF .                 KB:   DRILLING MEASURED FROM
 EKB .F              5126:   KELLING BUSHING
 EGL .F              5116:   GROUND LEVEL
 DATE.        10-JUN-1982:   RUN DATE
 RUN .                  1:   RUN NUMBER
 DD  .F              2100:   DEPTH DRILLER
 DL  .F              1924:   DEPTH LOGGER
 BLI .F              1921:   BOTTOM LOG INTERVAL
 TLI .F               100:   TOP LOG INTERVAL
 CS  .IN            10.75:   CASING SIZE
 BS  .IN             8.75:   BIT SIZE
 BSD .F              2100:   BIT SIZE AT DEPTH
 DFT .                AIR:   DRILLING FLUID TYPE
 ENGI.        C. MARRINER:   RECORDING ENGINEER
 WITN.             SCOTTY:   WITNESSED BY
 CLNT.            A2DTECH:   CLIENT CODE
 ORIG.           5" PRINT:   ORIGIN OF DATA
 UWI .       490251077600:   UNIQUE WELL ID
 DICO. A2D Technologies, Inc.:   DIGITIZING COMPANY
~OTHER INFORMATION
~A   DEPT       GR       CALI   
# ...
 1065.0000   135.7319    18.9147
 1065.5000   130.9028    18.3413
 1066.0000   132.0296    17.7383
 1066.5000   134.0388    16.6486
 1067.0000   133.6215    16.3844
 1067.5000   132.7570    16.5636
 1068.0000   133.0075    16.0935
 1068.5000   135.0166    15.8887
 1069.0000   137.4670    14.9465
 1069.5000   138.8144    13.8716
 1070.0000   136.1912    13.2981
 1070.5000   131.9949    12.6656
 1071.0000   133.7394    12.9181
 1071.5000   140.9011    13.2443
 1072.0000   145.1161    13.4821
 1072.5000   143.5959    13.5592
 1073.0000   138.9874    13.4708
 1073.5000   135.2613    13.4578
 1074.0000   133.2999    13.4751
 1074.5000   133.9855    13.5499
 1075.0000   137.0976    13.5025
 1075.5000   138.6656    13.4206
 1076.0000   139.3452    13.4375
 1076.5000   134.5221    14.0144
 1077.0000   130.7960    14.5914
 1077.5000   130.3787    15.1684
 1078.0000   130.1820    15.2734
 1078.5000   130.6478    15.3046
 1079.0000   130.8974    15.2174
 1079.5000   131.3625    15.2786
 1080.0000   131.8275    15.5901
 1080.5000   132.3478    15.6504
 1081.0000   132.9702    15.0626
 1081.5000   133.6579    15.1381
 1082.0000   130.1583    15.6118
 1082.5000   129.0732    16.0652
 1083.0000   131.7004    16.3087
 1083.5000   133.9031    16.7676
 1084.0000   133.7831    17.1086
 1084.5000   129.1747    17.4053
 1085.0000   127.6544    17.5693
 1085.5000   133.0609    17.4668
 1086.0000   139.3496    17.2460
 1086.5000   143.6143    17.1871
 1087.0000   144.9617    17.1486
 1087.5000   141.0150    17.5785
 1088.0000   134.8624    18.3472
 1088.5000   131.7980    19.5731
 1089.0000   131.3748    19.8045
 1089.5000   135.5958    18.9275
 1090.0000   139.3696    17.8231
 1090.5000   141.1582    16.3941
 1091.0000   139.4174    15.9388
 1091.5000   136.3530    16.1554
 1092.0000   133.2886    16.6503
 1092.5000   130.8860    16.7070
 1093.0000   130.0133    16.5210
 1093.5000   130.5227    16.4932
 1094.0000   132.0665    16.6130
 1094.5000   132.5316    17.5496
 1095.0000   132.1143    18.2788
 1095.5000   129.9323    19.2737
 1096.0000   127.9708    19.7026
 1096.5000   127.3270    19.1590
 1097.0000   130.4450    19.1903
 1097.5000   135.9836    19.7230
 1098.0000   139.5369    19.7985
 1098.5000   139.7813    19.9772
 1099.0000   140.0258    19.7430
 1099.5000   141.1526    18.7416
 1100.0000   143.3824    16.9145
 1100.5000   145.1688    16.5623
 1101.0000   140.7867    17.0517
 1101.5000   135.5164    17.6144
 1102.0000   131.5695    18.1917
 1102.5000   130.9256    18.7328
 1103.0000   132.0582    19.1786
 1103.5000   134.7290    19.5115
 1104.0000   136.7560    19.6906
 1104.5000   137.8905    20.6663
 1105.0000   139.4386    21.3321
 1105.5000   141.0064    21.5703
 1106.0000   141.4654    21.5872
 1106.5000   139.0686    21.5894
 1107.0000   136.8865    21.5916
 1107.5000   134.7044    21.5789
 1108.0000   133.4046    21.5812
 1108.5000   134.0901    21.5833
 1109.0000   137.4227    21.5855
 1109.5000   140.3141    21.5882
 1110.0000   142.3530    21.5904
 1110.5000   143.9930    21.5925
 1111.0000   146.3472    21.5947
 1111.5000   148.5768    21.5969
 1112.0000   154.6058    21.5990
 1112.5000   156.3409    21.5859
 1113.0000   151.9569    21.5886
 1113.5000   146.2473    21.5908
 1114.0000   142.5211    21.5782
 1114.5000   145.8536    21.5804
 1115.0000   148.3038    21.5678
 1115.5000   149.2099    21.5405
 1116.0000   149.6749    21.4842
 1116.5000   154.9928    20.7784
 1117.0000   158.9871    18.9369
 1117.5000   159.0108    16.0582
 1118.0000   155.2132    14.2657
 1118.5000   148.6927    12.5865
 1119.0000   143.2017    11.9839
 1119.5000   129.6483    11.6616
 1120.0000   122.0584    11.6490
 1120.5000   119.0083    11.6512
 1121.0000   125.4350    11.6386
 1121.5000   130.7529    11.5950
 1122.0000   134.9678    11.5840
 1122.5000   137.1974    11.6309
 1123.0000   129.5006    11.7363
 1123.5000   127.5390    11.7090
 1124.0000   129.3275    11.6669
 1124.5000   131.1160    11.5806
 1125.0000   130.9191    11.4790
 1125.5000   123.9519    11.4965
 1126.0000   118.7204    11.5281
 1126.5000   116.8787    11.5745
 1127.0000   119.1083    11.5767
 1127.5000   124.2056    11.5956
 1128.0000   129.3029    11.6865
 1128.5000   131.5325    11.7607
 1129.0000   131.3356    11.7476
 1129.5000   130.4770    11.7503
 1130.0000   128.0743    11.8410
 1130.5000   124.9953    11.9459
 1131.0000   123.0661    11.8011
 1131.5000   125.7212    11.7585
 1132.0000   135.2341    12.0119
 1132.5000   137.6843    12.3976
 1133.0000   133.5169    12.3407
 1133.5000   131.3347    12.0308
 1134.0000   130.9114    11.6946
 1134.5000   132.9264    11.7726
 1135.0000   133.6119    11.8485
 1135.5000   133.6744    11.7622
 1136.0000   130.1300    11.7791
 1136.5000   126.6243    11.8107
 1137.0000   122.7752    11.8424
 1137.5000   119.3566    11.8298
 1138.0000   121.6280    11.7435
 1138.5000   127.8282    11.7013
 1139.0000   131.8225    11.7478
 1139.5000   131.1845    11.8090
 1140.0000   128.1200    11.8712
 1140.5000   125.0555    11.9167
 1141.0000   121.5499    11.9340
 1141.5000   120.4698    11.7150
 1142.0000   120.7150    11.6576
 1142.5000   121.4080    11.8373
 1143.0000   122.1132    12.1812
 1143.5000   123.2187    12.8149
 1144.0000   124.3454    12.8319
 1144.5000   125.4721    12.4399
 1145.0000   126.5988    11.9955
 1145.5000   127.0637    12.2342
 1146.0000   128.6315    12.6936
 1146.5000   130.6406    12.9612
 1147.0000   132.4291    12.8306
 1147.5000   134.7597    12.5821
 1148.0000   136.3980    12.2598
 1148.5000   137.6217    12.0259
 1149.0000   137.5021    11.9396
 1149.5000   135.6648    11.8680
 1150.0000   134.1446    11.9882
 1150.5000   133.2797    12.2618
 1151.0000   134.6283    12.6263
 1151.5000   133.3284    12.4221
 1152.0000   130.7068    12.0405
 1152.5000   128.0852    12.0571
 1153.0000   127.4407    12.3392
 1153.5000   128.7892    12.2526
 1154.0000   129.6919    12.0037
 1154.5000   130.6000    12.0351
 1155.0000   131.2997    12.2140
 1155.5000   132.0384    12.0831
 1156.0000   132.8675    12.0236
 1156.5000   129.1446    12.0279
 1157.0000   123.4393    12.0888
 1157.5000   121.0326    12.3458
 1158.0000   124.3636    12.7245
 1158.5000   133.6363    13.1716
 1159.0000   139.3848    13.3947
 1159.5000   140.0672    13.4552
 1160.0000   139.6483    12.9118
 1160.5000   137.0267    12.2205
 1161.0000   130.6345    11.8974
 1161.5000   127.5353    12.0325
 1162.0000   126.9594    12.4473
 1162.5000   129.4093    13.3637
 1163.0000   131.1931    14.1768
 1163.5000   132.9768    14.3557
 1164.0000   134.9808    14.1068
 1164.5000   138.5266    14.1534
 1165.0000   139.4293    14.1372
 1165.5000   140.1117    13.9061
 1166.0000   141.6752    14.0850
 1166.5000   143.6792    14.3229
 1167.0000   142.8197    14.1745
 1167.5000   137.7418    13.6769
 1168.0000   129.5858    13.4588
 1168.5000   128.1268    13.2689
 1169.0000   131.6781    12.8283
 1169.5000   136.9015    12.8150
 1170.0000   140.9839    13.1271
 1170.5000   140.2673    13.8959
 1171.0000   136.1716    13.9416
 1171.5000   130.0258    13.5752
 1172.0000   127.8448    13.1346
 1172.5000   129.1880    13.1310
 1173.0000   131.8528    13.3449
 1173.5000   133.6365    13.4058
 1174.0000   135.5170    13.6783
 1174.5000   138.9661    14.2294
 1175.0000   138.7674    14.4439
 1175.5000   135.0445    14.2545
 1176.0000   131.5419    13.7549
 1176.5000   129.5675    13.7863
 1177.0000   130.1368    14.2306
 1177.5000   133.5945    15.0437
 1178.0000   135.1580    15.3254
 1178.5000   134.5188    14.8853
 1179.0000   134.3148    14.4147
 1179.5000   138.0863    15.7484
 1180.0000   138.7633    16.7791
 1180.5000   135.7066    17.2825
 1181.0000   134.4012    17.1221
 1181.5000   135.5296    16.4308
 1182.0000   139.7362    16.0047
 1182.5000   146.1455    15.9480
 1183.0000   147.2687    15.7282
 1183.5000   147.2900    15.9083
 1184.0000   145.9954    16.0269
 1184.5000   143.3739    15.9551
 1185.0000   140.0915    16.0310
 1185.5000   137.6902    16.0333
 1186.0000   136.3849    15.8434
