~VERSION INFORMATION
 VERS.                2.0:   CWLS LOG ASCII STANDARD - VERSION 2.0
 WRAP.                 NO:   ONE LINE PER DEPTH STEP
~WELL INFORMATION
#MNEM.UNIT      DATA TYPE    INFORMATION
#----------   ------------   ------------------------------
 STRT.F           30.0000:   START DEPTH
 STOP.F          733.0000:   STOP DEPTH
 STEP.F            0.5000:   STEP LENGTH
 NULL.          -999.2500:   NO VALUE
 COMP. FENIX & SCISSON INC:   COMPANY
 WELL.    NPR-3 #51 S -34:   WELL
 FLD .             TEAPOT:   FIELD
 LOC .      S34 T39N R78W:   LOCATION
 CNTY.            NATRONA:   COUNTY
 STAT.            WYOMING:   STATE
 CTRY. UNITED STATES OF AMERICA:   COUNTRY
 SRVC.      Dresser Atlas:   SERVICE COMPANY
 DATE.        20-MAR-1977:   LOGDATE
 API .       490251031600:   API NUMBER
~CURVE INFORMATION
#MNEM.UNIT       API CODE    CURVE DESCRIPTION
#----------   ------------   ------------------------------
 DEPT.F                  :   
 CALD.IN     45 280 60 00:   CALIPER FROM DENSITY LOG
 GRD .GAPI   45 310 01 00:   GAMMA RAY FROM DENSITY LOG
 CORR.G/C3   45 356 01 00:   DENSITY CORRECTION
 DPHI.DEC    45 890 12 00:   DENSITY POROSITY SANDSTONE
 RHOB.G/C3   45 350 01 00:   BULK DENSITY
 SPR .MV     07 010 01 00:   SPONTANEOUS POTENTIAL
 ILD .OHMM   07 120 46 00:   INDUCTION LOG DEEP
 ILM .OHMM   07 120 44 00:   INDUCTION LOG MEDIUM
 SFL .OHMM   07 220 01 00:   SHALLOW FOCUSED LOG RESISTIVITY
~PARAMETER INFORMATION
#MNEM.UNIT          VALUE    DESCRIPTION
#----------   ------------   ------------------------------
 PD  .                 GL:   PERMANENT DATUM
 EPD .F              5065:   ELEVATION PERMANENT DATUM
 LMF .                 KB:   LOG MEASURED FROM
 DAPD.F                 4:   FEET ABOVE PERMANENT DATUM
 DMF .                 KB:   DRILLING MEASURED FROM
 EKB .F              5069:   KELLING BUSHING
 EGL .F              5065:   GROUND LEVEL
 DATE.        20-MAR-1977:   RUN DATE
 RUN .                  1:   RUN NUMBER
 DD  .F               735:   DEPTH DRILLER
 DL  .F               731:   DEPTH LOGGER
 BLI .F               729:   BOTTOM LOG INTERVAL
 TLI .F                42:   TOP LOG INTERVAL
 CS  .IN            8.625:   CASING SIZE
 CBD .F                40:   CASING BOTTOM DRILLER
 CBL .F                42:   CASING BOTTOM LOGGER
 BS  .IN            7.875:   BIT SIZE
 BSD .F               735:   BIT SIZE AT DEPTH
 DFT .           CHEM GEL:   DRILLING FLUID TYPE
 DFD .                9.0:   DRILLING FLUID DENSITY
 DFV .                 38:   DRILLING FLUID VISCOSITY
 DFPH.                8.5:   DRILLING FLUID PH
 DFL .                 72:   DRILLING FLUID LOSS
 MSS .           FLOWLINE:   MUD SAMPLE SOURCE
 RMS .OHMM             .4:   RESISTIVITY MUD SAMPLE
 MST .F                51:   MUD SAMPLE TEMPERATURE
 RMF .OHMM            .72:   RESISTIVITY MUD FILTRATE SAMPLE
 MFST.F                48:   MUD FILTRATE SAMPLE TEMPERATURE
 RMC .OHMM           1.16:   RESISTIVITY MUD CAKE
 MCST.F                48:   MUD CAKE SAMPLE TEMPERATURE
 MFSS.               MEAS:   MUD FILTRATE SAMPLE SOURCE
 MCSS.               MEAS:   MUD CAKE SAMPLE SOURCE
 RMB .OHMM            .31:   RESISTIVITY MUD AT BHT
 BHT .F                66:   BOTTOM HOLE TEMPERATURE
 TCS .HRS            0300:   TIME CURCULATED STOPPED
 MRT .F                66:   MAXIMUM RECORDED TEMPERATURE
 LUN .               6145:   LOGGING UNIT NUMBER
 LUL .              GLTTE:   LOGGING UNIT LOCATION
 ENGI.              RANCK:   RECORDING ENGINEER
 WITN.              BURKE:   WITNESSED BY
 CLNT.            A2DTECH:   CLIENT CODE
 ORIG.           5" PRINT:   ORIGIN OF DATA
 UWI .       490251031600:   UNIQUE WELL ID
 DICO. A2D Technologies, Inc.:   DIGITIZING COMPANY
~OTHER INFORMATION
~A   DEPT     CALD        GRD       CORR       DPHI       RHOB        SPR        ILD        ILM        SFL   
# ...
  176.0000     8.2006   105.2623     0.0364     0.1019     2.4934   -45.1881     5.1959     6.0240     7.1747
  176.5000     8.1875   106.7729     0.0380     0.1018     2.4935   -45.0209     5.1999     5.9870     7.0803
  177.0000     8.1748   105.5970     0.0412     0.1021     2.4920   -44.8537     5.2039     5.9917     7.4686
  177.5000     8.1766   102.9285     0.0397     0.1036     2.4808   -44.9851     5.2079     6.0800     8.0593
  178.0000     8.1929   100.4092     0.0354     0.1089     2.4727   -45.4145     5.2119     6.0846     8.2626
  178.5000     8.1798    95.5336     0.0325     0.1113     2.4667   -45.8442     5.2159     6.0893     8.0433
  179.0000     8.1821    92.8319     0.0371     0.1107     2.4720   -45.9761     5.2562     6.0940     7.8299
  179.5000     8.1839    92.2485     0.0418     0.1082     2.4811   -46.1110     5.2602     6.1411     7.7819
  180.0000     8.1857    97.6442     0.0434     0.1046     2.4894   -46.2421     5.3376     6.1458     7.8963
  180.5000     8.1875    98.1100     0.0390     0.1028     2.4940   -46.3687     5.3417     6.1505     7.9572
  181.0000     8.1739    98.4266     0.0376     0.1026     2.4918   -46.6537     5.3458     6.1552     7.5348
  181.5000     8.1758    98.8925     0.0344     0.1051     2.4854   -46.7848     5.3500     6.1600     7.3349
  182.0000     8.1626   100.5523     0.0318     0.1080     2.4729   -46.9114     5.3541     6.1647     7.2395
  182.5000     8.1644   102.9585     0.0304     0.1107     2.4679   -46.8933     5.3582     6.1694     7.3461
  183.0000     8.1662   106.1109     0.0305     0.1122     2.4665   -46.8752     5.3623     6.1742     7.5059
  183.5000     8.1531   107.3230     0.0292     0.1127     2.4659   -46.8571     5.3665     6.1789     7.6691
  184.0000     8.1549   107.7851     0.0293     0.1127     2.4661   -46.8390     5.3706     6.1837     7.7282
  184.5000     8.1567   107.8030     0.0278     0.1124     2.4683   -46.9747     5.3377     6.1884     7.7341
  185.0000     8.1585   107.0895     0.0265     0.1117     2.4721   -47.2551     5.3039     6.2362     7.7401
  185.5000     8.1453   104.0696     0.0266     0.1108     2.4752   -47.3862     5.2714     6.3280     7.6912
  186.0000     8.1472   101.4149     0.0267     0.1096     2.4767   -47.6666     5.2401     6.3329     7.6985
  186.5000     8.1490    98.0239     0.0284     0.1086     2.4775   -47.7978     5.2069     6.3378     7.7579
  187.0000     8.1508    97.5940     0.0300     0.1071     2.4814   -47.7791     5.1750     6.2977     7.7104
  187.5000     8.1526    97.9108     0.0301     0.1058     2.4852   -47.7612     5.1791     6.3027     7.3517
  188.0000     8.1544    98.8244     0.0304     0.1049     2.4883   -47.7433     5.1830     6.2638     7.2049
  188.5000     8.1562    99.8873     0.0319     0.1043     2.4898   -47.8746     5.1870     6.2687     7.1114
  189.0000     8.1581   102.5919     0.0320     0.1045     2.4891   -47.8565     5.1910     6.2735     7.2674
  189.5000     8.1599   105.5951     0.0306     0.1054     2.4855   -47.8384     5.2310     6.2783     7.4770
  190.0000     8.1617   106.8072     0.0277     0.1072     2.4803   -47.6710     5.2714     6.3267     7.6926
  190.5000     8.1485   103.6909     0.0218     0.1095     2.4728   -47.6529     5.3121     6.3756     7.6439
  191.0000     8.1504   100.4254     0.0174     0.1107     2.4707   -47.7841     5.3162     6.3805     8.0307
  191.5000     8.1522    99.1002     0.0145     0.1110     2.4745   -47.7660     5.3944     6.4298     9.2929
  192.0000     8.1540    98.5167     0.0177     0.1073     2.4948   -47.8971     5.4738     6.4794    10.3727
  192.5000     8.1558    98.9871     0.0253     0.0992     2.5039   -48.0328     5.4780     6.4844    11.0745
  193.0000     8.1576    97.0649     0.0315     0.0905     2.5114   -48.0102     5.5973     6.5345     9.9679
  193.5000     8.1590    94.9934     0.0331     0.0820     2.5190   -47.9921     5.6405     6.5395     7.9774
  194.0000     8.1758    94.4100     0.0347     0.0766     2.5243   -48.1232     5.7632     6.5900     6.9697
  194.5000     8.1776    96.9699     0.0348     0.0777     2.5259   -47.9558     5.8480     6.6409     7.1822
  195.0000     8.1804   100.8685     0.0350     0.0884     2.5095   -48.0915     5.9753     6.6460     7.7503
  195.5000     8.1961   104.4687     0.0366     0.0983     2.4908   -48.2227     6.1053     6.6511     8.1409
  196.0000     8.2129   105.5316     0.0397     0.1010     2.4833   -48.3538     6.1952     6.6090     8.3179
  196.5000     8.2296   103.6093     0.0413     0.0998     2.4864   -48.4850     6.3300     6.6614     8.3243
  197.0000     8.2314   101.6871     0.0415     0.0992     2.4932   -48.4623     6.3789     6.6665     8.2731
  197.5000     8.2332   101.1036     0.0371     0.0991     2.4993   -48.5980     6.3838     6.8590     8.2226
  198.0000     8.2351   101.4428     0.0342     0.1000     2.5016   -48.5791     6.3877     7.1061     8.2289
  198.5000     8.2369   101.4383     0.0313     0.1018     2.4964   -48.5612     6.3925     7.2608     8.2352
  199.0000     8.2387   100.8378     0.0314     0.1038     2.4875   -48.6929     6.3974     7.2664     8.1832
  199.5000     8.2251    99.8219     0.0330     0.1050     2.4906   -48.6746     6.3581     7.2720     8.1910
  200.0000     8.2176    98.6567     0.0346     0.1044     2.4989   -48.8060     6.4077     7.1769     8.2562
  200.5000     8.2090    98.9640     0.0348     0.1033     2.4949   -48.3434     6.3671     7.0821     8.2779
  201.0000     8.2005    99.2714     0.0349     0.1031     2.4885   -48.7688     6.3706     7.0361     8.2996
  201.5000     8.1919    99.4630     0.0290     0.1079     2.4773   -48.9047     6.3292     6.8962     8.2536
  202.0000     8.1833   101.5720     0.0217     0.1117     2.4698   -49.0362     6.2035     6.7582     8.0285
  202.5000     8.1747   102.7855     0.0173     0.1129     2.4661   -49.0139     6.1632     6.6689     7.9732
  203.0000     8.1662   102.0587     0.0174     0.1129     2.4654   -48.9961     6.0408     6.5808     7.9732
  203.5000     8.1576   100.7134     0.0175     0.1117     2.4707   -48.8290     6.0016     6.5844     7.9732
  204.0000     8.1490    99.7080     0.0192     0.1110     2.4745   -48.5127     5.9223     6.6338     7.8095
  204.5000     8.1390    99.7274     0.0193     0.1104     2.4769   -48.3456     5.8847     6.6375     7.6491
  205.0000     8.1408   100.4932     0.0194     0.1104     2.4754   -48.1785     5.7670     6.6873     7.7022
  205.5000     8.1277   102.1544     0.0196     0.1116     2.4717   -48.1607     5.7304     6.7375     7.8095
  206.0000     8.1444   103.0694     0.0182     0.1145     2.4680   -48.1429     5.6940     6.7881     7.8637
  206.5000     8.1462   104.1337     0.0183     0.1154     2.4658   -48.1250     5.6979     6.8390     7.9182
  207.0000     8.1480   104.6009     0.0170     0.1157     2.4651   -48.2567     5.7011     6.8428     7.9182
  207.5000     8.1647   104.0234     0.0186     0.1153     2.4659   -48.3881     5.6641     6.8942     7.9182
  208.0000     8.1815   101.5055     0.0187     0.1144     2.4667   -48.8179     5.6680     6.8980     7.9182
  208.5000     8.1833   100.4802     0.0189     0.1132     2.4683   -48.9502     5.6711     6.9497     7.9182
  209.0000     8.2000    99.7534     0.0190     0.1117     2.4698   -49.0807     5.6343     6.9536     8.0842
  209.5000     8.2167    99.3202     0.0206     0.1101     2.4736   -49.0627     5.6774     7.0545     8.2536
  210.0000     8.2335    99.4938     0.0223     0.1083     2.4804   -49.1943     5.7199     7.1074     8.3109
  210.5000     8.2353   101.9014     0.0255     0.1065     2.4865   -49.0273     5.7628     7.1607     8.0842
  211.0000     8.2371   102.6671     0.0302     0.1048     2.4903   -49.1587     5.7660     7.1647     7.9182
  211.5000     8.2389   104.3284     0.0348     0.1030     2.4941   -49.1403     5.7692     7.1192     7.8637
  212.0000     8.2404   105.0941     0.0364     0.1022     2.4956   -49.1224     5.8124     7.1231     7.8637
