~VERSION INFORMATION
 VERS.                2.0:   CWLS LOG ASCII STANDARD - VERSION 2.0
 WRAP.                 NO:   ONE LINE PER DEPTH STEP
~WELL INFORMATION
#MNEM.UNIT      DATA TYPE    INFORMATION
#----------   ------------   ------------------------------
 STRT.F            0.0000:   START DEPTH
 STOP.F          561.0000:   STOP DEPTH
 STEP.F            0.1000:   STEP LENGTH
 NULL.          -999.2500:   NO VALUE
 COMP.       F D SERV INC:   COMPANY
 WELL.  83-1 sx 10 #83-10:   WELL
 FLD .             TEAPOT:   FIELD
 LOC .      S10 T38N R78W:   LOCATION
 CNTY.            NATRONA:   COUNTY
 STAT.            WYOMING:   STATE
 CTRY. UNITED STATES OF AMERICA:   COUNTRY
 SRVC.     Atlas Wireline:   SERVICE COMPANY
 DATE.        10-DEC-1992:   LOGDATE
 API .       490252258000:   API NUMBER
~CURVE INFORMATION
#MNEM.UNIT       API CODE    CURVE DESCRIPTION
#----------   ------------   ------------------------------
 DEPT.F                  :   
 GRR .GAPI   07 310 01 00:   GAMMA RAY
 RILD.OHMM   07 120 46 00:   INDUCTION LOG DEEP RESISTIVITY
 RILM.OHMM   07 120 44 00:   INDUCTION LOG MEDIUM RESISTIVITY
~PARAMETER INFORMATION
#MNEM.UNIT          VALUE    DESCRIPTION
#----------   ------------   ------------------------------
 PD  .                 GL:   PERMANENT DATUM
 EPD .F              5170:   ELEVATION PERMANENT DATUM
 LMF .                 KB:   LOG MEASURED FROM
 DAPD.F                10:   FEET ABOVE PERMANENT DATUM
 DMF .                 KB:   DRILLING MEASURED FROM
 EKB .F              5180:   KELLING BUSHING
 EDF .F              5179:   DRILLING FLOOR
 EGL .F              5170:   GROUND LEVEL
 DATE.        10-DEC-1992:   RUN DATE
 RUN .                  1:   RUN NUMBER
 DD  .F               567:   DEPTH DRILLER
 DL  .F               569:   DEPTH LOGGER
 BLI .F               560:   BOTTOM LOG INTERVAL
 TLI .F                97:   TOP LOG INTERVAL
 CS  .IN            8.625:   CASING SIZE
 CBD .F                97:   CASING BOTTOM DRILLER
 CBL .F                97:   CASING BOTTOM LOGGER
 BS  .IN            7.875:   BIT SIZE
 BSD .F               567:   BIT SIZE AT DEPTH
 DFT .           AIR FOAM:   DRILLING FLUID TYPE
 MRT .F                65:   MAXIMUM RECORDED TEMPERATURE
 LUN .           HL- 6274:   LOGGING UNIT NUMBER
 LUL .             CASPER:   LOGGING UNIT LOCATION
 ENGI.       P. RASMUSSEN:   RECORDING ENGINEER
 WITN.          G. STRONG:   WITNESSED BY
 CLNT.            A2DTECH:   CLIENT CODE
 ORIG.           5" PRINT:   ORIGIN OF DATA
 UWI .       490252258000:   UNIQUE WELL ID
 DICO. A2D Technologies, Inc.:   DIGITIZING COMPANY
~OTHER INFORMATION
~A    DEPT      GRR      RILD       RILM   
# ...
  491.4000   109.8634    11.1503    11.2102
  491.5000   109.5599    11.1274    11.2106
  491.6000   109.3454    11.0730    11.2034
  491.7000   109.0855    11.0726    11.1336
  491.8000   108.8255    10.9963    11.1339
  491.9000   108.6495    10.9964    11.1342
  492.0000   108.6090    10.9527    11.0944
  492.1000   108.3460    10.9202    11.0577
  492.2000   108.3460    10.9204    11.0581
  492.3000   108.1326    10.9205    11.0516
  492.4000   107.8726    10.9207    10.9821
  492.5000   107.7390    10.9974    10.9824
  492.6000   107.7390    10.9975    10.9827
  492.7000   107.7784    10.9547    10.9830
  492.8000   108.0425    10.9213    10.9833
  492.9000   108.0425    10.9008    10.9836
  493.0000   108.2549    10.8456    10.9839
  493.1000   108.3460    10.8457    10.9843
  493.2000   108.3460    10.7704    10.9463
  493.3000   108.4279    10.7706    10.9053
  493.4000   108.6495    10.7296    10.8643
  493.5000   108.6495    10.6959    10.8233
  493.6000   108.9530    10.6768    10.7823
  493.7000   109.1644    10.6218    10.7413
  493.8000   109.2564    10.6219    10.7003
  493.9000   109.3809    10.6221    10.6593
  494.0000   109.6409    10.5720    10.6183
  494.1000   109.8634    10.5485    10.5773
  494.2000   109.8634    10.5199    10.5391
  494.3000   110.1669    10.4754    10.5394
  494.4000   110.3774    10.4755    10.4837
  494.5000   110.6374    10.4757    10.4670
  494.6000   110.8973    10.4166    10.4326
  494.7000   111.1573    10.4030    10.3952
  494.8000   111.3809    10.3654    10.3954
  494.9000   111.3809    10.3309    10.3957
  495.0000   111.3809    10.3311    10.3961
  495.1000   111.3809    10.3312    10.3420
  495.2000   111.3809    10.3314    10.3246
  495.3000   111.2585    10.3315    10.3249
  495.4000   111.0774    10.2846    10.3022
  495.5000   111.0420    10.2599    10.2540
  495.6000   110.7739    10.2601    10.2520
  495.7000   110.7739    10.2445    10.1836
  495.8000   110.5655    10.1889    10.1839
  495.9000   110.3055    10.1891    10.1420
  496.0000   110.0455    10.1335    10.1140
  496.1000   109.7076    10.0733    10.1142
  496.2000   109.1876    10.0482    10.1030
  496.3000   108.6495    10.0237    10.0448
  496.4000   107.8968     9.9641    10.0451
  496.5000   107.3242     9.9093     9.9946
  496.6000   106.9681     9.9094     9.9761
  496.7000   106.5877     9.8562     9.9459
  496.8000   106.1446     9.8407     9.8873
  496.9000   105.9181     9.8077     9.8392
  497.0000   106.2215     9.7725     9.8396
  497.1000   106.4715     9.7594     9.7718
  497.2000   106.7315     9.7048     9.7720
  497.3000   107.3172     9.7049     9.7335
  497.4000   108.4551     9.6536     9.6761
  497.5000   110.0151     9.6377     9.6191
  497.6000   111.5427     9.6061     9.5624
  497.7000   112.8983     9.5709     9.5056
  497.8000   114.3914     9.5588     9.4401
  497.9000   116.3621     9.5020     9.3942
  498.0000   118.1184     9.4385     9.3388
  498.1000   119.6783     9.3895     9.2838
  498.2000   120.8639     9.3731     9.2290
  498.3000   121.1239     9.3433     9.1666
  498.4000   121.3961     9.2878     9.0562
  498.5000   121.1483     9.2326     8.9938
  498.6000   120.8883     9.1761     8.9509
  498.7000   120.6283     9.0522     8.8982
  498.8000   120.3683     9.0059     8.8457
  498.9000   120.0345     8.9157     8.7935
  499.0000   119.5145     8.8099     8.7485
  499.1000   118.9681     8.7054     8.7488
  499.2000   118.4745     8.6021     8.6991
  499.3000   117.9545     8.5000     8.6478
  499.4000   117.5944     8.3837     8.5969
  499.5000   117.2180     8.2997     8.5232
  499.6000   116.6981     8.2013     8.4227
  499.7000   116.2074     8.0797     8.3234
  499.8000   115.9332     7.9363     8.2202
  499.9000   115.6874     7.8031     8.1284
  500.0000   115.2251     7.7105     8.0698
  500.1000   114.8639     7.6288     7.9647
  500.2000   114.7193     7.5471     7.8040
  500.3000   114.6474     7.4654     7.6208
  500.4000   114.4158     7.3838     7.4462
  500.5000   114.4158     7.3021     7.3061
  500.6000   114.4158     7.2204     7.1464
  500.7000   114.4158     7.1388     7.0422
  500.8000   114.4158     7.0571     6.9348
  500.9000   114.4158     6.9754     6.8296
  501.0000   114.4158     6.8937     6.7389
  501.1000   114.4158     6.7748     6.6165
  501.2000   114.4158     6.5471     6.4487
  501.3000   114.9035     6.1849     6.2759
  501.4000   115.6238     5.9584     6.0658
  501.5000   117.5014     5.8240     5.8144
  501.6000   119.7611     5.6606     5.5975
  501.7000   121.5113     5.5146     5.4738
  501.8000   123.2553     5.3847     5.3794
  501.9000   126.8589     5.2578     5.3100
  502.0000   128.8012     5.1370     5.2817
  502.1000   130.8812     5.0405     5.2277
  502.2000   133.1169     4.9846     5.1661
  502.3000   135.1311     4.9483     5.1053
  502.4000   137.1775     4.9366     5.0586
  502.5000   138.5434     4.9242     5.0606
  502.6000   140.2875     4.9103     5.0942
  502.7000   142.1074     4.9372     5.1213
  502.8000   144.0243     4.9375     5.1520
  502.9000   146.2110     4.9648     5.1829
  503.0000   148.7706     4.9948     5.2258
  503.1000   150.5311     5.0249     5.2884
  503.2000   151.8905     5.0552     5.3517
  503.3000   152.7345     5.0929     5.4239
  503.4000   153.2777     5.1521     5.4808
  503.5000   153.8908     5.1863     5.5232
  503.6000   151.8591     5.2144     5.5741
  503.7000   149.5271     5.2459     5.6408
  503.8000   147.1951     5.2952     5.7084
  503.9000   145.1417     5.3590     5.7777
  504.0000   143.3444     5.4235     5.8965
  504.1000   140.4600     5.4889     5.9879
  504.2000   134.7752     5.5631     6.0958
  504.3000   131.9271     5.6220     6.2057
  504.4000   128.7331     5.6898     6.3040
  504.5000   126.5371     5.7583     6.3795
  504.6000   125.2418     5.8407     6.4558
  504.7000   124.0304     5.9464     6.5453
  504.8000   123.2461     6.0528     6.6116
  504.9000   121.7294     6.1362     6.7179
  505.0000   120.8802     6.3289     6.8390
  505.1000   120.0121     6.5329     6.9763
  505.2000   119.3590     6.6890     7.1514
  505.3000   118.9208     6.8244     7.3668
  505.4000   118.6270     7.0047     7.5222
  505.5000   118.0911     7.2588     7.6728
  505.6000   117.8416     7.4634     7.8577
  505.7000   117.5830     7.6151     8.0469
  505.8000   117.1630     7.7995     8.2244
  505.9000   116.6452     7.9883     8.3724
  506.0000   116.2003     8.1652     8.5254
  506.1000   115.9417     8.3129     8.7052
  506.2000   115.6674     8.4651     8.7903
  506.3000   115.4246     8.5846     8.8614
  506.4000   114.9669     8.6692     8.9144
  506.5000   114.6039     8.7397     8.9678
  506.6000   114.3454     8.8176     9.0140
  506.7000   114.1530     8.9074     9.0143
  506.8000   114.1536     8.9685     9.0146
  506.9000   114.1542     9.0800     9.0578
  507.0000   114.1548     9.0804     9.0779
  507.1000   114.3478     9.1678     9.1031
  507.2000   114.6076     9.2088     9.1416
  507.3000   114.9712     9.2344     9.1487
  507.4000   115.5497     9.2741     9.2059
  507.5000   116.3278     9.2810     9.2061
  507.6000   117.1934     9.3399     9.2495
  507.7000   117.8841     9.3403     9.2708
  507.8000   119.0335     9.3842     9.2958
  507.9000   120.1885     9.4065     9.3359
  508.0000   121.1288     9.4316     9.3362
  508.1000   121.8542     9.4733     9.3365
  508.2000   122.3563     9.4792     9.3890
  508.3000   122.3570     9.5405     9.4021
  508.4000   122.3575     9.5408     9.4361
  508.5000   122.3581     9.5412     9.4681
  508.6000   122.3587     9.5752     9.4684
  508.7000   122.2689     9.6089     9.4740
  508.8000   122.0563     9.6235     9.5349
  508.9000   122.3605     9.6770     9.5352
  509.0000   122.3613     9.6775     9.5354
  509.1000   122.3618     9.7304     9.5691
  509.2000   122.5348     9.7461     9.6024
  509.3000   122.6665     9.7465     9.6169
  509.4000   122.7509     9.7700     9.6699
  509.5000   122.9712     9.8156     9.6702
