~VERSION INFORMATION
 VERS.                2.0:   CWLS LOG ASCII STANDARD - VERSION 2.0
 WRAP.                 NO:   ONE LINE PER DEPTH STEP
~WELL INFORMATION
#MNEM.UNIT      DATA TYPE    INFORMATION
#----------   ------------   ------------------------------
 STRT.F            9.0000:   START DEPTH
 STOP.F          512.0000:   STOP DEPTH
 STEP.F            0.5000:   STEP LENGTH
 NULL.          -999.2500:   NO VALUE
 COMP. LAWRENCE-ALLISON &AS:   COMPANY
 WELL. NPR 3 #61-21SX10UP2:   WELL
 FLD .             TEAPOT:   FIELD
 LOC .      S10 T38N R78W:   LOCATION
 CNTY.            NATRONA:   COUNTY
 STAT.            WYOMING:   STATE
 CTRY. UNITED STATES OF AMERICA:   COUNTRY
 SRVC.      Dresser Atlas:   SERVICE COMPANY
 DATE.        13-DEC-1984:   LOGDATE
 API .       490251100500:   API NUMBER
~CURVE INFORMATION
#MNEM.UNIT       API CODE    CURVE DESCRIPTION
#----------   ------------   ------------------------------
 DEPT.F                  :   
 PORD.DEC    45 890 12 00:   POROSITY DENSITY SANDSTONE
 CNCF.DEC    42 890 03 00:   NEUTRON POROSITY SANDSTONE
 GRD .GAPI   45 310 01 00:   GAMMA RAY FROM DENSITY LOG
 CALD.IN     45 280 60 00:   CALIPER FROM DENSITY LOG
 CORR.G/C3   45 356 01 00:   DENSITY CORRECTION
 DEN .G/C3   45 350 01 00:   COMPENSATED BULK DENSTIY
 AC  .US/F   60 520 00 00:   ACCOUSTIC
 RILD.OHMM   07 120 46 00:   INDUCTION LOG DEEP RESISTIVITY
 RILM.OHMM   07 120 44 00:   INDUCTION LOG MEDIUM RESISTIVITY
 RFOC.OHMM   07 220 04 00:   RESISTIVITY FOCUSED LOG
 SPR .MV     11 010 01 00:   SPONTANEOUS POTENTIAL FROM RES.
 RS  .OHMM   11 220 09 00:   RESISTIVITY SHALLOW
 RD  .OHMM   11 220 10 00:   RESISTIVITY DEEP
~PARAMETER INFORMATION
#MNEM.UNIT          VALUE    DESCRIPTION
#----------   ------------   ------------------------------
 PD  .                 GL:   PERMANENT DATUM
 EPD .F              5157:   ELEVATION PERMANENT DATUM
 LMF .                 GL:   LOG MEASURED FROM
 DMF .                 GL:   DRILLING MEASURED FROM
 EGL .F              5157:   GROUND LEVEL
 DATE.         12-13-1984:   RUN DATE
 RUN .                  1:   RUN NUMBER
 DD  .F               514:   DEPTH DRILLER
 DL  .F               513:   DEPTH LOGGER
 BLI .F               512:   BOTTOM LOG INTERVAL
 TLI .F                20:   TOP LOG INTERVAL
 CS  .IN            8.625:   CASING SIZE
 CBD .F                20:   CASING BOTTOM DRILLER
 CBL .F                20:   CASING BOTTOM LOGGER
 BS  .IN            7.875:   BIT SIZE
 BSD .F               514:   BIT SIZE AT DEPTH
 DFT .          KCL WATER:   DRILLING FLUID TYPE
 MSS .           FLOWLINE:   MUD SAMPLE SOURCE
 RMS .OHMM            .17:   RESISTIVITY MUD SAMPLE
 MST .F                95:   MUD SAMPLE TEMPERATURE
 RMF .OHMM            .08:   RESISTIVITY MUD FILTRATE SAMPLE
 MFST.F                95:   MUD FILTRATE SAMPLE TEMPERATURE
 RMC .OHMM            .14:   RESISTIVITY MUD CAKE
 MCST.F                95:   MUD CAKE SAMPLE TEMPERATURE
 MFSS.               CALC:   MUD FILTRATE SAMPLE SOURCE
 MCSS.               CALC:   MUD CAKE SAMPLE SOURCE
 TCS .HRS              10:   TIME CURCULATED STOPPED
 MRT .F               100:   MAXIMUM RECORDED TEMPERATURE
 LUN .               6270:   LOGGING UNIT NUMBER
 LUL .                 FM:   LOGGING UNIT LOCATION
 ENGI.            LEBSOCK:   RECORDING ENGINEER
 WITN.        GREG GROOMS:   WITNESSED BY
 CLNT.            A2DTECH:   CLIENT CODE
 ORIG.           5" PRINT:   ORIGIN OF DATA
 UWI .       490251100500:   UNIQUE WELL ID
 DICO. A2D Technologies, Inc.:   DIGITIZING COMPANY
~OTHER INFORMATION
~A    DEPT    PORD       CNCF        GRD       CALD       CORR        DEN          AC      RILD       RILM       RFOC        SPR         RS         RD   
# ...
  347.0000     0.2093     0.2811    71.9186     7.8118    -0.0040     2.3272   100.7488    28.8848    28.0230    24.2997   -53.9104    26.5665    27.4067
  347.5000     0.2095     0.2802    73.4265     7.8114     0.0005     2.3279   100.6778    29.2995    29.4092    24.4593   -54.3706    26.5537    27.3954
  348.0000     0.2056     0.2679    77.3436     7.8111     0.0096     2.3332   100.4590    30.5344    30.6497    24.9581   -54.5310    26.9118    27.5751
  348.5000     0.2014     0.2649    80.3572     7.7957     0.0201     2.3407   100.4649    31.6007    31.5005    25.1220   -54.6913    27.0894    27.5634
  349.0000     0.1990     0.2610    78.8527     7.7803     0.0291     2.3452   100.5462    32.7042    31.7092    25.2800   -54.8517    27.2649    27.5520
  349.5000     0.1990     0.2589    75.8421     7.7800     0.0351     2.3467   100.5521    32.6883    31.6899    25.2660   -55.0121    27.4416    27.5406
  350.0000     0.1993     0.2620    74.6388     7.7797     0.0396     2.3459   100.5581    32.6725    31.3129    25.4284   -55.0225    27.4195    27.5292
  350.5000     0.1993     0.2716    74.8529     7.7795     0.0289     2.3451   100.4829    32.6520    30.4376    25.4142   -55.2076    27.3127    27.5177
  351.0000     0.1957     0.2828    75.5422     7.7792     0.0079     2.3506   100.3324    32.1893    29.7294    25.4001   -55.3927    27.2131    27.5045
  351.5000     0.1918     0.2986    76.7470     7.7788    -0.0012     2.3543   100.1233    31.7288    28.7017    24.8614   -55.5778    26.8268    27.4931
  352.0000     0.1920     0.2850    80.1594     7.7785    -0.0043     2.3572    99.9045    31.2748    27.9033    24.5040   -55.9594    26.0814    26.7287
  352.5000     0.1911     0.2751    81.2651     7.7782    -0.0028     2.3579    99.7581    30.5924    27.3168    24.5141   -56.1183    25.3568    26.1667
  353.0000     0.1887     0.2733    79.1566     7.7779     0.0062     2.3601    99.4638    28.8052    27.1177    24.3281   -56.2772    25.3463    26.1559
  353.5000     0.1849     0.2815    78.2530     7.7776     0.0122     2.3646    99.1681    27.4192    26.5157    24.3180   -56.5860    25.5149    25.9641
  354.0000     0.1822     0.2839    77.3494     7.7773     0.0122     2.3714    99.0217    26.8363    25.4004    23.7812   -56.7449    25.1501    25.2422
  354.5000     0.1816     0.2770    76.4458     7.7922     0.0107     2.3737    98.8768    26.0837    24.3997    22.9796   -56.9038    24.2822    24.5404
  355.0000     0.1825     0.2643    76.5964     7.7918     0.0137     2.3729    98.8073    25.3522    23.8868    21.8776   -57.2126    23.4443    23.8580
  355.5000     0.1805     0.2583    77.8012     7.7915     0.0242     2.3774    98.7391    24.8132    23.5482    21.5662   -57.3715    22.9517    23.1947
  356.0000     0.1769     0.2550    81.2651     7.7912     0.0242     2.3827    98.6697    24.4552    23.0532    21.7102   -57.8302    22.4694    22.5498
  356.5000     0.1730     0.2521    83.9759     7.7909     0.0241     2.3894    98.5249    23.9354    22.8853    21.6990   -57.9891    21.9972    22.2295
  357.0000     0.1748     0.2482    85.4819     7.7906     0.0226     2.3903    98.7572    23.7547    22.5609    21.5396   -58.5978    21.5350    21.9138
  357.5000     0.1797     0.2464    86.0843     7.7903     0.0195     2.3849    98.8499    23.4120    22.5532    20.9395   -58.7567    21.2293    21.7531
  358.0000     0.1885     0.2489    85.7831     7.7749     0.0165     2.3675    98.8443    22.9143    22.2335    20.0746   -59.0655    20.9280    21.2957
  358.5000     0.1916     0.2532    84.7289     7.7897     0.0180     2.3569    98.6255    22.5837    21.7661    19.7888   -59.2244    20.7747    21.1395
  359.0000     0.1861     0.2564    82.7711     7.7894     0.0330     2.3654    98.3297    21.9504    20.8678    19.9209   -59.3833    20.6224    20.8393
  359.5000     0.1801     0.2534    81.4157     7.7891     0.0421     2.3774    98.0340    21.6337    20.1465    20.1899   -59.6921    20.4713    20.8307
  360.0000     0.1787     0.2501    80.9639     7.7888     0.0345     2.3817    97.5874    21.3216    19.4501    20.4645   -59.8510    20.3213    20.6779
  360.5000     0.1839     0.2480    80.3614     7.7885     0.0179     2.3689    97.2163    20.7237    19.0413    19.6192   -60.1598    20.1724    20.6694
  361.0000     0.1866     0.2484    78.8554     7.7882     0.0042     2.3673    97.0714    20.2793    18.6410    18.9403   -60.3187    20.1640    20.6608
  361.5000     0.1851     0.2517    77.1988     7.7879     0.0027     2.3726    96.8510    19.8415    17.9907    18.6706   -60.4776    19.8778    20.6522
  362.0000     0.1803     0.2659    76.5964     7.7876     0.0057     2.3816    96.6307    19.2788    17.3615    18.7934   -60.7864    19.5956    20.3588
  362.5000     0.1788     0.2687    77.9769     7.7886    -0.0006     2.3816    96.3350    18.8627    16.8911    18.7854   -61.0952    19.0512    20.1978
  363.0000     0.1795     0.2669    78.2530     7.8172    -0.0127     2.3808    96.2655    18.6097    16.3060    18.7760   -61.2541    18.7808    20.0612
  363.5000     0.1807     0.2618    76.6446     7.8169    -0.0170     2.3801    96.1960    18.4692    15.8524    18.7683   -61.5629    18.5142    19.8943
  364.0000     0.1823     0.2537    74.9398     7.8140    -0.0120     2.3763    96.1265    18.2028    15.3045    18.5012   -61.8717    18.1252    19.6076
  364.5000     0.1847     0.2428    76.8976     7.7861    -0.0005     2.3702    95.9830    17.9402    14.8787    18.2378   -62.1805    17.7443    19.2167
  365.0000     0.1851     0.2374    78.8554     7.7707     0.0055     2.3724    95.6873    17.6813    14.5660    17.9783   -62.3394    17.4925    18.9438
  365.5000     0.1794     0.2371    79.9096     7.7704     0.0221     2.3807    95.3916    17.4263    14.4599    17.7224   -62.6482    17.0064    18.8049
  366.0000     0.1752     0.2378    77.9518     7.7701     0.0326     2.3867    94.9450    17.0558    14.3546    17.3489   -62.9571    16.8818    18.4094
  366.5000     0.1722     0.2429    77.5000     7.7698     0.0296     2.3912    94.5738    16.9271    14.3497    17.1020   -62.9660    16.5271    18.1480
  367.0000     0.1680     0.2508    78.4036     7.7695     0.0205     2.3982    94.2027    16.5672    14.3447    16.8586   -63.1249    16.4059    17.8902
  367.5000     0.1587     0.2533    80.3614     7.7692     0.0054     2.4144    93.6807    15.9910    14.1414    16.7348   -63.2838    16.2820    17.6361
  368.0000     0.1474     0.2506    82.4699     7.7689    -0.0022     2.4401    93.0833    15.7603    13.9409    16.4966   -63.4427    16.0545    17.3856
  368.5000     0.1421     0.2491    83.6747     7.7686    -0.0007     2.4418    92.7122    15.7505    13.8394    16.2618   -63.6016    15.9287    17.2581
  369.0000     0.1423     0.2542    83.3735     7.7683     0.0053     2.4372    92.6426    15.7408    13.8346    16.1423   -63.7605    15.6019    17.1316
  369.5000     0.1473     0.2582    82.0181     7.7831     0.0158     2.4357    92.4977    15.8413    13.9272    16.0238   -63.9194    15.4875    17.0059
  370.0000     0.1431     0.2452    80.3614     7.7677     0.0565     2.4447    92.4283    15.9419    14.1171    16.0171   -64.2282    15.4811    16.8812
  370.5000     0.1384     0.2338    80.6627     7.7674     0.0686     2.4522    92.3482    15.9317    14.1121    16.1224   -64.3871    15.4746    16.8743
  371.0000     0.1369     0.2314    83.6747     7.7671     0.0640     2.4545    92.2139    15.9219    14.2244    16.1155   -64.5460    15.4682    16.7505
  371.5000     0.1381     0.2308    84.8795     7.7668     0.0429     2.4446    92.1444    15.9120    14.5011    15.9958   -64.7049    15.4618    16.7436
  372.0000     0.1442     0.2306    84.7289     7.7665     0.0141     2.4393    91.9255    15.9021    14.3943    15.9892   -64.7138    15.4541    16.7367
  372.5000     0.1445     0.2309    83.8253     7.7662    -0.0161     2.4408    91.7806    15.7819    14.1902    15.8717   -64.7228    15.3408    16.7297
