~VERSION INFORMATION
 VERS.                2.0:   CWLS LOG ASCII STANDARD - VERSION 2.0
 WRAP.                 NO:   ONE LINE PER DEPTH STEP
~WELL INFORMATION
#MNEM.UNIT      DATA TYPE    INFORMATION
#----------   ------------   ------------------------------
 STRT.F           29.0000:   START DEPTH
 STOP.F          539.0000:   STOP DEPTH
 STEP.F            0.1000:   STEP LENGTH
 NULL.          -999.2500:   NO VALUE
 COMP. LAWRENCE/ALLISON INC:   COMPANY
 WELL. NPR 3 81-11 STX #10-10:   WELL
 FLD .             TEAPOT:   FIELD
 LOC .      S10 T38N R78W:   LOCATION
 CNTY.            NATRONA:   COUNTY
 STAT.            WYOMING:   STATE
 CTRY. UNITED STATES OF AMERICA:   COUNTRY
 SRVC.           Gearhart:   SERVICE COMPANY
 DATE.        01-JUN-1987:   LOGDATE
 API .       490251113000:   API NUMBER
~CURVE INFORMATION
#MNEM.UNIT       API CODE    CURVE DESCRIPTION
#----------   ------------   ------------------------------
 DEPT.F                  :   
 GRR .GAPI   07 310 01 00:   GAMMA RAY FROM RES. LOG.
 ILD .OHMM   07 120 46 00:   INDUCTION LOG DEEP RESISTIVITY
 RILM.OHMM   07 120 44 00:   INDUCTION LOG MEDIUM RESISTIVITY
~PARAMETER INFORMATION
#MNEM.UNIT          VALUE    DESCRIPTION
#----------   ------------   ------------------------------
 PD  .                 GL:   PERMANENT DATUM
 EPD .F              5156:   ELEVATION PERMANENT DATUM
 LMF .                 KB:   LOG MEASURED FROM
 DAPD.F                 8:   FEET ABOVE PERMANENT DATUM
 DMF .                 KB:   DRILLING MEASURED FROM
 EKB .F              5164:   KELLING BUSHING
 EDF .F              5162:   DRILLING FLOOR
 EGL .F              5156:   GROUND LEVEL
 DATE.             6-1-87:   RUN DATE
 RUN .                  1:   RUN NUMBER
 DD  .F               550:   DEPTH DRILLER
 DL  .F               546:   DEPTH LOGGER
 BLI .F               540:   BOTTOM LOG INTERVAL
 TLI .F                30:   TOP LOG INTERVAL
 CS  .IN            8.625:   CASING SIZE
 CBD .F                50:   CASING BOTTOM DRILLER
 CBL .F                49:   CASING BOTTOM LOGGER
 BS  .IN            7.875:   BIT SIZE
 BSD .F               550:   BIT SIZE AT DEPTH
 DFT .                AIR:   DRILLING FLUID TYPE
 TLAB.HRS            0634:   TIME LOGGER AT BOTTOM
 MRT .F                80:   MAXIMUM RECORDED TEMPERATURE
 LUN .               7597:   LOGGING UNIT NUMBER
 LUL .           GILLETTE:   LOGGING UNIT LOCATION
 ENGI. WEATHERMON/JOHNSTON:   RECORDING ENGINEER
 WITN.             STRONG:   WITNESSED BY
 CLNT.            A2DTECH:   CLIENT CODE
 ORIG.       2", 5" PRINT:   ORIGIN OF DATA
 UWI .       490251113000:   UNIQUE WELL ID
 DICO. A2D Technologies, Inc.:   DIGITIZING COMPANY
~OTHER INFORMATION
~A   DEPT       GRR       ILD       RILM   
# ...
  265.6000   126.5914     7.8470     7.3753
  265.7000   126.8340     7.8748     7.4267
  265.8000   127.0766     7.9025     7.4781
  265.9000   127.3191     7.9302     7.5296
  266.0000   127.5617     7.9580     7.5810
  266.1000   127.9463     7.9862     7.6284
  266.2000   128.3309     8.0144     7.6758
  266.3000   128.7156     8.0426     7.7232
  266.4000   129.1002     8.0708     7.7706
  266.5000   129.4849     8.0991     7.8180
  266.6000   129.6831     8.1278     7.8531
  266.7000   129.8814     8.1565     7.8882
  266.8000   130.0797     8.1852     7.9233
  266.9000   130.2779     8.2139     7.9584
  267.0000   130.4762     8.2427     7.9935
  267.1000   130.0835     8.2719     8.0227
  267.2000   129.6908     8.3011     8.0520
  267.3000   129.2981     8.3304     8.0813
  267.4000   128.9054     8.3596     8.1105
  267.5000   128.5126     8.3888     8.1398
  267.6000   128.1221     8.4010     8.1531
  267.7000   127.7317     8.4132     8.1664
  267.8000   127.3412     8.4254     8.1797
  267.9000   126.9507     8.4376     8.1930
  268.0000   126.5602     8.4498     8.2063
  268.1000   126.4401     8.4549     8.2197
  268.2000   126.3201     8.4601     8.2331
  268.3000   126.2001     8.4653     8.2465
  268.4000   126.0801     8.4704     8.2599
  268.5000   125.9601     8.4756     8.2733
  268.6000   125.7949     8.4827     8.2892
  268.7000   125.6298     8.4897     8.3051
  268.8000   125.4647     8.4968     8.3209
  268.9000   125.2996     8.5039     8.3368
  269.0000   125.1345     8.5109     8.3527
  269.1000   125.0740     8.5095     8.3508
  269.2000   125.0135     8.5081     8.3490
  269.3000   124.9529     8.5066     8.3472
  269.4000   124.8924     8.5052     8.3454
  269.5000   124.8319     8.5038     8.3436
  269.6000   125.0093     8.5014     8.3414
  269.7000   125.1866     8.4990     8.3392
  269.8000   125.3639     8.4966     8.3370
  269.9000   125.5412     8.4943     8.3348
  270.0000   125.7186     8.4919     8.3326
  270.1000   125.6989     8.4896     8.3304
  270.2000   125.6792     8.4872     8.3282
  270.3000   125.6595     8.4849     8.3260
  270.4000   125.6398     8.4826     8.3238
  270.5000   125.6201     8.4802     8.3216
  270.6000   125.4974     8.4779     8.3194
  270.7000   125.3747     8.4756     8.3172
  270.8000   125.2520     8.4732     8.3150
  270.9000   125.1293     8.4709     8.3128
  271.0000   125.0067     8.4685     8.3106
  271.1000   124.8824     8.4662     8.3084
  271.2000   124.7581     8.4639     8.3062
  271.3000   124.6338     8.4616     8.3040
  271.4000   124.5096     8.4592     8.3018
  271.5000   124.3853     8.4569     8.2996
  271.6000   124.3114     8.4546     8.2975
  271.7000   124.2374     8.4523     8.2953
  271.8000   124.1635     8.4499     8.2931
  271.9000   124.0896     8.4476     8.2909
  272.0000   124.0157     8.4453     8.2887
  272.1000   124.2345     8.4430     8.2865
  272.2000   124.4534     8.4406     8.2842
  272.3000   124.6722     8.4383     8.2820
  272.4000   124.8911     8.4360     8.2798
  272.5000   125.1099     8.4337     8.2775
  272.6000   125.3961     8.4314     8.2756
  272.7000   125.6823     8.4291     8.2737
  272.8000   125.9684     8.4267     8.2718
  272.9000   126.2546     8.4244     8.2699
  273.0000   126.5407     8.4221     8.2681
  273.1000   127.2219     8.4198     8.2662
  273.2000   127.9032     8.4175     8.2644
  273.3000   128.5844     8.4152     8.2626
  273.4000   129.2656     8.4128     8.2607
  273.5000   129.9468     8.4105     8.2589
  273.6000   130.7679     8.4082     8.2571
  273.7000   131.5890     8.4059     8.2552
  273.8000   132.4101     8.4036     8.2534
  273.9000   133.2312     8.4013     8.2516
  274.0000   134.0523     8.3990     8.2498
  274.1000   134.8153     8.3967     8.2479
  274.2000   135.5784     8.3943     8.2461
  274.3000   136.3414     8.3920     8.2443
  274.4000   137.1045     8.3897     8.2424
  274.5000   137.8675     8.3874     8.2406
  274.6000   137.5933     8.3851     8.2388
  274.7000   137.3191     8.3828     8.2370
  274.8000   137.0449     8.3805     8.2351
  274.9000   136.7707     8.3782     8.2333
  275.0000   136.4966     8.3759     8.2315
  275.1000   136.1696     8.3736     8.2296
  275.2000   135.8426     8.3713     8.2278
  275.3000   135.5156     8.3690     8.2259
  275.4000   135.1886     8.3667     8.2241
  275.5000   134.8617     8.3644     8.2222
  275.6000   134.6498     8.3620     8.2204
  275.7000   134.4380     8.3597     8.2186
  275.8000   134.2262     8.3574     8.2168
  275.9000   134.0144     8.3550     8.2150
  276.0000   133.8025     8.3527     8.2132
  276.1000   133.8517     8.3462     8.2099
  276.2000   133.9010     8.3397     8.2067
  276.3000   133.9501     8.3333     8.2034
  276.4000   133.9994     8.3268     8.2002
  276.5000   134.0486     8.3203     8.1969
  276.6000   134.1671     8.3096     8.1978
  276.7000   134.2857     8.2989     8.1987
  276.8000   134.4042     8.2882     8.1996
  276.9000   134.5228     8.2775     8.2004
  277.0000   134.6413     8.2668     8.2013
  277.1000   134.2093     8.2560     8.1295
  277.2000   133.7773     8.2453     8.0577
  277.3000   133.3453     8.2345     7.9858
  277.4000   132.9133     8.2238     7.9140
  277.5000   132.4813     8.2130     7.8422
  277.6000   132.4641     8.1678     7.7899
  277.7000   132.4469     8.1226     7.7376
  277.8000   132.4296     8.0775     7.6853
  277.9000   132.4124     8.0323     7.6331
  278.0000   132.3952     7.9871     7.5808
  278.1000   132.7860     7.9295     7.5498
  278.2000   133.1768     7.8720     7.5188
  278.3000   133.5677     7.8144     7.4878
  278.4000   133.9585     7.7569     7.4568
  278.5000   134.3493     7.6993     7.4257
  278.6000   134.7406     7.6440     7.3950
  278.7000   135.1320     7.5886     7.3642
  278.8000   135.5234     7.5332     7.3335
  278.9000   135.9147     7.4779     7.3027
  279.0000   136.3061     7.4225     7.2720
  279.1000   136.6955     7.3943     7.2419
  279.2000   137.0850     7.3661     7.2118
  279.3000   137.4744     7.3379     7.1816
  279.4000   137.8639     7.3097     7.1515
  279.5000   138.2533     7.2814     7.1214
  279.6000   138.6440     7.2682     7.0882
  279.7000   139.0347     7.2549     7.0550
  279.8000   139.4254     7.2416     7.0217
  279.9000   139.8161     7.2284     6.9885
  280.0000   140.2068     7.2151     6.9553
  280.1000   140.4014     7.2019     6.9338
  280.2000   140.5959     7.1888     6.9124
  280.3000   140.7904     7.1756     6.8909
  280.4000   140.9850     7.1625     6.8695
  280.5000   141.1795     7.1494     6.8480
  280.6000   140.6738     7.1214     6.8332
  280.7000   140.1681     7.0934     6.8184
  280.8000   139.6624     7.0654     6.8037
  280.9000   139.1568     7.0375     6.7889
  281.0000   138.6511     7.0095     6.7741
  281.1000   138.0535     6.9706     6.7425
  281.2000   137.4559     6.9316     6.7109
  281.3000   136.8584     6.8927     6.6793
  281.4000   136.2608     6.8537     6.6478
  281.5000   135.6632     6.8148     6.6162
  281.6000   135.1679     6.7770     6.5618
  281.7000   134.6726     6.7391     6.5073
  281.8000   134.1773     6.7012     6.4529
  281.9000   133.6820     6.6634     6.3985
  282.0000   133.1867     6.6255     6.3441
  282.1000   132.7366     6.5887     6.2917
  282.2000   132.2865     6.5519     6.2392
  282.3000   131.8363     6.5151     6.1867
  282.4000   131.3862     6.4783     6.1343
  282.5000   130.9361     6.4415     6.0818
  282.6000   130.8066     6.4058     6.0316
  282.7000   130.6771     6.3700     5.9813
  282.8000   130.5476     6.3342     5.9311
  282.9000   130.4180     6.2984     5.8808
  283.0000   130.2885     6.2626     5.8306
  283.1000   130.1679     6.2356     5.7822
  283.2000   130.0473     6.2085     5.7338
  283.3000   129.9267     6.1814     5.6854
  283.4000   129.8061     6.1544     5.6371
  283.5000   129.6854     6.1273     5.5887
  283.6000   129.5627     6.1158     5.5412
  283.7000   129.4399     6.1044     5.4937
