~VERSION INFORMATION
 VERS.                2.0:   CWLS LOG ASCII STANDARD - VERSION 2.0
 WRAP.                 NO:   ONE LINE PER DEPTH STEP
~WELL INFORMATION
#MNEM.UNIT      DATA TYPE    INFORMATION
#----------   ------------   ------------------------------
 STRT.F            0.0000:   START DEPTH
 STOP.F          774.0000:   STOP DEPTH
 STEP.F            0.5000:   STEP LENGTH
 NULL.          -999.2500:   NO VALUE
 COMP. LAWRENCE/ALLISON INC:   COMPANY
 WELL. SX 11 WP #37-53-11:   WELL
 FLD .             TEAPOT:   FIELD
 LOC .      S11 T38N R78W:   LOCATION
 CNTY.            NATRONA:   COUNTY
 STAT.            WYOMING:   STATE
 CTRY. UNITED STATES OF AMERICA:   COUNTRY
 SRVC.            Unknown:   SERVICE COMPANY
 DATE.        19-SEP-1984:   LOGDATE
 API .       490251098900:   API NUMBER
~CURVE INFORMATION
#MNEM.UNIT       API CODE    CURVE DESCRIPTION
#----------   ------------   ------------------------------
 DEPT.F                  :   
 GRR .GAPI   07 310 01 00:   GAMMA RAY FROM RES. LOG.
 SPR .MV     07 010 01 00:   SPONTANEOUS POTENTIAL
 RFOC.OHMM   07 220 04 00:   RESISTIVITY FOCUSED LOG
 ILD .OHMM   07 120 46 00:   INDUCTION LOG DEEP RESISTIVITY
 RILM.OHMM   07 120 44 00:   INDUCTION LOG MEDIUM RESISTIVITY
 CALD.IN     45 280 60 00:   CALIPER
 DEN .G/C3   45 350 01 00:   COMPENSATED BULK DENSTIY
 CORR.G/C3   45 356 01 00:   DENSITY CORRECTION
 PORD.DEC    45 890 12 00:   POROSITY DENSITY SANDSTONE
 AC  .US/F   60 520 00 00:   ACOUSTIC SONIC
 CNC .DEC    42 890 03 00:   NEUTRON POROSITY SANDSTONE
~PARAMETER INFORMATION
#MNEM.UNIT          VALUE    DESCRIPTION
#----------   ------------   ------------------------------
 PD  .                 GL:   PERMANENT DATUM
 EPD .F              5153:   ELEVATION PERMANENT DATUM
 LMF .                 GL:   LOG MEASURED FROM
 DMF .                 GL:   DRILLING MEASURED FROM
 EGL .F              5153:   GROUND LEVEL
 DATE.       19-SEPT-1984:   RUN DATE
 RUN .                  1:   RUN NUMBER
 DD  .F               785:   DEPTH DRILLER
 DL  .F               774:   DEPTH LOGGER
 BLI .F               772:   BOTTOM LOG INTERVAL
 CS  .IN            8.625:   CASING SIZE
 CBD .F                42:   CASING BOTTOM DRILLER
 CBL .F                41:   CASING BOTTOM LOGGER
 BS  .IN            7.875:   BIT SIZE
 BSD .F               785:   BIT SIZE AT DEPTH
 DFT .          KCL WATER:   DRILLING FLUID TYPE
 MSS .           FLOWLINE:   MUD SAMPLE SOURCE
 RMS .OHMM            .27:   RESISTIVITY MUD SAMPLE
 MST .F                82:   MUD SAMPLE TEMPERATURE
 TCS .HRS               2:   TIME CURCULATED STOPPED
 MRT .F               100:   MAXIMUM RECORDED TEMPERATURE
 LUN .               6274:   LOGGING UNIT NUMBER
 LUL .               GLTE:   LOGGING UNIT LOCATION
 ENGI.         HINDS/MACK:   RECORDING ENGINEER
 WITN.             STRONG:   WITNESSED BY
 CLNT.            A2DTECH:   CLIENT CODE
 ORIG.   1", 2", 5" PRINT:   ORIGIN OF DATA
 UWI .       490251098900:   UNIQUE WELL ID
 DICO. A2D Technologies, Inc.:   DIGITIZING COMPANY
~OTHER INFORMATION
~A    DEPT      GRR       SPR       RFOC        ILD       RILM       CALD        DEN       CORR       PORD         AC        CNC   
# ...
  396.5000   100.7839   -40.1122     8.1996     6.6254     7.3881     8.1209     2.4434     0.0073     0.1399   101.4700     0.3022
  397.0000    99.7512   -40.5063     8.1653     6.3578     7.0797     8.1206     2.4458     0.0132     0.1389   102.2391     0.3038
  397.5000    98.9056   -40.9001     8.1124     6.1009     6.7842     8.1203     2.4472     0.0126     0.1382   103.4186     0.3061
  398.0000    97.6097   -41.2938     7.8212     5.8544     6.5011     8.1200     2.4402     0.0061     0.1449   104.8089     0.3086
  398.5000    97.5968   -41.6881     7.3066     5.6179     6.3029     8.1197     2.4259    -0.0052     0.1532   106.7336     0.3074
  399.0000   101.7167   -42.0814     6.8252     5.5439     6.3401     8.1194     2.4101    -0.0172     0.1589   106.8489     0.3071
  399.5000   106.9341   -42.4728     6.3747     5.5620     6.4193     8.1192     2.4023    -0.0281     0.1639   105.8273     0.3088
  400.0000   109.3523   -42.5384     6.2432     5.5742     6.6252     8.1189     2.3981    -0.0241     0.1674   104.6825     0.3030
  400.5000   105.3974   -42.2650     6.5407     5.5865     6.8376     8.1186     2.4049    -0.0108     0.1622   103.5377     0.2988
  401.0000   100.9454   -41.9941     7.1767     5.6599     7.0568     8.1183     2.4173     0.0028     0.1543   103.0316     0.2990
  401.5000    98.0120   -41.7216     7.9313     5.8746     7.2196     8.1180     2.4306     0.0048     0.1463   103.1490     0.2993
  402.0000   100.0010   -41.4493     7.9146     6.0975     7.3255     8.1177     2.4381    -0.0051     0.1431   103.2664     0.3202
  402.5000   106.4136   -41.1759     7.8852     6.3288     7.4329     8.1174     2.4315    -0.0155     0.1485   103.3258     0.2984
  403.0000   109.5520   -40.9001     7.8535     6.5689     7.5419     8.1171     2.4256    -0.0155     0.1511   102.9582     0.2988
  403.5000   108.1289   -40.7478     7.8974     6.7934     7.6044     8.1168     2.4338    -0.0112     0.1465   102.5905     0.2986
  404.0000   104.4859   -40.5990     7.9811     6.8613     7.6503     8.1166     2.4463    -0.0067     0.1390   102.2228     0.3065
  404.5000   100.7462   -40.4485     8.0651     6.9125     7.6964     8.1163     2.4597    -0.0021     0.1314   101.9781     0.2986
  405.0000   100.9841   -40.3004     8.1501     6.9630     7.7428     8.1164     2.4647     0.0042     0.1275   101.9781     0.2903
  405.5000   103.6579   -40.3686     8.2217     7.0353     7.7818     8.1167     2.4590     0.0117     0.1305   102.0042     0.2839
  406.0000   106.3081   -40.4620     8.1741     6.9887     7.6854     8.1171     2.4527     0.0230     0.1375   102.1856     0.2915
  406.5000   108.2022   -40.5552     8.1250     6.9050     7.6036     8.1175     2.4517     0.0342     0.1354   102.3757     0.2982
  407.0000   109.1029   -40.6481     8.0764     6.8229     7.5226     8.1179     2.4566     0.0348     0.1323   102.6473     0.2961
  407.5000   111.1617   -40.7410     8.0281     6.7419     7.4426     8.1182     2.4607     0.0139     0.1304   102.9324     0.2899
  408.0000   112.1454   -40.8336     7.9697     6.6616     7.3633     8.1186     2.4562    -0.0066     0.1299   103.3340     0.2879
  408.5000   109.2241   -40.9254     7.8966     6.5692     7.2850     8.1190     2.4458    -0.0275     0.1368   103.9287     0.2974
  409.0000   106.3156   -41.0201     7.8242     6.4260     7.2074     8.1194     2.4356    -0.0325     0.1433   104.1757     0.2958
  409.5000   104.5831   -41.2074     7.7551     6.2859     7.1307     8.1198     2.4266    -0.0193     0.1498   104.2381     0.2890
  410.0000   103.0216   -41.7601     7.6903     6.1488     7.0548     8.1201     2.4288    -0.0033     0.1506   104.4374     0.2843
  410.5000   101.0736   -42.2983     7.5954     6.0147     6.9797     8.1205     2.4334     0.0111     0.1468   104.7368     0.2864
  411.0000   102.2288   -42.8356     7.3979     5.7662     6.9078     8.1209     2.4381     0.0159     0.1439   105.0362     0.2919
  411.5000   105.3012   -43.3730     7.2346     5.4625     6.4628     8.1213     2.4391     0.0210     0.1430   105.5379     0.2974
  412.0000   108.3600   -43.9108     7.0807     5.1747     6.0589     8.1216     2.4364     0.0252     0.1431   106.5620     0.3029
  412.5000   109.9275   -44.4467     6.9300     4.9022     5.6802     8.1220     2.4272     0.0090     0.1480   109.2517     0.3082
  413.0000   108.7562   -44.9865     6.3686     4.6579     5.3444     8.1224     2.4180    -0.0073     0.1539   111.9220     0.3134
  413.5000   105.7463   -45.2411     5.7924     4.5733     5.3444     8.1228     2.4061     0.0000     0.1594   113.5089     0.3192
  414.0000   102.1019   -45.1040     5.2670     4.5911     5.7162     8.1232     2.3939     0.0200     0.1665   112.7983     0.3221
  414.5000   100.5512   -44.6348     5.1050     4.6052     5.9859     8.1235     2.3897     0.0284     0.1730   110.3746     0.3102
  415.0000   100.8047   -44.1701     5.7428     4.6253     6.2522     8.1239     2.3972     0.0097     0.1692   107.9509     0.2994
  415.5000   102.3855   -43.7057     6.5016     4.6579     6.4871     8.1243     2.4107    -0.0074     0.1611   105.7499     0.2992
  416.0000   105.4780   -43.2415     7.2389     5.0210     6.7308     8.1247     2.4273    -0.0089     0.1513   103.8537     0.2991
  416.5000   109.6666   -42.7773     7.2281     5.3805     6.9405     8.1250     2.4440    -0.0034     0.1415   102.4871     0.2955
  417.0000   111.6765   -42.3131     7.2321     5.7657     7.0521     8.1254     2.4606     0.0020     0.1317   101.8217     0.2907
  417.5000   109.1630   -41.8479     7.7274     6.1785     7.1656     8.1258     2.4773     0.0073     0.1219   101.6784     0.2951
  418.0000   105.5984   -41.3746     7.9232     6.4422     7.2808     8.1262     2.4853     0.0126     0.1124   101.8319     0.2958
  418.5000   102.2822   -41.2659     7.8346     6.6433     7.3980     8.1266     2.4783     0.0181     0.1176   101.9781     0.2867
  419.0000   102.9465   -41.2378     7.7825     6.7993     7.5188     8.1270     2.4674     0.0154     0.1240   101.9781     0.2863
  419.5000   103.6907   -41.2117     7.8964     6.8518     7.6548     8.1273     2.4640     0.0088     0.1275   101.9781     0.2898
  420.0000   103.0795   -41.1849     7.9994     6.9046     7.7933     8.1277     2.4653     0.0078     0.1271   101.9781     0.2938
  420.5000   100.7162   -41.1581     8.1038     6.9579     7.9343     8.1281     2.4672     0.0144     0.1251   101.9781     0.2878
  421.0000   102.0478   -41.1310     8.2095     7.0115     8.0088     8.1285     2.4661     0.0218     0.1255   101.8212     0.2783
  421.5000   104.0611   -41.1021     8.3167     7.0656     8.0273     8.1288     2.4636     0.0261     0.1270   101.4903     0.2767
  422.0000   104.7717   -40.9740     8.4517     7.1201     8.0458     8.1292     2.4613     0.0069     0.1297   101.2863     0.2763
  422.5000   103.7641   -40.7139     8.4036     7.1750     8.0644     8.1296     2.4546    -0.0171     0.1323   101.1421     0.2823
  423.0000   102.2805   -40.4557     8.3209     7.2304     8.0830     8.1300     2.4519    -0.0084     0.1343   101.0048     0.2920
  423.5000   100.7896   -40.1964     8.2208     7.2861     8.1017     8.1304     2.4573     0.0008     0.1336   100.6034     0.3017
  424.0000   100.3793   -39.9375     8.3426     7.3234     8.1202     8.1307     2.4612     0.0099     0.1305   100.1781     0.3128
  424.5000   101.1751   -39.7029     8.5567     7.3556     8.1392     8.1311     2.4645     0.0179     0.1278    99.7913     0.2968
  425.0000   101.2586   -39.6632     8.6853     7.3880     8.1854     8.1315     2.4646     0.0146     0.1271    99.6918     0.2988
  425.5000   100.5430   -39.6283     8.6854     7.4205     8.2516     8.1319     2.4584    -0.0121     0.1279   100.0348     0.2863
  426.0000   103.4295   -39.5928     8.7954     7.4531     8.3180     8.1322     2.4465    -0.0383     0.1351   100.3467     0.2807
  426.5000   107.3640   -39.5571     9.0108     7.4859     8.3850     8.1326     2.4349    -0.0299     0.1417   100.6859     0.2871
