~VERSION INFORMATION
 VERS.                2.0:   CWLS LOG ASCII STANDARD - VERSION 2.0
 WRAP.                 NO:   ONE LINE PER DEPTH STEP
~WELL INFORMATION
#MNEM.UNIT      DATA TYPE    INFORMATION
#----------   ------------   ------------------------------
 STRT.F          276.0000:   START DEPTH
 STOP.F         2768.0000:   STOP DEPTH
 STEP.F            0.5000:   STEP LENGTH
 NULL.          -999.2500:   NO VALUE
 COMP.       TESORD PETRO:   COMPANY
 WELL. AX-20 NPR #3 #83-20:   WELL
 FLD .            WILDCAT:   FIELD
 LOC .      S20 T39N R78W:   LOCATION
 CNTY.            NATRONA:   COUNTY
 STAT.            WYOMING:   STATE
 CTRY. UNITED STATES OF AMERICA:   COUNTRY
 SRVC.       Schlumberger:   SERVICE COMPANY
 DATE.        20-JUL-1971:   LOGDATE
 API .       490251022000:   API NUMBER
~CURVE INFORMATION
#MNEM.UNIT       API CODE    CURVE DESCRIPTION
#----------   ------------   ------------------------------
 DEPT.F                  :   
 SPR .MV     05 010 01 00:   SPONTANEOUS POTENTIAL FROM RES.
 ASN .OHMM   05 041 16 00:   AMPLIFIED SHORT NORMAL 16"
 ILD .OHMM   05 120 46 00:   INDUCTION LOG DEEP
 CALD.IN     45 280 60 00:   CALIPER FROM DENSITY
 CORR.G/C3   45 356 01 00:   DENSITY CORRECTION
 DPHI.DEC    45 890 12 00:   DENSITY POROSITY SANDSTONE
 GRD .GAPI   45 310 01 00:   GAMMA RAY FROM DENSITY LOG
 RHOB.G/C3   45 350 01 00:   BULK DENSITY
 CILD.MMHO   05 110 46 00:   CONDUCTIVITY INDUCTION LOG DEEP
~PARAMETER INFORMATION
#MNEM.UNIT          VALUE    DESCRIPTION
#----------   ------------   ------------------------------
 PD  .                 GL:   PERMANENT DATUM
 EPD .F              4994:   ELEVATION PERMANENT DATUM
 LMF .                 KB:   LOG MEASURED FROM
 DAPD.F                11:   FEET ABOVE PERMANENT DATUM
 DMF .                 KB:   DRILLING MEASURED FROM
 EKB .F              5005:   KELLING BUSHING
 EGL .F              4994:   GROUND LEVEL
 DATE.        20-JUL-1971:   RUN DATE
 RUN .                  1:   RUN NUMBER
 DD  .F              2770:   DEPTH DRILLER
 DL  .F              2769:   DEPTH LOGGER
 BLI .F              2768:   BOTTOM LOG INTERVAL
 TLI .F               276:   TOP LOG INTERVAL
 CS  .IN            10.75:   CASING SIZE
 CBD .F               274:   CASING BOTTOM DRILLER
 CBL .F               276:   CASING BOTTOM LOGGER
 BS  .IN                9:   BIT SIZE
 BSD .F              2770:   BIT SIZE AT DEPTH
 DFT .      FRESH GEL MUD:   DRILLING FLUID TYPE
 DFD .                 10:   DRILLING FLUID DENSITY
 DFV .                 82:   DRILLING FLUID VISCOSITY
 DFPH.                  8:   DRILLING FLUID PH
 DFL .                4.8:   DRILLING FLUID LOSS
 MSS .           FLOWLINE:   MUD SAMPLE SOURCE
 RMS .OHMM            1.8:   RESISTIVITY MUD SAMPLE
 MST .F                73:   MUD SAMPLE TEMPERATURE
 RMF .OHMM            1.4:   RESISTIVITY MUD FILTRATE SAMPLE
 MFST.F                73:   MUD FILTRATE SAMPLE TEMPERATURE
 MFSS.               MEAS:   MUD FILTRATE SAMPLE SOURCE
 RMB .OHMM           1.15:   RESISTIVITY MUD AT BHT
 BHT .F               116:   BOTTOM HOLE TEMPERATURE
 TCS .HRS               2:   TIME CURCULATED STOPPED
 MRT .F               116:   MAXIMUM RECORDED TEMPERATURE
 LUN .               7037:   LOGGING UNIT NUMBER
 LUL .               CSPR:   LOGGING UNIT LOCATION
 ENGI.             JENSEN:   RECORDING ENGINEER
 WITN.                MAY:   WITNESSED BY
 CLNT.            A2DTECH:   CLIENT CODE
 ORIG.     1", 2.5" PRINT:   ORIGIN OF DATA
 UWI .       490251022000:   UNIQUE WELL ID
 DICO. A2D Technologies, Inc.:   DIGITIZING COMPANY
~OTHER INFORMATION
~A   DEPT      SPR          ASN        ILD     CALD       CORR       DPHI        GRD       RHOB       CILD   
# ...
 1663.0000   -32.7254     9.3090     7.0491     9.3089     0.0453     0.1057   129.7698     2.4654  -999.2500
 1663.5000   -33.0254     9.4465     7.1972     9.3082     0.0671     0.1063   131.4006     2.4863  -999.2500
 1664.0000   -33.0269     9.5952     7.2719     9.3074     0.0297     0.1123   131.3134     2.4729  -999.2500
 1664.5000   -33.0284     9.7439     7.4181     9.3067     0.0136     0.1219   130.0388     2.4594  -999.2500
 1665.0000   -32.7314     9.8522     7.4926     9.3060     0.0025     0.1240   129.5821     2.4445  -999.2500
 1665.5000   -32.4343     9.8816     7.6406     9.3052     0.0102     0.0986   128.7713     2.4654  -999.2500
 1666.0000   -32.1374     9.9009     7.7084     9.3045     0.0439     0.0812   126.9311     2.5198  -999.2500
 1666.5000   -32.1389     9.8707     7.7879     9.3038     0.0565     0.0848   125.3807     2.5431  -999.2500
 1667.0000   -32.1404     9.8406     7.7223     9.3030     0.0315     0.1058   126.2806     2.5104  -999.2500
 1667.5000   -32.1419     9.8403     7.6376     9.3322     0.0310     0.1124   129.6714     2.4700  -999.2500
 1668.0000   -32.1434     9.8400     7.5755     9.3313     0.0219     0.1226   133.8506     2.4536  -999.2500
 1668.5000   -32.1449     9.8397     7.4873     9.3306     0.0041     0.1220   134.2971     2.4437  -999.2500
 1669.0000   -31.8478     9.8003     7.4286     9.3298     0.0085     0.1099   130.4539     2.4635  -999.2500
 1669.5000   -31.8494     9.7702     7.3370     9.3291     0.0168     0.1070   126.5833     2.4763  -999.2500
 1670.0000   -31.2539     9.7492     7.3363     9.3284     0.0243     0.1051   122.2684     2.4823  -999.2500
 1670.5000   -31.2554     9.7876     7.4845     9.3276     0.0270     0.1020   121.2284     2.4831  -999.2500
 1671.0000   -30.9582     9.8672     7.5347     9.3268     0.0234     0.0960   123.3732     2.4979  -999.2500
 1671.5000   -30.9598    10.0662     7.6318     9.3261     0.0323     0.0987   128.1207     2.5071  -999.2500
 1672.0000   -30.9613    10.2651     7.7799     9.3254     0.0069     0.1207   133.0373     2.4561  -999.2500
 1672.5000   -31.2614    10.4641     7.9279     9.3246     0.0059     0.1221   134.8195     2.4441  -999.2500
 1673.0000   -31.8599    10.7026     7.9271     9.3398     0.0262     0.1165   136.6017     2.4620  -999.2500
 1673.5000   -32.4584    10.8516     7.9687     9.3530     0.0247     0.1066   137.0407     2.4904  -999.2500
 1674.0000   -32.7584    10.7021     8.0745     9.3521     0.0113     0.1163   137.9284     2.4604  -999.2500
 1674.5000   -32.7599    10.7018     8.0737     9.3514     0.0023     0.1203   136.5753     2.4477  -999.2500
 1675.0000   -32.7614    10.6144     8.0729     9.3506     0.0007     0.1099   134.7754     2.4723  -999.2500
 1675.5000   -32.4644    10.5519     8.0722     9.3499     0.0037     0.1122   132.5278     2.4723  -999.2500
 1676.0000   -32.4659    10.5516     8.0377     9.3492     0.0126     0.1067   129.8324     2.4902  -999.2500
 1676.5000   -32.1687    10.5513     7.9219     9.3484     0.0216     0.0952   129.3758     2.5081  -999.2500
 1677.0000   -31.8719    10.4018     7.9211     9.3477     0.0364     0.0819   132.5013     2.5156  -999.2500
 1677.5000   -31.8734    10.3181     7.9204     9.3171     0.0513     0.0860   131.1492     2.5096  -999.2500
 1678.0000   -31.5761    10.2519     7.9196     9.3164     0.0422     0.1001   125.7672     2.4901  -999.2500
 1678.5000   -31.2791    10.1698     7.9189     9.3156     0.0182     0.1061   128.0556     2.4781  -999.2500
 1679.0000   -30.9823    10.1021     7.9181     9.3149     0.0079     0.1103   128.4362     2.4631  -999.2500
 1679.5000   -30.9838    10.1822     7.9174     9.3142     0.0033     0.1151   125.2930     2.4556  -999.2500
 1680.0000   -30.9853    10.2507     7.9166     9.3134     0.0019     0.1157   127.5230     2.4601  -999.2500
 1680.5000   -30.6883    10.2504     7.9160     9.3127     0.0151     0.1121   127.0657     2.4736  -999.2500
 1681.0000   -30.6898    10.2501     7.9152     9.3120     0.0251     0.1025   128.4715     2.4861  -999.2500
 1681.5000   -30.9898    10.2498     7.9145     9.3112     0.0440     0.0894   131.0786     2.5199  -999.2500
 1682.0000   -30.6928    10.2495     7.9137     9.3104     0.0294     0.1002   126.9197     2.4961  -999.2500
 1682.5000   -30.6943    10.2492     7.9130     9.3097     0.0050     0.1098   123.6417     2.4785  -999.2500
 1683.0000   -30.6958    10.2490     7.9122     9.3089     0.0018     0.1152   124.3075     2.4603  -999.2500
 1683.5000   -30.3985    10.3979     7.9115     9.3082     0.0073     0.1182   125.9762     2.4539  -999.2500
 1684.0000   -30.6985    10.3976     7.9107     9.3075     0.0371     0.0972   127.4524     2.4763  -999.2500
 1684.5000   -30.8767    10.5466     7.9142     9.3067     0.0509     0.0871   127.4418     2.5301  -999.2500
 1685.0000   -31.1741    10.6183     8.0580     9.3060     0.0314     0.1040   126.5970     2.4982  -999.2500
 1685.5000   -31.7701    10.6952     8.0573     9.3053     0.0195     0.1098   124.3557     2.4732  -999.2500
 1686.0000   -32.0676    10.8442     8.2054     9.3045     0.0269     0.0977   120.0300     2.4974  -999.2500
 1686.5000   -32.1985    10.9139     8.2046     9.3037     0.0428     0.0803   120.2418     2.5373  -999.2500
 1687.0000   -32.4985    11.0620     8.3527     9.3030     0.0663     0.0668   121.4238     2.5706  -999.2500
 1687.5000   -32.5000    11.1418     8.5007     9.3022     0.0688     0.0813   124.5894     2.5837  -999.2500
 1688.0000   -32.5015    11.2092     8.5000     9.3015     0.0298     0.1117   128.7207     2.4841  -999.2500
 1688.5000   -32.5030    11.2905     8.6480     9.3008     0.0164     0.1179   130.6641     2.4564  -999.2500
 1689.0000   -32.3502    11.3563     8.6473     9.2999     0.0133     0.1195   127.3598     2.4476  -999.2500
 1689.5000   -32.2075    11.4391     8.6465     9.2991     0.0118     0.1201   125.1121     2.4504  -999.2500
 1690.0000   -32.0597    11.4388     8.6458     9.2984     0.0192     0.1046   122.4167     2.4916  -999.2500
 1690.5000   -31.9119    11.5878     8.6450     9.2977     0.0327     0.0921   121.8551     2.5172  -999.2500
 1691.0000   -31.6149    11.7367     8.7931     9.2969     0.0401     0.0858   128.6677     2.5330  -999.2500
 1691.5000   -31.6164    11.7989     8.9412     9.2962     0.0490     0.0894   132.6888     2.5208  -999.2500
 1692.0000   -31.3194    11.8854     8.9404     9.2954     0.0206     0.1054   134.4710     2.4773  -999.2500
 1692.5000   -31.3209    11.8851     9.0886     9.2947     0.0146     0.1136   135.8055     2.4653  -999.2500
 1693.0000   -31.6209    11.9449     9.2366     9.2940     0.0370     0.0995   136.2448     2.4937  -999.2500
 1693.5000   -31.7542    12.0338     9.3846     9.2932     0.0386     0.1017   136.2356     2.4991  -999.2500
 1694.0000   -31.9224    12.1827     9.5328     9.2925     0.0190     0.1130   134.4357     2.4832  -999.2500
 1694.5000   -32.2224    12.3317     9.5319     9.2918     0.0011     0.1202   129.4882     2.4577  -999.2500
 1695.0000   -32.2239    12.3314     9.6800     9.2910     0.0091     0.1208   124.1195     2.4457  -999.2500
 1695.5000   -32.2254    12.3311     9.6792     9.2903     0.0324     0.1047   128.7301     2.4726  -999.2500
 1696.0000   -32.2269    12.1815     9.8273     9.2896     0.0323     0.0939   133.1819     2.5100  -999.2500
 1696.5000   -32.3453    12.0319     9.8265     9.2888     0.0338     0.0843   134.5015     2.5353  -999.2500
 1697.0000   -32.5281    12.0316     9.9747     9.2880     0.0320     0.0844   135.7261     2.5368  -999.2500
 1697.5000   -32.2311    12.2342    10.1228     9.2873     0.0237     0.0916   135.4701     2.5039  -999.2500
 1698.0000   -32.1234    12.3823    10.2708     9.2865     0.0166     0.1059   132.0950     2.4919  -999.2500
 1698.5000   -31.5305    12.4786    10.4188     9.2858     0.0128     0.1149   130.3264     2.4680  -999.2500
 1699.0000   -30.9373    12.4782    10.2692     9.2851     0.0156     0.1132   134.8359     2.4754  -999.2500
