~VERSION INFORMATION
 VERS.                2.0:   CWLS LOG ASCII STANDARD - VERSION 2.0
 WRAP.                 NO:   ONE LINE PER DEPTH STEP
~WELL INFORMATION
#MNEM.UNIT      DATA TYPE    INFORMATION
#----------   ------------   ------------------------------
 STRT.F          717.0000:   START DEPTH
 STOP.F         2448.0000:   STOP DEPTH
 STEP.F            0.5000:   STEP LENGTH
 NULL.          -999.2500:   NO VALUE
 COMP.   FLUOR DANIEL INC:   COMPANY
 WELL. NAVAL PETROLEUM RESERVE 3X27 #34-27:   WELL
 FLD .             TEAPOT:   FIELD
 LOC .      S27 T39N R78W:   LOCATION
 CNTY.            NATRONA:   COUNTY
 STAT.            WYOMING:   STATE
 CTRY. UNITED STATES OF AMERICA:   COUNTRY
 SRVC.            Unknown:   SERVICE COMPANY
 DATE.        17-MAY-1996:   LOGDATE
 API .       490252279300:   API NUMBER
~CURVE INFORMATION
#MNEM.UNIT       API CODE    CURVE DESCRIPTION
#----------   ------------   ------------------------------
 DEPT.F                  :   
 TGAS.TC/CC  91 830 01 00:   TOTAL GAS UNIT
 ROP .FT/HR  91 810 01 00:   RAT OF DRILLING PENETRATION
~PARAMETER INFORMATION
#MNEM.UNIT          VALUE    DESCRIPTION
#----------   ------------   ------------------------------
 EPD .F              5039:   ELEVATION PERMANENT DATUM
 EKB .F              5049:   KELLING BUSHING
 EGL .F              5039:   GROUND LEVEL
 DATE.        17-MAY-1996:   RUN DATE
 RUN .                  1:   RUN NUMBER
 ENGI.     R.HUSK/C.TOWER:   RECORDING ENGINEER
 CLNT.            A2DTECH:   CLIENT CODE
 ORIG.           5" PRINT:   ORIGIN OF DATA
 UWI .       490252279300:   UNIQUE WELL ID
 DICO. A2D Technologies, Inc.:   DIGITIZING COMPANY
~OTHER INFORMATION
~A   DEPT       TGAS        ROP 
# ...
 1203.0000     0.4359     0.7707
 1203.5000     0.4451     0.7707
 1204.0000     0.4544     0.7707
 1204.5000     0.4636     0.7682
 1205.0000     0.4728     0.7635
 1205.5000     0.4821     0.7589
 1206.0000     0.4916     0.7543
 1206.5000     0.3115     0.7519
 1207.0000     0.3230     0.7613
 1207.5000     0.3323     0.7613
 1208.0000     0.3403     0.7707
 1208.5000     0.3498     1.1372
 1209.0000     0.3600     1.1372
 1209.5000     0.1801     1.1372
 1210.0000     0.1894     0.8177
 1210.5000     0.1986     0.8271
 1211.0000     0.2080     0.8271
 1211.5000     0.2174     0.8271
 1212.0000     0.2286     0.8271
 1212.5000     0.4270     0.8271
 1213.0000     0.4349     0.8271
 1213.5000     0.4443     0.8271
 1214.0000     0.4547     1.9925
 1214.5000     0.4632     1.9925
 1215.0000     0.4732     1.9925
 1215.5000     0.4824     1.9925
 1216.0000     0.4916     0.6391
 1216.5000     0.5011     0.6391
 1217.0000     0.5269     0.6391
 1217.5000     0.7107     0.6391
 1218.0000     0.7200     0.6391
 1218.5000     0.7279     0.6391
 1219.0000     0.6857     0.6391
 1219.5000     0.5563     0.6391
 1220.0000     0.5678     0.6391
 1220.5000     0.5767     0.6391
 1221.0000     0.5863     0.6391
 1221.5000     0.5956     0.6391
 1222.0000     0.5848     0.5451
 1222.5000     0.4250     0.5451
 1223.0000     0.4349     0.5357
 1223.5000     0.4457     0.5357
 1224.0000     0.4538     0.5451
 1224.5000     0.4642     0.5451
 1225.0000     0.4735     0.5451
 1225.5000     0.4821     0.5451
 1226.0000     0.4919     0.5451
 1226.5000     0.5012     0.5451
 1227.0000     0.5105     0.5451
 1227.5000     0.5200     0.5545
 1228.0000     0.5294     0.5545
 1228.5000     0.5404     0.5545
 1229.0000     0.7388     0.5545
 1229.5000     0.7468     0.5545
 1230.0000     0.7563     0.7425
 1230.5000     0.7665     0.7519
 1231.0000     0.7757     0.7519
 1231.5000     0.7849     0.7519
 1232.0000     0.7942     0.7519
 1232.5000     0.8036     0.5451
 1233.0000     0.8130     0.5545
 1233.5000     0.8242     0.5545
 1234.0000     0.8334     0.5639
 1234.5000     0.8427     0.5639
 1235.0000     0.6605     0.5639
 1235.5000     0.6721     0.5639
 1236.0000     0.6813     0.5545
 1236.5000     0.6901     0.5451
 1237.0000     0.6996     0.5451
 1237.5000     0.7090     0.5451
 1238.0000     0.7185     0.5545
 1238.5000     0.7279     0.5639
 1239.0000     0.7374     0.5733
 1239.5000     0.7468     0.6015
 1240.0000     0.7575     0.6203
 1240.5000     0.7658     0.6297
 1241.0000     0.7760     0.6297
 1241.5000     0.9751     0.6300
 1242.0000     0.9832     0.6203
 1242.5000     0.9926     0.6203
 1243.0000     1.0021     0.6203
 1243.5000     1.0116     0.6203
 1244.0000     1.0210     0.6297
 1244.5000     1.0305     0.6297
 1245.0000     1.0399     0.6297
 1245.5000     1.0505     0.6297
 1246.0000     1.0598     0.6297
 1246.5000     1.0683     0.6297
 1247.0000     1.0783     0.6297
 1247.5000     1.0872     0.6297
 1248.0000     1.0966     0.6297
 1248.5000     1.1061     0.6203
 1249.0000     1.1155     0.6203
 1249.5000     1.1268     0.6203
 1250.0000     1.1349     0.6203
 1250.5000     1.1475     0.6203
 1251.0000     1.3478     0.6297
 1251.5000     1.3590     0.6297
 1252.0000     1.3702     0.6297
 1252.5000     1.3814     0.6297
 1253.0000     1.5817     0.6297
 1253.5000     1.5929     0.6015
 1254.0000     1.6041     0.5451
 1254.5000     1.8044     0.5263
 1255.0000     1.8156     0.5263
 1255.5000     1.8268     0.5263
 1256.0000     1.8380     0.5451
 1256.5000     1.8492     0.5451
 1257.0000     1.8605     0.9680
 1257.5000     1.8718     0.9680
 1258.0000     1.8832     0.9774
 1258.5000     1.7049     0.9774
 1259.0000     1.5271     0.9774
 1259.5000     1.5411     0.8459
 1260.0000     1.3604     0.6767
 1260.5000     1.3744     0.6955
 1261.0000     1.3840     0.6955
 1261.5000     1.3649     0.6955
 1262.0000     1.2176     0.6955
 1262.5000     1.2302     0.6955
 1263.0000     1.4294     0.6955
 1263.5000     1.4416     0.6955
 1264.0000     1.4521     0.6955
 1264.5000     1.4634     0.6967
 1265.0000     1.4753     0.7000
 1265.5000     1.6755     0.6926
 1266.0000     1.6866     0.7019
 1266.5000     1.6979     0.7300
 1267.0000     1.7092     0.7299
 1267.5000     1.7206     0.7298
 1268.0000     1.7319     1.2842
 1268.5000     1.7433     1.2841
 1269.0000     1.7546     1.2840
 1269.5000     1.7680     1.2745
 1270.0000     1.7792     0.8139
 1270.5000     1.7904     0.8138
 1271.0000     1.8000     0.8137
 1271.5000     2.0019     0.8136
 1272.0000     2.0131     0.8135
 1272.5000     2.2134     0.5503
 1273.0000     2.2246     0.5596
 1273.5000     2.2358     0.5595
 1274.0000     2.4360     0.5500
 1274.5000     2.4472     0.5499
 1275.0000     2.4584     0.5498
 1275.5000     2.4697     0.5497
 1276.0000     2.4809     0.5496
 1276.5000     2.4921     0.8127
 1277.0000     2.3142     0.8126
 1277.5000     2.3256     0.8125
 1278.0000     2.3370     1.5361
 1278.5000     2.3483     1.5266
 1279.0000     2.1699     1.5265
 1279.5000     2.1839     1.5264
 1280.0000     2.1951     1.5263
 1280.5000     2.2063     1.7612
 1281.0000     2.0257     1.7611
 1281.5000     1.8478     1.7704
 1282.0000     1.8618     1.9959
 1282.5000     1.6811     1.9958
 1283.0000     1.6951     1.9863
 1283.5000     1.7064     1.9862
 1284.0000     1.5257     1.0368
 1284.5000     1.3478     1.0367
 1285.0000     1.3618     1.0367
 1285.5000     1.3730     1.0366
 1286.0000     1.1951     1.0365
 1286.5000     1.2063     1.0364
 1287.0000     1.2176     1.0363
 1287.5000     1.2290     1.0362
 1288.0000     1.2403     1.0361
 1288.5000     1.2517     1.2146
 1289.0000     1.2652     1.2239
 1289.5000     1.2764     1.2144
 1290.0000     1.2876     0.8572
 1290.5000     1.2988     0.8665
 1291.0000     1.3100     0.8663
 1291.5000     1.3197     0.8663
 1292.0000     1.3311     0.9789
 1292.5000     1.3436     0.9883
 1293.0000     1.3548     0.9882
 1293.5000     1.4297     0.9880
 1294.0000     1.5663     0.9974
 1294.5000     1.3878     0.9973
 1295.0000     1.5882     0.9972
 1295.5000     1.5996     0.9595
 1296.0000     1.6111     0.9218
 1296.5000     1.6223     0.9123
 1297.0000     1.8227     0.9122
 1297.5000     1.8340     0.9121
 1298.0000     1.8454     0.9214
 1298.5000     1.9599     0.9248
 1299.0000     2.0593     0.9293
 1299.5000     2.0705     0.9399
 1300.0000     2.0522     0.9962
 1300.5000     1.7276     1.3063
 1301.0000     1.5233     1.3062
 1301.5000     1.9084     1.3061
 1302.0000     2.1030     1.2966
 1302.5000     2.2976     1.1179
 1303.0000     2.3032     1.1084
 1303.5000     2.3088     1.0990
 1304.0000     2.3143     0.9297
 1304.5000     2.1308     0.9296
 1305.0000     2.1113     0.9295
 1305.5000     1.7652     0.9294
 1306.0000     1.7707     0.9293
 1306.5000     1.5858     0.9386
 1307.0000     1.4037     0.9605
 1307.5000     1.4093     1.0230
 1308.0000     1.3563     1.0323
 1308.5000     1.2299     1.0322
 1309.0000     1.4259     1.0321
 1309.5000     1.2422     0.9099
 1310.0000     1.2479     0.9098
 1310.5000     1.2536     0.9003
 1311.0000     1.2592     0.8908
 1311.5000     1.4540     0.8625
 1312.0000     1.4607     0.8248
 1312.5000     1.4653     0.8239
 1313.0000     1.6609     0.8137
 1313.5000     1.6658     0.8057
 1314.0000     1.6714     0.8056
 1314.5000     1.8667     0.8150
 1315.0000     1.6818     0.8054
 1315.5000     1.6887     0.8053
 1316.0000     1.6943     0.8053
 1316.5000     1.6998     0.8052
 1317.0000     1.5163     0.8051
 1317.5000     1.5221     0.8050
 1318.0000     1.5288     0.8049
 1318.5000     1.3439     0.8048
 1319.0000     1.1604     0.8047
 1319.5000     1.3564     0.8046
 1320.0000     1.3620     1.1241
 1320.5000     1.5566     1.1240
 1321.0000     1.7513     1.1239
 1321.5000     2.3241     1.1238
 1322.0000     2.7078     0.8605
 1322.5000     3.0915     0.8416
 1323.0000     3.4752     0.8415
 1323.5000     3.6700     0.8414
 1324.0000     3.8647     0.8414
