~VERSION INFORMATION
 VERS.                2.0:   CWLS LOG ASCII STANDARD - VERSION 2.0
 WRAP.                 NO:   ONE LINE PER DEPTH STEP
~WELL INFORMATION
#MNEM.UNIT      DATA TYPE    INFORMATION
#----------   ------------   ------------------------------
 STRT.F          211.0000:   START DEPTH
 STOP.F          620.0000:   STOP DEPTH
 STEP.F            0.5000:   STEP LENGTH
 NULL.          -999.2500:   NO VALUE
 COMP.   FLUOR DANIEL INC:   COMPANY
 WELL. NAVAL PETROLEUM RESERVE 3 X-10 #73-10:   WELL
 FLD .            WILDCAT:   FIELD
 LOC .      S10 T38N R78W:   LOCATION
 CNTY.            NATRONA:   COUNTY
 STAT.            WYOMING:   STATE
 CTRY. UNITED STATES OF AMERICA:   COUNTRY
 SRVC.            Unknown:   SERVICE COMPANY
 DATE.        03-MAY-1995:   LOGDATE
 API .       490252271600:   API NUMBER
~CURVE INFORMATION
#MNEM.UNIT       API CODE    CURVE DESCRIPTION
#----------   ------------   ------------------------------
 DEPT.F                  :   
 ROP .FT/HR  91 810 01 00:   RAT OF DRILLING PENETRATION
 TGAS.TC/CC  91 830 01 00:   TOTAL GAS UNIT
~PARAMETER INFORMATION
#MNEM.UNIT          VALUE    DESCRIPTION
#----------   ------------   ------------------------------
 EKB .F              5188:   KELLING BUSHING
 EGL .F              5178:   GROUND LEVEL
 DATE.        03-MAY-1995:   RUN DATE
 RUN .                  1:   RUN NUMBER
 BLI .F               620:   BOTTOM LOG INTERVAL
 TLI .F               220:   TOP LOG INTERVAL
 ENGI.     C.TOWER/R.HUSK:   RECORDING ENGINEER
 CLNT.            A2DTECH:   CLIENT CODE
 ORIG.           5" PRINT:   ORIGIN OF DATA
 UWI .       490252271600:   UNIQUE WELL ID
 DICO. A2D Technologies, Inc.:   DIGITIZING COMPANY
~OTHER INFORMATION
~A   DEPT      ROP         TGAS 
  211.0000  -999.2500     1.4451
  211.5000  -999.2500     1.4380
  212.0000  -999.2500     1.4310
  212.5000  -999.2500     1.4239
  213.0000  -999.2500     1.4168
  213.5000  -999.2500     1.4098
  214.0000     2.2881     1.4027
  214.5000     2.2976     1.3957
  215.0000     2.3164     1.3886
  215.5000     2.3258     1.3815
  216.0000     1.2712     1.3745
  216.5000     1.2712     1.3674
  217.0000     1.2712     1.3604
  217.5000     1.2712     1.3533
  218.0000     1.2806     1.3462
  218.5000     1.7797     1.3392
  219.0000     1.7891     1.3321
  219.5000     1.7891     1.3251
  220.0000     1.7797     1.3180
  220.5000     1.2994     1.3109
  221.0000     1.3089     1.3039
  221.5000     1.3089     1.2968
  222.0000     1.0923     1.2897
  222.5000     1.0075     1.2827
  223.0000     1.0075     1.2756
  223.5000     1.0075     1.2686
  224.0000     1.0075     1.2615
  224.5000     1.0075     1.2544
  225.0000     1.0075     1.2479
  225.5000     1.0075     1.2481
  226.0000     1.0075     1.2483
  226.5000     1.0075     1.2485
  227.0000     1.0075     1.2487
  227.5000     1.0075     1.2488
  228.0000     1.0075     1.2490
  228.5000     1.0075     1.2492
  229.0000     1.0075     1.2494
  229.5000     1.0075     1.2496
  230.0000     1.0075     1.2498
  230.5000     1.0075     1.2500
  231.0000     1.0075     1.2502
  231.5000     1.0075     1.2503
  232.0000     1.5254     1.2505
  232.5000     1.5443     1.2507
  233.0000     1.5443     1.2509
  233.5000     1.5443     1.2511
  234.0000     1.5443     1.2513
  234.5000     1.7891     1.2515
  235.0000     1.7891     1.2517
  235.5000     1.7797     1.2518
  236.0000     1.7797     1.2520
  236.5000     0.7721     1.2522
  237.0000     0.7627     1.2524
  237.5000     0.7627     1.2526
  238.0000     0.7627     1.2510
  238.5000     0.7721     1.4340
  239.0000     0.7721     2.1784
  239.5000     0.7721     3.1128
  240.0000     0.7721     4.2355
  240.5000     0.7721     5.3582
  241.0000     0.7721     6.1044
  241.5000     0.7815     6.6622
  242.0000     0.7910     7.0318
  242.5000     0.9887     7.2148
  243.0000     0.9981     7.2060
  243.5000     1.0075     7.1990
  244.0000     1.0169     7.1920
  244.5000     1.0169     7.1850
  245.0000     1.0264     7.1780
  245.5000     1.0264     7.1710
  246.0000     1.0264     7.3522
  246.5000     0.7910     7.7218
  247.0000     0.7910     8.2797
  247.5000     0.7815     9.5906
  248.0000     0.7721    10.7133
  248.5000     0.7627    11.6477
  249.0000     0.7627    12.3939
  249.5000     0.7627    12.9517
  250.0000     0.9416    13.3368
  250.5000     1.0169    13.7118
  251.0000     1.0169    13.8985
  251.5000     1.0169    14.0534
  252.0000     1.0264    14.2347
  252.5000     1.2806    14.4159
  253.0000     1.2806    14.4072
  253.5000     1.2806    14.4002
  254.0000     1.0923    14.3932
  254.5000     0.9793    14.3861
  255.0000     0.9793    14.3791
  255.5000     0.9887    14.3721
  256.0000     0.9887    14.3651
  256.5000     0.9887    14.3581
  257.0000     0.9887    14.3511
  257.5000     0.9887    14.3441
  258.0000     0.9981    14.3371
  258.5000     0.9981    14.3301
  259.0000     0.9981    14.3231
  259.5000     1.0075    14.3160
  260.0000     1.0152    14.1208
  260.5000     1.0094    14.1230
  261.0000     1.0036    14.1254
  261.5000     0.9977    14.1278
  262.0000     0.6753    14.1302
  262.5000     0.6662    14.1326
  263.0000     0.6665    14.1350
  263.5000     0.6573    14.1374
  264.0000     1.1096    14.1399
  264.5000     1.1193    14.1423
  265.0000     1.1196    14.1447
  265.5000     1.1199    14.1471
  266.0000     1.0166    14.1495
  266.5000     0.9604    14.1521
  267.0000     0.9606    14.1544
  267.5000     0.9703    14.3450
  268.0000     0.9706    14.9122
  268.5000     0.7920    16.0489
  269.0000     0.7923    18.7515
  269.5000     0.7926    22.6435
  270.0000     0.6611    32.8090
  270.5000     0.6519    37.8950
  271.0000     0.6522    41.8513
  271.5000     0.6525    44.6779
  272.0000     0.6528    44.4919
  272.5000     0.6530    44.1170
  273.0000     0.6627    42.6137
  273.5000     0.6630    41.4863
  274.0000     0.6633    40.3589
  274.5000     0.6541    39.2315
  275.0000     0.6639    37.5235
  275.5000     0.6547    35.5905
  276.0000     0.7586    33.4021
  276.5000     0.7871    32.0865
  277.0000     0.7874    31.1473
  277.5000     0.7877    30.0199
  278.0000     0.7974    29.0808
  278.5000     0.7977    28.1417
  279.0000     0.7980    27.5786
  279.5000     0.7983    26.8283
  280.0000     0.5537    26.0775
  280.5000     0.5540    25.4360
  281.0000     0.5543    24.3879
  281.5000     0.5545    24.0131
  282.0000     0.5454    23.6388
  282.5000     0.4044    23.2652
  283.0000     0.4141    23.0792
  283.5000     0.4144    23.0815
  284.0000     0.4147    22.8949
  284.5000     0.4056    22.7095
  285.0000     0.4058    22.7118
  285.5000     0.4061    22.7142
  286.0000     0.4064    22.7165
  286.5000     0.4067    22.7193
  287.0000     0.4070    22.7217
  287.5000     0.4073    22.9122
  288.0000     0.4076    23.1028
  288.5000     0.4173    23.1051
  289.0000     0.4270    22.9186
  289.5000     0.4272    22.9215
  290.0000     0.5216    22.9238
  290.5000     0.5125    22.9261
  291.0000     0.5034    22.7401
  291.5000     0.5037    22.5541
  292.0000     0.5134    22.3682
  292.5000     0.5137    22.1822
  293.0000     0.5139    22.1851
  293.5000     0.5142    21.9991
  294.0000     0.5145    22.0014
  294.5000     0.5148    22.1920
  295.0000     0.5056    22.1943
  295.5000     0.5153    22.1966
  296.0000     0.4309    22.1989
  296.5000     0.4217    22.2012
  297.0000     0.4126    22.2035
  297.5000     0.4129    22.2058
  298.0000     0.4132    22.2082
  298.5000     0.4229    22.2105
  299.0000     0.4232    22.2129
  299.5000     0.4235    22.2157
  300.0000     0.5367    22.2163
  300.5000     0.5464    22.2146
  301.0000     0.5467    22.2130
  301.5000     0.5470    22.2114
  302.0000     0.5567    22.2098
  302.5000     0.4816    22.2079
  303.0000     0.4160    22.0177
  303.5000     0.4257    21.8276
  304.0000     0.4260    21.8258
  304.5000     0.4263    21.8239
  305.0000     0.4266    22.0108
  305.5000     0.4269    22.1969
  306.0000     0.4272    22.3832
  306.5000     0.2907    22.5697
  307.0000     0.2906    22.5540
  307.5000     0.2905    22.3776
  308.0000     0.2904    22.3754
  308.5000     0.5445    22.3735
  309.0000     0.5444    22.3717
  309.5000     0.5443    22.1815
  310.0000     0.5442    21.8031
  310.5000     0.5442    21.6130
  311.0000     0.5441    21.2346
  311.5000     0.5440    20.9727
  312.0000     0.5439    20.8543
  312.5000     0.6662    20.8525
  313.0000     0.6661    20.8506
  313.5000     0.6754    20.8487
  314.0000     0.6390    20.6586
  314.5000     0.5528    20.4681
  315.0000     0.5527    20.0896
  315.5000     0.5621    19.7112
  316.0000     0.5525    19.7094
  316.5000     0.5524    19.3310
  317.0000     0.5523    18.9525
  317.5000     0.5522    18.7624
  318.0000     0.4015    18.5723
  318.5000     0.3920    18.1939
  319.0000     0.4013    17.4389
  319.5000     0.4012    16.8722
  320.0000     0.7589    16.3054
  320.5000     0.7683    15.9000
  321.0000     0.7682    15.5482
  321.5000     0.7675    15.5463
  322.0000     0.7586    15.1679
  322.5000     0.6266    14.9778
  323.0000     0.6265    14.7876
  323.5000     0.6264    14.2209
  324.0000     0.7582    14.0308
  324.5000     0.7581    13.6524
  325.0000     0.7580    13.4623
  325.5000     0.7579    13.2721
  326.0000     0.7578    12.8937
  326.5000     0.7577    12.8799
  327.0000     0.7671    12.5134
  327.5000     0.7687    12.1346
  328.0000     0.6727    11.7562
  328.5000     0.6443    11.5660
  329.0000     0.6537    11.1876
  329.5000     0.6536    10.8092
  330.0000     0.6535    10.2425
  330.5000     0.6534    10.0524
  331.0000     0.6533     9.8622
  331.5000     0.6626     9.6721
  332.0000     0.6531     9.4820
