~VERSION INFORMATION
 VERS.                2.0:   CWLS LOG ASCII STANDARD - VERSION 2.0
 WRAP.                 NO:   ONE LINE PER DEPTH STEP
~WELL INFORMATION
#MNEM.UNIT      DATA TYPE    INFORMATION
#----------   ------------   ------------------------------
 STRT.F         1420.5000:   START DEPTH
 STOP.F         2350.5000:   STOP DEPTH
 STEP.F            0.5000:   STEP LENGTH
 NULL.          -999.2500:   NO VALUE
 COMP. BROWN JOHN E&C INC:   COMPANY
 WELL.   15 STX-14 #15-14:   WELL
 FLD .             TEAPOT:   FIELD
 LOC .      S14 T38N R78W:   LOCATION
 CNTY.            NATRONA:   COUNTY
 STAT.            WYOMING:   STATE
 CTRY. UNITED STATES OF AMERICA:   COUNTRY
 SRVC.            Unknown:   SERVICE COMPANY
 DATE.        02-JUN-1991:   LOGDATE
 API .       490251096000:   API NUMBER
~CURVE INFORMATION
#MNEM.UNIT       API CODE    CURVE DESCRIPTION
#----------   ------------   ------------------------------
 DEPT.F                  :   
 ROP .MIN/FT 91 810 01 00:   RATE OF DRILLING PENETRATION
 TGAS.UNITS  91 830 01 00:   TOTAL GAS
~PARAMETER INFORMATION
#MNEM.UNIT          VALUE    DESCRIPTION
#----------   ------------   ------------------------------
 EKB .F              5241:   KELLING BUSHING
 EGL .F              5231:   GROUND LEVEL
 DATE.             6-2-91:   RUN DATE
 DD  .F              2350:   DEPTH DRILLER
 BLI .F              2347:   BOTTOM LOG INTERVAL
 TLI .F              1420:   TOP LOG INTERVAL
 ENGI.              TOWER:   RECORDING ENGINEER
 CLNT.            A2DTECH:   CLIENT CODE
 ORIG.         2.5" PRINT:   ORIGIN OF DATA
 UWI .       490251096000:   UNIQUE WELL ID
 DICO. A2D Technologies, Inc.:   DIGITIZING COMPANY
~OTHER INFORMATION
~A  DEPT       ROP        TGAS  
# ...
 2271.0000     1.0867   535.1046
 2271.5000     1.1745   535.2928
 2272.0000     1.1751   535.4811
 2272.5000     1.1761   535.6924
 2273.0000     1.1732   554.6931
 2273.5000     1.1135   554.8745
 2274.0000     1.0917   555.0627
 2274.5000     0.9511   555.2510
 2275.0000     0.8949   549.1599
 2275.5000     0.8746   536.7992
 2276.0000     0.8393   536.9874
 2276.5000     0.8211   537.1757
 2277.0000     0.8219   537.3640
 2277.5000     0.8414   537.5868
 2278.0000     0.8619   537.7589
 2278.5000     0.8806   519.1027
 2279.0000     0.9002   500.4465
 2279.5000     0.9010   500.6485
 2280.0000     0.9016   500.8368
 2280.5000     0.8832   494.2497
 2281.0000     0.8805   482.3849
 2281.5000     0.8398   482.5732
 2282.0000     0.8179   494.8145
 2282.5000     0.7912   501.7782
 2283.0000     0.7540   501.9964
 2283.5000     0.7357   502.1686
 2284.0000     0.7364   502.5944
 2284.5000     0.7464   521.3599
 2285.0000     0.7567   525.3178
 2285.5000     0.7763   540.5648
 2286.0000     0.7769   540.7531
 2286.5000     0.7776   540.9414
 2287.0000     0.7700   541.1297
 2287.5000     0.7410   541.3180
 2288.0000     0.7417   541.5062
 2288.5000     0.7423   541.7198
 2289.0000     0.7205   541.8920
 2289.5000     0.6607   542.0712
 2290.0000     0.5929   542.2593
 2290.5000     0.5935   542.4477
 2291.0000     0.5941   536.6077
 2291.5000     0.5948   523.9958
 2292.0000     0.5955   524.1841
 2292.5000     0.5961   524.3724
 2293.0000     0.6158   524.5606
 2293.5000     0.6543   524.7857
 2294.0000     0.6752   524.9578
 2294.5000     0.7124   506.3017
 2295.0000     0.7405   506.4854
 2295.5000     0.7517   506.6736
 2296.0000     0.7902   506.8619
 2296.5000     0.8098   507.0502
 2297.0000     0.8104   507.2385
 2297.5000     0.8111   507.4268
 2298.0000     0.8119   507.6151
 2298.5000     0.8314   507.8033
 2299.0000     0.8510   508.0238
 2299.5000     0.8922   508.1960
 2300.0000     0.9091   508.3969
 2300.5000     0.9092   508.6506
 2301.0000     0.9091   521.7697
 2301.5000     0.9048   528.0439
 2302.0000     0.8902   528.3618
 2302.5000     0.9091   528.6207
 2303.0000     0.9470   528.8912
 2303.5000     0.9659   529.1736
 2304.0000     0.9879   529.4561
 2304.5000     1.0293   529.7385
 2305.0000     1.0518   530.0209
 2305.5000     1.0606   530.3033
 2306.0000     1.0606   530.5858
 2306.5000     1.0606   530.8682
 2307.0000     1.0553   531.1506
 2307.5000     1.0240   531.4330
 2308.0000     0.9659   531.7155
 2308.5000     0.8902   531.9979
 2309.0000     0.8518   532.2803
 2309.5000     0.8333   532.5627
 2310.0000     0.8674   532.8452
 2310.5000     0.9280   533.1276
 2311.0000     0.9848   533.4537
 2311.5000     1.0038   533.7126
 2312.0000     1.0662   533.9714
 2312.5000     1.0985   515.4019
 2313.0000     1.0985   515.7113
 2313.5000     1.0795   515.9937
 2314.0000     1.0606   516.7825
 2314.5000     1.0212   518.5320
 2315.0000     0.9848   520.2814
 2315.5000     0.9487   522.0309
 2316.0000     0.9091   523.7803
 2316.5000     0.9091   525.5298
 2317.0000     0.9091   527.2792
 2317.5000     0.9091   529.0287
 2318.0000     0.9427   530.7781
 2318.5000     1.0038   532.5276
 2319.0000     1.0606   534.2770
 2319.5000     1.0985   536.0264
 2320.0000     1.1200   537.7759
 2320.5000     1.1424   538.7762
 2321.0000     1.1742   539.0586
 2321.5000     1.1932   539.3410
 2322.0000     1.1932   540.2526
 2322.5000     1.1932   541.3621
 2323.0000     1.1932   542.4716
 2323.5000     1.1492   543.5811
 2324.0000     1.0038   544.6906
 2324.5000     0.9091   545.8000
 2325.0000     0.8333   546.9095
 2325.5000     0.7505   548.0190
 2326.0000     0.7008   549.1285
 2326.5000     0.7114   550.2379
 2327.0000     0.7576   551.3474
 2327.5000     0.7765   552.4569
 2328.0000     0.8167   553.5664
 2328.5000     0.8391   554.6758
 2329.0000     0.8902   555.7853
 2329.5000     0.8902   556.8948
 2330.0000     0.9091   558.0043
 2330.5000     0.9091   559.1138
 2331.0000     0.9091   560.2233
 2331.5000     0.9010   561.3328
 2332.0000     0.8902   562.4423
 2332.5000     0.8712   563.5517
 2333.0000     0.8523   564.6666
 2333.5000     0.8333   546.0970
 2334.0000     0.8333   546.4017
 2334.5000     0.8230   546.6841
 2335.0000     0.8144   546.9665
 2335.5000     0.7955   547.2490
 2336.0000     0.7934   547.5314
 2336.5000     0.7765   547.8138
 2337.0000     0.7765   548.0963
 2337.5000     0.7576   548.3787
 2338.0000     0.7576   548.6611
 2338.5000     0.7576   548.9435
 2339.0000     0.7576   549.2260
 2339.5000     0.7576   549.5084
 2340.0000     0.7576   549.7908
 2340.5000     0.7765   550.1100
 2341.0000     0.7955   550.3690
 2341.5000     0.8333   550.6380
 2342.0000     0.8654   550.8869
 2342.5000     0.9293   550.5825
 2343.0000     1.0417   550.3104
 2343.5000     1.1364   550.0383
 2344.0000     1.1932   549.7663
 2344.5000     1.1932   549.4943
 2345.0000     1.1654   549.2222
 2345.5000     1.1174   548.9501
 2346.0000     1.0417   548.6781
 2346.5000     0.9843   548.4061
 2347.0000     0.9578   548.1340
 2347.5000     0.9205   547.8619
 2348.0000     0.8902   547.5899
 2348.5000     0.8523   547.3179
 2349.0000     0.8523   547.0458
 2349.5000     0.8550   546.7737
 2350.0000     0.8902   546.5017
 2350.5000  -999.2500   546.2297
