~VERSION INFORMATION
 VERS.                2.0:   CWLS LOG ASCII STANDARD - VERSION 2.0
 WRAP.                 NO:   ONE LINE PER DEPTH STEP
~WELL INFORMATION
#MNEM.UNIT      DATA TYPE    INFORMATION
#----------   ------------   ------------------------------
 STRT.F         1700.0000:   START DEPTH
 STOP.F         2172.0000:   STOP DEPTH
 STEP.F            0.5000:   STEP LENGTH
 NULL.          -999.2500:   NO VALUE
 COMP.   FENIX & SCISSONS:   COMPANY
 WELL. NPR ##3 57-22-SX-3:   WELL
 FLD .             TEAPOT:   FIELD
 LOC .       S3 T38N R78W:   LOCATION
 CNTY.            NATRONA:   COUNTY
 STAT.            WYOMING:   STATE
 CTRY. UNITED STATES OF AMERICA:   COUNTRY
 SRVC.      NL McCullough:   SERVICE COMPANY
 DATE.        08-AUG-1988:   LOGDATE
 API .       490251123900:   API NUMBER
~CURVE INFORMATION
#MNEM.UNIT       API CODE    CURVE DESCRIPTION
#----------   ------------   ------------------------------
 DEPT.F                  :   
 ROP .FT/HR  91 810 01 00:   RAT OF DRILLING PENETRATION
 TGAS.TC/CC  91 830 01 00:   TOTAL GAS UNIT
~PARAMETER INFORMATION
#MNEM.UNIT          VALUE    DESCRIPTION
#----------   ------------   ------------------------------
 PD  .                 GL:   PERMANENT DATUM
 EPD .F              5184:   ELEVATION PERMANENT DATUM
 LMF .                 KB:   LOG MEASURED FROM
 DAPD.F                10:   FEET ABOVE PERMANENT DATUM
 DMF .                 KB:   DRILLING MEASURED FROM
 EKB .F              5194:   KELLING BUSHING
 EGL .F              5184:   GROUND LEVEL
 DATE.             8-8-88:   RUN DATE
 RUN .                  1:   RUN NUMBER
 DD  .F               454:   DEPTH DRILLER
 DL  .F               454:   DEPTH LOGGER
 BLI .F               450:   BOTTOM LOG INTERVAL
 CS  .IN            9.625:   CASING SIZE
 BS  .IN             8.75:   BIT SIZE
 BSD .F               454:   BIT SIZE AT DEPTH
 DFT .              WATER:   DRILLING FLUID TYPE
 TCS .HRS               1:   TIME CURCULATED STOPPED
 LUN .              84026:   LOGGING UNIT NUMBER
 ENGI.            SCHULTZ:   RECORDING ENGINEER
 WITN.              SLACK:   WITNESSED BY
 CLNT.            A2DTECH:   CLIENT CODE
 ORIG.           5" PRINT:   ORIGIN OF DATA
 UWI .       490251123900:   UNIQUE WELL ID
 DICO. A2D Technologies, Inc.:   DIGITIZING COMPANY
~OTHER INFORMATION
~A  DEPT         ROP       TGAS 
# ...
 2064.5000     0.9714    16.2872
 2065.0000     1.0000    16.1485
 2065.5000     1.0286    16.0098
 2066.0000     1.0761    15.8711
 2066.5000     1.0671    15.7325
 2067.0000     0.9544    15.5938
 2067.5000     0.8324    15.4551
 2068.0000     0.7480    15.3164
 2068.5000     0.7202    15.1777
 2069.0000     0.7111    15.0390
 2069.5000     0.7021  -999.2500
 2070.0000     0.6930  -999.2500
 2070.5000     0.7030  -999.2500
 2071.0000     0.7223  -999.2500
 2071.5000     0.7507  -999.2500
 2072.0000     0.7610  -999.2500
 2072.5000     0.7891  -999.2500
 2073.0000     0.7989  -999.2500
 2073.5000     0.7992  -999.2500
 2074.0000     0.8505  -999.2500
 2074.5000     0.9441  -999.2500
 2075.0000     1.0405  -999.2500
 2075.5000     1.1543  -999.2500
 2076.0000     1.2720  -999.2500
 2076.5000     1.1406  -999.2500
 2077.0000     0.9903  -999.2500
 2077.5000     0.9059  -999.2500
 2078.0000     0.8121  -999.2500
 2078.5000     0.7936  -999.2500
 2079.0000     0.8976  -999.2500
 2079.5000     1.0016  -999.2500
 2080.0000     0.9831    70.9167
 2080.5000     0.9176   110.9074
 2081.0000     0.8802   150.8982
 2081.5000     0.8430   190.8889
 2082.0000     0.8339   230.8796
 2082.5000     0.9097   270.8704
 2083.0000     0.9571   310.8611
 2083.5000     1.0046   350.8518
 2084.0000     1.0614   390.8426
 2084.5000     1.0807   430.8333
 2085.0000     1.0716   470.8240
 2085.5000     1.0720   506.3036
 2086.0000     1.0534   506.4724
 2086.5000     1.0257   506.6411
 2087.0000     0.9507   506.8099
 2087.5000     0.8757   506.9786
 2088.0000     0.8102   507.1474
 2088.5000     0.7635   507.3161
 2089.0000     0.7639   507.4849
 2089.5000     0.7737   507.6536
 2090.0000     0.8023   507.8223
 2090.5000     0.9345   507.9911
 2091.0000     1.0196   508.1598
 2091.5000     1.0671   508.3286
 2092.0000     1.0015   508.4973
 2092.5000     0.9360   508.6660
 2093.0000     0.8893   508.8348
 2093.5000     0.8897   509.0035
 2094.0000     0.8806   509.1723
 2094.5000     0.8810   509.3410
 2095.0000     0.8814   509.5098
 2095.5000     0.9006   509.6785
 2096.0000     0.9857   509.8472
 2096.5000     1.0426   510.0160
 2097.0000     1.1089   510.1847
 2097.5000     1.1751   510.3535
 2098.0000     1.2226   510.5222
 2098.5000     1.1853   510.6909
 2099.0000     1.1292   510.8597
 2099.5000     1.0825   511.0284
 2100.0000     1.0452   511.1972
 2100.5000     1.2803   511.3659
 2101.0000     1.4495   511.5346
 2101.5000     1.5152   511.7034
 2102.0000     1.4772   511.8826
 2102.5000     1.4487   511.6838
 2103.0000     1.4295   520.8323
 2103.5000     1.4010   520.5839
 2104.0000     1.3819   520.3851
 2104.5000     1.3722   529.5336
 2105.0000     1.3719   529.2851
 2105.5000     1.3810   529.0698
 2106.0000     1.4278   538.2017
 2106.5000     1.4935   537.9697
 2107.0000     1.5591   537.7876
 2107.5000     1.6153   563.5657
 2108.0000     1.6527   590.3646
 2108.5000     1.6713   602.3071
 2109.0000     1.7086   592.7612
 2109.5000     1.7555   573.9673
 2110.0000     1.6233   564.4710
 2110.5000     1.4912   554.9747
 2111.0000     1.3309   545.4785
 2111.5000     1.2176   545.2797
 2112.0000     1.1231   535.7834
 2112.5000     1.0475   535.5847
 2113.0000     0.9719   535.3859
 2113.5000     0.9057   535.1871
 2114.0000     0.8584   534.9883
 2114.5000     0.8769   525.4921
 2115.0000     0.9425   525.2934
 2115.5000     0.9893   525.0947
 2116.0000     1.0267   515.5983
 2116.5000     1.0076   524.7468
 2117.0000     0.8943   524.4983
 2117.5000     0.7905   533.6468
 2118.0000     0.8278   533.3983
 2118.5000     0.8841   533.1996
 2119.0000     0.8838   533.0008
 2119.5000     0.8741   532.8021
 2120.0000     0.8361   483.1115
 2120.5000     0.7888   430.1633
 2121.0000     0.7602   377.2151
 2121.5000     0.7600   324.2669
 2122.0000     0.7879   271.3187
 2122.5000     0.8253   218.3705
 2123.0000     0.8533   165.4223
 2123.5000     0.8625   112.4741
 2124.0000     0.8904    66.1206
 2124.5000     0.8995    56.6244
 2125.0000     0.8992    56.4255
 2125.5000     0.8989    56.3819
 2126.0000     0.9175    56.3914
 2126.5000     0.9831    56.4010
 2127.0000     1.0676    56.4105
 2127.5000     1.1521    56.4200
 2128.0000     1.2648    56.4295
 2128.5000     1.3869    56.4391
 2129.0000     1.4808    56.4486
 2129.5000     1.6123    56.4581
 2130.0000     1.4991    56.4676
 2130.5000     1.3481    56.4772
 2131.0000     1.1783    56.4867
 2131.5000     0.9992    56.4962
 2132.0000     0.9330    56.5057
 2132.5000     0.9044    56.5153
 2133.0000     0.8947    56.5248
 2133.5000     0.8944    56.5343
 2134.0000     0.8942    56.5438
 2134.5000     0.8939    56.5534
 2135.0000     0.8936    56.5629
 2135.5000     0.9027    56.5724
 2136.0000     0.9307    56.5819
 2136.5000     0.9869    56.5915
 2137.0000     1.0243    56.6010
 2137.5000     1.0523    56.6105
 2138.0000     1.1273    56.6200
 2138.5000     1.3907    56.6296
 2139.0000     1.7765    56.6391
 2139.5000     1.9833    47.0907
 2140.0000     1.9077    46.8554
 2140.5000     1.8133    46.6200
 2141.0000     1.6812   112.0096
 2141.5000     1.4643   149.2743
 2142.0000     1.1815   252.1639
 2142.5000     1.0965   373.8036
 2143.0000     1.0209   457.9432
 2143.5000     0.9547   523.3329
 2144.0000     0.9262   569.9725
 2144.5000     0.9165   607.2960
 2145.0000     0.9068   616.4356
 2145.5000     0.9065   606.7664
 2146.0000     0.8968   559.6561
 2146.5000     0.8400   475.0457
 2147.0000     0.7456   371.6854
 2147.5000     0.6417   268.3250
 2148.0000     0.5566   211.8397
 2148.5000     0.6223   174.1043
 2149.0000     0.6502   145.7439
 2149.5000     0.6876   136.1336
 2150.0000     0.6626   117.1482
 2150.5000     0.5838   107.5379
 2151.0000     0.4708   107.3025
 2151.5000     0.4614   107.0672
 2152.0000     0.4520   106.8318
 2152.5000     0.4520   116.0303
 2153.0000     0.4614   134.5449
 2153.5000     0.4708   153.0007
 2154.0000     0.4708   154.6729
 2154.5000     0.5744   171.3389
 2155.0000     0.6685   161.7188
 2155.5000     0.7250   161.4844
 2156.0000     0.7250   151.8750
 2156.5000     0.7345   151.6405
 2157.0000     0.7345   142.0313
 2157.5000     0.7533   141.7968
 2158.0000     0.7721   141.5625
 2158.5000     0.7910   141.3281
 2159.0000     0.8098   141.0957
 2159.5000     0.8380   150.3803
 2160.0000     0.8569   178.1250
 2160.5000     0.8757   187.2656
 2161.0000     0.8851   196.4062
 2161.5000     0.8945   186.7939
 2162.0000     0.8945   186.5585
 2162.5000     0.8663   176.9482
 2163.0000     0.8286   176.7128
 2163.5000     0.7721   176.4775
 2164.0000     0.6968   176.2421
 2164.5000     0.6591   166.6318
 2165.0000     0.6497   166.3964
 2165.5000     0.6309   166.1611
 2166.0000     0.6121   165.9257
 2166.5000     0.6497   165.6903
 2167.0000     0.7062   165.4550
 2167.5000     0.7439   155.8446
 2168.0000     0.7533   155.6093
 2168.5000     0.7439   155.3739
 2169.0000     0.7250   155.1386
 2169.5000     0.6968   154.9032
 2170.0000     0.6591   154.6678
 2170.5000     0.6215   154.4325
 2171.0000     0.6121   163.6310
 2171.5000     0.6121   163.3368
 2172.0000     0.5556   172.5353
