~VERSION INFORMATION
 VERS.                2.0:   CWLS LOG ASCII STANDARD - VERSION 2.0
 WRAP.                 NO:   ONE LINE PER DEPTH STEP
~WELL INFORMATION
#MNEM.UNIT      DATA TYPE    INFORMATION
#----------   ------------   ------------------------------
 STRT.F           26.0000:   START DEPTH
 STOP.F         1071.0000:   STOP DEPTH
 STEP.F            0.5000:   STEP LENGTH
 NULL.          -999.2500:   NO VALUE
 COMP. FENIX & SCISSON INC:   COMPANY
 WELL.       NRP 3 #61-14:   WELL
 FLD .        TEAPOT DOME:   FIELD
 LOC .      S14 T38N R78W:   LOCATION
 CNTY.            NATRONA:   COUNTY
 STAT.            WYOMING:   STATE
 CTRY. UNITED STATES OF AMERICA:   COUNTRY
 SRVC.            Unknown:   SERVICE COMPANY
 DATE.        09-JAN-1979:   LOGDATE
 API .       490251076300:   API NUMBER
~CURVE INFORMATION
#MNEM.UNIT       API CODE    CURVE DESCRIPTION
#----------   ------------   ------------------------------
 DEPT.F                  :   
 SPR .MV     05 010 01 00:   SPONTANEOUS POTENTIAL FROM RES.
 SN  .OHMM   05 040 16 00:   SHORT NORMAL 16"
 IL  .OHMM   05 120 00 00:   INDUCTION LOG
 CALD.IN     45 280 60 00:   CALIPER
 GRD .GAPI   45 310 01 00:   GAMMA RAY FROM DENSITY LOG
 RHOB.G/C3   45 350 01 00:   BULK DENSITY
 DPHI.DEC    45 890 12 00:   DENSITY POROSITY SANDSTONE
 CORR.G/C3   45 356 01 00:   DENSITY CORRECTION
~PARAMETER INFORMATION
#MNEM.UNIT          VALUE    DESCRIPTION
#----------   ------------   ------------------------------
 PD  .                 GL:   PERMANENT DATUM
 EPD .F              5240:   ELEVATION PERMANENT DATUM
 LMF .                 KB:   LOG MEASURED FROM
 DAPD.F                 4:   FEET ABOVE PERMANENT DATUM
 DMF .                 KB:   DRILLING MEASURED FROM
 EKB .F              5244:   KELLING BUSHING
 EGL .F              5240:   GROUND LEVEL
 DATE.             1-9-79:   RUN DATE
 RUN .                  1:   RUN NUMBER
 DD  .F              1061:   DEPTH DRILLER
 DL  .F              1071:   DEPTH LOGGER
 BLI .F              1064:   BOTTOM LOG INTERVAL
 TLI .F                50:   TOP LOG INTERVAL
 CS  .IN            8.625:   CASING SIZE
 CBD .F                40:   CASING BOTTOM DRILLER
 CBL .F                38:   CASING BOTTOM LOGGER
 BS  .IN            7.875:   BIT SIZE
 BSD .F              1061:   BIT SIZE AT DEPTH
 DFT .                KCL:   DRILLING FLUID TYPE
 DFD .                8.8:   DRILLING FLUID DENSITY
 DFV .                 36:   DRILLING FLUID VISCOSITY
 DFPH.                9.2:   DRILLING FLUID PH
 MSS .           FLOWLINE:   MUD SAMPLE SOURCE
 RMS .OHMM             .3:   RESISTIVITY MUD SAMPLE
 MST .F                58:   MUD SAMPLE TEMPERATURE
 RMF .OHMM             .3:   RESISTIVITY MUD FILTRATE SAMPLE
 MFST.F                58:   MUD FILTRATE SAMPLE TEMPERATURE
 RMC .OHMM            .34:   RESISTIVITY MUD CAKE
 MCST.F                62:   MUD CAKE SAMPLE TEMPERATURE
 MFSS.           MEASURED:   MUD FILTRATE SAMPLE SOURCE
 MCSS.           MEASURED:   MUD CAKE SAMPLE SOURCE
 RMB .OHMM            .29:   RESISTIVITY MUD AT BHT
 BHT .F                61:   BOTTOM HOLE TEMPERATURE
 TCS .HRS               4:   TIME CURCULATED STOPPED
 MRT .F                61:   MAXIMUM RECORDED TEMPERATURE
 LUN .               3006:   LOGGING UNIT NUMBER
 LUL .             CASPER:   LOGGING UNIT LOCATION
 ENGI.            ROLLINS:   RECORDING ENGINEER
 WITN.           DINSMORE:   WITNESSED BY
 CLNT.            A2DTECH:   CLIENT CODE
 ORIG.           5" PRINT:   ORIGIN OF DATA
 UWI .       490251076300:   UNIQUE WELL ID
 DICO. A2D Technologies, Inc.:   DIGITIZING COMPANY
~OTHER INFORMATION
~A   DEPT      SPR         SN         IL       CALD         GRD      RHOB       DPHI       CORR   
# ...
  755.0000   -69.6820     7.1880     7.5370     8.0100   110.0690     2.4370     0.1500     0.1300
  755.5000   -69.6880     7.2160     7.5720     8.0120   109.0090     2.4380     0.1440     0.1290
  756.0000   -69.6940     7.2440     7.6240     8.0140   107.9760     2.4440     0.1350     0.1270
  756.5000   -69.7000     7.2800     7.6060     8.0160   107.6150     2.4550     0.1280     0.1200
  757.0000   -69.7050     7.2680     7.5690     8.0180   108.2130     2.4630     0.1320     0.1130
  757.5000   -69.7110     7.2490     7.5320     8.0200   108.8010     2.4610     0.1330     0.1080
  758.0000   -69.7170     7.2310     7.4960     8.0220   109.4020     2.4570     0.1320     0.1120
  758.5000   -69.7230     7.2120     7.4590     8.0240   109.5960     2.4560     0.1310     0.1160
  759.0000   -69.7280     7.1940     7.4220     8.0260   109.6790     2.4550     0.1370     0.1200
  759.5000   -69.7340     7.1760     7.3850     8.0610   109.7610     2.4540     0.1400     0.1240
  760.0000   -69.7400     7.1570     7.3480     8.1000   109.8400     2.4540     0.1400     0.1190
  760.5000   -69.7460     7.1390     7.3340     8.1400   109.8960     2.4530     0.1380     0.1120
  761.0000   -69.7520     7.1200     7.3210     8.1000   111.3170     2.4540     0.1330     0.1050
  761.5000   -69.7570     7.1020     7.3070     8.0480   113.4750     2.4590     0.1280     0.1060
  762.0000   -69.7630     7.0840     7.2930     8.0260   115.4360     2.4670     0.1230     0.1080
  762.5000   -69.7690     7.0650     7.2800     8.0260   114.3930     2.4750     0.1180     0.1090
  763.0000   -69.7750     7.0470     7.2660     8.0260   112.4640     2.4780     0.1300     0.1110
  763.5000   -69.7800     7.0280     7.2520     8.0260   111.4360     2.4700     0.1400     0.1130
  764.0000   -69.7860     7.0100     7.2390     8.0260   111.3260     2.4550     0.1440     0.1140
  764.5000   -69.7920     6.9910     7.2250     8.0260   111.2940     2.4400     0.1450     0.1130
  765.0000   -69.7980     6.9730     7.2110     8.0260   111.2650     2.4350     0.1450     0.1120
  765.5000   -69.8040     6.9550     7.1970     8.0260   111.2380     2.4350     0.1480     0.1110
  766.0000   -69.8090     6.9360     7.1840     8.0260   111.2100     2.4350     0.1490     0.1100
  766.5000   -69.8150     6.9180     7.1700     8.0260   111.1840     2.4340     0.1490     0.1090
  767.0000   -69.8220     6.8990     7.1560     8.0260   111.1620     2.4340     0.1490     0.1080
  767.5000   -69.8610     6.8810     7.1430     8.0260   111.1050     2.4340     0.1510     0.1070
  768.0000   -69.9000     6.8620     7.1290     8.0260   109.6780     2.4340     0.1490     0.1060
  768.5000   -69.9400     6.8440     7.1150     8.0260   108.4620     2.4360     0.1410     0.1050
  769.0000   -69.9790     6.8260     7.1020     8.0260   108.2150     2.4440     0.1390     0.1070
  769.5000   -70.0170     6.8070     7.0880     8.0260   107.9590     2.4500     0.1370     0.1080
  770.0000   -69.9630     6.7890     7.0740     8.0260   109.0340     2.4500     0.1370     0.1110
  770.5000   -69.9020     6.7700     7.0600     8.0260   111.0960     2.4500     0.1410     0.1130
  771.0000   -69.8420     6.7520     7.0470     8.0260   112.3670     2.4450     0.1440     0.1150
  771.5000   -69.7820     6.7340     7.0330     8.0260   113.1290     2.4400     0.1440     0.1170
  772.0000   -69.7220     6.7150     7.0190     8.0260   113.5460     2.4380     0.1440     0.1190
  772.5000   -69.6620     6.6830     6.9230     8.0260   113.8590     2.4380     0.1450     0.1220
  773.0000   -69.6020     6.5930     6.8060     8.0260   113.8170     2.4390     0.1440     0.1240
  773.5000   -69.5420     6.5020     6.6890     8.0260   112.6650     2.4390     0.1440     0.1270
  774.0000   -69.4810     6.4110     6.5710     8.0260   110.0840     2.4390     0.1450     0.1290
  774.5000   -69.4270     6.3200     6.4540     8.0260   107.2700     2.4390     0.1450     0.1310
  775.0000   -69.5050     6.2290     6.3360     8.0260   105.7330     2.4390     0.1440     0.1320
  775.5000   -69.5870     6.1380     6.2190     8.0260   105.6020     2.4400     0.1430     0.1310
  776.0000   -69.6690     6.0470     6.1090     8.0260   105.5980     2.4400     0.1450     0.1300
  776.5000   -69.7510     5.9430     6.1090     8.0260   106.1350     2.4370     0.1590     0.1250
  777.0000   -69.8330     5.9550     6.0530     8.0260   106.9760     2.4300     0.1550     0.1200
  777.5000   -69.9150     5.9820     6.0530     8.0260   110.2070     2.4240     0.1520     0.1150
  778.0000   -69.9960     6.0320     6.1660     8.0260   113.4870     2.4310     0.1470     0.1140
  778.5000   -70.0790     6.1160     6.2580     8.0260   114.4570     2.4390     0.1400     0.1140
  779.0000   -70.1620     6.2000     6.3500     8.0260   115.3350     2.4420     0.1390     0.1130
  779.5000   -70.2910     6.2830     6.4420     8.0260   115.5860     2.4440     0.1410     0.1130
  780.0000   -70.5730     6.3670     6.5340     8.0260   115.6640     2.4430     0.1460     0.1120
  780.5000   -70.8510     6.4570     6.5780     8.0260   115.4830     2.4380     0.1480     0.1120
  781.0000   -71.1270     6.4570     6.5780     8.0260   115.2680     2.4370     0.1470     0.1110
  781.5000   -71.4040     6.4570     6.5780     8.0260   114.2320     2.4370     0.1460     0.1110
  782.0000   -71.6810     6.4570     6.5780     8.0260   111.8730     2.4370     0.1440     0.1110
  782.5000   -71.9570     6.4570     6.5780     8.0260   109.7700     2.4370     0.1430     0.1130
  783.0000   -72.2330     6.4100     6.5780     8.0260   109.5470     2.4370     0.1460     0.1170
  783.5000   -72.4250     6.3550     6.4880     8.0270   109.6120     2.4340     0.1480     0.1330
  784.0000   -72.4580     6.3010     6.3810     8.0310   109.6790     2.4310     0.1500     0.1510
  784.5000   -72.4930     6.2460     6.3190     8.0350   109.7280     2.4290     0.1530     0.1590
  785.0000   -72.5280     6.2230     6.2850     8.0380   109.3600     2.4260     0.1560     0.1440
  785.5000   -72.5630     6.2230     6.2520     8.0420   108.9770     2.4240     0.1580     0.1230
  786.0000   -72.6020     6.2230     6.2110     8.0460   109.1440     2.4230     0.1540     0.1170
  786.5000   -72.4080     6.1600     6.1260     8.0490   108.6660     2.4270     0.1410     0.1170
  787.0000   -72.0250     6.0760     6.0420     8.0530   109.2940     2.4400     0.1340     0.1180
  787.5000   -71.2770     5.9920     5.9570     8.0570   111.0960     2.4540     0.1420     0.1190
  788.0000   -70.5440     5.9070     5.8730     8.0610   115.6590     2.4470     0.1490     0.1200
  788.5000   -70.3060     5.8230     5.7890     8.0630   120.4800     2.4340     0.1470     0.1210
  789.0000   -70.2210     5.7390     5.7040     8.1240   121.9820     2.4340     0.1460     0.1220
  789.5000   -70.2210     5.6310     5.3980     8.0930   119.7920     2.4340     0.1480     0.1230
  790.0000   -70.2190     5.4490     4.9710     7.9700   115.9180     2.4310     0.1540     0.1240
  790.5000   -70.2190     5.2670     4.6320     7.9240   111.9470     2.4220     0.1610     0.1250
  791.0000   -70.2190     5.0840     4.6690     7.9230   110.9460     2.4130     0.1650     0.1210
  791.5000   -70.2190     4.9020     4.7320     7.9210   112.3550     2.4070     0.1690     0.1150
  792.0000   -70.2190     4.7200     4.7940     7.9190   114.4510     2.4020     0.1800     0.1110
  792.5000   -70.2190     4.6750     4.8560     7.9160   115.0520     2.3870     0.1910     0.1090
  793.0000   -70.2190     4.7620     4.9190     7.9140   114.0710     2.3670     0.1910     0.1060
  793.5000   -70.2190     4.8510     4.9870     7.9110   111.1700     2.3720     0.1720     0.1040
  794.0000   -70.2190     4.9410     5.2700     7.9090   108.2750     2.3930     0.1610     0.1050
  794.5000   -70.2190     5.5050     5.7450     7.9090   105.3640     2.4130     0.1540     0.1050
  795.0000   -70.2190     5.9700     6.1540     7.9280   104.1120     2.4260     0.1460     0.1050
