~VERSION INFORMATION
 VERS.                2.0:   CWLS LOG ASCII STANDARD - VERSION 2.0
 WRAP.                 NO:   ONE LINE PER DEPTH STEP
~WELL INFORMATION
#MNEM.UNIT      DATA TYPE    INFORMATION
#----------   ------------   ------------------------------
 STRT.F          534.0000:   START DEPTH
 STOP.F         1820.0000:   STOP DEPTH
 STEP.F            0.5000:   STEP LENGTH
 NULL.          -999.2500:   NO VALUE
 COMP.   FLUOR DANIEL INC:   COMPANY
 WELL. NAVAL PETROLEUM RESERVE 3 X-29 #45-29:   WELL
 FLD .             TEAPOT:   FIELD
 LOC .      S29 T39N R78W:   LOCATION
 CNTY.            NATRONA:   COUNTY
 STAT.            WYOMING:   STATE
 CTRY. UNITED STATES OF AMERICA:   COUNTRY
 SRVC.            Unknown:   SERVICE COMPANY
 DATE.        30-SEP-1994:   LOGDATE
 API .       490252265100:   API NUMBER
~CURVE INFORMATION
#MNEM.UNIT       API CODE    CURVE DESCRIPTION
#----------   ------------   ------------------------------
 DEPT.F                  :   
 ROP .FT/HR  91 810 01 00:   RAT OF DRILLING PENETRATION
 TGAS.TC/CC  91 830 01 00:   TOTAL GAS UNIT
~PARAMETER INFORMATION
#MNEM.UNIT          VALUE    DESCRIPTION
#----------   ------------   ------------------------------
 EKB .F              5023:   KELLING BUSHING
 EGL .F              5013:   GROUND LEVEL
 DATE.        30-SEP-1994:   RUN DATE
 RUN .                  1:   RUN NUMBER
 BLI .F              1820:   BOTTOM LOG INTERVAL
 TLI .F               540:   TOP LOG INTERVAL
 WITN.     C.TOWER/R.HUSK:   WITNESSED BY
 CLNT.            A2DTECH:   CLIENT CODE
 ORIG.           5" PRINT:   ORIGIN OF DATA
 UWI .       490252265100:   UNIQUE WELL ID
 DICO. A2D Technologies, Inc.:   DIGITIZING COMPANY
~OTHER INFORMATION
~A   DEPT        ROP       TGAS 
# ...
 1506.0000     0.6380     1.4089
 1506.5000     0.6378     1.7787
 1507.0000     0.6377     1.7704
 1507.5000     0.6375     1.7621
 1508.0000     0.6279     1.9450
 1508.5000     0.6331     1.9352
 1509.0000     0.6369     1.9267
 1509.5000     0.6367     1.9180
 1510.0000     0.6365     1.7206
 1510.5000     0.6363     1.7121
 1511.0000     0.6456     1.7020
 1511.5000     0.6548     1.6937
 1512.0000     0.6546     1.6866
 1512.5000     0.5414     1.6771
 1513.0000     0.5423     1.6688
 1513.5000     0.5505     1.6605
 1514.0000     0.5503     1.6522
 1514.5000     0.5501     1.6440
 1515.0000     0.5499     1.6355
 1515.5000     0.5497     1.6270
 1516.0000     0.5495     1.8060
 1516.5000     0.5588     1.7977
 1517.0000     0.5774     1.9806
 1517.5000     0.5584     1.9702
 1518.0000     0.5582     1.9619
 1518.5000     0.5580     1.9536
 1519.0000     0.5578     1.9453
 1519.5000     0.5553     2.1262
 1520.0000     0.5480     2.1176
 1520.5000     0.5478     1.9201
 1521.0000     0.5476     1.7210
 1521.5000     0.5380     1.7127
 1522.0000     0.5379     1.7044
 1522.5000     0.5475     1.5070
 1523.0000     0.5563     1.8769
 1523.5000     0.5561     1.8690
 1524.0000     0.5675     2.0496
 1524.5000     0.5746     1.8520
 1525.0000     0.5744     1.8355
 1525.5000     0.5648     1.6459
 1526.0000     0.5652     1.6359
 1526.5000     0.5644     1.6276
 1527.0000     0.5642     1.4302
 1527.5000     0.5546     1.4228
 1528.0000     0.5544     1.4137
 1528.5000     0.5542     1.4054
 1529.0000     0.5635     1.3971
 1529.5000     0.5633     1.3888
 1530.0000     0.5631     1.3803
 1530.5000     0.5629     0.9936
 1531.0000     0.5627     0.7946
 1531.5000     0.5625     0.7863
 1532.0000     0.5623     0.9691
 1532.5000     0.5621     0.9587
 1533.0000     0.5619     0.9504
 1533.5000     0.5617     0.9422
 1534.0000     0.5616     0.9340
 1534.5000     0.5614     0.9255
 1535.0000     0.5612     0.9170
 1535.5000     0.5610     0.7199
 1536.0000     0.5514     0.9000
 1536.5000     0.5512     0.8915
 1537.0000     0.5510     1.0731
 1537.5000     0.5508     1.0628
 1538.0000     0.5506     1.0545
 1538.5000     0.5505     0.8571
 1539.0000     0.5503     0.6597
 1539.5000     0.5407     0.6514
 1540.0000     0.5311     0.8322
 1540.5000     0.5309     1.0109
 1541.0000     0.5307     0.8135
 1541.5000     0.5211     0.8052
 1542.0000     0.5115     1.1751
 1542.5000     0.5113     0.9777
 1543.0000     0.5111     1.1606
 1543.5000     0.5109     1.3396
 1544.0000     0.5107     1.5202
 1544.5000     0.5105     1.5117
 1545.0000     0.5104     1.5032
 1545.5000     0.5102     1.4931
 1546.0000     0.5100     1.4848
 1546.5000     0.5098     1.4765
 1547.0000     0.5096     1.4682
 1547.5000     0.5094     1.4599
 1548.0000     0.5092     1.2625
 1548.5000     0.5090     1.0652
 1549.0000     0.5088     1.0569
 1549.5000     0.5181     1.2376
 1550.0000     0.5273     1.2290
 1550.5000     0.5271     1.4101
 1551.0000     0.5269     1.4011
 1551.5000     0.5362     1.3925
 1552.0000     0.5360     1.3825
 1552.5000     0.5357     1.3755
 1553.0000     0.5356     1.3666
 1553.5000     0.5354     1.3170
 1554.0000     0.5258     1.1609
 1554.5000     0.5256     1.0540
 1555.0000     0.5254     0.9531
 1555.5000     0.5252     0.9448
 1556.0000     0.5250     0.9365
 1556.5000     0.5248     1.1184
 1557.0000     0.5247     1.2981
 1557.5000     0.5245     1.2904
 1558.0000     0.5243     1.4706
 1558.5000     0.5241     1.6516
 1559.0000     0.5333     1.8321
 1559.5000     0.5331     1.8236
 1560.0000     0.5424     1.8135
 1560.5000     0.5516     1.6161
 1561.0000     0.5608     1.6078
 1561.5000     0.5606     1.5995
 1562.0000     0.5510     1.5912
 1562.5000     0.5508     1.5829
 1563.0000     0.5507     1.7641
 1563.5000     0.5599     1.7554
 1564.0000     0.5597     1.5580
 1564.5000     0.5501     1.1713
 1565.0000     0.5499     1.1612
 1565.5000     0.5497     1.1529
 1566.0000     0.5495     1.1446
 1566.5000     0.5493     1.1373
 1567.0000     0.5521     1.1280
 1567.5000     0.5490     1.1197
 1568.0000     0.5488     1.1114
 1568.5000     0.5448     1.1031
 1569.0000     0.5390     1.0948
 1569.5000     0.5388     1.2756
 1570.0000     0.5386     1.0761
 1570.5000     0.5384     1.2569
 1571.0000     0.5382     1.4398
 1571.5000     0.5380     1.6205
 1572.0000     0.5379     1.8013
 1572.5000     0.5471     1.7910
 1573.0000     0.5563     1.7830
 1573.5000     0.5561     1.7745
 1574.0000     0.5559     1.7660
 1574.5000     0.5557     1.7575
 1575.0000     0.5555     1.7474
 1575.5000     0.5554     1.5500
 1576.0000     0.5552     1.5429
 1576.5000     0.5530     1.3443
 1577.0000     0.5454     1.3361
 1577.5000     0.5452     1.3278
 1578.0000     0.5450     1.3195
 1578.5000     0.5448     1.3112
 1579.0000     0.5446     1.3027
 1579.5000     0.5444     1.2942
 1580.0000     0.5443     1.0951
 1580.5000     0.5440     1.0868
 1581.0000     0.5439     0.8894
 1581.5000     0.5437     0.9361
 1582.0000     0.5435     1.0640
 1582.5000     0.5433     0.8646
 1583.0000     0.5337     0.8563
 1583.5000     0.5335     0.8480
 1584.0000     0.5333     0.8395
 1584.5000     0.5331     0.8293
 1585.0000     0.5330     0.8225
 1585.5000     0.5328     0.6257
 1586.0000     0.5326     0.8065
 1586.5000     0.5324     0.7961
 1587.0000     0.5322     0.7884
 1587.5000     0.5320     0.7799
 1588.0000     0.5412     0.7714
 1588.5000     0.5411     0.7629
 1589.0000     0.5408     0.7544
 1589.5000     0.5407     0.7365
 1590.0000     0.8230     0.5483
 1590.5000     0.8039     0.5398
 1591.0000     0.7943     0.3412
 1591.5000     0.7942     0.5220
 1592.0000     0.7846     0.5477
 1592.5000     0.4642     0.6965
 1593.0000     0.4735     0.6862
 1593.5000     0.4732     0.6778
 1594.0000     0.4637     0.6693
 1594.5000     0.4634     0.8503
 1595.0000     0.4633     0.8400
 1595.5000     0.4725     1.0207
 1596.0000     0.4723     1.0124
 1596.5000     0.4678     1.1953
 1597.0000     0.4719     1.1849
 1597.5000     0.4718     0.9876
 1598.0000     0.4809     0.9793
 1598.5000     0.4902     1.1653
 1599.0000     0.5089     1.7190
 1599.5000     0.5086     2.0867
 1600.0000     0.5085     2.0784
 1600.5000     0.5273     1.1259
 1601.0000     0.5273     1.1185
 1601.5000     0.5273     1.1111
 1602.0000     0.5273     1.1037
 1602.5000     0.5273     1.2857
 1603.0000     0.5273     1.2781
 1603.5000     0.5273     1.4598
 1604.0000     0.5273     1.4521
 1604.5000     0.5273     1.4432
 1605.0000     0.5179     1.4358
 1605.5000     0.5179     1.4284
 1606.0000     0.5085     1.4211
 1606.5000     0.4991     1.4137
 1607.0000     0.4991     1.4063
 1607.5000     0.4991     1.3989
 1608.0000     0.5085     1.3916
 1608.5000     0.5085     1.3840
 1609.0000     0.5085     1.5641
 1609.5000     0.5085     1.9348
 1610.0000     0.5085     2.1184
 1610.5000     0.5085     2.1092
 1611.0000     0.4991     2.1018
 1611.5000     0.4991     2.0944
 1612.0000     0.4999     1.8980
 1612.5000     0.5085     1.8906
 1613.0000     0.5085     1.8832
 1613.5000     0.5085     2.0649
 1614.0000     0.5085     2.0557
 1614.5000     0.5179     2.0483
 1615.0000     0.5179     2.0410
 1615.5000     0.5179     2.0336
 1616.0000     0.5159     1.8372
 1616.5000     0.5085     1.8298
 1617.0000     0.5085     1.8224
 1617.5000     0.5085     2.0042
 1618.0000     0.5085     1.9966
 1618.5000     0.5085     1.9891
 1619.0000     0.5085     1.9815
 1619.5000     0.5085     1.9728
 1620.0000     0.5031     1.9654
 1620.5000     0.4991     1.9580
 1621.0000     0.5085     1.9507
 1621.5000     0.5085     1.9433
 1622.0000     0.5085     1.7468
 1622.5000     0.5085     1.7395
 1623.0000     0.5085     1.7319
 1623.5000     0.5085     1.5338
 1624.0000     0.4991     1.1483
 1624.5000     0.4991     1.1409
 1625.0000     0.4991     1.1335
 1625.5000     0.5011     1.1262
 1626.0000     0.5085     1.3097
 1626.5000     0.5085     1.4914
 1627.0000     0.5085     1.4822
