~VERSION INFORMATION
 VERS.                2.0:   CWLS LOG ASCII STANDARD - VERSION 2.0
 WRAP.                 NO:   ONE LINE PER DEPTH STEP
~WELL INFORMATION
#MNEM.UNIT      DATA TYPE    INFORMATION
#----------   ------------   ------------------------------
 STRT.F         1304.0000:   START DEPTH
 STOP.F         2900.0000:   STOP DEPTH
 STEP.F            0.5000:   STEP LENGTH
 NULL.          -999.2500:   NO VALUE
 COMP.   FLUOR DANIEL INC:   COMPANY
 WELL. NAVAL PETROLEUM RESERVE 3 SHX- #18-14:   WELL
 FLD .             TEAPOT:   FIELD
 LOC .      S14 T38N R78W:   LOCATION
 CNTY.            NATRONA:   COUNTY
 STAT.            WYOMING:   STATE
 CTRY. UNITED STATES OF AMERICA:   COUNTRY
 SRVC.            Unknown:   SERVICE COMPANY
 DATE.        17-APR-1995:   LOGDATE
 API .       490252270800:   API NUMBER
~CURVE INFORMATION
#MNEM.UNIT       API CODE    CURVE DESCRIPTION
#----------   ------------   ------------------------------
 DEPT.F                  :   
 ROP .FT/HR  91 810 01 00:   RAT OF DRILLING PENETRATION
 TGAS.TC/CC  91 830 01 00:   TOTAL GAS UNIT
~PARAMETER INFORMATION
#MNEM.UNIT          VALUE    DESCRIPTION
#----------   ------------   ------------------------------
 EKB .F              5271:   KELLING BUSHING
 EGL .F              5281:   GROUND LEVEL
 DATE.        17-APR-1995:   RUN DATE
 RUN .                  1:   RUN NUMBER
 BLI .F              2900:   BOTTOM LOG INTERVAL
 TLI .F              1310:   TOP LOG INTERVAL
 WITN.     C.TOWER/R.HUSK:   WITNESSED BY
 CLNT.            A2DTECH:   CLIENT CODE
 ORIG.           5" PRINT:   ORIGIN OF DATA
 UWI .       490252270800:   UNIQUE WELL ID
 DICO. A2D Technologies, Inc.:   DIGITIZING COMPANY
~OTHER INFORMATION
~A  DEPT         ROP     TGAS   
# ...
 2397.5000     0.7731    40.3589
 2398.0000     0.7747    40.5513
 2398.5000     0.7764    40.3663
 2399.0000     0.7780    40.3700
 2399.5000     0.7799    40.3737
 2400.0000     0.5355    40.3774
 2400.5000     0.5352    40.4441
 2401.0000     0.5348    40.5109
 2401.5000     0.5345    40.5777
 2402.0000     0.5342    40.6445
 2402.5000     0.5338    40.7113
 2403.0000     0.5335    40.5431
 2403.5000     0.5332    40.3517
 2404.0000     0.5328    40.5359
 2404.5000     0.5325    40.7208
 2405.0000     0.5322    40.5283
 2405.5000     0.5318    40.7125
 2406.0000     0.5315    40.7088
 2406.5000     0.5312    40.5165
 2407.0000     0.5308    40.5128
 2407.5000     0.5305    40.5092
 2408.0000     0.5302    40.5055
 2408.5000     0.5298    40.6906
 2409.0000     0.5295    40.6868
 2409.5000     0.5292    40.6830
 2410.0000     0.5288    40.6786
 2410.5000     0.5285    40.6749
 2411.0000     0.5282    40.8608
 2411.5000     0.5278    40.8562
 2412.0000     0.5275    41.0422
 2412.5000     0.5272    40.8489
 2413.0000     0.5268    40.8452
 2413.5000     0.5265    40.6528
 2414.0000     0.7707    40.6491
 2414.5000     0.7707    40.6453
 2415.0000     0.7707    40.6410
 2415.5000     0.7707    40.6373
 2416.0000     0.7707    40.6336
 2416.5000     0.7707    40.6300
 2417.0000     0.7707    40.6263
 2417.5000     0.7707    40.6226
 2418.0000     0.6391    40.6189
 2418.5000     0.6418    40.6144
 2419.0000     0.6445    40.6107
 2419.5000     0.6473    40.6075
 2420.0000     0.6501    40.6038
 2420.5000     0.6528    40.6000
 2421.0000     0.6556    40.5962
 2421.5000     0.6836    40.5917
 2422.0000     0.7707    40.5881
 2422.5000     0.7707    40.5849
 2423.0000     0.7707    40.5807
 2423.5000     0.7707    40.3884
 2424.0000     0.7707    40.3847
 2424.5000     0.7707    40.5698
 2425.0000     0.7707    40.5660
 2425.5000     0.7707    40.5623
 2426.0000     0.6579    40.5578
 2426.5000     0.6579    40.5541
 2427.0000     0.6579    40.5504
 2427.5000     0.6579    40.5468
 2428.0000     0.6579    40.3544
 2428.5000     0.5451    40.3508
 2429.0000     0.5451    40.1584
 2429.5000     0.5451    40.3434
 2430.0000     0.5451    40.3646
 2430.5000     0.5451    40.5248
 2431.0000     0.5451    40.5202
 2431.5000     0.5451    40.5165
 2432.0000     0.5451    40.5132
 2432.5000     0.5451    40.5092
 2433.0000     0.5451    40.3168
 2433.5000     0.5451    40.1245
 2434.0000     0.5451    40.1208
 2434.5000     0.5451    40.1170
 2435.0000     0.5451    40.1125
 2435.5000     0.5451    40.1089
 2436.0000     0.5451    40.1052
 2436.5000     0.5451    40.1015
 2437.0000     0.5451    40.0979
 2437.5000     0.5451    40.0942
 2438.0000     0.6114    40.2792
 2438.5000     0.6671    40.4642
 2439.0000     0.6666    40.4604
 2439.5000     0.6661    40.4560
 2440.0000     0.6656    40.4523
 2440.5000     0.6652    40.4486
 2441.0000     0.6647    40.2566
 2441.5000     0.6642    40.3225
 2442.0000     0.6637    40.4377
 2442.5000     0.6633    40.4339
 2443.0000     0.6628    40.4150
 2443.5000     0.6623    40.2379
 2444.0000     0.6619    40.4229
 2444.5000     0.6614    40.4183
 2445.0000     0.6609    40.2260
 2445.5000     0.6604    40.2223
 2446.0000     0.6600    40.2186
 2446.5000     0.6595    40.2150
 2447.0000     0.6590    40.4000
 2447.5000     0.6585    40.3962
 2448.0000     0.6581    40.2031
 2448.5000     0.6576    40.0107
 2449.0000     0.6570    40.0070
 2449.5000     0.6565    40.0034
 2450.0000     0.6559    40.0109
 2450.5000     0.6554    40.0740
 2451.0000     0.6549    40.1372
 2451.5000     0.6543    40.2004
 2452.0000     0.6538    40.2636
 2452.5000     0.6533    40.3268
 2453.0000     0.6527    40.1544
 2453.5000     0.6522    40.1488
 2454.0000     0.6517    39.9546
 2454.5000     0.6511    39.9490
 2455.0000     0.6506    40.1321
 2455.5000     0.6501    39.9377
 2456.0000     0.6772    39.9321
 2456.5000     0.7918    39.9254
 2457.0000     0.7946    40.1099
 2457.5000     0.7975    40.1029
 2458.0000     0.8003    40.2874
 2458.5000     0.8031    40.2805
 2459.0000     0.8060    40.2749
 2459.5000     0.8088    40.4594
 2460.0000     0.9981    40.6425
 2460.5000     0.9982    40.6356
 2461.0000     0.9983    40.6300
 2461.5000     0.9984    40.6245
 2462.0000     0.9985    40.4302
 2462.5000     0.9986    40.2270
 2463.0000     0.9987    40.1879
 2463.5000     0.9988    40.1489
 2464.0000     0.7639    40.1098
 2464.5000     0.7669    40.0708
 2465.0000     0.7694    40.0317
 2465.5000     0.7719    40.0125
 2466.0000     0.6789    40.0070
 2466.5000     0.5197    39.8127
 2467.0000     0.5192    39.8071
 2467.5000     0.5186    39.8016
 2468.0000     0.5181    39.7960
 2468.5000     0.5176    39.7905
 2469.0000     0.5170    39.9736
 2469.5000     0.5165    39.9679
 2470.0000     0.5160    40.1511
 2470.5000     0.5155    40.1442
 2471.0000     0.5149    39.9499
 2471.5000     0.5144    39.9444
 2472.0000     0.5139    39.9388
 2472.5000     0.5134    39.9332
 2473.0000     0.5128    39.9277
 2473.5000     0.5123    39.9221
 2474.0000     0.6342    40.1066
 2474.5000     0.6343    39.9110
 2475.0000     0.6344    39.7168
 2475.5000     0.6345    39.7112
 2476.0000     0.6346    39.7056
 2476.5000     0.6347    39.7000
 2477.0000     0.6348    39.6943
 2477.5000     0.6349    39.6887
 2478.0000     0.6350    39.6820
 2478.5000     0.6351    39.7411
 2479.0000     0.6352    39.6709
 2479.5000     0.6352    39.6660
 2480.0000     0.6353    39.6604
 2480.5000     0.6354    39.6542
 2481.0000     0.6355    39.6486
 2481.5000     0.6356    39.6430
 2482.0000     0.6357    39.6375
 2482.5000     0.6358    39.6319
 2483.0000     0.6359    39.6264
 2483.5000     0.6360    39.6208
 2484.0000     0.7771    39.6151
 2484.5000     0.7784    39.6094
 2485.0000     0.7799    39.6027
 2485.5000     0.7815    39.7872
 2486.0000     0.7831    39.7803
 2486.5000     0.7847    39.7747
 2487.0000     0.7862    39.7691
 2487.5000     0.7878    39.9522
 2488.0000     0.7894    39.9472
 2488.5000     0.7910    39.9411
 2489.0000     0.7926    40.0487
 2489.5000     0.7941    40.0375
 2490.0000     0.7957    39.9244
 2490.5000     0.6655    39.7302
 2491.0000     0.6668    39.7245
 2491.5000     0.6682    39.5302
 2492.0000     0.6696    39.7121
 2492.5000     0.6710    39.7075
 2493.0000     0.6724    39.7010
 2493.5000     0.6738    39.5067
 2494.0000     0.6752    39.6912
 2494.5000     0.5535    39.6843
 2495.0000     0.5536    39.6787
 2495.5000     0.5537    39.6732
 2496.0000     0.5538    39.6679
 2496.5000     0.5539    39.6623
 2497.0000     0.5539    39.5663
 2497.5000     0.5540    39.4622
 2498.0000     0.5541    39.4566
 2498.5000     0.5542    39.4509
 2499.0000     0.5543    39.4442
 2499.5000     0.5544    39.4396
 2500.0000     0.5545    39.4344
 2500.5000     0.5546    39.4383
 2501.0000     0.5547    39.4419
 2501.5000     0.5548    39.4455
 2502.0000     0.5549    39.4491
 2502.5000     0.5550    39.4533
 2503.0000     0.5551    39.4569
 2503.5000     0.5552    39.4606
 2504.0000     0.5553    39.4643
 2504.5000     0.5554    39.4680
 2505.0000     0.5555    39.4717
 2505.5000     0.5555    39.4755
 2506.0000     1.0068    39.4799
 2506.5000     1.0033    39.6723
 2507.0000     0.9994    39.4863
 2507.5000     0.9955    39.4909
 2508.0000     0.9917    39.4946
 2508.5000     0.7817    39.4215
 2509.0000     0.7825    39.1245
 2509.5000     0.7834    39.1283
 2510.0000     0.7844    39.1321
 2510.5000     0.7853    39.1365
 2511.0000     0.7862    39.1402
 2511.5000     0.7871    39.1439
 2512.0000     0.7880    39.1476
 2512.5000     0.7889    39.1512
 2513.0000     0.7898    39.1549
 2513.5000     0.7908    39.1586
 2514.0000     0.7917    39.1623
 2514.5000     0.6512    39.1660
 2515.0000     0.6513    39.5479
 2515.5000     0.6514    39.5516
 2516.0000     0.6515    39.5553
 2516.5000     0.6516    39.5589
 2517.0000     0.6517    39.5626
 2517.5000     0.6518    39.5912
 2518.0000     0.6519    39.5698
 2518.5000     0.7850    39.7623
