~VERSION INFORMATION
 VERS.                2.0:   CWLS LOG ASCII STANDARD - VERSION 2.0
 WRAP.                 NO:   ONE LINE PER DEPTH STEP
~WELL INFORMATION
#MNEM.UNIT      DATA TYPE    INFORMATION
#----------   ------------   ------------------------------
 STRT.F            6.0000:   START DEPTH
 STOP.F          522.0000:   STOP DEPTH
 STEP.F            0.5000:   STEP LENGTH
 NULL.          -999.2500:   NO VALUE
 COMP.       F D SERV INC:   COMPANY
 WELL.    88-7 SX-3 #88-3:   WELL
 FLD .             TEAPOT:   FIELD
 LOC .       S3 T38N R78W:   LOCATION
 CNTY.            NATRONA:   COUNTY
 STAT.            WYOMING:   STATE
 CTRY. UNITED STATES OF AMERICA:   COUNTRY
 SRVC.      Western Atlas:   SERVICE COMPANY
 DATE.        30-NOV-1992:   LOGDATE
 API .       490252254100:   API NUMBER
~CURVE INFORMATION
#MNEM.UNIT       API CODE    CURVE DESCRIPTION
#----------   ------------   ------------------------------
 DEPT.F                  :   
 GRR .GAPI   07 310 01 00:   GAMMA RAY
 RILD.OHMM   07 120 46 00:   INDUCTION LOG DEEP RESISTIVITY
 RILM.OHMM   07 120 44 00:   INDUCTION LOG MEDIUM RESISTIVITY
 C13 .IN     45 280 13 00:   CALIPER 13
 ZCOR.G/C3   45 356 01 00:   DENSITY CORRECTION
 ZDEN.G/C3   45 350 01 00:   BULK DENSITY
 PORZ.DEC    45 890 00 00:   DENSITY POROSITY
 NPHI.DEC    42 890 03 00:   NEUTRON POROSITY SANDSTONE
~PARAMETER INFORMATION
#MNEM.UNIT          VALUE    DESCRIPTION
#----------   ------------   ------------------------------
 PD  .                 GL:   PERMANENT DATUM
 EPD .F              5155:   ELEVATION PERMANENT DATUM
 LMF .                 KB:   LOG MEASURED FROM
 DAPD.F                10:   FEET ABOVE PERMANENT DATUM
 DMF .                 KB:   DRILLING MEASURED FROM
 EKB .F              5165:   KELLING BUSHING
 EDF .F              5164:   DRILLING FLOOR
 EGL .F              5155:   GROUND LEVEL
 DATE.        30-NOV-1992:   RUN DATE
 RUN .                  1:   RUN NUMBER
 DD  .F               525:   DEPTH DRILLER
 DL  .F               525:   DEPTH LOGGER
 BLI .F               516:   BOTTOM LOG INTERVAL
 TLI .F                 6:   TOP LOG INTERVAL
 CS  .IN            8.625:   CASING SIZE
 CBD .F                95:   CASING BOTTOM DRILLER
 CBL .F                98:   CASING BOTTOM LOGGER
 BS  .IN            7.875:   BIT SIZE
 BSD .F               525:   BIT SIZE AT DEPTH
 DFT .           AIR FOAM:   DRILLING FLUID TYPE
 MRT .F                68:   MAXIMUM RECORDED TEMPERATURE
 LUN .           HL- 6774:   LOGGING UNIT NUMBER
 LUL .             CASPER:   LOGGING UNIT LOCATION
 ENGI.             RAUTIO:   RECORDING ENGINEER
 WITN.          BOB SYLER:   WITNESSED BY
 CLNT.            A2DTECH:   CLIENT CODE
 ORIG.           5" PRINT:   ORIGIN OF DATA
 UWI .       490252254100:   UNIQUE WELL ID
 DICO. A2D Technologies, Inc.:   DIGITIZING COMPANY
~OTHER INFORMATION
~A    DEPT     GRR       RILD       RILM        C13       ZCOR       ZDEN       PORZ       NPHI   
# ...
  168.0000   125.5058     8.1306     8.1008     8.3586    -0.0025     2.4733     0.1060     0.3039
  168.5000   124.2825     8.0179     7.9876     8.3568    -0.0011     2.4922     0.0954     0.2897
  169.0000   121.5380     7.9621     7.9311     8.3550    -0.0012     2.5028     0.0876     0.2801
  169.5000   114.1185     7.9068     7.8750     8.3381    -0.0013     2.5021     0.0879     0.2787
  170.0000   111.1857     7.8518     7.8739     8.2757    -0.0014     2.4967     0.0973     0.2863
  170.5000   118.7733     7.8518     7.8181     8.2436    -0.0015     2.4748     0.1079     0.2984
  171.0000   124.5394     7.8518     7.8170     8.2721    -0.0015     2.4589     0.1161     0.3075
  171.5000   125.7485     7.8518     7.7615     8.2855     0.0014     2.4573     0.1167     0.3118
  172.0000   126.0412     7.8518     7.7604     8.2989     0.0028     2.4596     0.1149     0.3115
  172.5000   126.0323     7.9068     7.8136     8.3118     0.0042     2.4641     0.1119     0.3103
  173.0000   125.7194     7.9068     7.8672     8.3257     0.0102     2.4717     0.1065     0.3064
  173.5000   125.4087     7.9621     7.9767     8.3234     0.0191     2.4778     0.1050     0.3051
  174.0000   126.3093     8.0740     8.0311     8.3217     0.0221     2.4792     0.1053     0.3055
  174.5000   128.7320     8.1875     8.0865     8.3199     0.0174     2.4739     0.1068     0.3052
  175.0000   129.0273     8.3607     8.1985     8.3181     0.0158     2.4595     0.1129     0.3039
  175.5000   125.9785     8.4782     8.2547     8.3163     0.0037     2.4580     0.1156     0.2997
  176.0000   125.0577     8.5973     8.3694     8.3145     0.0021     2.4580     0.1159     0.2970
  176.5000   125.3920     8.5973     8.4316     8.3127     0.0020     2.4595     0.1154     0.2958
  177.0000   127.1674     8.6575     8.5537     8.3106     0.0034     2.4670     0.1093     0.2949
  177.5000   126.1348     8.6575     8.6024     8.3244     0.0139     2.4768     0.1060     0.2937
  178.0000   125.0196     8.6575     8.6614     8.3222     0.0213     2.4730     0.1066     0.2924
  178.5000   125.9225     8.6575     8.6599     8.3204     0.0014     2.4707     0.1084     0.2915
  179.0000   129.2570     8.6575     8.6587     8.3186     0.0030     2.4738     0.1063     0.2915
  179.5000   131.0717     8.5973     8.5974     8.3168     0.0090     2.4760     0.1057     0.2919
  180.0000   132.2786     8.4782     8.5962     8.3151     0.0029     2.4735     0.1091     0.2931
  180.5000   131.0538     8.4192     8.5354     8.3133    -0.0033     2.4639     0.1130     0.2964
  181.0000   130.4370     8.3607     8.4750     8.3115    -0.0034     2.4646     0.1124     0.2989
  181.5000   130.1263     8.3607     8.3566     8.3249    -0.0004     2.4646     0.1121     0.3010
  182.0000   133.4586     8.3607     8.2974     8.3227     0.0025     2.4578     0.1146     0.3013
  182.5000   138.6168     8.3607     8.2386     8.3360     0.0084     2.4532     0.1188     0.3001
  183.0000   140.4316     8.4192     8.2951     8.3499     0.0114     2.4494     0.1213     0.3008
  183.5000   138.8956     8.4192     8.3517     8.3325     0.0082     2.4502     0.1198     0.3019
  184.0000   138.5897     8.4782     8.3506     8.3463     0.0149     2.4592     0.1158     0.3012
  184.5000   138.5309     8.4782     8.3494     8.3289     0.0262     2.4615     0.1146     0.3001
  185.0000   134.9223     8.4782     8.4069     8.3120     0.0261     2.4607     0.1143     0.2986
  185.5000   129.4422     8.4782     8.4055     8.3102     0.0200     2.4592     0.1137     0.2992
  186.0000   126.6977     8.4782     8.4044     8.3085     0.0018     2.4608     0.1129     0.3004
  186.5000   126.0808     8.4782     8.4032     8.3218     0.0047     2.4656     0.1120     0.3020
  187.0000   128.5035     8.4782     8.3437     8.3352     0.0121     2.4713     0.1105     0.3017
  187.5000   131.8380     8.4782     8.3426     8.3330     0.0226     2.4743     0.1074     0.2992
  188.0000   131.2211     8.4192     8.3415     8.3468     0.0273     2.4833     0.1044     0.2980
  188.5000   128.4766     8.3607     8.2824     8.3602     0.0240     2.4909     0.0987     0.2996
  189.0000   127.5580     8.3026     8.2716     8.3580     0.0193     2.4924     0.0972     0.3053
  189.5000   133.3219     8.1875     8.1653     8.3562     0.0191     2.4848     0.0987     0.3090
  190.0000   136.9603     8.1306     8.0512     8.3544     0.0131     2.4719     0.1045     0.3105
  190.5000   134.8227     8.0740     7.9387     8.3981     0.0115     2.4711     0.1075     0.3102
  191.0000   134.8369     8.0179     7.8825     8.4418     0.0205     2.4734     0.1075     0.3078
  191.5000   136.4124     7.9068     7.8815     8.4097     0.0309     2.4772     0.1057     0.3078
  192.0000   137.2285     7.7972     7.8804     8.3927     0.0308     2.4840     0.1023     0.3124
  192.5000   133.2659     7.6357     7.7703     8.3451     0.0293     2.4901     0.0990     0.3142
  193.0000   129.6095     7.3739     7.3994     8.3282     0.0307     2.4938     0.0962     0.3136
  193.5000   125.9531     7.1211     6.9973     8.3264     0.0246     2.4968     0.0939     0.3075
  194.0000   120.7770     6.8291     6.7099     8.3246     0.0124     2.4945     0.0936     0.3051
  194.5000   118.9443     6.5491     6.3860     8.3384     0.0123     2.4854     0.0991     0.3103
  195.0000   119.5433     6.3688     6.2494     8.3362     0.0167     2.4695     0.1058     0.3157
  195.5000   122.5738     6.2806     6.1690     8.3345     0.0182     2.4581     0.1170     0.3282
  196.0000   124.6925     6.2369     6.1256     8.3327     0.0256     2.4399     0.1270     0.3334
  196.5000   124.9878     6.3246     6.1676     8.3309     0.0225     2.4271     0.1328     0.3328
  197.0000   124.3706     6.4583     6.2532     8.3291     0.0179     2.4316     0.1346     0.3185
  197.5000   124.0577     6.6411     6.5191     8.3269     0.0118     2.4452     0.1241     0.3124
  198.0000   124.6727     6.8291     6.8442     8.3251     0.0056     2.4679     0.1134     0.3133
  198.5000   127.5329     7.0224     6.7015     8.3234     0.0071     2.4732     0.1095     0.3188
  199.0000   131.0195     7.1709     6.9381     8.3372     0.0055     2.4690     0.1104     0.3203
  199.5000   132.2285     7.3226     7.2838     8.3198    -0.0007     2.4618     0.1129     0.3167
  200.0000   132.1978     7.5125     7.4887     8.3180    -0.0008     2.4633     0.1132     0.3131
  200.5000   131.9116     7.7262     7.5929     8.3163     0.0038     2.4678     0.1114     0.3115
  201.0000   132.2133     7.7942     7.6449     8.3145     0.0087     2.4716     0.1093     0.3116
  201.5000   133.1221     7.7922     7.6973     8.3279     0.0156     2.4731     0.1081     0.3116
  202.0000   135.5500     7.7364     7.6959     8.3261     0.0079     2.4708     0.1084     0.3100
  202.5000   136.2108     7.6810     7.6414     8.3395     0.0003     2.4647     0.1135     0.3091
  203.0000   135.5440     7.6261     7.4823     8.3372    -0.0013     2.4609     0.1144     0.3095
  203.5000   134.6291     7.5188     7.3266     8.3355     0.0032     2.4617     0.1135     0.3104
  204.0000   133.4103     7.4650     7.2242     8.3337     0.0061     2.4669     0.1111     0.3114
  204.5000   131.8875     7.3600     7.1730     8.3319     0.0105     2.4669     0.1117     0.3180
  205.0000   127.9331     7.2565     7.1223     8.3457     0.0164     2.4646     0.1123     0.3201
  205.5000   127.9291     7.2029     6.9740     8.3435     0.0179     2.4669     0.1114     0.3195
  206.0000   128.2310     7.0538     6.8765     8.3570     0.0161     2.4699     0.1093     0.3189
  206.5000   128.5664     6.9014     6.6396     8.3551     0.0112     2.4707     0.1087     0.3189
  207.0000   130.0487     6.5635     6.4084     8.3533     0.0051     2.4661     0.1142     0.3204
  207.5000   128.1864     6.1528     6.0159     8.3515     0.0019     2.4555     0.1169     0.3229
  208.0000   128.2189     5.6373     5.4921     8.3493     0.0109     2.4540     0.1187     0.3274
