~VERSION INFORMATION
 VERS.                2.0:   CWLS LOG ASCII STANDARD - VERSION 2.0
 WRAP.                 NO:   ONE LINE PER DEPTH STEP
~WELL INFORMATION
#MNEM.UNIT      DATA TYPE    INFORMATION
#----------   ------------   ------------------------------
 STRT.F          390.0000:   START DEPTH
 STOP.F         2628.0000:   STOP DEPTH
 STEP.F            0.5000:   STEP LENGTH
 NULL.          -999.2500:   NO VALUE
 COMP. FENIX & SCISSON INC:   COMPANY
 WELL.    25 SHX 11 #3-11:   WELL
 FLD .             TEAPOT:   FIELD
 LOC .      S11 T38N R78W:   LOCATION
 CNTY.            NATRONA:   COUNTY
 STAT.            WYOMING:   STATE
 CTRY. UNITED STATES OF AMERICA:   COUNTRY
 SRVC.              Welex:   SERVICE COMPANY
 DATE.        15-MAY-1980:   LOGDATE
 API .       490251081900:   API NUMBER
~CURVE INFORMATION
#MNEM.UNIT       API CODE    CURVE DESCRIPTION
#----------   ------------   ------------------------------
 DEPT.F                  :   
 CALD.IN     45 280 60 00:   CALIPER
 GRD .GAPI   45 310 01 00:   GAMMA RAY FROM DENSITY LOG
 RHOB.G/C3   45 350 01 00:   BULK DENSITY
 DPHI.DEC    45 890 12 00:   DENSITY POROSITY SANDSTONE
 CORR.G/C3   45 356 01 00:   DENSITY CORRECTION
~PARAMETER INFORMATION
#MNEM.UNIT          VALUE    DESCRIPTION
#----------   ------------   ------------------------------
 PD  .                 GL:   PERMANENT DATUM
 EPD .F              5163:   ELEVATION PERMANENT DATUM
 LMF .                 KB:   LOG MEASURED FROM
 DAPD.F                10:   FEET ABOVE PERMANENT DATUM
 DMF .                 KB:   DRILLING MEASURED FROM
 EKB .F              5173:   KELLING BUSHING
 EGL .F              5163:   GROUND LEVEL
 DATE.            5-15-80:   RUN DATE
 RUN .                  1:   RUN NUMBER
 DD  .F              2625:   DEPTH DRILLER
 DL  .F              2630:   DEPTH LOGGER
 BLI .F              2628:   BOTTOM LOG INTERVAL
 TLI .F               400:   TOP LOG INTERVAL
 CS  .IN            9.625:   CASING SIZE
 CBD .F               645:   CASING BOTTOM DRILLER
 BS  .IN             8.75:   BIT SIZE
 BSD .F              2625:   BIT SIZE AT DEPTH
 DFT .        AIR DRILLED:   DRILLING FLUID TYPE
 TCS .HRS               2:   TIME CURCULATED STOPPED
 MRT .F               116:   MAXIMUM RECORDED TEMPERATURE
 ENGI.            BENTSEN:   RECORDING ENGINEER
 WITN.           DINSMORE:   WITNESSED BY
 CLNT.            A2DTECH:   CLIENT CODE
 ORIG.           5" PRINT:   ORIGIN OF DATA
 UWI .       490251081900:   UNIQUE WELL ID
 DICO. A2D Technologies, Inc.:   DIGITIZING COMPANY
~OTHER INFORMATION
~A   DEPT     CALD         GRD      RHOB       DPHI       CORR   
# ...
 1000.0000     8.8846    83.9260     2.4467     0.0674     0.0446
 1000.5000     8.8294    83.8973     2.4358     0.0730     0.0335
 1001.0000     8.7254    83.8685     2.4345     0.0713     0.0314
 1001.5000     8.7370    83.8397     2.4428     0.0680     0.0392
 1002.0000     8.7686    83.8110     2.4402     0.0653     0.0364
 1002.5000     8.7897    83.7881     2.4327     0.0725     0.0289
 1003.0000     8.8130    83.7883     2.4387     0.0685     0.0330
 1003.5000     8.8284    83.7807     2.4244     0.0757     0.0185
 1004.0000     8.8398    83.3654     2.4123     0.0822     0.0022
 1004.5000     8.8511    82.4147     2.4395     0.0713     0.0249
 1005.0000     8.8620    81.4640     2.4518     0.0613     0.0339
 1005.5000     8.8746    80.4852     2.4381     0.0677     0.0232
 1006.0000     8.8868    81.2044     2.4146     0.0828     0.0062
 1006.5000     8.8991    82.2262     2.4170     0.0790     0.0093
 1007.0000     8.9016    82.5763     2.4326     0.0726     0.0216
 1007.5000     8.9020    83.2237     2.4316     0.0742     0.0243
 1008.0000     8.8685    84.1078     2.4277     0.0669     0.0240
 1008.5000     8.8150    84.9938     2.4391     0.0712     0.0255
 1009.0000     8.7608    85.6497     2.4267     0.0749     0.0152
 1009.5000     8.7070    86.5281     2.4375     0.0709     0.0236
 1010.0000     8.7008    87.7739     2.4314     0.0770     0.0215
 1010.5000     8.7375    88.4376     2.4253     0.0761     0.0170
 1011.0000     8.7789    87.7121     2.4312     0.0753     0.0223
 1011.5000     8.8197    87.7322     2.4286     0.0743     0.0194
 1012.0000     8.8217    87.5499     2.4369     0.0701     0.0247
 1012.5000     8.8163    87.2429     2.4304     0.0735     0.0247
 1013.0000     8.8099    86.9323     2.4399     0.0689     0.0329
 1013.5000     8.8032    86.6304     2.4341     0.0728     0.0305
 1014.0000     8.8204    85.9082     2.4339     0.0706     0.0268
 1014.5000     8.8418    84.9891     2.4348     0.0717     0.0267
 1015.0000     8.8414    84.0607     2.4419     0.0670     0.0332
 1015.5000     8.8414    83.1044     2.4581     0.0545     0.0419
 1016.0000     8.8413    82.5328     2.4708     0.0494     0.0508
 1016.5000     8.8415    82.0609     2.4523     0.0563     0.0512
 1017.0000     8.8229    81.6739     2.4469     0.0657     0.0410
 1017.5000     8.7906    81.3520     2.4439     0.0637     0.0372
 1018.0000     8.7581    82.1571     2.4514     0.0627     0.0457
 1018.5000     8.7246    83.1507     2.4591     0.0557     0.0508
 1019.0000     8.7585    83.4454     2.4408     0.0654     0.0422
 1019.5000     8.8029    82.6481     2.4224     0.0769     0.0225
 1020.0000     8.8489    81.8440     2.4124     0.0847     0.0127
 1020.5000     8.8808    81.0449     2.4327     0.0787     0.0255
 1021.0000     8.8818    80.2464     2.4233     0.0738     0.0261
 1021.5000     8.8805    79.4445     2.4097     0.0851     0.0180
 1022.0000     8.8329    78.6665     2.4129     0.0870     0.0142
 1022.5000     8.8009    78.4953     2.4167     0.0808     0.0175
 1023.0000     8.8012    78.3327     2.4024     0.0910     0.0095
 1023.5000     8.8016    78.3038     2.4183     0.0809     0.0179
 1024.0000     8.8243    79.1927     2.4323     0.0746     0.0291
 1024.5000     8.8751    80.0430     2.4256     0.0790     0.0255
 1025.0000     8.8975    80.2778     2.4108     0.0862     0.0143
 1025.5000     8.9156    80.4213     2.4155     0.0834     0.0047
 1026.0000     8.9337    80.7567     2.4051     0.0895     0.0228
 1026.5000     8.9416    81.3258     2.3924     0.1002    -0.0102
 1027.0000     8.9419    81.8959     2.4088     0.0860     0.0048
 1027.5000     8.9429    82.4753     2.4230     0.0804     0.0236
 1028.0000     8.9352    82.5761     2.4431     0.0687     0.0391
 1028.5000     8.8835    82.5775     2.4629     0.0570     0.0722
 1029.0000     8.8814    82.5760     2.4784     0.0459     0.0861
 1029.5000     8.8681    82.5722     2.4794     0.0446     0.0962
 1030.0000     8.8088    82.3785     2.4694     0.0472     0.0951
 1030.5000     8.7829    81.9740     2.4604     0.0563     0.0787
 1031.0000     8.7600    81.5714     2.4534     0.0603     0.0783
 1031.5000     8.7801    81.1648     2.4343     0.0737     0.0567
 1032.0000     8.8355    80.7758     2.4306     0.0731     0.0430
 1032.5000     8.8904    80.9222     2.4387     0.0689     0.0528
 1033.0000     8.9204    81.0616     2.4200     0.0813     0.0391
 1033.5000     8.8946    81.0538     2.4046     0.0903     0.0164
 1034.0000     8.8676    81.1019     2.3928     0.0952     0.0073
 1034.5000     8.8406    82.0538     2.3816     0.1000    -0.0032
 1035.0000     8.8208    83.0030     2.3735     0.0992    -0.0109
 1035.5000     8.8273    83.9494     2.3886     0.0996    -0.0026
 1036.0000     8.8357    84.2045     2.3888     0.1023    -0.0049
 1036.5000     8.8398    83.6492     2.4107     0.0881     0.0130
 1037.0000     8.8283    83.1224     2.4202     0.0826     0.0124
 1037.5000     8.8212    82.7899     2.4272     0.0777     0.0242
 1038.0000     8.8213    83.4735     2.4240     0.0795     0.0174
 1038.5000     8.8213    84.1987     2.4432     0.0662     0.0309
 1039.0000     8.8213    84.9284     2.4536     0.0600     0.0361
 1039.5000     8.8215    85.6691     2.4574     0.0569     0.0312
 1040.0000     8.8202    85.6236     2.4641     0.0608     0.0307
 1040.5000     8.8020    85.0572     2.4670     0.0523     0.0344
 1041.0000     8.8050    84.4849     2.4580     0.0572     0.0337
 1041.5000     8.8079    83.9107     2.4659     0.0487     0.0410
 1042.0000     8.8108    83.3371     2.4472     0.0621     0.0320
 1042.5000     8.8137    82.6666     2.4449     0.0641     0.0202
 1043.0000     8.8165    82.5793     2.4584     0.0587     0.0301
 1043.5000     8.8194    83.3240     2.4503     0.0581     0.0362
 1044.0000     8.8223    84.2119     2.4398     0.0685     0.0276
 1044.5000     8.8252    84.6761     2.4557     0.0585     0.0445
 1045.0000     8.8281    84.8197     2.4343     0.0707     0.0316
 1045.5000     8.8310    84.1071     2.4131     0.0821     0.0112
 1046.0000     8.8338    84.0436     2.4089     0.0876     0.0030
 1046.5000     8.8367    84.5069     2.4329     0.0709     0.0351
 1047.0000     8.8395    84.9778     2.4266     0.0762     0.0334
 1047.5000     8.8418    85.4454     2.4274     0.0740     0.0389
 1048.0000     8.8550    85.8773     2.4371     0.0712     0.0479
 1048.5000     8.8689    86.2060     2.4455     0.0661     0.0562
 1049.0000     8.8801    86.2098     2.4416     0.0668     0.0578
 1049.5000     8.8528    86.1457     2.4414     0.0674     0.0572
 1050.0000     8.8252    85.8537     2.4474     0.0655     0.0608
 1050.5000     8.8030    85.5987     2.4447     0.0633     0.0558
 1051.0000     8.8248    85.6049     2.4562     0.0572     0.0594
 1051.5000     8.8463    85.6076     2.4715     0.0475     0.0716
 1052.0000     8.8676    85.6119     2.4766     0.0467     0.0787
 1052.5000     8.8887    85.5309     2.4676     0.0491     0.0714
 1053.0000     8.9017    85.3119     2.4635     0.0532     0.0693
 1053.5000     8.9018    85.3002     2.4719     0.0474     0.0813
 1054.0000     8.8876    85.3029     2.4740     0.0447     0.0937
 1054.5000     8.8659    85.3774     2.4681     0.0491     0.0881
 1055.0000     8.8453    85.7163     2.4804     0.0417     0.0957
 1055.5000     8.8029    86.0513     2.5001     0.0329     0.1079
 1056.0000     8.8231    85.7418     2.4896     0.0318     0.1050
 1056.5000     8.8172    85.5271     2.4730     0.0453     0.0860
 1057.0000     8.7455    86.2048     2.4585     0.0544     0.0676
 1057.5000     8.8054    85.3652     2.4398     0.0671     0.0439
 1058.0000     8.8617    84.2455     2.4078     0.0923     0.0151
 1058.5000     8.8215    83.4944     2.4003     0.0825     0.0056
 1059.0000     8.7760    82.6291     2.4339     0.0718     0.0363
 1059.5000     8.8038    81.5773     2.4128     0.0847     0.0195
 1060.0000     8.8548    80.5194     2.4109     0.0883    -0.0006
 1060.5000     8.9029    79.4751     2.4371     0.0778     0.0168
