~VERSION INFORMATION
 VERS.                2.0:   CWLS LOG ASCII STANDARD - VERSION 2.0
 WRAP.                 NO:   ONE LINE PER DEPTH STEP
~WELL INFORMATION
#MNEM.UNIT      DATA TYPE    INFORMATION
#----------   ------------   ------------------------------
 STRT.F           30.0000:   START DEPTH
 STOP.F         2441.0000:   STOP DEPTH
 STEP.F            0.5000:   STEP LENGTH
 NULL.          -999.2500:   NO VALUE
 COMP. FENIX & SCISSON INC:   COMPANY
 WELL.      NPR 3 #81 S-4:   WELL
 FLD .             TEAPOT:   FIELD
 LOC .       S4 T38N R78W:   LOCATION
 CNTY.            NATRONA:   COUNTY
 STAT.            WYOMING:   STATE
 CTRY. UNITED STATES OF AMERICA:   COUNTRY
 SRVC.            Unknown:   SERVICE COMPANY
 DATE.        28-MAR-1978:   LOGDATE
 API .       490251060700:   API NUMBER
~CURVE INFORMATION
#MNEM.UNIT       API CODE    CURVE DESCRIPTION
#----------   ------------   ------------------------------
 DEPT.F                  :   
 CALD.IN     45 280 60 00:   CALIPER
 RHOB.G/C3   45 350 01 00:   BULK DENSITY
 DPHI.DEC    45 890 12 00:   DENSITY POROSITY SANDSTONE
 CORR.G/C3   45 356 01 00:   DENSITY CORRECTION
 GRD .GAPI   45 310 01 00:   GAMMA RAY FROM DENSITY LOG
~PARAMETER INFORMATION
#MNEM.UNIT          VALUE    DESCRIPTION
#----------   ------------   ------------------------------
 PD  .                 GL:   PERMANENT DATUM
 EPD .F              5169:   ELEVATION PERMANENT DATUM
 LMF .                 KB:   LOG MEASURED FROM
 DAPD.F                10:   FEET ABOVE PERMANENT DATUM
 DMF .                 KB:   DRILLING MEASURED FROM
 EKB .F              5179:   KELLING BUSHING
 EGL .F              5169:   GROUND LEVEL
 DATE.          3-28-1978:   RUN DATE
 RUN .                  1:   RUN NUMBER
 DD  .F              2454:   DEPTH DRILLER
 DL  .F              2443:   DEPTH LOGGER
 BLI .F              2441:   BOTTOM LOG INTERVAL
 TLI .F                40:   TOP LOG INTERVAL
 CS  .IN            9.625:   CASING SIZE
 CBD .F               660:   CASING BOTTOM DRILLER
 CBL .F               660:   CASING BOTTOM LOGGER
 BS  .IN             8.75:   BIT SIZE
 BSD .F              2454:   BIT SIZE AT DEPTH
 DFT .           AIR MIST:   DRILLING FLUID TYPE
 TCS .HRS               2:   TIME CURCULATED STOPPED
 LUN .               2958:   LOGGING UNIT NUMBER
 LUL .               CASP:   LOGGING UNIT LOCATION
 ENGI.             MILLER:   RECORDING ENGINEER
 CLNT.            A2DTECH:   CLIENT CODE
 ORIG.       2"  5" PRINT:   ORIGIN OF DATA
 UWI .       490251060700:   UNIQUE WELL ID
 DICO. A2D Technologies, Inc.:   DIGITIZING COMPANY
~OTHER INFORMATION
~A   DEPT     CALD       RHOB       DPHI       CORR        GRD   
# ...
 1555.0000    10.2039     2.5196     0.0819     0.0441   156.3240
 1555.5000    10.2145     2.5234     0.0787     0.0420   157.7088
 1556.0000    10.2249     2.5368     0.0658     0.0485   159.2575
 1556.5000    10.2354     2.5453     0.0703     0.0556   160.8168
 1557.0000    10.2458     2.5363     0.0790     0.0548   161.4613
 1557.5000    10.2535     2.5295     0.0737     0.0517   161.3013
 1558.0000    10.2565     2.5398     0.0668     0.0498   161.1367
 1558.5000    10.2595     2.5506     0.0648     0.0509   160.0745
 1559.0000    10.2626     2.5477     0.0668     0.0522   158.8662
 1559.5000    10.2657     2.5445     0.0666     0.0536   158.9361
 1560.0000    10.2688     2.5408     0.0688     0.0513   160.0331
 1560.5000    10.2720     2.5370     0.0740     0.0476   158.7894
 1561.0000    10.2659     2.5341     0.0754     0.0438   155.7702
 1561.5000    10.2575     2.5319     0.0768     0.0401   155.4651
 1562.0000    10.2491     2.5298     0.0783     0.0412   156.5795
 1562.5000    10.2408     2.5286     0.0776     0.0426   159.5598
 1563.0000    10.2317     2.5340     0.0760     0.0439   160.6700
 1563.5000    10.2050     2.5385     0.0750     0.0453   160.7104
 1564.0000    10.1779     2.5266     0.0751     0.0466   160.5500
 1564.5000    10.1533     2.5286     0.0736     0.0480   157.4861
 1565.0000    10.1530     2.5421     0.0706     0.0510   154.7492
 1565.5000    10.1301     2.5416     0.0690     0.0539   154.3907
 1566.0000    10.0838     2.5408     0.0684     0.0553   154.0200
 1566.5000    10.0696     2.5495     0.0663     0.0507   154.0366
 1567.0000    10.0639     2.5430     0.0667     0.0462   154.1625
 1567.5000    10.0584     2.5364     0.0689     0.0416   154.2846
 1568.0000    10.0515     2.5309     0.0711     0.0397   154.8927
 1568.5000    10.0392     2.5434     0.0621     0.0477   155.7952
 1569.0000    10.0271     2.5589     0.0568     0.0572   155.6331
 1569.5000    10.0149     2.5666     0.0543     0.0657   155.1663
 1570.0000    10.0030     2.5646     0.0540     0.0685   156.3533
 1570.5000     9.9952     2.5697     0.0507     0.0678   158.0856
 1571.0000     9.9984     2.5536     0.0659     0.0675   159.9037
 1571.5000    10.0014     2.5349     0.0738     0.0526   160.3379
 1572.0000    10.0043     2.5461     0.0556     0.0530   158.0435
 1572.5000    10.0073     2.5627     0.0576     0.0566   155.0779
 1573.0000    10.0103     2.5574     0.0615     0.0596   153.9810
 1573.5000    10.0134     2.5449     0.0691     0.0590   154.5691
 1574.0000    10.0095     2.5336     0.0763     0.0475   155.1939
 1574.5000    10.0027     2.5334     0.0761     0.0467   155.4354
 1575.0000     9.9962     2.5341     0.0755     0.0457   155.2305
 1575.5000     9.9798     2.5343     0.0728     0.0447   155.0301
 1576.0000     9.9857     2.5225     0.0692     0.0439   154.8249
 1576.5000     9.9920     2.5185     0.0655     0.0439   154.9345
 1577.0000     9.9985     2.5392     0.0618     0.0498   155.2920
 1577.5000    10.0049     2.5540     0.0602     0.0599   155.6451
 1578.0000    10.0113     2.5505     0.0679     0.0695   155.7007
 1578.5000    10.0177     2.5438     0.0768     0.0662   154.5672
 1579.0000    10.0241     2.5343     0.0857     0.0575   153.8425
 1579.5000    10.0306     2.5237     0.0886     0.0488   153.1238
 1580.0000    10.0370     2.5219     0.0751     0.0501   152.9070
 1580.5000    10.0434     2.5306     0.0839     0.0527   153.2309
 1581.0000    10.0498     2.5391     0.0747     0.0552   153.5027
 1581.5000    10.0558     2.5378     0.0698     0.0578   151.6513
 1582.0000    10.0608     2.5354     0.0680     0.0606   149.6287
 1582.5000    10.0658     2.5347     0.0844     0.0649   148.4144
 1583.0000    10.0710     2.5350     0.0716     0.0692   149.6957
 1583.5000    10.0824     2.5354     0.0747     0.0694   151.0076
 1584.0000    10.1027     2.5332     0.0830     0.0687   152.3194
 1584.5000    10.1229     2.5298     0.0868     0.0680   152.0037
 1585.0000    10.1431     2.5259     0.0883     0.0673   150.4095
 1585.5000    10.1634     2.5205     0.0887     0.0666   148.7609
 1586.0000    10.1752     2.5310     0.0855     0.0660   148.7219
 1586.5000    10.1800     2.5291     0.0865     0.0603   151.2068
 1587.0000    10.1846     2.5258     0.0886     0.0528   153.7120
 1587.5000    10.1891     2.5247     0.0894     0.0454   155.8600
 1588.0000    10.1893     2.5252     0.0836     0.0434   157.7884
 1588.5000    10.1703     2.5264     0.0780     0.0474   159.7137
 1589.0000    10.1533     2.5286     0.0747     0.0513   161.6772
 1589.5000    10.1530     2.5306     0.0707     0.0545   162.1100
 1590.0000    10.1531     2.5402     0.0667     0.0578   158.8425
 1590.5000    10.1530     2.5527     0.0647     0.0701   155.4892
 1591.0000    10.1533     2.5512     0.0643     0.0830   154.8943
 1591.5000    10.1649     2.5522     0.0570     0.0897   156.0677
 1592.0000    10.1779     2.5780     0.0384     0.1096   157.3095
 1592.5000    10.1925     2.6068     0.0268     0.1544   156.4851
 1593.0000    10.1248     2.5654     0.0612     0.2121   155.1815
 1593.5000    10.0451     2.4539     0.0900     0.1354   153.8761
 1594.0000     9.9652     2.4807     0.1058     0.0699   153.3726
 1594.5000     9.9577     2.5220     0.0627     0.0608   153.8875
 1595.0000     9.9614     2.5466     0.0673     0.0655   154.3286
 1595.5000     9.9652     2.5470     0.0741     0.0603   154.1938
 1596.0000     9.9689     2.5298     0.0826     0.0427   154.0559
 1596.5000     9.9730     2.5196     0.0754     0.0273   153.9744
 1597.0000     9.9690     2.5393     0.0656     0.0384   154.2171
 1597.5000     9.9226     2.5522     0.0643     0.0512   154.4587
 1598.0000     9.8880     2.5508     0.0663     0.0465   154.7164
 1598.5000     9.8543     2.5640     0.0495     0.0553   154.0365
 1599.0000     9.8206     2.5709     0.0491     0.0648   153.1834
 1599.5000     9.7958     2.5572     0.0622     0.0641   152.3267
 1600.0000     9.8064     2.5452     0.0651     0.0559   151.5365
 1600.5000     9.8483     2.5471     0.0651     0.0540   153.1371
 1601.0000     9.8756     2.5491     0.0681     0.0544   155.4325
 1601.5000     9.8484     2.5380     0.0739     0.0549   155.4346
 1602.0000     9.8195     2.5334     0.0798     0.0554   154.5608
 1602.5000     9.7905     2.5300     0.0865     0.0562   153.6767
 1603.0000     9.7614     2.5121     0.0930     0.0422   153.1390
 1603.5000     9.7624     2.4995     0.0798     0.0258   153.5523
 1604.0000     9.7763     2.5280     0.0851     0.0239   154.1770
 1604.5000     9.7902     2.5171     0.0902     0.0239   154.8067
 1605.0000     9.8040     2.5123     0.0926     0.0238   154.9766
 1605.5000     9.8151     2.5299     0.0740     0.0306   154.6558
 1606.0000     9.8036     2.5514     0.0656     0.0398   154.3378
 1606.5000     9.7923     2.5400     0.0703     0.0459   154.0179
 1607.0000     9.7811     2.5209     0.0804     0.0399   153.6986
 1607.5000     9.7699     2.5267     0.0771     0.0394   153.3793
 1608.0000     9.7590     2.5315     0.0771     0.0487   153.0608
 1608.5000     9.7370     2.5263     0.0886     0.0534   152.7459
 1609.0000     9.7132     2.5212     0.0930     0.0505   152.4033
 1609.5000     9.6895     2.5140     0.0975     0.0474   152.0389
 1610.0000     9.6830     2.5097     0.1002     0.0355   152.7208
 1610.5000     9.7070     2.5121     0.0977     0.0244   154.0986
 1611.0000     9.7300     2.5151     0.0934     0.0219   155.4383
 1611.5000     9.7532     2.5204     0.0978     0.0230   156.3322
 1612.0000     9.7759     2.5276     0.0914     0.0245   156.1878
 1612.5000     9.7678     2.5311     0.0900     0.0260   156.0410
 1613.0000     9.7564     2.5201     0.0924     0.0218   156.0057
 1613.5000     9.7452     2.5088     0.0949     0.0167   158.2959
 1614.0000     9.7403     2.5032     0.0966     0.0163   160.6572
 1614.5000     9.7581     2.5026     0.0951     0.0181   163.0014
 1615.0000     9.7755     2.5064     0.0942     0.0198   164.0652
 1615.5000     9.7753     2.5101     0.0953     0.0233   162.8178
