~VERSION INFORMATION
 VERS.                2.0:   CWLS LOG ASCII STANDARD - VERSION 2.0
 WRAP.                 NO:   ONE LINE PER DEPTH STEP
~WELL INFORMATION
#MNEM.UNIT      DATA TYPE    INFORMATION
#----------   ------------   ------------------------------
 STRT.F          630.0000:   START DEPTH
 STOP.F         1708.0000:   STOP DEPTH
 STEP.F            0.5000:   STEP LENGTH
 NULL.          -999.2500:   NO VALUE
 COMP. FENIX & SCISSON INC:   COMPANY
 WELL.      SHX 34 #58-34:   WELL
 FLD .             TEAPOT:   FIELD
 LOC .      S34 T39N R78W:   LOCATION
 CNTY.            NATRONA:   COUNTY
 STAT.            WYOMING:   STATE
 CTRY. UNITED STATES OF AMERICA:   COUNTRY
 SRVC.           BIRDWELL:   SERVICE COMPANY
 DATE.        28-MAR-1979:   LOGDATE
 API .       490251077400:   API NUMBER
~CURVE INFORMATION
#MNEM.UNIT       API CODE    CURVE DESCRIPTION
#----------   ------------   ------------------------------
 DEPT.F                  :   
 CORR.G/C3   45 356 01 00:   DENSITY CORRECTION
 DPHI.DEC    45 890 12 00:   DENSITY POROSITY SANDSTONE
 RHOB.G/C3   45 350 01 00:   BULK DENSITY
 CALD.IN     45 280 60 00:   CALIPER
 GRD .GAPI   45 310 01 00:   GAMMA RAY FROM DENSITY LOG
~PARAMETER INFORMATION
#MNEM.UNIT          VALUE    DESCRIPTION
#----------   ------------   ------------------------------
 PD  .                 GL:   PERMANENT DATUM
 EPD .F              5120:   ELEVATION PERMANENT DATUM
 LMF .                 KB:   LOG MEASURED FROM
 DAPD.F                10:   FEET ABOVE PERMANENT DATUM
 DMF .                 KB:   DRILLING MEASURED FROM
 EKB .F              5130:   KELLING BUSHING
 EGL .F              5120:   GROUND LEVEL
 DATE.            3-28-79:   RUN DATE
 RUN .                  2:   RUN NUMBER
 DD  .F              1720:   DEPTH DRILLER
 DL  .F              1708:   DEPTH LOGGER
 BLI .F              1708:   BOTTOM LOG INTERVAL
 TLI .F               649:   TOP LOG INTERVAL
 CS  .IN            9.625:   CASING SIZE
 CBD .F               639:   CASING BOTTOM DRILLER
 CBL .F               646:   CASING BOTTOM LOGGER
 BS  .IN             8.75:   BIT SIZE
 BSD .F              1720:   BIT SIZE AT DEPTH
 DFT .                OIL:   DRILLING FLUID TYPE
 TCS .HRS               3:   TIME CURCULATED STOPPED
 MRT .F               150:   MAXIMUM RECORDED TEMPERATURE
 LUN .               2959:   LOGGING UNIT NUMBER
 LUL .             CASPER:   LOGGING UNIT LOCATION
 ENGI.         B. ROLLINS:   RECORDING ENGINEER
 WITN.              AMEND:   WITNESSED BY
 CLNT.            A2DTECH:   CLIENT CODE
 ORIG.           5" PRINT:   ORIGIN OF DATA
 UWI .       490251077400:   UNIQUE WELL ID
 DICO. A2D Technologies, Inc.:   DIGITIZING COMPANY
~OTHER INFORMATION
~A   DEPT     CORR       DPHI       RHOB       CALD         GRD  
# ...
 1240.0000     0.0387  -999.2500     2.4516     9.3053   109.5704
 1240.5000     0.0381  -999.2500     2.4499     9.2595   112.4757
 1241.0000     0.0369     0.0633     2.4453     9.1388   111.5560
 1241.5000     0.0316     0.0659     2.4408     9.1996   109.4568
 1242.0000     0.0276     0.0739     2.4294     9.3247   111.9146
 1242.5000     0.0239     0.0815     2.4172     9.4175   113.5714
 1243.0000     0.0271     0.0801     2.4137     9.4184   112.1948
 1243.5000     0.0400     0.0781     2.4159     9.4209   112.9412
 1244.0000     0.0528     0.0721     2.4269     9.4199   111.5364
 1244.5000     0.0637     0.0643     2.4359     9.4200   108.7598
 1245.0000     0.0730     0.0564     2.4474     9.4204   106.4217
 1245.5000     0.0930     0.0486     2.4548     9.4202   105.3733
 1246.0000     0.1105     0.0456     2.5184     9.4201   110.7597
 1246.5000     0.0975     0.0446     2.5105     9.4201   112.0142
 1247.0000     0.0770     0.0434     2.4895     9.4202   108.0759
 1247.5000     0.0540     0.0470     2.4747     9.4200   109.0189
 1248.0000     0.0386     0.0406     2.4790     9.4202   113.5852
 1248.5000     0.0288     0.0462     2.4755     9.4046   118.6128
 1249.0000     0.0336     0.0443     2.4745     9.3824   116.8717
 1249.5000     0.0388     0.0373     2.4886     9.3593   113.7971
 1250.0000     0.0431     0.0303     2.5007     9.3395   110.6559
 1250.5000     0.0343     0.0390     2.4910     9.3173   112.7135
 1251.0000     0.0272     0.0463     2.4741     9.2629   115.6084
 1251.5000     0.0198     0.0574     2.4563     9.1154   116.8390
 1252.0000     0.0114     0.0685     2.4389     8.9120   118.0899
 1252.5000     0.0082     0.0795     2.4218     9.0446   117.2974
 1253.0000     0.0205     0.0906     2.4042     9.4372   117.4752
 1253.5000     0.0502     0.0962     2.3923     9.4547   118.8367
 1254.0000     0.0801     0.0767     2.4132     9.4561   117.0914
 1254.5000     0.0758     0.0613     2.4488     9.4466   115.5783
 1255.0000     0.0725     0.0671     2.4285     9.4433   113.7632
 1255.5000     0.1052     0.0717     2.4411     9.4390   112.0180
 1256.0000     0.1793     0.0210     2.5000     9.4335   111.1161
 1256.5000     0.2300    -0.0157     2.5509     9.4289   114.8897
 1257.0000     0.2324    -0.0390     2.6111     9.4237   118.6626
 1257.5000     0.1363    -0.0114     2.5878     9.4150   122.7616
 1258.0000     0.0754     0.0172     2.5411     9.3949   126.1568
 1258.5000     0.0578     0.0303     2.5018     9.3737   130.2547
 1259.0000     0.0406     0.0343     2.4859     9.3547   125.6142
 1259.5000     0.0340     0.0478     2.4682     9.3419   119.0830
 1260.0000     0.0331     0.0562     2.4526     9.4011   117.9770
 1260.5000     0.0372     0.0701     2.4325     9.4706   117.8018
 1261.0000     0.0470     0.0709     2.4368     9.5027   119.7481
 1261.5000     0.0671     0.0615     2.4451     9.4996   121.8108
 1262.0000     0.0854     0.0535     2.4531     9.4998   121.9185
 1262.5000     0.1048     0.0487     2.4557     9.5004   120.9844
 1263.0000     0.1348     0.0415     2.4638     9.5000   123.2958
 1263.5000     0.1739     0.0315     2.4932     9.5001   123.6655
 1264.0000     0.2023     0.0064     2.5527     9.5002   120.5796
 1264.5000     0.1885    -0.0201     2.5874     9.5000   117.7237
 1265.0000     0.1635    -0.0201     2.5839     9.5003   115.2076
 1265.5000     0.1374     0.0021     2.5450     9.5002   117.5715
 1266.0000     0.1122     0.0164     2.5034     9.4997   120.1500
 1266.5000     0.0865     0.0379     2.4710     9.5013   117.6971
 1267.0000     0.0612     0.0594     2.4325     9.4992   114.9213
 1267.5000     0.0358     0.0805     2.4111     9.4945   112.1222
 1268.0000     0.0084     0.0813     2.4111     9.4088   106.6555
 1268.5000    -0.0013     0.0774     2.4159     9.3390   104.9297
 1269.0000     0.0120     0.0728     2.4270     9.2622   109.9737
 1269.5000     0.0323     0.0681     2.4385     9.2725   116.3884
 1270.0000     0.0564     0.0630     2.4488     9.3046   109.5266
 1270.5000     0.0811     0.0558     2.4586     9.2619   113.8874
 1271.0000     0.1041     0.0578     2.4509     9.2131   111.1457
 1271.5000     0.1288     0.0613     2.4438     9.0313   106.0911
 1272.0000     0.1266     0.0869     2.4145     8.8422   107.9551
 1272.5000     0.1066     0.1201     2.3678     8.8199   112.0203
 1273.0000     0.0872     0.1418     2.3162     9.1531   115.4561
 1273.5000     0.0942     0.1127     2.3643     9.2551   117.1141
 1274.0000     0.0784     0.0807     2.4120     9.2025   118.6823
 1274.5000     0.0532     0.0921     2.3960     9.1643   119.3505
 1275.0000     0.0576     0.1061     2.3798     9.1258   116.8863
 1275.5000     0.0990     0.0982     2.3735     9.0830   114.3093
 1276.0000     0.2024     0.0807     2.4420     9.0391   113.9737
 1276.5000     0.3066     0.0351     2.5261     9.0275   116.7137
 1277.0000     0.3821    -0.0589     2.6073     9.0811   118.5919
 1277.5000     0.3316    -0.0572     2.6499     9.1098   118.5979
 1278.0000     0.1864    -0.0590     2.6133     8.9086   118.1150
 1278.5000     0.1079     0.0166     2.5187     8.9938   116.4197
 1279.0000     0.0797     0.0375     2.4889     8.9979   114.5708
 1279.5000     0.0487     0.0474     2.4631     8.9110   111.3568
 1280.0000     0.0389     0.0540     2.4549     8.9947   109.4130
 1280.5000     0.0395     0.0566     2.4579     9.2766   115.1502
 1281.0000     0.0518     0.0566     2.4622     9.3317   117.9772
 1281.5000     0.0591     0.0527     2.4659     9.1595   116.9212
 1282.0000     0.0650     0.0494     2.4736     8.9912   113.8430
 1282.5000     0.0710     0.0424     2.4807     9.0216   114.8262
 1283.0000     0.0670     0.0390     2.4861     8.9671   119.3547
 1283.5000     0.0562     0.0470     2.4722     8.8306   125.8137
 1284.0000     0.0344     0.0568     2.4570     8.8170   124.9473
 1284.5000     0.0218     0.0656     2.4413     8.8551   121.2640
 1285.0000     0.0201     0.0758     2.4297     8.9237   118.1410
 1285.5000     0.0167     0.0715     2.4360     8.9409   114.5894
 1286.0000     0.0177     0.0622     2.4467     8.9806   115.8259
 1286.5000     0.0215     0.0565     2.4578     9.0304   118.2942
 1287.0000     0.0249     0.0534     2.4627     9.1508   120.8248
 1287.5000     0.0279     0.0534     2.4543     9.2896   122.7795
 1288.0000     0.0317     0.0637     2.4458     9.3272   121.0637
 1288.5000     0.0325     0.0667     2.4372     9.2391   118.2189
 1289.0000     0.0428     0.0711     2.4296     9.1579   115.6095
 1289.5000     0.0518     0.0754     2.4250     9.0759   113.3320
 1290.0000     0.0617     0.0598     2.4433     8.9916   116.1006
 1290.5000     0.0710     0.0377     2.4938     8.9102   121.7216
 1291.0000     0.0804     0.0330     2.4997     8.8218   127.0631
 1291.5000     0.0908     0.0360     2.4993     8.7261   129.2006
 1292.0000     0.0930     0.0391     2.4843     8.6251   122.7698
 1292.5000     0.0762     0.0421     2.4816     8.5425   120.4340
 1293.0000     0.0552     0.0465     2.4727     8.6294   121.3022
 1293.5000     0.0427     0.0528     2.4626     8.7470   123.2743
 1294.0000     0.0430     0.0591     2.4528     8.8689   125.2331
 1294.5000     0.0523     0.0637     2.4439     8.9847   127.0781
 1295.0000     0.0594     0.0551     2.4545     9.0952   128.9297
 1295.5000     0.0724     0.0452     2.4779     9.0977   127.1138
 1296.0000     0.0870     0.0353     2.4937     9.1022   128.3770
 1296.5000     0.1015     0.0255     2.5098     9.1055   132.7666
 1297.0000     0.1081     0.0199     2.5261     9.1632   131.3682
 1297.5000     0.1048     0.0198     2.5418     9.1999   127.8356
 1298.0000     0.1028     0.0212     2.5448     9.2416   121.3809
 1298.5000     0.1017     0.0231     2.5183     9.2836   117.1168
 1299.0000     0.0879     0.0279     2.4990     9.3008   114.4406
 1299.5000     0.0745     0.0325     2.4985     9.2920   118.2587
 1300.0000     0.0760     0.0283     2.5068     9.2855   121.3249
 1300.5000     0.0743     0.0302     2.5039     9.2788   124.7141
