~VERSION INFORMATION
 VERS.                2.0:   CWLS LOG ASCII STANDARD - VERSION 2.0
 WRAP.                 NO:   ONE LINE PER DEPTH STEP
~WELL INFORMATION
#MNEM.UNIT      DATA TYPE    INFORMATION
#----------   ------------   ------------------------------
 STRT.F         1050.0000:   START DEPTH
 STOP.F         2592.5000:   STOP DEPTH
 STEP.F            0.5000:   STEP LENGTH
 NULL.          -999.2500:   NO VALUE
 COMP. LAWRENCE/ALLISON INC:   COMPANY
 WELL. NAVAL PETROLEUM RESERVE 3 X15 #34-15:   WELL
 FLD .            WILDCAT:   FIELD
 LOC .      S15 T38N R78W:   LOCATION
 CNTY.            NATRONA:   COUNTY
 STAT.            WYOMING:   STATE
 CTRY. UNITED STATES OF AMERICA:   COUNTRY
 SRVC.            Unknown:   SERVICE COMPANY
 DATE.        07-AUG-1988:   LOGDATE
 API .       490251125500:   API NUMBER
~CURVE INFORMATION
#MNEM.UNIT       API CODE    CURVE DESCRIPTION
#----------   ------------   ------------------------------
 DEPT.F                  :   
 ROP .MIN/FT 91 810 01 00:   RATE OF DRILLING PENETRATION
 TGAS.UNITS  91 830 01 00:   TOTAL GAS FROM HOTWIRE
~PARAMETER INFORMATION
#MNEM.UNIT          VALUE    DESCRIPTION
#----------   ------------   ------------------------------
 EKB .F              5286:   KELLING BUSHING
 EGL .F              5276:   GROUND LEVEL
 DATE.           9-7-1988:   RUN DATE
 RUN .                  1:   RUN NUMBER
 DD  .F              2592:   DEPTH DRILLER
 CBD .F              1044:   CASING BOTTOM DRILLER
 ENGI.               HUSK:   RECORDING ENGINEER
 CLNT.            A2DTECH:   CLIENT CODE
 ORIG.           5" PRINT:   ORIGIN OF DATA
 UWI .       490251125500:   UNIQUE WELL ID
 DICO. A2D Technologies, Inc.:   DIGITIZING COMPANY
~OTHER INFORMATION
~A  DEPT         ROP     TGAS   
# ...
 1900.5000     0.4783     6.1795
 1901.0000     0.5035     6.1231
 1901.5000     0.5280     6.0665
 1902.0000     0.5531     6.0099
 1902.5000     0.5583     5.9533
 1903.0000     0.5535     5.8968
 1903.5000     0.5490     5.8402
 1904.0000     0.5261     5.7813
 1904.5000     0.4962     5.7840
 1905.0000     0.4663     5.8087
 1905.5000     0.4367     5.8343
 1906.0000     0.4315     5.8598
 1906.5000     0.4698     5.8852
 1907.0000     0.5069     5.9106
 1907.5000     0.5445     5.9360
 1908.0000     0.5831     5.9615
 1908.5000     0.5664     5.9869
 1909.0000     0.5452     6.0123
 1909.5000     0.5241     6.0377
 1910.0000     0.5025     6.0631
 1910.5000     0.4970     6.0886
 1911.0000     0.4968     6.1140
 1911.5000     0.4968     6.1394
 1912.0000     0.4969     6.1648
 1912.5000     0.4969     6.1902
 1913.0000     0.4969     6.2159
 1913.5000     0.4970     6.2425
 1914.0000     0.4967     6.2630
 1914.5000     0.4736     6.0798
 1915.0000     0.4477     5.8827
 1915.5000     0.4219     5.6863
 1916.0000     0.4089     5.4897
 1916.5000     0.4086     5.2945
 1917.0000     0.4171     5.2406
 1917.5000     0.4291     5.2126
 1918.0000     0.4405     5.1848
 1918.5000     0.4555     5.1569
 1919.0000     0.4358     5.1289
 1919.5000     0.4177     5.1009
 1920.0000     0.3992     5.0729
 1920.5000     0.3734     5.0450
 1921.0000     0.3705     5.0170
 1921.5000     0.3787     4.9890
 1922.0000     0.4440     4.9610
 1922.5000     0.5098     4.9330
 1923.0000     0.5756     4.9050
 1923.5000     0.6416     4.8770
 1924.0000     0.7081     4.8490
 1924.5000     0.6839     4.8210
 1925.0000     0.6341     4.7923
 1925.5000     0.5840     4.7654
 1926.0000     0.5545     4.8436
 1926.5000     0.5307     4.9306
 1927.0000     0.5070     5.0174
 1927.5000     0.4966     5.1041
 1928.0000     0.5120     5.1907
 1928.5000     0.5655     5.2774
 1929.0000     0.6230     5.3640
 1929.5000     0.6806     5.4507
 1930.0000     0.7382     5.5375
 1930.5000     0.7857     5.6241
 1931.0000     0.8269     5.7100
 1931.5000     0.8679     5.7442
 1932.0000     0.9092     5.6775
 1932.5000     0.9100     5.6127
 1933.0000     0.8761     5.5477
 1933.5000     0.8447     5.4826
 1934.0000     0.7604     5.4177
 1934.5000     0.6702     5.3527
 1935.0000     0.5792     5.2870
 1935.5000     0.4886     5.2649
 1936.0000     0.4093     5.2646
 1936.5000     0.4241     5.2646
 1937.0000     0.4304     5.2646
 1937.5000     0.4504     5.2649
 1938.0000     0.4869     5.2660
 1938.5000     0.4966     5.2600
 1939.0000     0.4968     5.0063
 1939.5000     0.4961     4.7646
 1940.0000     0.5196     4.7622
 1940.5000     0.4715     7.1844
 1941.0000     0.4767     7.0416
 1941.5000     0.4679     6.8987
 1942.0000     0.4541     6.7916
 1942.5000     0.4283     6.6487
 1943.0000     0.3989     6.5059
 1943.5000     0.3701     6.3630
 1944.0000     0.3523     6.2200
 1944.5000     0.3629     6.0764
 1945.0000     0.3841     5.9273
 1945.5000     0.4034     5.7982
 1946.0000     0.4039     6.6624
 1946.5000     0.4038     7.7104
 1947.0000     0.4038     7.7315
 1947.5000     0.4038     7.6399
 1948.0000     0.4038     7.5535
 1948.5000     0.4124     7.4711
 1949.0000     0.4332     7.3884
 1949.5000     0.4542     7.3060
 1950.0000     0.4765     7.2665
 1950.5000     0.4396     7.2370
 1951.0000     0.3906     7.2076
 1951.5000     0.3425     7.1781
 1952.0000     0.3464     7.1486
 1952.5000     0.3440     7.1192
 1953.0000     0.3291     7.0897
 1953.5000     0.3156     7.0602
 1954.0000     0.3308     7.0307
 1954.5000     0.3566     7.0012
 1955.0000     0.3825     6.9718
 1955.5000     0.4086     6.9423
 1956.0000     0.4356     6.9128
 1956.5000     0.4304     6.8833
 1957.0000     0.4160     6.8538
 1957.5000     0.4013     6.8244
 1958.0000     0.3910     6.7949
 1958.5000     0.3913     6.7682
 1959.0000     0.3993     6.7425
 1959.5000     0.4149     6.7168
 1960.0000     0.4304     6.6910
 1960.5000     0.4460     6.6653
 1961.0000     0.4539     6.6396
 1961.5000     0.4540     6.6138
 1962.0000     0.4590     6.5881
 1962.5000     0.4694     6.5623
 1963.0000     0.4799     6.5366
 1963.5000     0.4902     6.5109
 1964.0000     0.4751     6.4851
 1964.5000     0.4559     6.4594
 1965.0000     0.4366     6.4337
 1965.5000     0.4174     6.4079
 1966.0000     0.3979     6.3822
 1966.5000     0.3909     6.3563
 1967.0000     0.4031     6.3303
 1967.5000     0.4172     6.3053
 1968.0000     0.4314     6.3048
 1968.5000     0.4455     6.4069
 1969.0000     0.4539     6.5072
 1969.5000     0.4512     6.6074
 1970.0000     0.4366     6.7070
 1970.5000     0.4221     6.8007
 1971.0000     0.4162     6.8542
 1971.5000     0.4170     6.9097
 1972.0000     0.4453     6.9654
 1972.5000     0.4751     7.0209
 1973.0000     0.5044     7.0765
 1973.5000     0.5301     7.1322
 1974.0000     0.5124     7.1880
 1974.5000     0.4830     7.2431
 1975.0000     0.4535     7.2923
 1975.5000     0.4232     7.2906
 1976.0000     0.4164     7.2904
 1976.5000     0.4162     7.2905
 1977.0000     0.4163     7.2905
 1977.5000     0.4165     7.2905
 1978.0000     0.4081     7.2905
 1978.5000     0.3968     7.2905
 1979.0000     0.3913     7.2905
 1979.5000     0.3914     7.2905
 1980.0000     0.4056     7.2882
 1980.5000     0.4339     7.3881
 1981.0000     0.4624     7.5266
 1981.5000     0.4910     7.6660
 1982.0000     0.5145     7.7913
 1982.5000     0.4851     7.7779
 1983.0000     0.4557     7.7623
 1983.5000     0.4293     7.7472
 1984.0000     0.4287     7.7322
 1984.5000     0.4263     7.7172
 1985.0000     0.4152     7.7022
 1985.5000     0.4044     7.6872
 1986.0000     0.3935     7.6723
 1986.5000     0.3824     7.6573
 1987.0000     0.3880     7.6423
 1987.5000     0.4026     7.6273
 1988.0000     0.4174     7.6123
 1988.5000     0.4397     7.5974
 1989.0000     0.4921     7.5824
 1989.5000     0.5440     7.5674
 1990.0000     0.5968     7.5524
 1990.5000     0.6019     7.5375
 1991.0000     0.5539     7.5225
 1991.5000     0.5021     7.5075
 1992.0000     0.4918     7.4925
 1992.5000     0.4907     7.4775
 1993.0000     0.4853     7.4626
 1993.5000     0.4800     7.4476
 1994.0000     0.4505     7.4326
 1994.5000     0.4006     7.4176
 1995.0000     0.3499     7.4026
 1995.5000     0.2808     7.3877
 1996.0000     0.2857     7.3727
 1996.5000     0.3151     7.3577
 1997.0000     0.3426     7.3427
 1997.5000     0.3699     7.3276
 1998.0000     0.3985     7.3130
 1998.5000     0.4372     7.2983
 1999.0000     0.4419     7.3499
 1999.5000     0.4243     7.4639
 2000.0000     0.4049     7.5781
 2000.5000     0.3857     7.6927
 2001.0000     0.3667     7.8073
 2001.5000     0.3534     7.9219
 2002.0000     0.3583     8.0362
 2002.5000     0.3755     8.1509
 2003.0000     0.3920     8.2713
 2003.5000     0.4086     8.1819
 2004.0000     0.4162     8.0290
 2004.5000     0.4163     7.8738
 2005.0000     0.4164     7.7189
 2005.5000     0.4163     7.5642
 2006.0000     0.4162     7.4095
 2006.5000     0.4050     7.2549
 2007.0000     0.3854     7.1001
 2007.5000     0.3657     6.9440
 2008.0000     0.3541     6.7918
 2008.5000     0.3843     6.7338
 2009.0000     0.4162     6.6470
 2009.5000     0.4284     6.5589
 2010.0000     0.4155     6.4702
 2010.5000     0.4020     6.3815
 2011.0000     0.3909     6.2929
 2011.5000     0.3925     6.2042
 2012.0000     0.3945     6.1156
 2012.5000     0.3965     6.0268
 2013.0000     0.3986     5.9380
 2013.5000     0.4008     5.8499
 2014.0000     0.4024     5.7801
 2014.5000     0.4187     5.7821
 2015.0000     0.4492     5.7822
 2015.5000     0.4808     5.7821
 2016.0000     0.5039     5.7821
 2016.5000     0.4763     5.7821
 2017.0000     0.4494     5.7821
 2017.5000     0.4230     5.7821
 2018.0000     0.4033     5.7821
 2018.5000     0.4038     5.7821
 2019.0000     0.4038     5.7821
 2019.5000     0.4037     5.7821
 2020.0000     0.4038     5.7821
 2020.5000     0.4138     5.7821
 2021.0000     0.4249     5.7821
 2021.5000     0.4354     5.7821
