~VERSION INFORMATION
 VERS.                2.0:   CWLS LOG ASCII STANDARD - VERSION 2.0
 WRAP.                 NO:   ONE LINE PER DEPTH STEP
~WELL INFORMATION
#MNEM.UNIT      DATA TYPE    INFORMATION
#----------   ------------   ------------------------------
 STRT.F            2.0000:   START DEPTH
 STOP.F          548.0000:   STOP DEPTH
 STEP.F            0.1000:   STEP LENGTH
 NULL.          -999.2500:   NO VALUE
 COMP.       F D SERV INC:   COMPANY
 WELL. NAVAL PETROLEUM RESERVE 3 SX-3 #88-10-3:   WELL
 FLD .             TEAPOT:   FIELD
 LOC .       S3 T38N R78W:   LOCATION
 CNTY.            NATRONA:   COUNTY
 STAT.            WYOMING:   STATE
 CTRY. UNITED STATES OF AMERICA:   COUNTRY
 SRVC.     Atlas Wireline:   SERVICE COMPANY
 DATE.        19-OCT-1992:   LOGDATE
 API .       490252254600:   API NUMBER
~CURVE INFORMATION
#MNEM.UNIT       API CODE    CURVE DESCRIPTION
#----------   ------------   ------------------------------
 DEPT.F                  :   
 GRR .GAPI   07 310 01 00:   GAMMA RAY
 ILD .OHMM   07 120 46 00:   INDUCTION LOG DEEP
 ILM .OHMM   07 120 44 00:   INDUCTION LOG MEDIUM
~PARAMETER INFORMATION
#MNEM.UNIT          VALUE    DESCRIPTION
#----------   ------------   ------------------------------
 PD  .                 GL:   PERMANENT DATUM
 EPD .F              5126:   ELEVATION PERMANENT DATUM
 LMF .                 KB:   LOG MEASURED FROM
 DAPD.F                10:   FEET ABOVE PERMANENT DATUM
 DMF .                 KB:   DRILLING MEASURED FROM
 EKB .F              5136:   KELLING BUSHING
 EDF .F              5135:   DRILLING FLOOR
 EGL .F              5126:   GROUND LEVEL
 DATE.        19-OCT-1992:   RUN DATE
 RUN .                  1:   RUN NUMBER
 DD  .F               566:   DEPTH DRILLER
 DL  .F               558:   DEPTH LOGGER
 BLI .F               550:   BOTTOM LOG INTERVAL
 TLI .F                98:   TOP LOG INTERVAL
 CS  .IN            8.625:   CASING SIZE
 CBD .F                85:   CASING BOTTOM DRILLER
 CBL .F                98:   CASING BOTTOM LOGGER
 BS  .IN            7.875:   BIT SIZE
 BSD .F               566:   BIT SIZE AT DEPTH
 DFT .           AIR FOAM:   DRILLING FLUID TYPE
 TCS .HRS               2:   TIME CURCULATED STOPPED
 MRT .F                73:   MAXIMUM RECORDED TEMPERATURE
 LUN .            HL-6274:   LOGGING UNIT NUMBER
 LUL .             CASPER:   LOGGING UNIT LOCATION
 ENGI.             RAUTIO:   RECORDING ENGINEER
 WITN.        GARY STRONG:   WITNESSED BY
 CLNT.            A2DTECH:   CLIENT CODE
 ORIG.           5" PRINT:   ORIGIN OF DATA
 UWI .       490252254600:   UNIQUE WELL ID
 DICO. A2D Technologies, Inc.:   DIGITIZING COMPANY
~OTHER INFORMATION
~A    DEPT     GRR        ILD        ILM   
# ...
   93.0000    81.2587  -999.2500  -999.2500
   93.1000    81.2563  -999.2500  -999.2500
   93.2000    81.2536  -999.2500  -999.2500
   93.3000    81.4723  -999.2500  -999.2500
   93.4000    81.7150  -999.2500  -999.2500
   93.5000    81.9576  -999.2500  -999.2500
   93.6000    82.1524  -999.2500  -999.2500
   93.7000    82.1494  -999.2500  -999.2500
   93.8000    82.3831  -999.2500  -999.2500
   93.9000    82.6257  -999.2500  -999.2500
   94.0000    82.8684  -999.2500  -999.2500
   94.1000    83.1110  -999.2500  -999.2500
   94.2000    83.3477  -999.2500  -999.2500
   94.3000    83.3452  -999.2500  -999.2500
   94.4000    83.3428  -999.2500  -999.2500
   94.5000    83.3404  -999.2500  -999.2500
   94.6000    83.3380  -999.2500  -999.2500
   94.7000    83.2720  -999.2500  -999.2500
   94.8000    82.4251  -999.2500  -999.2500
   94.9000    82.0055  -999.2500  -999.2500
   95.0000    81.2103  -999.2500  -999.2500
   95.1000    80.3214  -999.2500  -999.2500
   95.2000    79.5474  -999.2500  -999.2500
   95.3000    78.4797  -999.2500  -999.2500
   95.4000    78.2536  -999.2500  -999.2500
   95.5000    77.8396  -999.2500  -999.2500
   95.6000    77.4560  -999.2500  -999.2500
   95.7000    77.2085  -999.2500  -999.2500
   95.8000    76.9549  -999.2500  -999.2500
   95.9000    76.9525  -999.2500  -999.2500
   96.0000    76.9501  -999.2500  -999.2500
   96.1000    77.0717  -999.2500  -999.2500
   96.2000    77.2478  -999.2500  -999.2500
   96.3000    77.2635  -999.2500  -999.2500
   96.4000    77.8476  -999.2500  -999.2500
   96.5000    78.2390  -999.2500  -999.2500
   96.6000    79.0052  -999.2500  -999.2500
   96.7000    80.1465  -999.2500  -999.2500
   96.8000    81.6871  -999.2500  -999.2500
   96.9000    84.1897  -999.2500  -999.2500
   97.0000    87.5765  -999.2500  -999.2500
   97.1000    91.6497  -999.2500  -999.2500
   97.2000    95.2327  -999.2500  -999.2500
   97.3000    97.8868  -999.2500  -999.2500
   97.4000   100.5166  -999.2500  -999.2500
   97.5000   103.4643  -999.2500  -999.2500
   97.6000   108.8508  -999.2500  -999.2500
   97.7000   114.6608  -999.2500  -999.2500
   97.8000   119.2605  -999.2500  -999.2500
   97.9000   121.9873  -999.2500  -999.2500
   98.0000   123.6792  -999.2500  -999.2500
   98.1000   125.7615     7.7235   160.7753
   98.2000   127.8378     4.9724     8.2172
   98.3000   129.5177     3.6078     6.8958
   98.4000   130.4714     2.4621     5.8858
   98.5000   131.0495     2.2595     5.3144
   98.6000   131.4469     2.0570     5.1072
   98.7000   131.6502     1.8544     4.9100
   98.8000   131.9020     1.7377     4.8853
   98.9000   132.5803     1.6705     4.9578
   99.0000   132.8530     1.6264     5.1333
   99.1000   133.0657     1.5918     5.4769
   99.2000   133.6230     1.5917     6.2104
   99.3000   134.2560     1.5916     7.1061
   99.4000   134.7437     1.6129     7.9493
   99.5000   135.2616     1.6598     8.5409
   99.6000   136.4091     1.7277     9.0300
   99.7000   137.2871     1.8171     9.9840
   99.8000   137.9050     1.9011    10.7717
   99.9000   138.3353     2.0157    12.1942
  100.0000   138.5779     2.1448    13.8955
  100.1000   137.6678     2.2769    15.4758
  100.2000   137.6654     2.4021    16.6209
  100.3000   137.6629     2.5347    17.3476
  100.4000   137.6603     2.6825    18.3007
  100.5000   137.4382     2.8624    19.4179
  100.6000   136.8642     3.1165    20.5154
  100.7000   135.9125     3.5057    21.2209
  100.8000   134.5832     4.4988    22.2057
  100.9000   132.8072     5.4397    25.9080
  101.0000   132.0907     6.4408    29.4727
  101.1000   131.5324     7.4353    31.6368
  101.2000   131.2872     8.2582    32.5192
  101.3000   131.2847     9.1760    33.1752
  101.4000   131.2823     9.5765    33.1748
  101.5000   131.2794     9.8704    33.1744
  101.6000   131.2775     9.9769    32.9795
  101.7000   131.4174     9.7994    32.2265
  101.8000   131.5752     8.2618    29.6662
  101.9000   131.6587     7.9368    23.7672
  102.0000   132.4778     7.6976    19.8503
  102.1000   133.1280     7.5250    17.8089
  102.2000   134.0232     7.3716    16.3463
  102.3000   135.0036     7.2845    15.3875
  102.4000   135.9371     7.2061    14.6013
  102.5000   136.7019     7.1829    13.9614
  102.6000   137.6420     7.1629    13.2516
  102.7000   138.6223     7.1323    12.3788
  102.8000   139.3590     7.1320    11.5558
  102.9000   139.7829     7.1317    10.8688
  103.0000   140.0182     7.1314    10.6555
  103.1000   140.0153     7.1311    10.6265
  103.2000   140.0133     7.1182    10.6092
  103.3000   140.0109     7.0747    10.5523
  103.4000   139.7592     6.9824    10.5521
  103.5000   139.0459     6.9159    10.5035
  103.6000   138.4905     6.8146    10.3765
  103.7000   138.0583     6.6996    10.2018
  103.8000   137.5645     6.5916    10.0420
  103.9000   136.9694     6.5101     9.9781
  104.0000   136.2299     6.4436    10.0274
  104.1000   135.4528     6.4193    10.0478
  104.2000   135.2174     6.4349    10.0476
  104.3000   134.7930     6.4786    10.0381
  104.4000   134.4186     6.5543     9.9774
  104.5000   134.2330     6.6995     9.9250
  104.6000   134.2305     6.8527     9.7542
  104.7000   134.2281     7.0092     9.4400
  104.8000   134.4202     7.1691     8.9997
  104.9000   134.6635     7.3337     8.4965
  105.0000   134.9067     7.5442     8.2631
  105.1000   135.1264     7.7255     7.9662
  105.2000   135.1234     7.9020     7.7905
  105.3000   135.1213     8.0672     7.7464
  105.4000   135.1189     8.2090     7.7007
  105.5000   134.7211     8.4237     7.5977
  105.6000   133.7360     8.5888     7.5629
  105.7000   132.6909     8.7851     7.5446
  105.8000   131.5349     9.0057     7.5445
  105.9000   130.6517     9.2467     7.5444
  106.0000   130.1462     9.4174     7.5443
  106.1000   129.7779     9.5652     7.5442
  106.2000   129.0320     9.5790     7.5441
  106.3000   127.8011     9.5246     7.5610
  106.4000   127.1463     9.4704     7.5967
  106.5000   127.0580     9.4155     7.5966
  106.6000   127.3013     9.2602     7.5965
  106.7000   127.5445     9.0663     7.5964
  106.8000   127.8230     8.8381     7.5963
  106.9000   128.4514     8.5909     7.5962
  107.0000   128.8795     8.3541     7.5961
  107.1000   129.2192     8.1861     7.5960
  107.2000   129.7477     8.0385     7.5639
  107.3000   130.5342     7.9344     7.5429
  107.4000   131.4453     7.8744     7.5311
  107.5000   132.5971     7.7854     7.4885
  107.6000   134.0523     7.6859     7.4380
  107.7000   135.7120     7.6856     7.4041
  107.8000   137.1829     7.6306     7.3860
  107.9000   138.4088     7.5613     7.3720
  108.0000   139.2556     7.5184     7.3344
  108.1000   139.8576     7.4726     7.3343
  108.2000   140.3466     7.3943     7.3342
  108.3000   140.7978     7.3684     7.3082
  108.4000   140.7948     7.3490     7.2992
  108.5000   140.7927     7.3165     7.3339
  108.6000   140.7903     7.3162     7.3338
  108.7000   140.6939     7.3159     7.3337
  108.8000   140.4087     7.3156     7.3336
  108.9000   139.8752     7.3153     7.3522
  109.0000   139.6470     7.3150     7.3848
  109.1000   139.2298     7.3147     7.3847
  109.2000   138.7361     7.3143     7.3846
  109.3000   138.2423     7.3141     7.3845
  109.4000   137.7452     7.3380     7.3844
  109.5000   137.2547     7.3647     7.3730
  109.6000   136.7609     7.3644     7.3328
  109.7000   136.5277     7.3641     7.3327
  109.8000   136.5253     7.3638     7.3326
  109.9000   136.5559     7.3635     7.3325
  110.0000   137.1252     7.3632     7.3324
  110.1000   137.5338     7.3629     7.3323
  110.2000   138.3197     7.3625     7.3322
  110.3000   139.2085     7.3622     7.2966
  110.4000   139.8737     7.3619     7.2810
  110.5000   140.1390     7.3616     7.2809
  110.6000   140.8072     7.3613     7.2808
  110.7000   141.7085     7.3610     7.2806
  110.8000   142.3596     7.3607     7.2806
  110.9000   142.6558     7.3604     7.3085
  111.0000   143.1528     7.3601     7.3314
  111.1000   143.1504     7.3598     7.3313
