~VERSION INFORMATION
 VERS.                2.0:   CWLS LOG ASCII STANDARD - VERSION 2.0
 WRAP.                 NO:   ONE LINE PER DEPTH STEP
~WELL INFORMATION
#MNEM.UNIT      DATA TYPE    INFORMATION
#----------   ------------   ------------------------------
 STRT.F            0.0000:   START DEPTH
 STOP.F          523.0000:   STOP DEPTH
 STEP.F            0.1000:   STEP LENGTH
 NULL.          -999.2500:   NO VALUE
 COMP.       F D SERV INC:   COMPANY
 WELL. NAVAL PETROLEUM RESERVE 3 SX-3 #87-3:   WELL
 FLD .             TEAPOT:   FIELD
 LOC .       S3 T38N R78W:   LOCATION
 CNTY.            NATRONA:   COUNTY
 STAT.            WYOMING:   STATE
 CTRY. UNITED STATES OF AMERICA:   COUNTRY
 SRVC.      Western Atlas:   SERVICE COMPANY
 DATE.        22-NOV-1992:   LOGDATE
 API .       490252254300:   API NUMBER
~CURVE INFORMATION
#MNEM.UNIT       API CODE    CURVE DESCRIPTION
#----------   ------------   ------------------------------
 DEPT.F                  :   
 GRR .GAPI   07 310 01 00:   GAMMA RAY
 RILD.OHMM   07 120 46 00:   INDUCTION LOG DEEP RESISTIVITY
 RILM.OHMM   07 120 44 00:   INDUCTION LOG MEDIUM RESISTIVITY
~PARAMETER INFORMATION
#MNEM.UNIT          VALUE    DESCRIPTION
#----------   ------------   ------------------------------
 PD  .                 GL:   PERMANENT DATUM
 EPD .F              5129:   ELEVATION PERMANENT DATUM
 LMF .                 KB:   LOG MEASURED FROM
 DAPD.F                10:   FEET ABOVE PERMANENT DATUM
 DMF .                 KB:   DRILLING MEASURED FROM
 EKB .F              5139:   KELLING BUSHING
 EDF .F              5138:   DRILLING FLOOR
 EGL .F              5129:   GROUND LEVEL
 DATE.        22-NOV-1992:   RUN DATE
 RUN .                  1:   RUN NUMBER
 DD  .F               530:   DEPTH DRILLER
 DL  .F               531:   DEPTH LOGGER
 BLI .F               530:   BOTTOM LOG INTERVAL
 TLI .F                58:   TOP LOG INTERVAL
 CS  .IN            8.625:   CASING SIZE
 CBD .F                58:   CASING BOTTOM DRILLER
 CBL .F                58:   CASING BOTTOM LOGGER
 BS  .IN            7.875:   BIT SIZE
 BSD .F               530:   BIT SIZE AT DEPTH
 DFT .           AIR FOAM:   DRILLING FLUID TYPE
 MRT .F                73:   MAXIMUM RECORDED TEMPERATURE
 LUN .            HL-6274:   LOGGING UNIT NUMBER
 LUL .             CASPER:   LOGGING UNIT LOCATION
 ENGI.       P. RASMUSSEN:   RECORDING ENGINEER
 WITN.          G. STRONG:   WITNESSED BY
 CLNT.            A2DTECH:   CLIENT CODE
 ORIG.           5" PRINT:   ORIGIN OF DATA
 UWI .       490252254300:   UNIQUE WELL ID
 DICO. A2D Technologies, Inc.:   DIGITIZING COMPANY
~OTHER INFORMATION
~A    DEPT      GRR      RILD       RILM   
# ...
  109.2000   137.9378     8.3271     8.2652
  109.3000   138.1730     8.3433     8.2833
  109.4000   138.2347     8.3615     8.3005
  109.5000   138.6032     8.3999     8.3401
  109.6000   139.2684     8.3988     8.3394
  109.7000   139.7651     8.3979     8.3389
  109.8000   140.6378     8.3970     8.3715
  109.9000   141.4266     8.3960     8.3960
  110.0000   142.1217     8.4068     8.3955
  110.1000   142.6088     8.4529     8.3949
  110.2000   143.0422     8.4519     8.3942
  110.3000   143.0392     8.4509     8.3936
  110.4000   143.0371     8.4500     8.3931
  110.5000   142.8768     8.4491     8.3925
  110.6000   142.6296     8.4481     8.3919
  110.7000   142.3385     8.4471     8.3913
  110.8000   141.8207     8.4463     8.3907
  110.9000   140.1952     8.4453     8.3901
  111.0000   138.8297     8.4443     8.3896
  111.1000   137.7216     8.4434     8.3890
  111.2000   136.9846     8.4424     8.3884
  111.3000   136.9821     8.4416     8.3878
  111.4000   136.9798     8.4406     8.3873
  111.5000   136.9774     8.4396     8.3867
  111.6000   136.9750     8.4387     8.3860
  111.7000   136.9725     8.4378     8.3855
  111.8000   136.9701     8.4368     8.3848
  111.9000   136.9674     8.4359     8.3843
  112.0000   137.5929     8.4350     8.3837
  112.1000   138.3244     8.4340     8.3832
  112.2000   139.1514     8.4331     8.3826
  112.3000   140.1667     8.4320     8.3819
  112.4000   141.4804     8.4312     8.3814
  112.5000   142.6094     8.4303     8.3808
  112.6000   143.6612     8.4293     8.3802
  112.7000   144.8625     8.4284     8.3797
  112.8000   145.9402     8.4274     8.3791
  112.9000   145.6917     8.3827     8.3784
  113.0000   145.4460     8.3671     8.3779
  113.1000   145.3852     8.3662     8.3773
  113.2000   145.2533     8.3652     8.3767
  113.3000   144.8608     8.3643     8.3761
  113.4000   144.1087     8.3164     8.3755
  113.5000   142.9619     8.3044     8.3750
  113.6000   142.1457     8.3034     8.3423
  113.7000   140.2853     8.2885     8.3156
  113.8000   138.5526     8.2439     8.3151
  113.9000   138.1261     8.2429     8.3145
  114.0000   138.1234     8.2421     8.3138
  114.1000   138.1213     8.2412     8.3133
  114.2000   138.1189     8.2403     8.3127
  114.3000   138.2232     8.2327     8.3121
  114.4000   138.4656     8.1811     8.3115
  114.5000   138.7149     8.1803     8.3109
  114.6000   138.9502     8.1794     8.3104
  114.7000   139.1925     8.1578     8.2797
  114.8000   139.3110     8.1109     8.2322
  114.9000   139.4427     8.0635     8.1850
  115.0000   139.9195     8.0178     8.1361
  115.1000   140.2083     8.0057     8.1356
  115.2000   140.2063     8.0048     8.1012
  115.3000   140.3448     7.9908     8.0548
  115.4000   140.5032     7.9449     8.0085
  115.5000   140.5279     7.8913     7.9625
  115.6000   140.7997     7.8537     7.9089
  115.7000   141.2275     7.8086     7.9085
  115.8000   141.7146     7.7797     7.9080
  115.9000   142.2016     7.7788     7.8907
  116.0000   142.6445     7.7778     7.8519
  116.1000   142.8994     7.7375     7.8513
  116.2000   143.5935     7.7222     7.8099
  116.3000   144.6755     7.7213     7.7957
  116.4000   145.7786     7.7115     7.7745
  116.5000   146.6940     7.6660     7.7405
  116.6000   147.4168     7.6651     7.7392
  116.7000   147.6590     7.6643     7.6949
  116.8000   148.4781     7.6413     7.6851
  116.9000   149.1842     7.6094     7.6845
  117.0000   149.6714     7.6086     7.6840
  117.1000   150.1154     7.6076     7.6834
  117.2000   150.1125     7.6069     7.6829
  117.3000   150.3197     7.6060     7.6824
  117.4000   150.7145     7.6052     7.6818
  117.5000   151.1061     7.5990     7.6813
  117.6000   151.3102     7.5506     7.6808
  117.7000   151.3072     7.5499     7.6802
  117.8000   151.9844     7.5490     7.6797
  117.9000   152.3771     7.5482     7.6792
  118.0000   152.6194     7.5473     7.6786
  118.1000   152.9176     7.5464     7.6652
  118.2000   153.4069     7.5456     7.6243
  118.3000   153.6481     7.5448     7.6236
  118.4000   153.7038     7.5440     7.6232
  118.5000   153.5717     7.5431     7.6226
  118.6000   153.3973     7.5423     7.6221
  118.7000   153.3949     7.5413     7.6145
  118.8000   153.3921     7.5406     7.5681
  118.9000   153.1863     7.5153     7.5676
  119.0000   152.7924     7.5013     7.5671
  119.1000   152.3005     7.5382     7.5665
  119.2000   151.8084     7.5371     7.5660
  119.3000   151.2685     7.5364     7.5655
  119.4000   150.6038     7.5356     7.5648
  119.5000   150.0311     7.5347     7.5644
  119.6000   149.4322     7.5338     7.5639
  119.7000   148.6453     7.5330     7.5633
  119.8000   147.6367     7.5322     7.5628
  119.9000   147.6344     7.5314     7.5622
  120.0000   147.6320     7.5305     7.6006
  120.1000   147.7536     7.5297     7.6141
  120.2000   148.1301     7.5289     7.6136
  120.3000   148.8417     7.5280     7.6131
  120.4000   149.1302     7.5272     7.6125
  120.5000   149.5244     7.5263     7.6120
  120.6000   149.8703     7.5255     7.6115
  120.7000   150.2810     7.5246     7.6109
  120.8000   150.9583     7.5237     7.6241
  120.9000   151.2299     7.5230     7.6632
  121.0000   151.2278     7.5221     7.6625
  121.1000   150.4339     7.5213     7.6621
  121.2000   149.4105     7.5280     7.6615
  121.3000   148.7627     7.5721     7.6788
  121.4000   148.5030     7.6120     7.7142
  121.5000   147.8036     7.6234     7.7135
  121.6000   147.2425     7.6435     7.7550
  121.7000   146.6324     7.6750     7.7664
  121.8000   145.7730     7.6742     7.7659
  121.9000   144.5417     7.7177     7.7776
  122.0000   143.0714     7.7261     7.8191
  122.1000   142.3699     7.7252     7.8185
  122.2000   141.8780     7.7243     7.8180
  122.3000   141.3861     7.7318     7.8441
  122.4000   140.8940     7.8309     7.8716
  122.5000   140.3315     7.8684     7.8710
  122.6000   140.3294     7.8840     7.8705
  122.7000   140.3270     7.9010     7.9112
  122.8000   140.3246     7.9375     7.9557
  122.9000   140.3222     7.9364     8.0005
  123.0000   140.3196     7.9356     8.0347
  123.1000   140.3174     7.9664     8.0341
  123.2000   140.6543     8.0107     8.0798
  123.3000   141.1415     8.0552     8.0892
  123.4000   141.6842     8.0996     8.0886
  123.5000   142.4193     8.0987     8.0880
  123.6000   143.3916     8.0977     8.0874
  123.7000   144.5552     8.1219     8.0868
  123.8000   145.5167     8.1525     8.1268
  123.9000   146.0296     8.1516     8.1423
  124.0000   146.0271     8.1506     8.1615
  124.1000   146.0243     8.1498     8.2075
  124.2000   145.8183     8.1489     8.2549
  124.3000   145.4242     8.1480     8.2543
  124.4000   144.9323     8.1471     8.2889
  124.5000   144.4402     8.1461     8.3110
  124.6000   143.9008     8.1881     8.3104
  124.7000   143.6776     8.2337     8.3099
  124.8000   143.5946     8.2577     8.3091
  124.9000   143.5921     8.2676     8.3086
  125.0000   143.5897     8.3136     8.3081
  125.1000   143.5873     8.3127     8.3075
  125.2000   143.5849     8.3118     8.3145
  125.3000   143.5825     8.3108     8.3644
  125.4000   143.5801     8.3099     8.3639
  125.5000   143.5777     8.3089     8.3633
  125.6000   143.5753     8.3079     8.3627
  125.7000   143.5724     8.3071     8.3622
  125.8000   142.9754     8.3350     8.3616
  125.9000   142.0974     8.3633     8.3608
  126.0000   141.0316     8.3624     8.3603
  126.1000   139.8327     8.3614     8.3598
  126.2000   138.7339     8.3605     8.3592
  126.3000   137.2247     8.3596     8.3586
  126.4000   135.9841     8.3587     8.3580
  126.5000   135.3072     8.3577     8.3575
  126.6000   135.1051     8.3568     8.3569
  126.7000   135.4038     8.3559     8.3774
  126.8000   135.4015     8.3550     8.4039
  126.9000   135.9258     8.3540     8.3551
  127.0000   136.4203     8.3531     8.3545
  127.1000   136.8477     8.3521     8.3540
  127.2000   137.8345     8.3511     8.3534
  127.3000   139.3001     8.3503     8.3528
