~VERSION INFORMATION
 VERS.                2.0:   CWLS LOG ASCII STANDARD - VERSION 2.0
 WRAP.                 NO:   ONE LINE PER DEPTH STEP
~WELL INFORMATION
#MNEM.UNIT      DATA TYPE    INFORMATION
#----------   ------------   ------------------------------
 STRT.F           30.0000:   START DEPTH
 STOP.F          510.0000:   STOP DEPTH
 STEP.F            0.5000:   STEP LENGTH
 NULL.          -999.2500:   NO VALUE
 COMP. FENIX & SCISSON INC:   COMPANY
 WELL.    66-SX 3FP #54-3:   WELL
 FLD .             TEAPOT:   FIELD
 LOC .       S3 T38N R78W:   LOCATION
 CNTY.            NATRONA:   COUNTY
 STAT.            WYOMING:   STATE
 CTRY. UNITED STATES OF AMERICA:   COUNTRY
 SRVC.              Welex:   SERVICE COMPANY
 DATE.        25-JUN-1980:   LOGDATE
 API .       490251081400:   API NUMBER
~CURVE INFORMATION
#MNEM.UNIT       API CODE    CURVE DESCRIPTION
#----------   ------------   ------------------------------
 DEPT.F                  :   
 SGRD.OHMM   07 220 05 00:   SHALLOW GUARD RESISTIVITY
 ILD .OHMM   07 120 46 00:   INDUCTION LOG DEEP RESISTIVITY
 ILM .OHMM   07 120 44 00:   INDUCTION LOG MEDIUM
 CALD.IN     45 280 60 00:   CALIPER
 GRD .GAPI   45 310 01 00:   GAMMA RAY FROM DENSITY LOG
 CORR.G/C3   45 356 01 00:   DENSITY CORRECTION
 NPHI.DEC    42 890 03 00:   NEUTRON POROSITY SANDSTONE
 DPHI.DEC    45 890 12 00:   DENSITY POROSITY SANDSTONE
 SPR .MV     07 010 01 00:   SPONTANEOUS POTENTIAL
 RHOB.G/C3   45 350 01 00:   BULK DENSITY
~PARAMETER INFORMATION
#MNEM.UNIT          VALUE    DESCRIPTION
#----------   ------------   ------------------------------
 PD  .                 GL:   PERMANENT DATUM
 EPD .F              5158:   ELEVATION PERMANENT DATUM
 LMF .                 KB:   LOG MEASURED FROM
 DAPD.F                 5:   FEET ABOVE PERMANENT DATUM
 DMF .                 KB:   DRILLING MEASURED FROM
 EKB .F              5163:   KELLING BUSHING
 EGL .F              5158:   GROUND LEVEL
 DATE.            6-25-80:   RUN DATE
 RUN .                  1:   RUN NUMBER
 DD  .F               516:   DEPTH DRILLER
 DL  .F               512:   DEPTH LOGGER
 BLI .F               510:   BOTTOM LOG INTERVAL
 TLI .F                30:   TOP LOG INTERVAL
 BS  .IN            9.875:   BIT SIZE
 BSD .F               516:   BIT SIZE AT DEPTH
 DFT .            KCL MUD:   DRILLING FLUID TYPE
 DFD .                9.2:   DRILLING FLUID DENSITY
 DFV .                 52:   DRILLING FLUID VISCOSITY
 DFPH.                 12:   DRILLING FLUID PH
 DFL .                  6:   DRILLING FLUID LOSS
 MSS .           FLOWLINE:   MUD SAMPLE SOURCE
 RMB .OHMM            .35:   RESISTIVITY MUD AT BHT
 BHT .F                75:   BOTTOM HOLE TEMPERATURE
 TCS .HRS               1:   TIME CURCULATED STOPPED
 MRT .F                75:   MAXIMUM RECORDED TEMPERATURE
 LUN .               1892:   LOGGING UNIT NUMBER
 LUL .             CASPER:   LOGGING UNIT LOCATION
 ENGI.            TOTHILL:   RECORDING ENGINEER
 WITN.              AMEND:   WITNESSED BY
 CLNT.            A2DTECH:   CLIENT CODE
 ORIG.           5" PRINT:   ORIGIN OF DATA
 UWI .       490251081400:   UNIQUE WELL ID
 DICO. A2D Technologies, Inc.:   DIGITIZING COMPANY
~OTHER INFORMATION
~A   DEPT       SGRD        ILD        ILM     CALD        GRD       CORR       NPHI       DPHI        SPR       RHOB   
# ...
  398.5000    20.8442    14.7494    11.7087     9.9807    75.3363     0.0863     0.2426     0.1570   -32.3170     2.4172
  399.0000    21.2731    14.9681    11.6815     9.9799    74.2166     0.0933     0.2399     0.1445   -32.3187     2.4351
  399.5000    21.7129    15.1890    11.6815     9.9791    72.3001     0.1003     0.2346     0.1323   -32.3776     2.4510
  400.0000    22.0265    15.3907    11.6815     9.9784    70.4283     0.1074     0.2318     0.1201   -32.6241     2.4901
  400.5000    20.6986    14.9713    11.5694     9.9776    70.7397     0.1146     0.2413     0.1166   -32.8610     2.4921
  401.0000    19.3170    14.5999    11.3497     9.9768    72.3851     0.1113     0.2482     0.1318   -33.0977     2.4736
  401.5000    18.0277    14.2378    11.1527     9.9761    74.0732     0.1027     0.2562     0.1430   -33.3298     2.4537
  402.0000    17.5358    13.8846    11.6322     9.9753    75.7729     0.0967     0.2641     0.1572   -33.4358     2.4339
  402.5000    17.3532    13.5401    12.7010     9.9745    77.3626     0.1124     0.2662     0.1626   -33.2108     2.4139
  403.0000    17.1726    13.2043    14.4395     9.9738    75.6728     0.1281     0.2640     0.1550   -32.9920     2.4084
  403.5000    16.9938    12.9572    16.4444     9.9730    73.7653     0.1441     0.2594     0.1498   -32.7608     2.4186
  404.0000    16.8724    12.7962    17.9887     9.9722    72.7303     0.1502     0.2549     0.1450   -32.9036     2.4297
  404.5000    16.9327    12.6896    16.5218     9.9714    75.5077     0.1599     0.2503     0.1432   -33.1706     2.4384
  405.0000    16.9788    12.9246    13.9682     9.9765    77.7841     0.1581     0.2498     0.1414   -33.2781     2.4436
  405.5000    17.0280    13.1076    11.8207     9.9849    76.8885     0.1517     0.2522     0.1426   -33.2145     2.4489
  406.0000    17.0070    13.2924    10.5189     9.9935    77.0827     0.1371     0.2535     0.1438   -33.1479     2.4511
  406.5000    16.9657    13.4820    10.3658    10.0020    77.7522     0.1344     0.2550     0.1499   -32.9827     2.4417
  407.0000    16.9247    13.5833    10.9450    10.0105    78.4369     0.1290     0.2571     0.1522   -32.5939     2.4306
  407.5000    16.8840    13.7406    11.7893    10.0191    77.9059     0.1130     0.2594     0.1513   -32.2087     2.4202
  408.0000    16.6908    13.9106    11.7893    10.0276    77.3564     0.0970     0.2542     0.1471   -31.8227     2.4262
  408.5000    16.4442    13.6025    11.6248    10.0289    78.0739     0.0993     0.2490     0.1429   -31.4230     2.4353
  409.0000    16.2017    13.2796    11.4038    10.0289    79.6965     0.1054     0.2443     0.1386   -31.3848     2.4445
  409.5000    15.9628    12.9643    11.2074    10.0288    81.2753     0.1087     0.2437     0.1346   -31.4481     2.4513
  410.0000    15.7268    12.6545    11.0536    10.0288    82.0639     0.1005     0.2514     0.1362   -31.5113     2.4560
  410.5000    15.4971    12.4107    10.9020    10.0288    81.0167     0.1037     0.2478     0.1364   -31.8133     2.4540
  411.0000    15.3541    12.2654    10.7524    10.0288    79.5969     0.1087     0.2508     0.1342   -32.1914     2.4546
  411.5000    15.2553    12.1438    10.6556    10.0288    81.0532     0.1082     0.2511     0.1363   -32.6087     2.4594
  412.0000    15.1552    12.0279    10.9229    10.0288    82.9485     0.0967     0.2439     0.1410   -32.7103     2.4537
  412.5000    15.0559    11.9130    11.1260    10.0288    84.0301     0.0901     0.2397     0.1479   -32.7117     2.4455
  413.0000    14.9261    11.7993    11.3678    10.0288    84.5011     0.0941     0.2407     0.1513   -32.6597     2.4373
  413.5000    14.6267    11.6815    11.1800    10.0288    86.0336     0.0943     0.2406     0.1558   -32.5055     2.4291
  414.0000    14.3333    11.4823    10.9909    10.0288    87.5577     0.0793     0.2338     0.1617   -32.3427     2.4209
  414.5000    14.0458    11.2773    10.8042    10.0288    88.6928     0.0641     0.2370     0.1675   -32.6574     2.4131
  415.0000    13.7641    11.0759    10.6209    10.0288    88.2074     0.0511     0.2414     0.1717   -33.1031     2.4049
  415.5000    13.4875    10.8781    10.4408    10.0288    86.7752     0.0393     0.2389     0.1746   -33.5518     2.3965
  416.0000    13.2143    10.7050    10.2637    10.0288    84.6209     0.0271     0.2380     0.1707   -33.9952     2.3912
  416.5000    12.9466    10.5714    10.0897    10.0288    82.4272     0.0231     0.2412     0.1665   -34.2871     2.3956
  417.0000    12.6843    10.4395     9.9185    10.0289    80.2328     0.0292     0.2430     0.1660   -34.2826     2.4035
  417.5000    12.4275    10.3092     9.7503    10.0296    78.0946     0.0353     0.2349     0.1683   -34.2835     2.4060
  418.0000    12.1742    10.1805     9.5850    10.0313    76.8728     0.0413     0.2278     0.1646   -34.2809     2.3980
  418.5000    12.0061    10.0534     9.4224    10.0329    80.9085     0.0468     0.2278     0.1507   -34.1449     2.4106
  419.0000    11.8603     9.9284     9.2626    10.0346    81.4344     0.0565     0.2289     0.1390   -33.7619     2.4259
  419.5000    11.7170     9.7131     9.1052    10.0363    81.5811     0.0647     0.2316     0.1371   -33.3740     2.4413
  420.0000    11.5754     9.4777     8.9484    10.0379    82.7978     0.0703     0.2342     0.1346   -33.3373     2.4556
  420.5000    11.4354     9.2475     8.8535    10.0396    84.0925     0.0703     0.2351     0.1355   -33.3826     2.4581
  421.0000    11.2972     9.1877     8.7581    10.0412    82.2555     0.0703     0.2374     0.1354   -33.4311     2.4592
  421.5000    11.1606     9.1743     8.6250    10.0429    79.9976     0.0699     0.2403     0.1257   -33.4745     2.4675
  422.0000    11.0256     9.1609     8.6835    10.0445    79.6718     0.0746     0.2407     0.1188   -33.8459     2.4763
  422.5000    10.8923     9.1475     8.7840    10.0462    80.6762     0.0808     0.2391     0.1178   -34.4364     2.4855
  423.0000    10.7606     9.1341     8.8858    10.0479    81.7102     0.0802     0.2378     0.1182   -34.8200     2.4896
  423.5000    10.6506     9.1208     8.9480    10.0495    82.7461     0.0803     0.2393     0.1135   -35.0614     2.4937
  424.0000    10.6248     9.1075     8.6737    10.0512    83.7522     0.0787     0.2402     0.1164   -35.0702     2.4976
  424.5000    10.5991     9.0942     8.4373    10.0528    83.7942     0.0735     0.2370     0.1212   -35.0672     2.4903
  425.0000    10.5734     9.0809     8.2074    10.0545    81.8913     0.0683     0.2338     0.1254   -35.0778     2.4805
  425.5000    10.5478     9.0676     7.9413    10.0561    83.1512     0.0631     0.2350     0.1244   -35.3745     2.4706
  426.0000    10.5223     9.0543     8.1154    10.0578    85.1355     0.0623     0.2294     0.1247   -35.6844     2.4732
  426.5000    10.4976     9.0413     8.3372    10.0595    86.3688     0.0623     0.2270     0.1262   -35.9975     2.4823
  427.0000    10.4714     9.0205     8.5665    10.0611    86.3538     0.0622     0.2272     0.1245   -36.0513     2.4913
  427.5000    10.3491     8.9718     8.7047    10.0628    86.8022     0.0626     0.2289     0.1170   -36.0506     2.4969
  428.0000    10.3084     8.9233     8.5184    10.0644    87.6065     0.0739     0.2307     0.1134   -35.9505     2.4987
  428.5000    10.2679     8.8751     8.3904    10.0661    88.4171     0.0857     0.2344     0.1120   -35.8517     2.4973
  429.0000    10.2276     8.8272     8.3137    10.0673    89.2312     0.0960     0.2394     0.1127   -35.7299     2.4960
  429.5000    10.1874     8.7795     8.3137    10.0666    90.0177     0.0973     0.2443     0.1178   -35.5765     2.4950
  430.0000    10.1474     8.7323     8.3137    10.0660    89.9181     0.0962     0.2492     0.1135   -35.3787     2.4966
  430.5000    10.1075     8.6721     8.3137    10.0654    87.7900     0.0969     0.2496     0.1075   -35.1821     2.4995
  431.0000    10.0678     8.5959     8.3137    10.0647    86.7580     0.1000     0.2464     0.1058   -34.9879     2.5024
  431.5000    10.0283     8.5200     8.3137    10.0641    86.5457     0.0992     0.2431     0.1073   -34.9667     2.5050
