~VERSION INFORMATION
 VERS.                2.0:   CWLS LOG ASCII STANDARD - VERSION 2.0
 WRAP.                 NO:   ONE LINE PER DEPTH STEP
~WELL INFORMATION
#MNEM.UNIT      DATA TYPE    INFORMATION
#----------   ------------   ------------------------------
 STRT.F           10.0000:   START DEPTH
 STOP.F          472.5000:   STOP DEPTH
 STEP.F            0.5000:   STEP LENGTH
 NULL.          -999.2500:   NO VALUE
 COMP. FENIX & SCISSON INC:   COMPANY
 WELL. NAVAL PETROLEUM RESERVE 3 SX-1 #67-10:   WELL
 FLD .             TEAPOT:   FIELD
 LOC .      S10 T38N R78W:   LOCATION
 CNTY.            NATRONA:   COUNTY
 STAT.            WYOMING:   STATE
 CTRY. UNITED STATES OF AMERICA:   COUNTRY
 SRVC.           BIRDWELL:   SERVICE COMPANY
 DATE.        05-DEC-1978:   LOGDATE
 API .       490251075000:   API NUMBER
~CURVE INFORMATION
#MNEM.UNIT       API CODE    CURVE DESCRIPTION
#----------   ------------   ------------------------------
 DEPT.F                  :   
 SPR .MV     05 010 01 00:   SPONTANEOUS POTENTIAL FROM RES.
 SN  .OHMM   05 040 16 00:   SHORT NORMAL 16"
 IL  .OHMM   05 120 00 00:   INDUCTION LOG
 CALD.IN     45 280 60 00:   CALIPER
 GRD .GAPI   45 310 01 00:   GAMMA RAY FROM DENSITY LOG
 RHOB.G/C3   45 350 01 00:   BULK DENSITY
 DPHI.DEC    45 890 12 00:   DENSITY POROSITY SANDSTONE
 CORR.G/C3   45 356 01 00:   DENSITY CORRECTION
~PARAMETER INFORMATION
#MNEM.UNIT          VALUE    DESCRIPTION
#----------   ------------   ------------------------------
 PD  .                 GL:   PERMANENT DATUM
 EPD .F              5189:   ELEVATION PERMANENT DATUM
 LMF .                 KB:   LOG MEASURED FROM
 DAPD.F                 4:   FEET ABOVE PERMANENT DATUM
 DMF .                 KB:   DRILLING MEASURED FROM
 EKB .F              5193:   KELLING BUSHING
 EGL .F              5189:   GROUND LEVEL
 DATE.            12-5-78:   RUN DATE
 RUN .                  1:   RUN NUMBER
 DD  .F               475:   DEPTH DRILLER
 DL  .F               471:   DEPTH LOGGER
 BLI .F               465:   BOTTOM LOG INTERVAL
 TLI .F                40:   TOP LOG INTERVAL
 CS  .IN            8.625:   CASING SIZE
 CBD .F                40:   CASING BOTTOM DRILLER
 CBL .F                40:   CASING BOTTOM LOGGER
 BS  .IN            7.875:   BIT SIZE
 BSD .F               475:   BIT SIZE AT DEPTH
 DFT .                KCL:   DRILLING FLUID TYPE
 DFD .                8.8:   DRILLING FLUID DENSITY
 DFV .                 42:   DRILLING FLUID VISCOSITY
 DFPH.               12.2:   DRILLING FLUID PH
 DFL .               11.6:   DRILLING FLUID LOSS
 MSS .          FLOW LINE:   MUD SAMPLE SOURCE
 RMS .OHMM            .31:   RESISTIVITY MUD SAMPLE
 MST .F                60:   MUD SAMPLE TEMPERATURE
 RMF .OHMM            .29:   RESISTIVITY MUD FILTRATE SAMPLE
 MFST.F                61:   MUD FILTRATE SAMPLE TEMPERATURE
 RMC .OHMM            .42:   RESISTIVITY MUD CAKE
 MCST.F                63:   MUD CAKE SAMPLE TEMPERATURE
 MFSS.           MEASURED:   MUD FILTRATE SAMPLE SOURCE
 MCSS.           MEASURED:   MUD CAKE SAMPLE SOURCE
 RMB .OHMM            .33:   RESISTIVITY MUD AT BHT
 BHT .F                57:   BOTTOM HOLE TEMPERATURE
 TCS .HRS               3:   TIME CURCULATED STOPPED
 MRT .F                57:   MAXIMUM RECORDED TEMPERATURE
 LUN .               2958:   LOGGING UNIT NUMBER
 LUL .                CPR:   LOGGING UNIT LOCATION
 ENGI.            ROLLINS:   RECORDING ENGINEER
 WITN.              AMEND:   WITNESSED BY
 CLNT.            A2DTECH:   CLIENT CODE
 ORIG.       2", 5" PRINT:   ORIGIN OF DATA
 UWI .       490251075000:   UNIQUE WELL ID
 DICO. A2D Technologies, Inc.:   DIGITIZING COMPANY
~OTHER INFORMATION
~A   DEPT      SPR         SN         IL       CALD         GRD      RHOB       DPHI       CORR   
# ...
  253.0000   -56.3090     7.5820     6.4200     8.9660   120.8040     2.4560     0.1390     0.0140
  253.5000   -56.3450     7.5820     6.8370     8.9740   118.8710     2.4580     0.1380     0.0140
  254.0000   -56.3820     7.5820     7.1860     8.9820   117.5370     2.4590     0.1390     0.0150
  254.5000   -56.4180     7.5820     7.2300     8.9900   117.5880     2.4560     0.1410     0.0160
  255.0000   -56.4550     7.5820     7.2750     8.9970   117.6610     2.4500     0.1460     0.0170
  255.5000   -56.4910     7.5820     7.3070     9.0060   118.3820     2.4370     0.1570     0.0180
  256.0000   -56.5280     7.5120     6.7240     8.9510   119.3070     2.4170     0.1690     0.0190
  256.5000   -56.5650     7.2610     6.0770     8.8240   119.7770     2.3930     0.1800     0.0200
  257.0000   -56.6040     7.0090     5.7250     8.8160   120.1490     2.3880     0.1810     0.0200
  257.5000   -56.5560     6.7110     5.5160     8.8510   120.2440     2.4050     0.1660     0.0190
  258.0000   -56.4740     6.4070     5.4700     8.8700   119.3500     2.4310     0.1520     0.0190
  258.5000   -56.3910     6.2300     5.4240     8.8700   119.9610     2.4570     0.1380     0.0220
  259.0000   -56.3070     6.1870     5.3780     8.8700   119.7730     2.4680     0.1320     0.0280
  259.5000   -56.2240     6.3260     5.3310     8.8700   118.5630     2.4740     0.1290     0.0340
  260.0000   -56.1420     6.4800     5.2880     8.8700   115.6310     2.4790     0.1260     0.0270
  260.5000   -56.0580     6.8870     5.7500     8.8700   116.5940     2.4800     0.1250     0.0210
  261.0000   -56.1020     7.2300     6.1870     8.8700   117.0720     2.4760     0.1260     0.0150
  261.5000   -56.3030     7.4870     6.6260     8.8700   115.5420     2.4740     0.1280     0.0150
  262.0000   -56.4020     7.7620     7.0420     8.8700   112.4220     2.4730     0.1290     0.0160
  262.5000   -56.3740     8.0360     7.2900     8.8700   110.4330     2.4740     0.1300     0.0160
  263.0000   -56.3490     8.3110     7.5260     8.8700   110.7330     2.4770     0.1290     0.0170
  263.5000   -56.3230     8.5860     7.7620     8.8700   113.1450     2.4800     0.1270     0.0170
  264.0000   -56.2980     8.7270     7.9760     8.8700   115.6920     2.4820     0.1260     0.0180
  264.5000   -56.2720     8.8440     8.1230     8.8700   116.4100     2.4830     0.1260     0.0180
  265.0000   -56.2460     8.9610     8.2700     8.8700   113.8180     2.4840     0.1260     0.0220
  265.5000   -56.2200     9.0780     8.4690     8.8700   111.1780     2.4880     0.1210     0.0270
  266.0000   -56.1940     9.1200     8.4620     8.8700   110.5100     2.4940     0.1160     0.0320
  266.5000   -56.1680     9.1200     8.4490     8.8700   111.1930     2.5010     0.1110     0.0330
  267.0000   -56.1420     9.1200     8.4350     8.8700   112.3190     2.5020     0.1110     0.0300
  267.5000   -56.1170     9.1200     8.4220     8.8700   112.2790     2.4990     0.1140     0.0230
  268.0000   -56.0910     9.1200     8.4090     8.8700   112.0370     2.4910     0.1200     0.0150
  268.5000   -56.0650     9.1200     8.3950     8.8700   111.1070     2.4830     0.1260     0.0110
  269.0000   -56.0390     9.1200     8.3820     8.8700   109.2170     2.4780     0.1290     0.0110
  269.5000   -56.0130     9.1200     8.3690     8.8700   109.2150     2.4750     0.1300     0.0110
  270.0000   -55.9870     9.1200     8.3550     8.8700   111.0250     2.4760     0.1300     0.0120
  270.5000   -55.9610     9.1200     8.3420     8.8700   108.8040     2.4760     0.1290     0.0120
  271.0000   -55.9360     9.1200     8.3290     8.8700   105.0450     2.4770     0.1280     0.0120
  271.5000   -55.9100     9.1200     8.3150     8.8700   106.1730     2.4800     0.1270     0.0130
  272.0000   -55.8840     9.1200     8.5050     8.8700   108.7350     2.4850     0.1240     0.0130
  272.5000   -55.8580     9.1200     8.6930     8.8700   110.3090     2.4890     0.1210     0.0130
  273.0000   -55.8330     9.1200     8.8800     8.8700   110.6040     2.4950     0.1160     0.0130
  273.5000   -55.8310     9.1200     8.9530     8.8700   110.1870     2.4910     0.1180     0.0140
  274.0000   -55.9320     9.1200     8.9530     8.8700   108.8860     2.4810     0.1250     0.0140
  274.5000   -56.0320     9.1200     8.9530     8.8700   108.0980     2.4650     0.1370     0.0150
  275.0000   -56.1320     9.1190     8.7510     8.8700   108.0790     2.4410     0.1540     0.0170
  275.5000   -56.2320     9.1210     8.3900     8.8690   107.2800     2.4180     0.1720     0.0220
  276.0000   -56.3310     9.1200     7.5910     8.8660   106.3920     2.3940     0.1790     0.0330
  276.5000   -56.4150     8.9530     6.7860     8.8630   107.0740     2.4030     0.1590     0.0460
  277.0000   -56.4130     8.4030     6.7590     8.8600   112.6670     2.4420     0.1260     0.0440
  277.5000   -56.4130     7.5120     6.7320     8.8570   117.1530     2.4800     0.1170     0.0280
  278.0000   -56.4130     7.5510     6.7050     8.8530   112.7020     2.5040     0.1040     0.0180
  278.5000   -56.4130     7.6520     6.6650     8.8500   105.7150     2.5060     0.0990     0.0170
  279.0000   -56.4130     7.8280     6.7220     8.8470   101.9640     2.5060     0.0990     0.0160
  279.5000   -56.4130     8.4820     7.0340     8.8440   101.6650     2.5040     0.1000     0.0150
  280.0000   -56.4020     9.2660     8.0200     8.8410   103.5640     2.5020     0.1070     0.0150
  280.5000   -56.3840    10.0080     8.8700     8.8370   105.3340     2.4990     0.1170     0.0160
  281.0000   -56.3670    10.5500     9.7200     8.8340   104.8830     2.4970     0.1170     0.0160
  281.5000   -56.3490    10.8020    10.1270     8.8310   104.6700     2.5000     0.1150     0.0180
  282.0000   -56.3310    10.9710    10.2640     8.8280   105.7710     2.5030     0.1120     0.0200
  282.5000   -56.3130    11.1390    10.3600     8.8250   106.9060     2.5060     0.1090     0.0230
  283.0000   -56.2950    11.3060    10.4560     8.8210   107.0360     2.5100     0.1040     0.0240
  283.5000   -56.2770    11.4620    10.5520     8.8180   105.6350     2.5120     0.1060     0.0210
  284.0000   -56.2590    11.6190    10.6480     8.8150   102.1360     2.5090     0.1110     0.0190
  284.5000   -56.2410    11.7750    11.5360     8.8120    98.4950     2.4880     0.1300     0.0170
  285.0000   -56.2190    12.3680    12.6680     8.8090    92.6540     2.4630     0.1560     0.0150
  285.5000   -56.1210    13.0970    13.8000     8.8050    85.3750     2.4190     0.1790     0.0140
  286.0000   -55.8220    13.8260    14.9330     8.8020    77.9690     2.3750     0.2020     0.0140
  286.5000   -55.5380    14.5550    16.0650     8.7990    70.5220     2.3300     0.2260     0.0130
  287.0000   -54.9010    15.2840    17.2520     8.7960    63.5540     2.3000     0.2360     0.0130
  287.5000   -53.9890    16.0130    19.7690     8.7930    60.2400     2.2860     0.2460     0.0130
  288.0000   -53.0770    16.7800    22.5520     8.7970    57.9960     2.2810     0.2490     0.0140
  288.5000   -52.1630    18.0450    24.9640     8.8470    57.2810     2.2770     0.2490     0.0240
  289.0000   -51.2410    19.4530    25.5830     8.8980    58.8500     2.2840     0.2410     0.0310
  289.5000   -51.0070    19.8610    26.1660     8.9080    62.0530     2.3040     0.2270     0.0340
  290.0000   -50.8010    20.2940    26.3870     8.8440    65.1570     2.3170     0.2250     0.0320
  290.5000   -50.5960    20.7530    26.3370     8.7730    68.2700     2.3290     0.2190     0.0270
  291.0000   -50.3900    21.1250    26.2440     8.7430    69.3000     2.3390     0.2090     0.0220
  291.5000   -50.1850    21.5230    26.1440     8.7370    68.4540     2.3470     0.2020     0.0170
  292.0000   -49.9800    21.9200    26.3720     8.7510    66.7770     2.3330     0.2170     0.0090
  292.5000   -49.8000    22.3450    26.6160     8.7650    65.2310     2.2990     0.2380     0.0100
  293.0000   -49.7880    22.3450    26.8600     8.7780    64.6420     2.2760     0.2500     0.0170
