~VERSION INFORMATION
 VERS.                2.0:   CWLS LOG ASCII STANDARD - VERSION 2.0
 WRAP.                 NO:   ONE LINE PER DEPTH STEP
~WELL INFORMATION
#MNEM.UNIT      DATA TYPE    INFORMATION
#----------   ------------   ------------------------------
 STRT.F            8.0000:   START DEPTH
 STOP.F          970.0000:   STOP DEPTH
 STEP.F            0.1000:   STEP LENGTH
 NULL.          -999.2500:   NO VALUE
 COMP.       F D SERV INC:   COMPANY
 WELL. N P R 3 STX-35 #15-35:   WELL
 FLD .             TEAPOT:   FIELD
 LOC .      S35 T39N R78W:   LOCATION
 CNTY.            NATRONA:   COUNTY
 STAT.            WYOMING:   STATE
 CTRY. UNITED STATES OF AMERICA:   COUNTRY
 SRVC.     Atlas Wireline:   SERVICE COMPANY
 DATE.        02-FEB-1992:   LOGDATE
 API .       490252250100:   API NUMBER
~CURVE INFORMATION
#MNEM.UNIT       API CODE    CURVE DESCRIPTION
#----------   ------------   ------------------------------
 DEPT.F                  :   
 GRR .GAPI   07 310 01 00:   GAMMA RAY
 RILD.OHMM   07 120 46 00:   INDUCTION LOG DEEP RESISTIVITY
 RILM.OHMM   07 120 44 00:   INDUCTION LOG MEDIUM RESISTIVITY
~PARAMETER INFORMATION
#MNEM.UNIT          VALUE    DESCRIPTION
#----------   ------------   ------------------------------
 PD  .                 GL:   PERMANENT DATUM
 EPD .F              5084:   ELEVATION PERMANENT DATUM
 LMF .                 KB:   LOG MEASURED FROM
 DAPD.F                10:   FEET ABOVE PERMANENT DATUM
 DMF .                 KB:   DRILLING MEASURED FROM
 EKB .F              5094:   KELLING BUSHING
 EDF .F              5093:   DRILLING FLOOR
 EGL .F              5084:   GROUND LEVEL
 DATE.        02-FEB-1982:   RUN DATE
 RUN .                  1:   RUN NUMBER
 DD  .F               980:   DEPTH DRILLER
 CS  .IN            8.625:   CASING SIZE
 BSD .F               980:   BIT SIZE AT DEPTH
 DFT .                AIR:   DRILLING FLUID TYPE
 LUN .            HL-6272:   LOGGING UNIT NUMBER
 LUL .             CASPER:   LOGGING UNIT LOCATION
 ENGI.       R. RASMLSSEN:   RECORDING ENGINEER
 WITN.          G. STRONG:   WITNESSED BY
 CLNT.            A2DTECH:   CLIENT CODE
 ORIG.           5" PRINT:   ORIGIN OF DATA
 UWI .       490252250100:   UNIQUE WELL ID
 DICO. A2D Technologies, Inc.:   DIGITIZING COMPANY
~OTHER INFORMATION
~A    DEPT      GRR      RILD       RILM   
# ...
  954.4000   130.7394     9.4362     8.5814
  954.5000   130.6637     9.4359     8.5814
  954.6000   130.4421     9.4357     8.5814
  954.7000   130.4458     9.4355     8.5814
  954.8000   130.2229     9.4353     8.5881
  954.9000   130.1485     9.4351     8.6412
  955.0000   130.0303     9.4348     8.6412
  955.1000   129.7823     9.4346     8.6412
  955.2000   129.5513     9.4344     8.6412
  955.3000   129.5550     9.4342     8.6412
  955.4000   129.5576     9.4340     8.6412
  955.5000   129.3971     9.4338     8.6412
  955.6000   129.2606     9.4335     8.6412
  955.7000   129.2041     9.4333     8.6792
  955.8000   128.9564     9.4331     8.7013
  955.9000   128.6642     9.4329     8.7013
  956.0000   128.4604     9.4327     8.7013
  956.1000   128.2126     9.4325     8.7013
  956.2000   128.0667     9.4322     8.7013
  956.3000   128.0697     9.4291     8.7013
  956.4000   128.0728     9.3665     8.7013
  956.5000   128.3242     9.3663     8.7013
  956.6000   128.7746     9.3661     8.7013
  956.7000   129.2796     9.3659     8.7013
  956.8000   129.7847     9.3656     8.7013
  956.9000   130.2894     9.3654     8.7013
  957.0000   130.8183     9.3652     8.7013
  957.1000   131.2987     9.3650     8.7013
  957.2000   131.8036     9.3648     8.7013
  957.3000   132.4430     9.3646     8.7013
  957.4000   133.0340     9.3644     8.7013
  957.5000   133.3485     9.3642     8.7013
  957.6000   134.1700     9.3639     8.7013
  957.7000   134.4021     9.3637     8.7223
  957.8000   135.0099     9.3635     8.7619
  957.9000   135.7653     9.3914     8.7619
  958.0000   136.3031     9.4283     8.7619
  958.1000   136.2443     9.4281     8.7619
  958.2000   135.4004     9.4279     8.7619
  958.3000   135.1836     9.4277     8.7838
  958.4000   134.6011     9.4274     8.8228
  958.5000   134.0818     9.4272     8.8228
  958.6000   133.7707     9.4270     8.8228
  958.7000   133.2831     9.4268     8.8228
  958.8000   132.9944     9.4265     8.8228
  958.9000   132.7873     9.4263     8.8458
  959.0000   132.6970     9.4261     8.8842
  959.1000   132.7000     9.4568     8.8842
  959.2000   132.7565     9.4914     8.8842
  959.3000   133.0091     9.4912     8.8842
  959.4000   133.0121     9.4909     8.9184
  959.5000   133.2151     9.5447     8.9461
  959.6000   133.6167     9.5567     8.9461
  959.7000   134.1216     9.5891     8.9498
  959.8000   134.6268     9.6228     9.0083
  959.9000   135.1486     9.6336     9.0083
  960.0000   135.3941     9.6894     9.0083
  960.1000   135.6480     9.6892     9.0083
  960.2000   136.0401     9.7345     9.0232
  960.3000   136.3728     9.7910     9.0710
  960.4000   136.3758     9.8241     9.0710
  960.5000   136.3790     9.8364     9.0710
  960.6000   135.9163     9.8921     9.0710
  960.7000   135.5981     9.8918     9.0710
  960.8000   135.2219     9.9395     9.0870
  960.9000   134.5710     9.9603     9.1342
  961.0000   130.6397     9.9856     9.1342
  961.1000  -999.2500    10.0435     9.1342
  961.2000  -999.2500    10.0990     9.1342
  961.3000  -999.2500    10.0987     9.1342
  961.4000  -999.2500    10.0985     9.1342
  961.5000  -999.2500    10.1369     9.1342
  961.6000  -999.2500    10.1684     9.1342
  961.7000  -999.2500    10.1682     9.1342
  961.8000  -999.2500    10.1723     9.1342
  961.9000  -999.2500    10.2386     9.1342
  962.0000  -999.2500    10.2384     9.1342
  962.1000  -999.2500    10.2381     9.1342
  962.2000  -999.2500    10.2379     9.1342
  962.3000  -999.2500    10.2376     9.1842
  962.4000  -999.2500    10.2374     9.1977
  962.5000  -999.2500    10.2372     9.1977
  962.6000  -999.2500    10.2370     9.1977
  962.7000  -999.2500    10.2367     9.2060
  962.8000  -999.2500    10.2365     9.2617
  962.9000  -999.2500    10.2362     9.2617
  963.0000  -999.2500    10.2360     9.2617
  963.1000  -999.2500    10.2357     9.2922
  963.2000  -999.2500    10.2355     9.3262
  963.3000  -999.2500    10.2353     9.3262
  963.4000  -999.2500    10.2351     9.3262
  963.5000  -999.2500    10.2348     9.3262
  963.6000  -999.2500    10.2346     9.3262
  963.7000  -999.2500    10.2343     9.3262
  963.8000  -999.2500    10.2341     9.3471
  963.9000  -999.2500    10.2339     9.3911
  964.0000  -999.2500    10.2337     9.3911
  964.1000  -999.2500    10.2334     9.3911
  964.2000  -999.2500    10.2332     9.3911
  964.3000  -999.2500    10.2329     9.3911
  964.4000  -999.2500    10.2327     9.3911
  964.5000  -999.2500    10.2324     9.3911
  964.6000  -999.2500    10.1977     9.3911
  964.7000  -999.2500    10.1611     9.3911
  964.8000  -999.2500    10.1610     9.3911
  964.9000  -999.2500    10.1607     9.3911
  965.0000  -999.2500    10.0901     9.3911
  965.1000  -999.2500    10.0430     9.3911
  965.2000  -999.2500     9.9846     9.3911
  965.3000  -999.2500     9.9266     9.3911
  965.4000  -999.2500     9.8688     9.3911
  965.5000  -999.2500     9.8114     9.3568
  965.6000  -999.2500     9.7443     9.3262
  965.7000  -999.2500     9.6976     9.3262
  965.8000  -999.2500     9.6764     9.3239
  965.9000  -999.2500     9.6519     9.2617
  966.0000  -999.2500     9.6090     9.2617
  966.1000  -999.2500     9.6063     9.2270
  966.2000  -999.2500     9.5420     9.1977
  966.3000  -999.2500     9.5419     9.1977
  966.4000  -999.2500     9.5416     9.1977
  966.5000  -999.2500     9.5414     9.1977
  966.6000  -999.2500     9.5266     9.1977
  966.7000  -999.2500     9.4749     9.1977
  966.8000  -999.2500     9.4747     9.1977
  966.9000  -999.2500     9.4745     9.1977
  967.0000  -999.2500     9.4371     9.1977
  967.1000  -999.2500     9.4085     9.1977
  967.2000  -999.2500     9.4082     9.2447
  967.3000  -999.2500     9.4131     9.2617
  967.4000  -999.2500     9.4734     9.2879
  967.5000  -999.2500     9.4732     9.3262
  967.6000  -999.2500     9.5117     9.3312
  967.7000  -999.2500     9.5388     9.3911
  967.8000  -999.2500     9.5558     9.3911
  967.9000  -999.2500     9.6117     9.4293
  968.0000  -999.2500     9.6715     9.4841
  968.1000  -999.2500  -999.2500     9.5392
  968.2000  -999.2500  -999.2500     9.5946
  968.3000  -999.2500  -999.2500     9.6553
  968.4000  -999.2500  -999.2500     9.6553
  968.5000  -999.2500  -999.2500     9.6553
  968.6000  -999.2500  -999.2500     9.6845
  968.7000  -999.2500  -999.2500     9.7225
  968.8000  -999.2500  -999.2500     9.7225
  968.9000  -999.2500  -999.2500     9.7225
  969.0000  -999.2500  -999.2500     9.7750
  969.1000  -999.2500  -999.2500     9.7901
  969.2000  -999.2500  -999.2500     9.8206
  969.3000  -999.2500  -999.2500     9.8583
  969.4000  -999.2500  -999.2500     9.8583
  969.5000  -999.2500  -999.2500     9.8583
  969.6000  -999.2500  -999.2500     9.9125
  969.7000  -999.2500  -999.2500     9.9269
  969.8000  -999.2500  -999.2500     9.9269
  969.9000  -999.2500  -999.2500     9.9269
  970.0000  -999.2500  -999.2500     9.9269
