~VERSION INFORMATION
 VERS.                2.0:   CWLS LOG ASCII STANDARD - VERSION 2.0
 WRAP.                 NO:   ONE LINE PER DEPTH STEP
~WELL INFORMATION
#MNEM.UNIT      DATA TYPE    INFORMATION
#----------   ------------   ------------------------------
 STRT.F            0.0000:   START DEPTH
 STOP.F          596.0000:   STOP DEPTH
 STEP.F            0.1000:   STEP LENGTH
 NULL.          -999.2500:   NO VALUE
 COMP. BROWN JOHN E&C INC:   COMPANY
 WELL.    72-5 SX-3 #72-3:   WELL
 FLD .             TEAPOT:   FIELD
 LOC .       S3 T38N R78W:   LOCATION
 CNTY.            NATRONA:   COUNTY
 STAT.            WYOMING:   STATE
 CTRY. UNITED STATES OF AMERICA:   COUNTRY
 SRVC.      Western Atlas:   SERVICE COMPANY
 DATE.        15-APR-1992:   LOGDATE
 API .       490252250900:   API NUMBER
~CURVE INFORMATION
#MNEM.UNIT       API CODE    CURVE DESCRIPTION
#----------   ------------   ------------------------------
 DEPT.F                  :   
 GRR .GAPI   07 310 01 00:   GAMMA RAY
 RILD.OHMM   07 120 46 00:   INDUCTION LOG DEEP RESISTIVITY
 RILM.OHMM   07 120 44 00:   INDUCTION LOG MEDIUM RESISTIVITY
~PARAMETER INFORMATION
#MNEM.UNIT          VALUE    DESCRIPTION
#----------   ------------   ------------------------------
 PD  .                 GL:   PERMANENT DATUM
 EPD .F              5132:   ELEVATION PERMANENT DATUM
 LMF .                 KB:   LOG MEASURED FROM
 DAPD.F                 5:   FEET ABOVE PERMANENT DATUM
 DMF .                 KB:   DRILLING MEASURED FROM
 EKB .F              5137:   KELLING BUSHING
 EDF .F              5136:   DRILLING FLOOR
 EGL .F              5132:   GROUND LEVEL
 DATE.        15-APR-1992:   RUN DATE
 RUN .                  1:   RUN NUMBER
 DD  .F               605:   DEPTH DRILLER
 DL  .F               599:   DEPTH LOGGER
 BLI .F               596:   BOTTOM LOG INTERVAL
 TLI .F                46:   TOP LOG INTERVAL
 CS  .IN            8.625:   CASING SIZE
 CBD .F                48:   CASING BOTTOM DRILLER
 CBL .F                46:   CASING BOTTOM LOGGER
 BS  .IN            7.875:   BIT SIZE
 BSD .F               605:   BIT SIZE AT DEPTH
 DFT .                AIR:   DRILLING FLUID TYPE
 LUN .            HL-6321:   LOGGING UNIT NUMBER
 LUL .        RK. SPRINGS:   LOGGING UNIT LOCATION
 ENGI.            TRIBBLE:   RECORDING ENGINEER
 WITN.             STRONG:   WITNESSED BY
 CLNT.            A2DTECH:   CLIENT CODE
 ORIG.           5" PRINT:   ORIGIN OF DATA
 UWI .       490252250900:   UNIQUE WELL ID
 DICO. A2D Technologies, Inc.:   DIGITIZING COMPANY
~OTHER INFORMATION
~A    DEPT     GRR       RILD       RILM   
# ...
  436.8000    91.0400    15.5470    15.7473
  436.9000    91.2847    15.4586    15.6896
  437.0000    91.5273    15.3636    15.6373
  437.1000    91.5248    15.2835    15.6201
  437.2000    91.5224    15.1967    15.5280
  437.3000    91.5200    15.1497    15.5278
  437.4000    91.5176    15.1298    15.4626
  437.5000    91.5151    15.0438    15.4193
  437.6000    91.5124    15.0436    15.3942
  437.7000    91.5103    15.0434    15.3116
  437.8000    91.5079    15.0432    15.3114
  437.9000    91.5055    15.0430    15.2389
  438.0000    91.4545    15.0428    15.2044
  438.1000    91.1975    15.0425    15.2042
  438.2000    90.9556    15.0423    15.2040
  438.3000    90.8897    15.0421    15.2038
  438.4000    90.7596    15.0419    15.1238
  438.5000    90.5101    15.0417    15.0976
  438.6000    90.2606    15.0415    15.0974
  438.7000    89.9705    15.0413    15.0972
  438.8000    89.5548    15.0411    15.0969
  438.9000    89.0581    15.0409    15.0967
  439.0000    88.6565    15.0407    15.0965
  439.1000    88.4071    15.0404    15.0963
  439.2000    88.1404    15.0402    15.0961
  439.3000    87.9081    15.0400    15.0959
  439.4000    87.8327    15.0398    15.0957
  439.5000    87.9485    15.0396    15.0955
  439.6000    88.1931    15.0394    15.0953
  439.7000    88.4316    15.0392    15.0950
  439.8000    88.4291    15.0390    15.1127
  439.9000    88.4267    15.0936    15.2004
  440.0000    88.5656    15.1440    15.2002
  440.1000    88.7248    15.1438    15.2000
  440.2000    88.7224    15.1436    15.1998
  440.3000    88.7197    15.1434    15.1995
  440.4000    88.4970    15.1432    15.2059
  440.5000    88.4121    15.1430    15.3056
  440.6000    88.3010    15.1654    15.3054
  440.7000    88.0515    15.2487    15.3596
  440.8000    87.7988    15.2485    15.4122
  440.9000    87.5526    15.3181    15.4120
  441.0000    87.4909    15.4053    15.4118
  441.1000    87.4885    15.4625    15.4946
  441.2000    87.4101    15.4522    15.5194
  441.3000    87.1806    15.3543    15.5191
  441.4000    87.1778    15.2772    15.5189
  441.5000    87.1758    15.2470    15.5155
  441.6000    87.1733    15.2100    15.4105
  441.7000    87.0717    15.1235    15.4103
  441.8000    86.8654    15.0348    15.3590
  441.9000    86.8629    15.0346    15.2716
  442.0000    86.6263    15.0343    15.1959
  442.1000    86.3768    15.0341    15.1957
  442.2000    86.1273    15.0339    15.1955
  442.3000    85.8777    15.0337    15.1369
  442.4000    85.6283    15.0335    15.0507
  442.5000    85.3329    15.0333    14.9841
  442.6000    85.1293    15.0331    14.9839
  442.7000    84.8798    15.0329    14.9837
  442.8000    84.7200    15.0327    14.9179
  442.9000    84.7176    15.0324    14.8790
  443.0000    84.7149    15.0322    14.9059
  443.1000    84.7127    15.0320    14.9908
  443.2000    84.8792    15.0698    15.0876
  443.3000    85.1238    15.1370    15.0875
  443.4000    85.4254    15.1368    15.0872
  443.5000    85.9171    15.1366    15.1226
  443.6000    86.4090    15.2015    15.1926
  443.7000    86.9006    15.2423    15.1923
  443.8000    87.3923    15.2677    15.1921
  443.9000    87.8840    15.3545    15.2556
  444.0000    88.3758    15.4562    15.3424
  444.1000    88.9306    15.4560    15.4298
  444.2000    89.3592    15.5631    15.5176
  444.3000    89.6915    15.7068    15.6213
  444.4000    90.0396    15.7960    15.6950
  444.5000    90.4839    15.8932    15.8935
  444.6000    90.7369    16.0600    16.1669
  444.7000    90.9731    16.2435    16.4448
  444.8000    90.6699    16.3859    16.7500
  444.9000    90.0466    16.5225    17.0161
  445.0000    89.3030    16.8059    17.3093
  445.1000    88.5594    16.9980    17.6550
  445.2000    87.6917    17.1922    18.0355
  445.3000    87.0722    17.3349    18.3453
  445.4000    86.3285    17.4646    18.6616
  445.5000    85.4909    17.6721    19.0694
  445.6000    84.5002    18.0207    19.6363
  445.7000    83.4374    18.1964    20.3982
  445.8000    82.5188    18.4701    21.3446
  445.9000    81.5281    18.7448    22.4551
  446.0000    80.1857    18.9767    23.1467
  446.1000    78.5761    19.3238    23.8606
  446.2000    77.3386    19.5302    24.4268
  446.3000    76.1008    19.7533    24.8762
  446.4000    74.8631    20.0884    25.4609
  446.5000    73.6253    20.4912    26.1810
  446.6000    72.3875    20.7269    26.8218
  446.7000    71.1498    21.0836    27.4394
  446.8000    69.7743    21.5433    28.0219
  446.9000    68.8936    21.9678    28.4917
  447.0000    67.7393    22.3450    28.8684
  447.1000    66.5017    22.7027    29.1476
  447.2000    65.0572    22.8487    29.5860
  447.3000    62.7927    23.0757    29.9598
  447.4000    62.3046    23.2542    30.1304
  447.5000    61.9949    23.3864    30.3124
  447.6000    61.8764    23.4952    30.1506
  447.7000    61.9489    23.4948    29.9791
  447.8000    62.1936    23.4945    29.8085
  447.9000    62.4748    23.4942    29.6824
  448.0000    62.4727    23.4284    29.6710
  448.1000    62.6244    23.3299    29.2699
  448.2000    62.7709    23.3253    29.0027
  448.3000    62.7685    23.1667    28.7682
  448.4000    62.7659    23.0611    28.5474
  448.5000    62.7636    22.9301    28.2034
  448.6000    62.9386    22.8443    27.6777
  448.7000    63.0618    22.8144    27.3956
  448.8000    63.1249    22.5266    26.8801
  448.9000    63.3601    22.4134    26.2745
  449.0000    63.3571    22.2861    25.6817
  449.1000    63.5558    22.1062    25.0983
  449.2000    63.8004    21.8317    24.1275
  449.3000    63.9564    21.4497    23.2866
  449.4000    63.9867    21.0994    22.4370
  449.5000    64.2543    20.7427    21.6715
  449.6000    64.6998    20.3918    21.1719
  449.7000    65.1915    20.0464    20.4956
  449.8000    65.7952    19.7012    20.1968
  449.9000    66.7092    19.1790    19.7838
  450.0000    68.2219    18.9170    19.3399
  450.1000    69.7346    18.5973    18.9064
  450.2000    71.2472    18.2777    18.4552
  450.3000    72.7599    17.9644    18.2540
  450.4000    74.2726    17.6262    17.9714
  450.5000    75.7852    17.2367    17.6658
  450.6000    77.2979    16.9076    17.3374
  450.7000    78.8106    16.5729    16.9391
  450.8000    80.2005    16.1985    16.3852
  450.9000    81.1821    15.8321    16.0762
  451.0000    81.6726    15.4736    15.7675
  451.1000    81.9707    15.1159    15.4656
  451.2000    81.9410    14.8644    15.1294
  451.3000    81.7709    14.6744    14.8562
  451.4000    81.7427    14.4207    14.6977
  451.5000    81.4601    14.1429    14.5305
  451.6000    81.4570    13.9816    14.3651
  451.7000    81.4533    13.7996    14.2015
  451.8000    81.5535    13.6651    14.0396
  451.9000    81.7498    13.5095    13.8506
  452.0000    81.7453    13.3556    13.7221
  452.1000    81.9808    13.2033    13.5660
  452.2000    82.4073    13.0467    13.3838
  452.3000    82.7707    12.9043    13.1771
  452.4000    83.0141    12.8108    13.0954
  452.5000    83.2727    12.7374    12.9587
  452.6000    83.8442    12.6643    12.8619
  452.7000    84.2537    12.5917    12.7542
  452.8000    84.7442    12.5077    12.6264
  452.9000    85.2347    12.4478    12.5540
  453.0000    85.7636    12.3764    12.4822
  453.1000    86.5537    12.3327    12.4107
  453.2000    87.4685    12.3322    12.3396
  453.3000    88.2795    12.3316    12.2932
  453.4000    89.0169    12.3311    12.2841
  453.5000    89.7545    12.3306    12.2066
  453.6000    90.4864    12.3301    12.2061
  453.7000    90.9769    12.3296    12.2056
  453.8000    91.4674    12.3291    12.2051
  453.9000    91.8172    12.3284    12.2046
  454.0000    91.9758    12.3280    12.2040
  454.1000    91.9432    12.3275    12.2035
  454.2000    91.6651    12.3270    12.2030
  454.3000    91.4418    12.3265    12.2410
  454.4000    91.0271    12.3259    12.2875
  454.5000    90.5293    12.3254    12.2870
  454.6000    90.0315    12.3249    12.2864
  454.7000    89.5260    12.3244    12.2860
  454.8000    89.0360    12.3239    12.2854
  454.9000    88.7254    12.3234    12.3151
