~VERSION INFORMATION
 VERS.                2.0:   CWLS LOG ASCII STANDARD - VERSION 2.0
 WRAP.                 NO:   ONE LINE PER DEPTH STEP
~WELL INFORMATION
#MNEM.UNIT      DATA TYPE    INFORMATION
#----------   ------------   ------------------------------
 STRT.F            0.0000:   START DEPTH
 STOP.F          774.0000:   STOP DEPTH
 STEP.F            0.5000:   STEP LENGTH
 NULL.          -999.2500:   NO VALUE
 COMP. LAWRENCE/ALLISON INC:   COMPANY
 WELL. SX 11 WP #37-53-11:   WELL
 FLD .             TEAPOT:   FIELD
 LOC .      S11 T38N R78W:   LOCATION
 CNTY.            NATRONA:   COUNTY
 STAT.            WYOMING:   STATE
 CTRY. UNITED STATES OF AMERICA:   COUNTRY
 SRVC.            Unknown:   SERVICE COMPANY
 DATE.        19-SEP-1984:   LOGDATE
 API .       490251098900:   API NUMBER
~CURVE INFORMATION
#MNEM.UNIT       API CODE    CURVE DESCRIPTION
#----------   ------------   ------------------------------
 DEPT.F                  :   
 GRR .GAPI   07 310 01 00:   GAMMA RAY FROM RES. LOG.
 SPR .MV     07 010 01 00:   SPONTANEOUS POTENTIAL
 RFOC.OHMM   07 220 04 00:   RESISTIVITY FOCUSED LOG
 ILD .OHMM   07 120 46 00:   INDUCTION LOG DEEP RESISTIVITY
 RILM.OHMM   07 120 44 00:   INDUCTION LOG MEDIUM RESISTIVITY
 CALD.IN     45 280 60 00:   CALIPER
 DEN .G/C3   45 350 01 00:   COMPENSATED BULK DENSTIY
 CORR.G/C3   45 356 01 00:   DENSITY CORRECTION
 PORD.DEC    45 890 12 00:   POROSITY DENSITY SANDSTONE
 AC  .US/F   60 520 00 00:   ACOUSTIC SONIC
 CNC .DEC    42 890 03 00:   NEUTRON POROSITY SANDSTONE
~PARAMETER INFORMATION
#MNEM.UNIT          VALUE    DESCRIPTION
#----------   ------------   ------------------------------
 PD  .                 GL:   PERMANENT DATUM
 EPD .F              5153:   ELEVATION PERMANENT DATUM
 LMF .                 GL:   LOG MEASURED FROM
 DMF .                 GL:   DRILLING MEASURED FROM
 EGL .F              5153:   GROUND LEVEL
 DATE.       19-SEPT-1984:   RUN DATE
 RUN .                  1:   RUN NUMBER
 DD  .F               785:   DEPTH DRILLER
 DL  .F               774:   DEPTH LOGGER
 BLI .F               772:   BOTTOM LOG INTERVAL
 CS  .IN            8.625:   CASING SIZE
 CBD .F                42:   CASING BOTTOM DRILLER
 CBL .F                41:   CASING BOTTOM LOGGER
 BS  .IN            7.875:   BIT SIZE
 BSD .F               785:   BIT SIZE AT DEPTH
 DFT .          KCL WATER:   DRILLING FLUID TYPE
 MSS .           FLOWLINE:   MUD SAMPLE SOURCE
 RMS .OHMM            .27:   RESISTIVITY MUD SAMPLE
 MST .F                82:   MUD SAMPLE TEMPERATURE
 TCS .HRS               2:   TIME CURCULATED STOPPED
 MRT .F               100:   MAXIMUM RECORDED TEMPERATURE
 LUN .               6274:   LOGGING UNIT NUMBER
 LUL .               GLTE:   LOGGING UNIT LOCATION
 ENGI.         HINDS/MACK:   RECORDING ENGINEER
 WITN.             STRONG:   WITNESSED BY
 CLNT.            A2DTECH:   CLIENT CODE
 ORIG.   1", 2", 5" PRINT:   ORIGIN OF DATA
 UWI .       490251098900:   UNIQUE WELL ID
 DICO. A2D Technologies, Inc.:   DIGITIZING COMPANY
~OTHER INFORMATION
~A    DEPT      GRR       SPR       RFOC        ILD       RILM       CALD        DEN       CORR       PORD         AC        CNC   
# ...
  579.5000    77.4228   -25.3250    12.3051    11.3919    10.9229     8.0567     2.4012     0.0047     0.1653    92.6151     0.2395
  580.0000    76.1136   -25.4963    12.3051    11.2422    10.9228     8.0563     2.4024     0.0050     0.1650    92.6894     0.2449
  580.5000    76.0981   -25.7038    12.3051    11.0946    10.9230     8.0552     2.4039     0.0180     0.1628    92.7639     0.2539
  581.0000    78.4661   -26.1107    12.3051    10.9488    10.9873     8.0541     2.4080     0.0309     0.1602    92.8385     0.2589
  581.5000    80.9364   -26.5216    12.3053    10.8096    11.1926     8.0531     2.4052     0.0303     0.1628    92.9135     0.2560
  582.0000    81.3824   -26.9448    12.3050    10.7029    11.4017     8.0520     2.3954     0.0027     0.1696    92.8344     0.2494
  582.5000    81.3961   -26.9499    12.3058    10.5973    11.5405     8.0509     2.3857    -0.0258     0.1766    92.4745     0.2427
  583.0000    80.9516   -26.8468    12.1751    10.5299    11.5230     8.0499     2.3817    -0.0318     0.1764    92.0930     0.2361
  583.5000    80.1749   -26.7393    12.0628    10.4338    11.5077     8.0488     2.3867    -0.0275     0.1733    91.7106     0.2346
  584.0000    79.4796   -26.6428    11.9518    10.4541    11.4925     8.0477     2.3924    -0.0196     0.1702    91.3271     0.2439
  584.5000    81.3290   -26.8636    11.8526    10.5685    11.4774     8.0467     2.3980    -0.0118     0.1670    90.9459     0.2529
  585.0000    83.8206   -27.1037    11.8051    10.6843    11.4625     8.0456     2.4037    -0.0041     0.1632    91.1353     0.2506
  585.5000    86.0904   -27.3425    11.7573    10.8012    11.4466     8.0445     2.4090    -0.0010     0.1606    91.3331     0.2481
  586.0000    83.9964   -27.5803    11.7096    10.9195    11.3798     8.0435     2.4065    -0.0013     0.1638    91.5266     0.2497
  586.5000    79.2803   -27.8258    11.6622    11.0391    11.1173     8.0424     2.3971    -0.0033     0.1696    91.7436     0.2493
  587.0000    77.8048   -28.2362    11.6149    11.1599    10.8633     8.0413     2.3886    -0.0053     0.1726    91.4754     0.2479
  587.5000    78.6148   -28.6567    11.5679    11.2275    10.6152     8.0403     2.3897    -0.0057     0.1706    90.9916     0.2465
  588.0000    83.1860   -29.0741    11.5210    11.1624    10.3666     8.0392     2.3975     0.0045     0.1608    90.4376     0.2465
  588.5000    90.1307   -29.3848    11.4743    11.1178    10.2443     8.0380     2.4200     0.0147     0.1496    90.2847     0.2521
  589.0000    89.9998   -29.2153    11.4278    11.0725    10.2443     8.0256     2.4404     0.0235     0.1380    90.5694     0.2585
  589.5000    88.4232   -29.0549    11.3815    11.0309    10.5597     7.9869     2.4468     0.0250     0.1384    90.8522     0.2652
  590.0000    86.7788   -28.8953    11.3309    10.8254    10.8607     7.9475     2.4427     0.0088     0.1447    90.6352     0.2652
  590.5000    87.2905   -28.7369    11.4404    10.6072    11.1701     7.9387     2.4334    -0.0069     0.1494    89.5267     0.2521
  591.0000    88.2066   -28.6267    11.5633    10.3933    11.4885     7.9381     2.4283    -0.0176     0.1490    88.3689     0.2407
  591.5000    88.8640   -28.7102    11.8839    10.1838    11.9714     7.9378     2.4305    -0.0159     0.1463    87.3584     0.2346
  592.0000    87.2042   -28.7895    12.6404     9.9665    11.6788     7.9374     2.4352    -0.0145     0.1433    86.9682     0.2383
  592.5000    82.8645   -28.8685    13.4861     9.9665    11.1251     7.9370     2.4400    -0.0030     0.1428    88.2853     0.2396
  593.0000    82.2873   -28.9473    13.0126     9.9656    11.1251     7.9366     2.4368     0.0117     0.1470    89.5235     0.2385
  593.5000    84.2486   -29.0263    12.5323    10.0608    11.5265     7.9361     2.4219     0.0269     0.1565    90.7618     0.2386
  594.0000    86.2627   -29.1051    12.0698    10.1855    12.2737     7.9357     2.4023     0.0204     0.1673    91.5408     0.2437
  594.5000    85.3460   -29.1840    11.8635    10.3129    13.2411     7.9353     2.3859     0.0042     0.1738    91.7182     0.2528
  595.0000    83.6301   -29.2629    11.7271    10.3584    12.8821     7.9349     2.3884    -0.0113     0.1722    91.6049     0.2592
  595.5000    81.9115   -29.3418    11.5922    10.3841    12.2994     7.9344     2.3968    -0.0067     0.1672    91.4915     0.2561
  596.0000    81.5099   -29.4207    11.5054    10.4092    11.7432     7.9340     2.4053    -0.0012     0.1617    91.3782     0.2499
  596.5000    84.0576   -29.5000    11.4485    10.4338    11.2121     7.9336     2.4128     0.0038     0.1580    91.2648     0.2457
  597.0000    86.6073   -29.5772    11.3919    10.3925    10.8864     7.9332     2.4188     0.0015     0.1560    91.1515     0.2472
  597.5000    88.8776   -29.7403    11.3354    10.3521    10.8027     7.9327     2.4248     0.0034     0.1524    91.0437     0.2507
  598.0000    88.1852   -29.9425    11.2794    10.2793    10.7197     7.9323     2.4291     0.0112     0.1491    91.0916     0.2544
  598.5000    86.1579   -29.8506    11.2266    10.1877    10.6374     7.9319     2.4234     0.0033     0.1513    91.1373     0.2543
  599.0000    86.6082   -29.6430    11.3005    10.0975    10.5556     7.9315     2.4181    -0.0067     0.1537    91.1830     0.2525
  599.5000    88.4212   -29.4434    11.3848    10.0081    10.4745     7.9310     2.4159    -0.0167     0.1562    91.2253     0.2472
  600.0000    87.6671   -28.9277    11.4697     9.9195    10.4338     7.9306     2.4116    -0.0268     0.1586    91.4558     0.2414
  600.5000    86.0149   -28.3960    11.5553     9.8737    10.6513     7.9302     2.4068    -0.0313     0.1611    91.8351     0.2392
  601.0000    85.2839   -27.7594    11.6415     9.8733    11.0143     7.9298     2.4043    -0.0285     0.1626    91.7588     0.2438
  601.5000    84.5141   -26.8933    11.7283    10.2255    11.6135     7.9293     2.4059    -0.0169     0.1621    91.6858     0.2491
  602.0000    83.7402   -26.0286    11.8818    10.7665    12.3051     7.9289     2.4081    -0.0052     0.1606    91.8640     0.2509
  602.5000    82.6187   -25.1652    12.0816    11.4418    12.9205     7.9285     2.4074     0.0071     0.1608    92.6254     0.2527
  603.0000    81.1547   -24.3019    12.7485    12.5040    13.8891     7.9281     2.3973     0.0054     0.1646    94.2071     0.2545
  603.5000    79.7041   -23.4391    13.8434    13.6646    15.3419     7.9276     2.3795     0.0000     0.1759    95.9196     0.2562
  604.0000    76.4996   -22.5759    15.3696    14.9334    16.9466     7.9272     2.3363     0.0067     0.1933    98.1600     0.2580
  604.5000    71.7248   -21.6998    17.0641    16.3207    17.9171     7.9268     2.2927     0.0107     0.2272   100.5698     0.2597
  605.0000    66.9138   -20.6295    19.1042    17.8269    17.1461     7.9264     2.2750     0.0061     0.2404   101.3643     0.2669
  605.5000    65.4080   -19.4678    19.8176    19.3727    16.4844     7.9260     2.2702     0.0017     0.2441   101.0869     0.2779
  606.0000    65.8064   -18.3123    19.0546    20.1503    16.0512     7.9255     2.2700    -0.0030     0.2422   100.4871     0.2799
  606.5000    68.2601   -17.2879    18.4969    20.9592    16.8999     7.9251     2.2801    -0.0025     0.2357    98.4170     0.2758
  607.0000    70.5359   -16.7511    17.9171    21.5214    18.7153     7.9247     2.2976    -0.0006     0.2272    95.2477     0.2577
  607.5000    71.6799   -16.1704    17.5917    21.3908    20.7257     7.9243     2.3247     0.0040     0.2147    90.2487     0.2397
  608.0000    72.8709   -16.5036    19.6856    21.2509    23.5870     7.9238     2.3544     0.0095     0.1897    85.2227     0.2207
  608.5000    74.0625   -16.8969    23.4142    21.1120    23.0195     7.9234     2.3979     0.0150     0.1648    82.0974     0.2119
  609.0000    75.0779   -17.2861    25.8507    20.9378    20.5480     7.9230     2.4438     0.0205     0.1418    83.4617     0.2123
  609.5000    75.0691   -17.7393    25.8507    21.0087    18.3419     7.9226     2.4447     0.0260     0.1399    85.2783     0.2304
