~VERSION INFORMATION
 VERS.                2.0:   CWLS LOG ASCII STANDARD - VERSION 2.0
 WRAP.                 NO:   ONE LINE PER DEPTH STEP
~WELL INFORMATION
#MNEM.UNIT      DATA TYPE    INFORMATION
#----------   ------------   ------------------------------
 STRT.F           28.0000:   START DEPTH
 STOP.F          563.0000:   STOP DEPTH
 STEP.F            0.1000:   STEP LENGTH
 NULL.          -999.2500:   NO VALUE
 COMP.       F D SERV INC:   COMPANY
 WELL.    SX-3 62-4 #62-3:   WELL
 FLD .          N.P.R. #3:   FIELD
 LOC .       S3 T38N R78W:   LOCATION
 CNTY.            NATRONA:   COUNTY
 STAT.            WYOMING:   STATE
 CTRY. UNITED STATES OF AMERICA:   COUNTRY
 SRVC.     Atlas Wireline:   SERVICE COMPANY
 DATE.        03-MAY-1992:   LOGDATE
 API .       490252252100:   API NUMBER
~CURVE INFORMATION
#MNEM.UNIT       API CODE    CURVE DESCRIPTION
#----------   ------------   ------------------------------
 DEPT.F                  :   
 RILD.OHMM   07 120 46 00:   INDUCTION LOG DEEP RESISTIVITY
 RILM.OHMM   07 120 44 00:   INDUCTION LOG MEDIUM RESISTIVITY
 CALD.IN     45 280 60 00:   CALIPER FROM DENSITY LOG
 CORR.G/C3   45 356 01 00:   DENSITY CORRECTION
 DEN .G/C3   45 350 01 00:   COMPENSATED BULK DENSTIY
 GRD .GAPI   45 310 01 00:   GAMMA RAY FROM DENSITY LOG
 PORD.DEC    45 890 12 00:   POROSITY DENSITY SANDSTONE
~PARAMETER INFORMATION
#MNEM.UNIT          VALUE    DESCRIPTION
#----------   ------------   ------------------------------
 PD  .                 GL:   PERMANENT DATUM
 EPD .F              5156:   ELEVATION PERMANENT DATUM
 LMF .                 KB:   LOG MEASURED FROM
 DAPD.F                 5:   FEET ABOVE PERMANENT DATUM
 DMF .                 KB:   DRILLING MEASURED FROM
 EKB .F              5161:   KELLING BUSHING
 EGL .F              5156:   GROUND LEVEL
 DATE.        03-MAY-1992:   RUN DATE
 RUN .                  1:   RUN NUMBER
 DD  .F               565:   DEPTH DRILLER
 DL  .F               566:   DEPTH LOGGER
 BLI .F               564:   BOTTOM LOG INTERVAL
 TLI .F                50:   TOP LOG INTERVAL
 CS  .IN            8.625:   CASING SIZE
 CBD .F                49:   CASING BOTTOM DRILLER
 CBL .F                50:   CASING BOTTOM LOGGER
 BS  .IN            7.875:   BIT SIZE
 BSD .F               565:   BIT SIZE AT DEPTH
 DFT .        AIR DRILLED:   DRILLING FLUID TYPE
 LUN .             HL 632:   LOGGING UNIT NUMBER
 LUL .           RK. SPGS:   LOGGING UNIT LOCATION
 ENGI.               RALL:   RECORDING ENGINEER
 WITN.             STRONG:   WITNESSED BY
 CLNT.            A2DTECH:   CLIENT CODE
 ORIG.           5" PRINT:   ORIGIN OF DATA
 UWI .       490252252100:   UNIQUE WELL ID
 DICO. A2D Technologies, Inc.:   DIGITIZING COMPANY
~OTHER INFORMATION
~A   DEPT     RILD       RILM       CALD       CORR        DEN        GRD       PORD   
# ...
  446.6000    15.2818    15.9555     8.2768     0.0089     2.4100   134.7205     0.1466
  446.7000    15.2812    16.0487     8.2766     0.0064     2.4117   134.7181     0.1451
  446.8000    15.3001    16.0478     8.2765     0.0035     2.4131   134.7157     0.1433
  446.9000    15.3863    16.1215     8.2763     0.0000     2.4144   134.7129     0.1422
  447.0000    15.3855    16.1577     8.2761    -0.0014     2.4155   134.7108     0.1417
  447.1000    15.3850    16.1956     8.2759    -0.0026     2.4161   134.5534     0.1412
  447.2000    15.3843    16.2683     8.2757    -0.0038     2.4153   134.4048     0.1409
  447.3000    15.3837    16.2674     8.2755    -0.0051     2.4142   134.3077     0.1405
  447.4000    15.3830    16.2664     8.2754    -0.0063     2.4125   133.7975     0.1403
  447.5000    15.3877    16.2656     8.2752    -0.0075     2.4100   133.3132     0.1409
  447.6000    15.4887    16.2647     8.2750    -0.0075     2.4070   132.8160     0.1422
  447.7000    15.4882    16.2638     8.2748    -0.0075     2.4044   132.5855     0.1435
  447.8000    15.4875    16.2629     8.2746    -0.0075     2.4010   132.5831     0.1460
  447.9000    15.4869    16.2620     8.2745    -0.0075     2.3964   132.5807     0.1490
  448.0000    15.4862    16.2610     8.2705    -0.0075     2.3922   132.5780     0.1519
  448.1000    15.4856    16.1780     8.2591    -0.0075     2.3891   132.5759     0.1545
  448.2000    15.4849    16.1469     8.2589    -0.0075     2.3868   132.4081     0.1566
  448.3000    15.5656    16.1460     8.2587    -0.0075     2.3849   132.2699     0.1584
  448.4000    15.5914    16.1730     8.2585    -0.0075     2.3829   132.2675     0.1605
  448.5000    15.5908    16.2567     8.2583    -0.0075     2.3805   132.2650     0.1633
  448.6000    15.5901    16.2556     8.2582    -0.0075     2.3789   132.2626     0.1652
  448.7000    15.5895    16.2548     8.2580    -0.0075     2.3773   132.2602     0.1664
  448.8000    15.5888    16.2539     8.2578    -0.0075     2.3727   132.2578     0.1672
  448.9000    15.5882    16.2530     8.2576    -0.0075     2.3701   132.2554     0.1680
  449.0000    15.5875    16.2521     8.2574    -0.0075     2.3683   132.2530     0.1690
  449.1000    15.5869    16.2512     8.2573    -0.0075     2.3673   132.2504     0.1700
  449.2000    15.5862    16.2503     8.2571    -0.0075     2.3664   132.2482     0.1706
  449.3000    15.5856    16.2494     8.2569    -0.0075     2.3653   132.2458     0.1708
  449.4000    15.5849    16.2485     8.2567    -0.0075     2.3648   132.2434     0.1709
  449.5000    15.5843    16.2476     8.2565    -0.0063     2.3648   132.3093     0.1711
  449.6000    15.5836    16.2820     8.2564    -0.0060     2.3669   132.5399     0.1711
  449.7000    15.5830    16.3590     8.2562    -0.0053     2.3694   132.5370     0.1709
  449.8000    15.5823    16.3397     8.2560    -0.0035     2.3718   132.7430     0.1704
  449.9000    15.5817    16.2914     8.2559    -0.0015     2.3746   133.4505     0.1695
  450.0000    15.5810    16.2431     8.2576    -0.0015     2.3783   134.4378     0.1681
  450.1000    15.5803    16.2420     8.2591     0.0000     2.3808   135.3783     0.1670
  450.2000    15.5795    16.1638     8.2606     0.0037     2.3823   136.1397     0.1658
  450.3000    15.5786    16.1281     8.2621     0.0092     2.3832   136.1373     0.1641
  450.4000    15.5777    16.0847     8.2636     0.0105     2.3840   136.5076     0.1624
  450.5000    15.5768    16.0149     8.2651     0.0105     2.3851   136.7350     0.1610
  450.6000    15.5759    16.0060     8.2666     0.0105     2.3858   136.7325     0.1602
  450.7000    15.5750    15.9024     8.2681     0.0105     2.3858   136.7301     0.1597
  450.8000    15.5741    15.9016     8.2695     0.0105     2.3862   136.7274     0.1592
  450.9000    15.5111    15.8339     8.2710     0.0094     2.3868   136.5068     0.1589
  451.0000    15.4648    15.7404     8.2725     0.0090     2.3873   136.0923     0.1586
  451.1000    15.4359    15.6799     8.2740     0.0090     2.3873   135.7060     0.1584
  451.2000    15.3562    15.6790     8.2755     0.0090     2.3880   135.5703     0.1584
  451.3000    15.3553    15.6781     8.2770     0.0090     2.3880   135.8121     0.1582
  451.4000    15.2709    15.5688     8.2785     0.0090     2.3884   135.8096     0.1579
  451.5000    15.2475    15.4949     8.2800     0.0089     2.3888   136.0040     0.1578
  451.6000    15.1969    15.4596     8.2815     0.0082     2.3889   136.1060     0.1578
  451.7000    15.1404    15.4191     8.2829     0.0070     2.3895   136.1036     0.1578
  451.8000    15.1396    15.3511     8.2835     0.0057     2.3907   136.1012     0.1572
  451.9000    15.1388    15.3437     8.2834     0.0044     2.3915   136.0986     0.1570
  452.0000    15.0331    15.2432     8.2819     0.0044     2.3918   136.3253     0.1567
  452.1000    15.0325    15.2424     8.2681     0.0035     2.3920   136.3952     0.1565
  452.2000    15.0316    15.2416     8.2680     0.0029     2.3926   136.5141     0.1563
  452.3000    15.0308    15.2407     8.2679     0.0025     2.3933   136.6916     0.1560
  452.4000    15.0300    15.2096     8.2678     0.0013     2.3938   136.7165     0.1555
  452.5000    15.0291    15.1337     8.2677    -0.0002     2.3940   137.2888     0.1552
  452.6000    15.0282    15.1329     8.2675    -0.0002     2.3943   137.2867     0.1550
  452.7000    15.0275    15.0459     8.2674    -0.0009     2.3948   137.5912     0.1546
  452.8000    15.0266    15.0266     8.2673    -0.0017     2.3947   137.9839     0.1542
  452.9000    15.0258    14.9723     8.2672    -0.0017     2.3947   138.2289     0.1542
  453.0000    15.0250    14.9211     8.2671    -0.0017     2.3947   138.4818     0.1540
  453.1000    15.0241    14.9203     8.2669    -0.0017     2.3947   138.4795     0.1537
  453.2000    15.0232    14.9142     8.2668    -0.0017     2.3947   138.8482     0.1535
  453.3000    14.9408    14.8154     8.2667    -0.0017     2.3948   139.2088     0.1533
  453.4000    14.9178    14.8147     8.2666    -0.0017     2.3955   139.4538     0.1533
  453.5000    14.8685    14.8139     8.2665    -0.0017     2.3961   139.7229     0.1530
  453.6000    14.8130    14.8130     8.2663    -0.0017     2.3967   140.2744     0.1528
  453.7000    14.7965    14.8122     8.2662    -0.0006     2.3973   140.4900     0.1525
  453.8000    14.7090    14.8114     8.2661    -0.0002     2.3981   140.5711     0.1523
  453.9000    14.7081    14.8106     8.2660     0.0003     2.3993   140.4586     0.1520
  454.0000    14.7074    14.8098     8.2659     0.0015     2.4007   140.2651     0.1518
  454.1000    14.7066    14.8089     8.2657     0.0028     2.4024   140.2626     0.1515
  454.2000    14.7058    14.8081     8.2681     0.0028     2.4038   140.2603     0.1511
  454.3000    14.7050    14.8433     8.2805     0.0037     2.4053   139.6698     0.1506
  454.4000    14.7041    14.9095     8.2804     0.0043     2.4073   138.9253     0.1500
  454.5000    14.7032    14.9087     8.2803     0.0042     2.4098   138.2691     0.1491
  454.6000    14.7025    14.9078     8.2802     0.0044     2.4128   137.8410     0.1470
  454.7000    14.7017    14.9070     8.2801     0.0057     2.4148   137.8384     0.1446
  454.8000    14.7009    14.9660     8.2799     0.0069     2.4169   136.6957     0.1420
  454.9000    14.7001    15.0091     8.2798     0.0081     2.4187   136.3277     0.1402
  455.0000    14.6992    15.0361     8.2797     0.0087     2.4205   136.3253     0.1392
  455.1000    14.6984    15.1120     8.2796     0.0091     2.4218   136.3229     0.1382
  455.2000    14.6976    15.1110     8.2795     0.0102     2.4229   136.3205     0.1371
  455.3000    14.6968    15.1946     8.2793     0.0102     2.4233   136.3177     0.1367
  455.4000    14.7439    15.2145     8.2792     0.0102     2.4229   136.3157     0.1363
  455.5000    14.7974    15.2137     8.2791     0.0102     2.4223   136.1606     0.1363
  455.6000    14.7966    15.2129     8.2790     0.0102     2.4217   135.9108     0.1366
