~VERSION INFORMATION
 VERS.                2.0:   CWLS LOG ASCII STANDARD - VERSION 2.0
 WRAP.                 NO:   ONE LINE PER DEPTH STEP
~WELL INFORMATION
#MNEM.UNIT      DATA TYPE    INFORMATION
#----------   ------------   ------------------------------
 STRT.F           24.0000:   START DEPTH
 STOP.F          472.0000:   STOP DEPTH
 STEP.F            0.5000:   STEP LENGTH
 NULL.          -999.2500:   NO VALUE
 COMP. FENIX & SCISSON INC:   COMPANY
 WELL. 55-66 SX-3-FP #55-3:   WELL
 FLD .             WLDCAT:   FIELD
 LOC .       S3 T38N R78W:   LOCATION
 CNTY.            NATRONA:   COUNTY
 STAT.            WYOMING:   STATE
 CTRY. UNITED STATES OF AMERICA:   COUNTRY
 SRVC.              Welex:   SERVICE COMPANY
 DATE.        11-JUN-1980:   LOGDATE
 API .       490251082200:   API NUMBER
~CURVE INFORMATION
#MNEM.UNIT       API CODE    CURVE DESCRIPTION
#----------   ------------   ------------------------------
 DEPT.F                  :   
 SPR .MV     07 010 01 00:   SPONTANEOUS POTENTIAL
 GURD.OHMM   07 220 05 00:   GUARD RESISTIVITY
 ILD .OHMM   07 120 46 00:   INDUCTION LOG DEEP RESISTIVITY
 ILM .OHMM   07 120 44 00:   INDUCTION LOG MEDIUM
 DPHI.DEC    45 890 12 00:   DENSITY POROSITY SANDSTONE
 NPHI.DEC    42 890 03 00:   NEUTRON POROSITY SANDSTONE
 CORR.G/C3   45 356 01 00:   DENSITY CORRECTION
 RHOB.G/C3   45 350 01 00:   BULK DENSITY
 CALD.IN     45 280 60 00:   CALIPER
 GRD .GAPI   45 310 01 00:   GAMMA RAY FROM DENSITY LOG
~PARAMETER INFORMATION
#MNEM.UNIT          VALUE    DESCRIPTION
#----------   ------------   ------------------------------
 PD  .                 GL:   PERMANENT DATUM
 EPD .F              5169:   ELEVATION PERMANENT DATUM
 LMF .                 KB:   LOG MEASURED FROM
 DAPD.F                 5:   FEET ABOVE PERMANENT DATUM
 DMF .                 KB:   DRILLING MEASURED FROM
 EKB .F              5174:   KELLING BUSHING
 EGL .F              5169:   GROUND LEVEL
 DATE.            6-11-80:   RUN DATE
 RUN .                  1:   RUN NUMBER
 DD  .F               472:   DEPTH DRILLER
 DL  .F               472:   DEPTH LOGGER
 BLI .F               470:   BOTTOM LOG INTERVAL
 TLI .F                30:   TOP LOG INTERVAL
 BS  .IN            9.875:   BIT SIZE
 BSD .F               472:   BIT SIZE AT DEPTH
 DFT .                KCL:   DRILLING FLUID TYPE
 DFD .                9.5:   DRILLING FLUID DENSITY
 DFV .                 47:   DRILLING FLUID VISCOSITY
 DFPH.                 12:   DRILLING FLUID PH
 DFL .                7.2:   DRILLING FLUID LOSS
 MSS .           MUD TANK:   MUD SAMPLE SOURCE
 RMS .OHMM            .26:   RESISTIVITY MUD SAMPLE
 MST .F                75:   MUD SAMPLE TEMPERATURE
 RMF .OHMM            .21:   RESISTIVITY MUD FILTRATE SAMPLE
 MFST.F                75:   MUD FILTRATE SAMPLE TEMPERATURE
 RMC .OHMM            .31:   RESISTIVITY MUD CAKE
 MCST.F                75:   MUD CAKE SAMPLE TEMPERATURE
 MFSS.           MEASURED:   MUD FILTRATE SAMPLE SOURCE
 MCSS.           MEASURED:   MUD CAKE SAMPLE SOURCE
 RMB .OHMM            .26:   RESISTIVITY MUD AT BHT
 BHT .F                75:   BOTTOM HOLE TEMPERATURE
 TCS .HRS             1.5:   TIME CURCULATED STOPPED
 MRT .F                75:   MAXIMUM RECORDED TEMPERATURE
 LUN .               9685:   LOGGING UNIT NUMBER
 LUL .             CASPER:   LOGGING UNIT LOCATION
 ENGI.               REIN:   RECORDING ENGINEER
 WITN.          DINSMOORE:   WITNESSED BY
 CLNT.            A2DTECH:   CLIENT CODE
 ORIG.           5" PRINT:   ORIGIN OF DATA
 UWI .       490251082200:   UNIQUE WELL ID
 DICO. A2D Technologies, Inc.:   DIGITIZING COMPANY
~OTHER INFORMATION
~A   DEPT      SPR       GURD        ILD        ILM         DPHI       NPHI     CORR       RHOB        CALD       GRD   
# ...
  426.0000   -47.9526    10.1729     6.1095     7.7349     0.1183     0.2986     0.0433     2.4435    10.0503   102.7900
  426.5000   -48.0740     9.6630     5.7340     7.2405     0.1020     0.2986     0.0404     2.4385    10.0500   101.9919
  427.0000   -48.0091     8.7682     5.3816     6.6440     0.0975     0.2986     0.0754     2.4778    10.0497   100.8361
  427.5000   -47.8710     7.1134     5.1241     6.0624     0.0954     0.2975     0.0713     2.4879    10.0494    99.6889
  428.0000   -47.7304     5.8825     5.0571     5.4117     0.0883     0.2934     0.0880     2.4982    10.0491    99.7113
  428.5000   -47.5897     6.6771     4.9846     5.9325     0.0884     0.2887     0.1035     2.5021    10.0488   100.9723
  429.0000   -47.4492     8.0758     4.9946     6.9799     0.0987     0.2848     0.0967     2.4902    10.0485   100.1827
  429.5000   -47.3088    10.4067     5.0603     7.7473     0.1014     0.2861     0.0819     2.4778    10.0482    98.0258
  430.0000   -47.1683    10.7664     5.2522     8.2388     0.0935     0.2894     0.0717     2.4725    10.0479    97.3871
  430.5000   -47.0279    11.1603     5.5901     8.6097     0.0958     0.2911     0.0729     2.4846    10.0476    97.4538
  431.0000   -46.8874    11.5394     5.9498     8.9889     0.0982     0.2887     0.0527     2.4833    10.0473    97.6367
  431.5000   -46.7469    11.7294     6.3326     9.3867     0.1006     0.2880     0.0611     2.4795    10.0471    97.8145
  432.0000   -46.6065    11.9225     6.7401     9.6832     0.1027     0.2892     0.0573     2.4750    10.0468    97.9998
  432.5000   -46.4660    12.0573     7.1738     9.8122     0.0792     0.2877     0.0747     2.4907    10.0465    98.6561
  433.0000   -46.3255    11.8549     7.6815     9.9429     0.0783     0.2822     0.1054     2.5124    10.0462   100.5523
  433.5000   -46.1851    11.6755     7.7975    10.0754     0.0838     0.2766     0.1057     2.5219    10.0459   102.9093
  434.0000   -46.0446    11.5152     7.9657    10.2097     0.0876     0.2711     0.0760     2.5077    10.0456   105.9786
  434.5000   -45.9041    11.9137     8.1374    10.3458     0.0702     0.2648     0.0904     2.5041    10.0453   109.0380
  435.0000   -45.7637    12.5268     8.3129    10.4839     0.0702     0.2556     0.1094     2.5392    10.0450   112.0987
  435.5000   -45.6232    12.8622     8.4918    10.6249     0.0826     0.2487     0.1074     2.5215    10.0447   115.1359
  436.0000   -45.4827    12.2812     8.6776    10.6970     0.0896     0.2428     0.0849     2.4974    10.0444   118.3509
  436.5000   -45.3423    13.2151     8.8919    10.4843     0.0878     0.2375     0.0742     2.4970    10.0441   125.8891
  437.0000   -45.2017    13.3415     9.0585    10.4067     0.0842     0.2494     0.0876     2.5046    10.0438   133.8380
  437.5000   -45.0607    12.7416     9.2226    10.5951     0.0809     0.2641     0.0932     2.5123    10.0435   144.1895
  438.0000   -44.9235    13.3162     9.4050    10.8897     0.0878     0.2789     0.0939     2.5188    10.0432   157.5079
  438.5000   -44.8831    13.8953     9.4156    11.1928     0.0942     0.2887     0.0739     2.4996    10.0429   180.3083
  439.0000   -44.8469    14.2318     9.4322    11.5045     0.0966     0.2909     0.0564     2.4830    10.0426   203.8219
  439.5000   -44.8103    14.1311     9.4487    11.8242     0.0923     0.2951     0.0565     2.4787    10.0423   227.4577
  440.0000   -44.7734    14.0141     9.4653    12.0573     0.0857     0.2966     0.0691     2.4914    10.0420   234.7115
  440.5000   -44.7374    13.9697     9.4812    12.1918     0.0790  -999.2500     0.0860     2.5077    10.0417   160.1982
  441.0000   -44.6288    14.2969     9.5534    12.3581     0.0765  -999.2500     0.1034     2.5245    10.0414   124.2940
  441.5000   -44.4693    14.5719     9.7047    12.5267     0.0850  -999.2500     0.1065     2.5293    10.0412   108.8008
  442.0000   -44.3093    14.6274     9.8585    12.6976     0.0888  -999.2500     0.0916     2.4962    10.0409    95.1528
  442.5000   -44.1491    14.2324    10.0147    12.8708     0.0867  -999.2500     0.0797     2.4862    10.0406    88.9461
  443.0000   -43.9890    13.9697    10.1733    12.9783     0.0837  -999.2500     0.0924     2.5082    10.0403    82.5439
  443.5000   -43.8308    14.8639    10.3345    12.6533     0.0860  -999.2500     0.0935     2.5090    10.0400    81.4394
  444.0000   -43.7300    15.9003    10.5042    12.4225     0.0911  -999.2500     0.0883     2.5013    10.0397    81.2326
  444.5000   -43.7516    15.5987    10.4247    12.2798     0.1005  -999.2500     0.0837     2.4836    10.0394    81.0423
  445.0000   -43.7707    15.3485    10.3225    12.4498     0.1107  -999.2500     0.0586     2.4647    10.0391    81.4096
  445.5000   -43.7902    15.1034    10.2216    12.6752     0.1128  -999.2500     0.0462     2.4536    10.0388    82.7119
  446.0000   -43.8097    14.8523    10.1219    12.9041     0.1007  -999.2500     0.0680     2.4727    10.0385    83.9651
  446.5000   -43.8292    14.5421    10.0232    13.1370     0.0892  -999.2500     0.0955     2.5025    10.0382    84.8315
  447.0000   -43.8486    14.0988     9.9255    13.3438     0.0778  -999.2500     0.1126     2.5119    10.0379    85.0825
  447.5000   -43.8681    14.1896     9.8287    13.3440     0.0707  -999.2500     0.1156     2.5380    10.0376    85.4651
  448.0000   -43.8880    14.3613     9.7329    13.3364     0.0824  -999.2500     0.1040     2.5217    10.0373    86.3854
  448.5000   -43.9092    14.5352     9.6682    13.4711     0.0960  -999.2500     0.0866     2.4933    10.0370    87.2981
  449.0000   -43.9221    14.7626     9.6816    13.2384     0.1009  -999.2500     0.0846     2.4785    10.0367    88.0861
  449.5000   -43.4104    14.6828     9.6936    13.0370     0.0984  -999.2500     0.0858     2.4805    10.0390    87.9765
  450.0000   -43.1717    14.5712     9.7056    12.8392     0.0940  -999.2500     0.1094     2.4922    10.0428    87.8773
  450.5000   -43.5243    14.4605     9.7176    12.6449     0.0911  -999.2500     0.1057     2.4992    10.0468    87.8715
  451.0000   -43.8848    14.3606     9.7297    12.4534     0.0961  -999.2500     0.0870     2.4942    10.0507  -999.2500
  451.5000   -43.9352    14.1098     9.7417    12.2649     0.0976  -999.2500     0.0716     2.4929    10.0547  -999.2500
  452.0000   -43.5719    13.9385     9.7537    12.0933     0.0926  -999.2500     0.0818     2.4977    10.0586  -999.2500
  452.5000   -43.1787    13.7694     9.7576    11.8303     0.0885  -999.2500     0.0800     2.5022    10.0625  -999.2500
  453.0000   -43.2624    13.2970     9.5457    11.5731     0.0864  -999.2500     0.0690     2.5082    10.0664  -999.2500
  453.5000   -43.8655    12.7416     9.3831    11.3212     0.0873  -999.2500     0.0843     2.5141    10.0704  -999.2500
  454.0000   -44.4540    12.6250     9.2233    11.0751     0.0918  -999.2500     0.0918     2.4973    10.0744  -999.2500
  454.5000   -44.1815    12.8818     9.0663    10.8956     0.0986  -999.2500     0.0592     2.4854    10.0732  -999.2500
  455.0000   -43.7799    12.9783     8.9176    10.8967     0.0905  -999.2500     0.0867     2.5124    10.0707  -999.2500
  455.5000   -43.9430    12.5165     8.7778    10.8967     0.0848  -999.2500     0.0897     2.5104    10.0682  -999.2500
  456.0000   -44.2700    12.2812     8.6403    10.8967     0.0805  -999.2500     0.0714     2.5165    10.0657  -999.2500
  456.5000   -44.6035    12.5854     8.5049    10.6658     0.0793  -999.2500     0.0805     2.5245    10.0632  -999.2500
  457.0000   -44.6514    12.6250     8.3717    10.5126     0.0789  -999.2500     0.0846     2.5174    10.0608  -999.2500
  457.5000   -44.3127    12.2159     8.2405    10.3617     0.0817  -999.2500     0.0749     2.5055    10.0583  -999.2500
  458.0000   -43.9783    11.9394     8.1925    10.2170     0.0869  -999.2500     0.0634     2.4934    10.0559  -999.2500
  458.5000   -43.9627    11.7290     8.2219    10.2170     0.0945  -999.2500     0.0622     2.4812    10.0541  -999.2500
  459.0000   -44.1655    11.6295     8.2691    10.2703     0.0996  -999.2500     0.0614     2.4797    10.0517  -999.2500
