~VERSION INFORMATION
 VERS.                2.0:   CWLS LOG ASCII STANDARD - VERSION 2.0
 WRAP.                 NO:   ONE LINE PER DEPTH STEP
~WELL INFORMATION
#MNEM.UNIT      DATA TYPE    INFORMATION
#----------   ------------   ------------------------------
 STRT.F           40.0000:   START DEPTH
 STOP.F          950.5000:   STOP DEPTH
 STEP.F            0.5000:   STEP LENGTH
 NULL.          -999.2500:   NO VALUE
 COMP. FENIX & SCISSON INC:   COMPANY
 WELL.       NPR 3 #44-14:   WELL
 FLD .             TEAPOT:   FIELD
 LOC .      S14 T38N R78W:   LOCATION
 CNTY.            NATRONA:   COUNTY
 STAT.            WYOMING:   STATE
 CTRY. UNITED STATES OF AMERICA:   COUNTRY
 SRVC.            Unknown:   SERVICE COMPANY
 DATE.        05-JAN-1979:   LOGDATE
 API .       490251076100:   API NUMBER
~CURVE INFORMATION
#MNEM.UNIT       API CODE    CURVE DESCRIPTION
#----------   ------------   ------------------------------
 DEPT.F                  :   
 SPR .MV     05 010 01 00:   SPONTANEOUS POTENTIAL FROM RES.
 SN  .OHMM   05 040 16 00:   SHORT NORMAL 16"
 IL  .OHMM   05 120 00 00:   INDUCTION LOG
 CALD.IN     45 280 60 00:   CALIPER
 GRD .GAPI   45 310 01 00:   GAMMA RAY FROM DENSITY LOG
 RHOB.G/C3   45 350 01 00:   BULK DENSITY
 DPHI.DEC    45 890 12 00:   DENSITY POROSITY SANDSTONE
 CORR.G/C3   45 356 01 00:   DENSITY CORRECTION
~PARAMETER INFORMATION
#MNEM.UNIT          VALUE    DESCRIPTION
#----------   ------------   ------------------------------
 PD  .                 GL:   PERMANENT DATUM
 EPD .F              5266:   ELEVATION PERMANENT DATUM
 LMF .                 KB:   LOG MEASURED FROM
 DAPD.F                 4:   FEET ABOVE PERMANENT DATUM
 DMF .                 KB:   DRILLING MEASURED FROM
 EKB .F              5270:   KELLING BUSHING
 EGL .F              5266:   GROUND LEVEL
 DATE.             1-5-79:   RUN DATE
 RUN .                  1:   RUN NUMBER
 DD  .F               950:   DEPTH DRILLER
 DL  .F               943:   DEPTH LOGGER
 BLI .F               937:   BOTTOM LOG INTERVAL
 TLI .F                40:   TOP LOG INTERVAL
 CS  .IN            8.625:   CASING SIZE
 CBL .F                40:   CASING BOTTOM LOGGER
 BS  .IN            7.875:   BIT SIZE
 BSD .F               950:   BIT SIZE AT DEPTH
 DFT .                KCL:   DRILLING FLUID TYPE
 DFV .                 42:   DRILLING FLUID VISCOSITY
 DFL .               10.5:   DRILLING FLUID LOSS
 MSS .           FLOWLINE:   MUD SAMPLE SOURCE
 RMS .OHMM            .23:   RESISTIVITY MUD SAMPLE
 RMF .OHMM            .23:   RESISTIVITY MUD FILTRATE SAMPLE
 RMC .OHMM             .2:   RESISTIVITY MUD CAKE
 MFSS.           MEASURED:   MUD FILTRATE SAMPLE SOURCE
 MCSS.           MEASURED:   MUD CAKE SAMPLE SOURCE
 RMB .OHMM             .2:   RESISTIVITY MUD AT BHT
 BHT .F                70:   BOTTOM HOLE TEMPERATURE
 TCS .HRS               5:   TIME CURCULATED STOPPED
 MRT .F                70:   MAXIMUM RECORDED TEMPERATURE
 LUL .             CASPER:   LOGGING UNIT LOCATION
 ENGI.             MILLER:   RECORDING ENGINEER
 WITN.           DINSMORE:   WITNESSED BY
 CLNT.            A2DTECH:   CLIENT CODE
 ORIG.           5" PRINT:   ORIGIN OF DATA
 UWI .       490251076100:   UNIQUE WELL ID
 DICO. A2D Technologies, Inc.:   DIGITIZING COMPANY
~OTHER INFORMATION
~A   DEPT      SPR           SN         IL     CALD        GRD       RHOB       DPHI       CORR   
# ...
  647.5000   -36.9780     5.2520     5.0650     7.9480   102.6710     2.4280     0.1620     0.0110
  648.0000   -36.6990     5.0710     4.8430     7.9520   101.1440     2.4020     0.1760     0.0120
  648.5000   -36.0450     5.2130     4.8430     7.9560   100.2770     2.3810     0.1870     0.0130
  649.0000   -35.5920     5.3910     4.8880     7.9600   102.3410     2.3960     0.1780     0.0120
  649.5000   -35.1480     5.6300     5.0130     7.9620   107.9870     2.4040     0.1680     0.0080
  650.0000   -34.7070     5.8690     5.2620     7.9630   109.2770     2.4210     0.1560     0.0040
  650.5000   -34.2630     6.0400     5.5100     7.9650   111.3890     2.4370     0.1480     0.0040
  651.0000   -33.9000     6.1960     5.7590     7.9660   110.3000     2.4500     0.1440     0.0040
  651.5000   -34.0060     6.3740     6.0080     7.9670   110.6690     2.4560     0.1390     0.0040
  652.0000   -34.2640     6.5510     6.2480     7.9680   108.6900     2.4610     0.1390     0.0040
  652.5000   -34.5260     6.7290     6.4830     7.9700   103.0740     2.4570     0.1410     0.0030
  653.0000   -34.7850     6.8800     6.6570     7.9710   104.5900     2.4510     0.1420     0.0020
  653.5000   -34.9600     6.9290     6.7420     7.9720   108.1780     2.4550     0.1420     0.0010
  654.0000   -34.5910     6.9790     6.8270     7.9730   111.7240     2.4580     0.1400    -0.0010
  654.5000   -34.5170     7.0280     6.9120     7.9740   113.8920     2.4530     0.1370    -0.0020
  655.0000   -34.6970     7.0770     6.9970     7.9760   107.7600     2.4620     0.1350     0.0020
  655.5000   -34.8720     7.1270     7.0820     7.9770   102.4620     2.4720     0.1330     0.0080
  656.0000   -34.9110     7.1760     7.1670     7.9780    98.8450     2.4720     0.1310     0.0100
  656.5000   -34.4710     7.2250     7.2520     7.9790   100.0170     2.4700     0.1290     0.0100
  657.0000   -34.1870     7.2750     7.3370     7.9810   104.3400     2.4740     0.1310     0.0100
  657.5000   -34.1080     7.3240     7.4220     7.9850   109.3840     2.4650     0.1340     0.0070
  658.0000   -34.0250     7.3730     7.5070     7.9930   114.3950     2.4620     0.1370     0.0030
  658.5000   -33.9430     7.4230     7.5920     8.0020   117.9790     2.4610     0.1370     0.0000
  659.0000   -33.8610     7.4720     7.6770     8.0100   115.6250     2.4650     0.1340     0.0020
  659.5000   -33.5280     7.5210     7.7620     8.0180   112.0590     2.4720     0.1300     0.0040
  660.0000   -33.0700     7.5370     7.8160     8.0170   111.3380     2.4790     0.1260     0.0050
  660.5000   -33.6270     7.5450     7.8280     8.0110   113.5810     2.4840     0.1270     0.0070
  661.0000   -33.8130     7.5520     7.8400     8.0040   111.5360     2.4750     0.1310     0.0080
  661.5000   -33.7930     7.5600     7.8520     7.9980   109.7730     2.4640     0.1370     0.0060
  662.0000   -33.7720     7.5670     7.8630     7.9920   111.1000     2.4560     0.1400     0.0040
  662.5000   -33.7520     7.5750     7.8750     7.9850   110.0970     2.4630     0.1350     0.0020
  663.0000   -33.7300     7.5820     7.8870     7.9820   107.7820     2.4690     0.1310     0.0040
  663.5000   -33.7090     7.5890     7.8360     7.9860   109.0060     2.4780     0.1270     0.0060
  664.0000   -33.6870     7.6010     7.7320     7.9890   111.4440     2.4840     0.1260     0.0050
  664.5000   -33.6660     7.5670     7.6280     7.9930   110.0490     2.4690     0.1330    -0.0030
  665.0000   -33.6440     7.4910     7.5240     7.9960   108.9210     2.4570     0.1330    -0.0070
  665.5000   -33.6050     7.4140     7.4200     8.0000   115.8380     2.4620     0.1340    -0.0020
  666.0000   -33.5100     7.3380     7.3160     8.0030   119.8240     2.4670     0.1350     0.0010
  666.5000   -33.5180     7.2620     7.2120     8.0070   113.6690     2.4620     0.1400    -0.0060
  667.0000   -33.9130     7.1850     7.1080     8.0100   108.8680     2.4520     0.1420    -0.0100
  667.5000   -34.3010     7.1090     7.0040     8.0140   111.8730     2.4510     0.1400    -0.0030
  668.0000   -34.6830     7.0320     6.9000     8.0170   110.3390     2.4660     0.1290     0.0050
  668.5000   -35.0630     6.9560     6.7810     8.0210   107.6220     2.4890     0.1230     0.0110
  669.0000   -35.3190     6.7630     6.5480     8.0140   103.9630     2.4810     0.1230     0.0070
  669.5000   -35.5870     6.5220     6.3150     8.0070   106.0980     2.4690     0.1310     0.0030
  670.0000   -35.6020     6.2800     6.0960     8.0000   108.6710     2.4580     0.1390     0.0020
  670.5000   -35.6030     6.0380     5.7930     7.9930   102.6270     2.4500     0.1430     0.0020
  671.0000   -35.6040     5.7970     5.5080     7.9860   104.3400     2.4550     0.1420     0.0050
  671.5000   -35.6060     5.5550     5.2250     7.9820   116.6660     2.4590     0.1410     0.0080
  672.0000   -35.9120     5.2040     4.8510     7.9860   113.6670     2.4510     0.1440     0.0110
  672.5000   -36.6450     4.8270     4.4760     7.9900   103.9750     2.4440     0.1590     0.0100
  673.0000   -36.8300     4.4500     4.1010     7.9940   109.4800     2.4140     0.1750     0.0080
  673.5000   -36.8950     4.0740     3.7260     7.9980   107.6560     2.3820     0.1900     0.0070
  674.0000   -36.9550     3.6970     3.3510     8.0020    97.9770     2.3490     0.2070     0.0120
  674.5000   -37.2180     3.3200     2.9760     8.0060   101.6850     2.3170     0.2320     0.0160
  675.0000   -37.6530     3.0170     2.6390     8.0100   106.2150     2.2850     0.2570     0.0210
  675.5000   -37.9750     2.8850     2.4730     8.0140   102.7210     2.2520     0.2750     0.0250
  676.0000   -37.9670     2.8150     2.3640     8.0180   104.9550     2.2340     0.2710     0.0270
  676.5000   -37.9660     2.9710     2.3750     8.0210    91.3280     2.2520     0.2620     0.0230
  677.0000   -37.8530     3.1180     2.3850     8.0210    97.3020     2.2790     0.2450     0.0140
  677.5000   -37.5840     3.3650     2.5790     8.0210   108.2750     2.3060     0.2290     0.0000
  678.0000   -37.3160     3.7470     2.8630     8.0210   116.3410     2.3400     0.2130     0.0020
  678.5000   -37.0500     4.1290     3.2890     8.0210   120.2840     2.3780     0.1960     0.0150
  679.0000   -36.7390     4.5110     3.7150     8.0210   115.9760     2.3820     0.1810     0.0030
  679.5000   -36.4170     4.8720     4.1400     8.0210   111.1430     2.4090     0.1650    -0.0070
  680.0000   -36.0850     5.2130     4.5660     8.0210   107.4290     2.4460     0.1520     0.0000
  680.5000   -35.9670     5.3320     5.0250     8.0210   120.6470     2.4580     0.1410     0.0060
  681.0000   -35.8970     5.5080     5.2220     8.0210   119.0760     2.4690     0.1340     0.0090
  681.5000   -35.8310     5.5750     5.4590     8.0210   115.6420     2.4650     0.1340     0.0110
  682.0000   -35.7660     5.5960     5.3510     8.0210   119.4300     2.4600     0.1350     0.0110
  682.5000   -35.7020     5.6110     5.1300     8.0210   114.0440     2.4560     0.1420     0.0060
  683.0000   -35.6310     5.3310     4.9080     8.0210   120.7000     2.4550     0.1450     0.0010
  683.5000   -36.1030     5.1100     4.6860     8.0210   122.3830     2.4580     0.1460    -0.0030
  684.0000   -36.9710     5.0000     4.4650     8.0210   126.3050     2.4470     0.1510    -0.0040
  684.5000   -37.1140     4.9140     4.3430     8.0210   122.3370     2.4240     0.1620     0.0080
  685.0000   -36.6320     4.8430     4.2860     8.0210   126.0720     2.4010     0.1750     0.0190
  685.5000   -36.2980     4.8430     4.2290     8.0210   124.1760     2.3770     0.1950     0.0260
  686.0000   -36.1130     4.9660     4.1420     8.0210   121.8040     2.3580     0.1830    -0.0110
  686.5000   -35.9250     5.1870     4.3640     8.0210   117.9450     2.4010     0.1650     0.0070
  687.0000   -35.7370     5.4080     4.6610     8.0210   112.8340     2.4280     0.1560     0.0180
  687.5000   -35.5500     5.6290     4.9590     8.0210   110.6620     2.4140     0.1740     0.0270
