~VERSION INFORMATION
 VERS.                2.0:   CWLS LOG ASCII STANDARD - VERSION 2.0
 WRAP.                 NO:   ONE LINE PER DEPTH STEP
~WELL INFORMATION
#MNEM.UNIT      DATA TYPE    INFORMATION
#----------   ------------   ------------------------------
 STRT.F            5.0000:   START DEPTH
 STOP.F          640.0000:   STOP DEPTH
 STEP.F            0.5000:   STEP LENGTH
 NULL.          -999.2500:   NO VALUE
 COMP. BROWN JOHN E&C INC:   COMPANY
 WELL.     85-1 X 3 #85-3:   WELL
 FLD .             TEAPOT:   FIELD
 LOC .       S3 T38N R78W:   LOCATION
 CNTY.            NATRONA:   COUNTY
 STAT.            WYOMING:   STATE
 CTRY. UNITED STATES OF AMERICA:   COUNTRY
 SRVC.     Atlas Wireline:   SERVICE COMPANY
 DATE.        30-DEC-1991:   LOGDATE
 API .       490252249400:   API NUMBER
~CURVE INFORMATION
#MNEM.UNIT       API CODE    CURVE DESCRIPTION
#----------   ------------   ------------------------------
 DEPT.F                  :   
 GRR .GAPI   06 310 01 00:   GAMMA RAY FROM RESISTIVITY
 RFOC.OHMM   06 220 04 00:   RESISTIVITY FOCUSED LOG RES.
 RILD.OHMM   06 120 46 00:   DEEP INDUCTION RESISTIVITY
 RILM.OHMM   06 120 44 00:   INDUCTION LOG MEDIUM RESISTIVITY
 SPR .MV     06 010 01 00:   SPONTANEOUS POTENTIAL FROM RES.
 CALD.IN     45 280 60 00:   CALIPER FROM DENSITY LOG
 CORR.G/C3   45 356 01 00:   DENSITY CORRECTION
 DEN .G/C3   45 350 01 00:   COMPENSATED BULK DENSTIY
 PORD.DEC    45 890 12 00:   POROSITY DENSITY SANDSTONE
 CNC .DEC    42 890 03 00:   NEUTRON POROSITY SANDSTONE
~PARAMETER INFORMATION
#MNEM.UNIT          VALUE    DESCRIPTION
#----------   ------------   ------------------------------
 PD  .                 GL:   PERMANENT DATUM
 EPD .F              5156:   ELEVATION PERMANENT DATUM
 LMF .                 KB:   LOG MEASURED FROM
 DAPD.F                10:   FEET ABOVE PERMANENT DATUM
 DMF .                 KB:   DRILLING MEASURED FROM
 EKB .F              5166:   KELLING BUSHING
 EGL .F              5156:   GROUND LEVEL
 DATE.        30-DEC-1991:   RUN DATE
 RUN .                  1:   RUN NUMBER
 DD  .F               641:   DEPTH DRILLER
 DL  .F               642:   DEPTH LOGGER
 BLI .F               261:   BOTTOM LOG INTERVAL
 TLI .F               172:   TOP LOG INTERVAL
 CS  .IN            8.625:   CASING SIZE
 CBD .F               163:   CASING BOTTOM DRILLER
 CBL .F               172:   CASING BOTTOM LOGGER
 BS  .IN            7.875:   BIT SIZE
 BSD .F               641:   BIT SIZE AT DEPTH
 DFT .               CHEM:   DRILLING FLUID TYPE
 DFD .               17.1:   DRILLING FLUID DENSITY
 DFV .                 47:   DRILLING FLUID VISCOSITY
 DFPH.                9.0:   DRILLING FLUID PH
 DFL .                6.8:   DRILLING FLUID LOSS
 MSS .                PIT:   MUD SAMPLE SOURCE
 RMS .OHMM           1.40:   RESISTIVITY MUD SAMPLE
 MST .F               100:   MUD SAMPLE TEMPERATURE
 RMF .OHMM           1.12:   RESISTIVITY MUD FILTRATE SAMPLE
 MFST.F               100:   MUD FILTRATE SAMPLE TEMPERATURE
 RMC .OHMM           1.75:   RESISTIVITY MUD CAKE
 MCST.F               100:   MUD CAKE SAMPLE TEMPERATURE
 MFSS.               MEAS:   MUD FILTRATE SAMPLE SOURCE
 MCSS.               CALC:   MUD CAKE SAMPLE SOURCE
 RMB .OHMM           .536:   RESISTIVITY MUD AT BHT
 BHT .F               261:   BOTTOM HOLE TEMPERATURE
 TCS .HRS               4:   TIME CURCULATED STOPPED
 MRT .F               261:   MAXIMUM RECORDED TEMPERATURE
 LUN .            HL-6387:   LOGGING UNIT NUMBER
 LUL .          CASPER/WT:   LOGGING UNIT LOCATION
 ENGI.             ZIEGER:   RECORDING ENGINEER
 WITN.         LOFRENIERI:   WITNESSED BY
 CLNT.            A2DTECH:   CLIENT CODE
 ORIG.           5" PRINT:   ORIGIN OF DATA
 UWI .       490252249400:   UNIQUE WELL ID
 DICO. A2D Technologies, Inc.:   DIGITIZING COMPANY
~OTHER INFORMATION
~A    DEPT      GRR      RFOC       RILD       RILM        SPR       CALD       CORR        DEN       PORD        CNC   
# ...
  340.0000    94.6448     4.5965     3.8216     3.7550   -59.6677     9.6122     0.0173     2.4300     0.1480     0.3595
  340.5000    93.7401     5.0685     3.7689     3.8618   -59.3656     9.6429     0.0189     2.4447     0.1420     0.3477
  341.0000    91.3224     5.1762     3.7429     3.9993   -59.3656     9.6585     0.0189     2.4508     0.1375     0.3405
  341.5000    88.9048     4.8622     3.7694     4.1460   -59.5166     9.6590     0.0189     2.4523     0.1363     0.3441
  342.0000    88.0000     5.1778     3.8494     4.3801   -60.1208     9.6595     0.0173     2.4531     0.1350     0.3520
  342.5000    88.3258     5.5563     4.0707     4.5998   -60.5740     9.6296     0.0158     2.4568     0.1317     0.3592
  343.0000    91.5964     5.6311     4.3652     4.8643   -60.5740     9.6148     0.0143     2.4629     0.1277     0.3535
  343.5000    97.9945     5.2895     4.6223     5.1440   -60.4230     9.6153     0.0128     2.4723     0.1215     0.3477
  344.0000    99.5103     5.4399     5.0196     5.3272   -60.1208     9.6158     0.0128     2.4810     0.1190     0.3375
  344.5000    98.3029     5.8335     5.2713     5.5170   -59.6677     9.6162     0.0113     2.4803     0.1190     0.3302
  345.0000    95.2802     6.2993     5.4208     5.7534   -59.3656     9.6168     0.0098     2.4780     0.1205     0.3290
  345.5000    94.9798     6.5693     5.5746     5.9169   -59.3656     9.6172     0.0113     2.4765     0.1218     0.3311
  346.0000    94.6809     6.7091     5.7729     6.0851   -59.2145     9.6176     0.0143     2.4765     0.1221     0.3323
  346.5000    91.6581     6.8042     6.0201     6.2148   -58.9124     9.6181     0.0143     2.4765     0.1221     0.3320
  347.0000    90.1402     6.8054     6.2343     6.3029   -58.6103     9.6185     0.0113     2.4749     0.1230     0.3323
  347.5000    89.8486     6.8539     6.3666     6.3479   -58.6103     9.6189     0.0083     2.4705     0.1257     0.3360
  348.0000    91.3652     6.8548     6.3228     6.3044   -58.6103     9.6194     0.0098     2.4660     0.1287     0.3444
  348.5000    92.8810     6.8557     6.2357     6.1750   -58.4592     9.6199     0.0128     2.4637     0.1305     0.3505
  349.0000    95.3045     6.7617     6.1069     6.0059   -58.0060     9.6204     0.0143     2.4645     0.1293     0.3529
  349.5000    96.2152     6.6690     5.9807     5.8824   -57.4018     9.6208     0.0098     2.4690     0.1266     0.3508
  350.0000    95.6122     6.4414     5.8982     5.8017   -57.0997     9.6364     0.0053     2.4713     0.1251     0.3526
  350.5000    95.9185     6.3032     5.8169     5.7622   -56.9486     9.6368     0.0038     2.4722     0.1241     0.3556
  351.0000    97.4343     6.2224     5.7769     5.7632   -56.9486     9.6373     0.0038     2.4736     0.1242     0.3568
  351.5000    98.6475     6.1372     5.6973     5.6840   -57.5645     9.6377     0.0053     2.4697     0.1239     0.3571
  352.0000    98.9643     6.0952     5.5441     5.4520   -57.8424     9.6534     0.0128     2.4607     0.1284     0.3585
  352.5000    96.5510     6.0118     5.2808     5.2293   -57.6884     9.6539     0.0143     2.4456     0.1347     0.3656
  353.0000    95.6490     5.9293     4.7570     4.9120   -57.6855     9.6543     0.0157     2.4298     0.1438     0.3722
  353.5000    98.4447     5.8889     4.3451     4.5183   -57.5316     9.6547     0.0233     2.4109     0.1553     0.3828
  354.0000   100.5034     5.7680     4.0170     4.0749   -57.2265     9.6703     0.0549     2.3860     0.1758     0.4245
  354.5000    99.2989     5.2323     3.8611     3.7489   -56.9099     9.4917     0.0594     2.3708     0.1846     0.4266
  355.0000    97.4893     4.0714     3.8619     3.6212   -56.6158     9.4317     0.0504     2.3988     0.1725     0.4052
  355.5000    96.8886     3.7191     3.8897     3.6733   -56.3107     9.6599     0.0534     2.4366     0.1545     0.3777
  356.0000    98.1061     3.8248     3.9177     3.9122   -56.1568     9.6606     0.0422     2.4789     0.1265     0.3494
  356.5000    98.7171     4.6904     4.0014     4.3447   -56.1539     9.6615     0.0262     2.4894     0.1160     0.3399
  357.0000    97.4684     5.9203     4.1157     4.7729   -56.1510     9.6622     0.0186     2.4917     0.1123     0.3339
  357.5000    95.0993     6.4102     4.3665     5.1034   -56.2991     9.6630     0.0322     2.4892     0.1145     0.3294
  358.0000    93.8949     6.5011     4.9021     5.3976   -56.1444     9.6637     0.0397     2.4849     0.1163     0.3284
  358.5000    96.3213     6.5019     5.2942     5.6297   -55.9905     9.6644     0.0367     2.4841     0.1166     0.3363
  359.0000    97.5374     6.3682     5.7577     5.9129   -55.8365     9.6652     0.0291     2.4887     0.1154     0.3396
  359.5000    96.6355     6.2370     5.9634     6.1243   -55.8336     9.6659     0.0246     2.4940     0.1132     0.3387
  360.0000    93.5149     6.3257     6.0907     6.3022   -55.8307     9.6668     0.0231     2.4955     0.1108     0.3298
  360.5000    93.0163     6.6459     6.1776     6.3454   -55.8278     9.6675     0.0276     2.4955     0.1105     0.3233
  361.0000    95.4442     6.8798     6.2221     6.4363   -55.9930     9.6531     0.0306     2.5008     0.1102     0.3182
  361.5000    95.7526     6.9773     6.2672     6.4380   -56.2744     9.6387     0.0291     2.5023     0.1081     0.3088
  362.0000    98.1790     7.0271     6.3124     6.4397   -56.2715     9.6394     0.0185     2.5015     0.1057     0.3043
  362.5000   100.6054     7.0280     6.3579     6.4865   -56.4204     9.6402     0.0093     2.4985     0.1066     0.3052
  363.0000    99.0984     7.0290     6.3592     6.4883   -56.5685     9.6431     0.0079     2.4947     0.1102     0.3076
  363.5000    94.4811     7.0299     6.4050     6.4837   -56.7160     9.6569     0.0215     2.4893     0.1129     0.3085
  364.0000    91.8497     7.0309     6.3617     6.4466   -56.8721     9.6577     0.0411     2.4872     0.1147     0.3263
  364.5000    90.9464     7.0319     6.3631     6.4036   -57.0122     9.6584     0.0501     2.4909     0.1150     0.3354
  365.0000    91.8614     7.0330     6.3646     6.3166   -56.8575     9.6591     0.0533     2.4955     0.1123     0.3312
  365.5000    94.8930     7.0340     6.3213     6.2312   -56.5525     9.6599     0.0470     2.5008     0.1081     0.3297
  366.0000    97.9245     7.0349     6.2786     6.1895   -56.3986     9.6454     0.0408     2.5023     0.1053     0.3348
  366.5000    99.7640     7.0359     6.1932     6.1913   -55.9425     9.6464     0.0349     2.5015     0.1053     0.3427
  367.0000   100.9633     6.9877     6.1513     6.1933   -55.4864     9.6471     0.0470     2.4947     0.1066     0.3458
  367.5000   104.2974     6.9403     6.1098     6.2383   -55.0075     9.6325     0.0485     2.4955     0.1090     0.3433
  368.0000   104.9070     6.9898     6.1180     6.3276   -54.5735     9.6334     0.0455     2.4947     0.1102     0.3369
  368.5000   102.7962     7.0961     6.1985     6.3736   -54.5706     9.6341     0.0379     2.4902     0.1099     0.3355
  369.0000   100.9866     7.1897     6.2869     6.3753   -54.5677     9.6349     0.0273     2.4887     0.1129     0.3370
  369.5000   100.3873     7.1407     6.3322     6.3770   -54.5648     9.6356     0.0213     2.4925     0.1150     0.3309
  370.0000    99.3646     7.0428     6.2457     6.3286   -54.5619     9.6365     0.0243     2.4985     0.1120     0.3237
  370.5000    96.1644     6.9462     6.2035     6.2050   -54.4079     9.6372     0.0167     2.4985     0.1095     0.3240
  371.0000    95.2611     6.8507     6.1180     6.0786   -54.5561     9.6380     0.0092     2.4902     0.1096     0.3331
  371.5000    95.8735     6.8998     5.9865     5.9130   -54.5524     9.6387     0.0061     2.4751     0.1132     0.3457
  372.0000    96.7871     6.9490     5.7090     5.6722   -54.7006     9.6394     0.0257     2.4622     0.1225     0.3589
  372.5000    97.3980     6.6654     5.5144     5.5177   -55.0005     9.6402     0.0454     2.4592     0.1298     0.3645
  373.0000    97.7065     6.0887     5.4012     5.4408   -55.1480     9.6409     0.0423     2.4668     0.1331     0.3603
