~VERSION INFORMATION
 VERS.                2.0:   CWLS LOG ASCII STANDARD - VERSION 2.0
 WRAP.                 NO:   ONE LINE PER DEPTH STEP
~WELL INFORMATION
#MNEM.UNIT      DATA TYPE    INFORMATION
#----------   ------------   ------------------------------
 STRT.F           20.0000:   START DEPTH
 STOP.F          930.0000:   STOP DEPTH
 STEP.F            0.5000:   STEP LENGTH
 NULL.          -999.2500:   NO VALUE
 COMP. FENIX & SCISSON INC:   COMPANY
 WELL.     NPR 3 #45-S-14:   WELL
 FLD .        TEAPOT DOME:   FIELD
 LOC .      S14 T38N R78W:   LOCATION
 CNTY.            NATRONA:   COUNTY
 STAT.            WYOMING:   STATE
 CTRY. UNITED STATES OF AMERICA:   COUNTRY
 SRVC.           BIRDWELL:   SERVICE COMPANY
 DATE.        02-JAN-1979:   LOGDATE
 API .       490251076200:   API NUMBER
~CURVE INFORMATION
#MNEM.UNIT       API CODE    CURVE DESCRIPTION
#----------   ------------   ------------------------------
 DEPT.F                  :   
 GRD .GAPI   45 310 01 00:   GAMMA RAY FROM DENSITY LOG
 CALD.IN     45 280 60 00:   CALIPER
 RHOB.G/C3   45 350 01 00:   BULK DENSITY
 DPHI.DEC    45 890 12 00:   DENSITY POROSITY SANDSTONE
 CORR.G/C3   45 356 01 00:   DENSITY CORRECTION
~PARAMETER INFORMATION
#MNEM.UNIT          VALUE    DESCRIPTION
#----------   ------------   ------------------------------
 PD  .                 GL:   PERMANENT DATUM
 EPD .F              5261:   ELEVATION PERMANENT DATUM
 LMF .                 KB:   LOG MEASURED FROM
 DAPD.F                 4:   FEET ABOVE PERMANENT DATUM
 DMF .                 KB:   DRILLING MEASURED FROM
 EKB .F              5265:   KELLING BUSHING
 EGL .F              5261:   GROUND LEVEL
 DATE.             1-7-79:   RUN DATE
 RUN .                  1:   RUN NUMBER
 DD  .F               969:   DEPTH DRILLER
 DL  .F               928:   DEPTH LOGGER
 BLI .F               928:   BOTTOM LOG INTERVAL
 TLI .F                20:   TOP LOG INTERVAL
 CS  .IN            8.625:   CASING SIZE
 CBD .F                40:   CASING BOTTOM DRILLER
 CBL .F                46:   CASING BOTTOM LOGGER
 BS  .IN            7.875:   BIT SIZE
 BSD .F               969:   BIT SIZE AT DEPTH
 DFT .                KCL:   DRILLING FLUID TYPE
 DFD .                8.8:   DRILLING FLUID DENSITY
 DFV .                 42:   DRILLING FLUID VISCOSITY
 DFPH.                9.2:   DRILLING FLUID PH
 DFL .                 10:   DRILLING FLUID LOSS
 MSS .           FLOWLINE:   MUD SAMPLE SOURCE
 RMS .OHMM            .95:   RESISTIVITY MUD SAMPLE
 MST .F                60:   MUD SAMPLE TEMPERATURE
 RMF .OHMM            1.7:   RESISTIVITY MUD FILTRATE SAMPLE
 MFST.F                60:   MUD FILTRATE SAMPLE TEMPERATURE
 RMC .OHMM            1.6:   RESISTIVITY MUD CAKE
 MCST.F                60:   MUD CAKE SAMPLE TEMPERATURE
 MFSS.           MEASURED:   MUD FILTRATE SAMPLE SOURCE
 MCSS.           MEASURED:   MUD CAKE SAMPLE SOURCE
 RMB .OHMM            .98:   RESISTIVITY MUD AT BHT
 BHT .F                58:   BOTTOM HOLE TEMPERATURE
 TCS .HRS               4:   TIME CURCULATED STOPPED
 MRT .F                58:   MAXIMUM RECORDED TEMPERATURE
 LUN .               3006:   LOGGING UNIT NUMBER
 LUL .             CASPER:   LOGGING UNIT LOCATION
 ENGI.            ROLLINS:   RECORDING ENGINEER
 WITN.           DINSMORE:   WITNESSED BY
 CLNT.            A2DTECH:   CLIENT CODE
 ORIG.           5" PRINT:   ORIGIN OF DATA
 UWI .       490251076200:   UNIQUE WELL ID
 DICO. A2D Technologies, Inc.:   DIGITIZING COMPANY
~OTHER INFORMATION
~A   DEPT      GRD         CALD     RHOB       DPHI       CORR   
# ...
  386.0000   105.6210     7.8420     2.4220     0.1530     0.0120
  386.5000   106.3720     7.8700     2.4210     0.1570     0.0110
  387.0000   107.5380     7.8700     2.4160     0.1610     0.0100
  387.5000   109.9310     7.8700     2.4110     0.1630     0.0080
  388.0000   111.6910     7.8700     2.4110     0.1620     0.0070
  388.5000   111.0640     7.8700     2.4110     0.1590     0.0100
  389.0000   108.0060     7.8700     2.4100     0.1570     0.0180
  389.5000   102.6870     7.8700     2.4100     0.1590     0.0260
  390.0000   100.9820     7.8700     2.4090     0.1620     0.0320
  390.5000   104.7790     7.8700     2.4090     0.1690     0.0390
  391.0000   104.9680     7.8700     2.4090     0.1600     0.0520
  391.5000   100.1030     7.8700     2.4100     0.1520     0.0690
  392.0000    99.1600     7.8700     2.4190     0.1450     0.0790
  392.5000   102.9260     7.8700     2.4390     0.1430     0.0870
  393.0000   104.8310     7.8760     2.4450     0.1420     0.0960
  393.5000   105.9580     7.8830     2.4500     0.1290     0.1030
  394.0000   105.5230     7.8900     2.4550     0.1280     0.0980
  394.5000   100.4370     7.8900     2.4570     0.1390     0.0700
  395.0000    96.6760     7.8890     2.4490     0.1450     0.0420
  395.5000    94.6690     7.8890     2.4380     0.1460     0.0290
  396.0000    98.4970     7.8880     2.4310     0.1450     0.0260
  396.5000   103.2250     7.8880     2.4310     0.1440     0.0240
  397.0000   102.6370     7.8870     2.4310     0.1480     0.0230
  397.5000   101.0940     7.8860     2.4310     0.1490     0.0210
  398.0000   100.3000     7.8860     2.4310     0.1500     0.0190
  398.5000    98.6050     7.8850     2.4310     0.1460     0.0210
  399.0000    99.1850     7.8850     2.4310     0.1450     0.0230
  399.5000   100.5230     7.8840     2.4310     0.1460     0.0220
  400.0000   101.5260     7.8830     2.4310     0.1470     0.0210
  400.5000   101.6950     7.8830     2.4290     0.1470     0.0220
  401.0000   103.1760     7.8820     2.4280     0.1480     0.0220
  401.5000   104.3850     7.8820     2.4270     0.1490     0.0230
  402.0000   101.9430     7.8810     2.4260     0.1530     0.0230
  402.5000    95.8700     7.8800     2.4220     0.1590     0.0240
  403.0000    92.8850     7.8800     2.4180     0.1620     0.0250
  403.5000    99.8740     7.8790     2.4170     0.1580     0.0310
  404.0000   104.8450     7.8790     2.4180     0.1560     0.0480
  404.5000   108.6560     7.8780     2.4220     0.1570     0.0650
  405.0000   109.7960     7.8770     2.4230     0.1560     0.0730
  405.5000   109.9070     7.8770     2.4240     0.1530     0.0830
  406.0000   109.1900     7.8760     2.4300     0.1430     0.1090
  406.5000   108.3830     7.8760     2.4510     0.1320     0.1290
  407.0000   107.5800     7.8750     2.4680     0.1200     0.1330
  407.5000   106.9380     7.8740     2.4810     0.1130     0.1250
  408.0000   106.9250     7.8740     2.4900     0.1250     0.0810
  408.5000   107.3800     7.8730     2.4830     0.1410     0.0400
  409.0000   107.3560     7.8730     2.4470     0.1570     0.0250
  409.5000   106.1140     7.8720     2.4260     0.1590     0.0260
  410.0000   104.9130     7.8720     2.4210     0.1590     0.0260
  410.5000   104.6110     7.8710     2.4200     0.1590     0.0270
  411.0000   105.4310     7.8680     2.4200     0.1560     0.0300
  411.5000   106.9980     7.8570     2.4210     0.1530     0.0340
  412.0000   107.8560     7.8330     2.4220     0.1500     0.0370
  412.5000   107.5690     7.7770     2.4240     0.1490     0.0370
  413.0000   107.1540     7.7230     2.4250     0.1490     0.0360
  413.5000   106.7260     7.6690     2.4250     0.1510     0.0360
  414.0000   107.1880     7.6120     2.4250     0.1530     0.0350
  414.5000   108.6010     7.5580     2.4250     0.1550     0.0280
  415.0000   108.9720     7.8270     2.4250     0.1550     0.0210
  415.5000   109.0690     7.8250     2.4250     0.1540     0.0210
  416.0000   109.3440     7.8380     2.4250     0.1540     0.0200
  416.5000   110.2050     7.8470     2.4240     0.1580     0.0200
  417.0000   110.5200     7.7850     2.4240     0.1570     0.0200
  417.5000   109.6580     7.7230     2.4240     0.1550     0.0200
  418.0000   108.4040     7.6580     2.4240     0.1540     0.0190
  418.5000   105.7080     7.7220     2.4240     0.1570     0.0190
  419.0000   103.0280     7.8130     2.4240     0.1590     0.0220
  419.5000   102.4280     7.6430     2.4240     0.1550     0.0250
  420.0000   102.1200     7.6520     2.4260     0.1470     0.0260
  420.5000   102.8430     7.6600     2.4310     0.1440     0.0230
  421.0000   104.9310     7.6670     2.4350     0.1470     0.0200
  421.5000   105.8330     7.7150     2.4330     0.1530     0.0190
  422.0000   104.8230     7.8770     2.4310     0.1540     0.0200
  422.5000   106.2230     7.8880     2.4300     0.1510     0.0200
  423.0000   107.3920     7.8870     2.4300     0.1490     0.0200
  423.5000   102.6140     7.8830     2.4300     0.1490     0.0200
  424.0000   100.1900     7.8780     2.4300     0.1500     0.0210
  424.5000   100.1020     7.8730     2.4300     0.1520     0.0220
  425.0000   100.2990     7.8690     2.4310     0.1520     0.0240
  425.5000   100.2590     7.8640     2.4320     0.1520     0.0270
  426.0000    98.7480     7.8590     2.4330     0.1520     0.0300
  426.5000    97.2170     7.8550     2.4340     0.1510     0.0330
  427.0000    96.8460     7.8510     2.4350     0.1480     0.0350
  427.5000   101.4470     7.8470     2.4360     0.1450     0.0380
  428.0000   106.3330     7.7790     2.4370     0.1440     0.0350
  428.5000   107.4490     7.7130     2.4370     0.1510     0.0290
  429.0000   106.9490     7.7180     2.4360     0.1450     0.0230
  429.5000   105.8570     7.7260     2.4370     0.1410     0.0160
  430.0000   102.5520     7.7700     2.4380     0.1440     0.0110
  430.5000    98.6400     7.8340     2.4340     0.1520     0.0090
  431.0000    97.8390     7.8480     2.4250     0.1590     0.0070
  431.5000    98.0350     7.8450     2.4170     0.1660     0.0090
  432.0000    98.2690     7.8420     2.4110     0.1670     0.0110
  432.5000    98.4770     7.8390     2.4080     0.1650     0.0190
  433.0000    98.5860     7.8360     2.4110     0.1570     0.0280
  433.5000    98.8910     7.8330     2.4250     0.1480     0.0370
  434.0000    99.8010     7.8370     2.4340     0.1420     0.0380
  434.5000   100.6920     7.8820     2.4370     0.1410     0.0390
  435.0000   100.9130     7.8890     2.4370     0.1420     0.0400
  435.5000   100.9830     7.8870     2.4370     0.1420     0.0410
  436.0000   101.0560     7.8840     2.4370     0.1460     0.0420
  436.5000   100.7310     7.8820     2.4340     0.1570     0.0420
  437.0000   100.2940     7.8800     2.4290     0.1530     0.0430
  437.5000   100.9500     7.8770     2.4290     0.1490     0.0440
  438.0000   101.6710     7.8750     2.4330     0.1470     0.0440
  438.5000   102.0690     7.8730     2.4360     0.1490     0.0420
  439.0000   102.0700     7.8690     2.4370     0.1500     0.0400
  439.5000   102.0780     7.7720     2.4370     0.1490     0.0380
  440.0000   102.4140     7.7850     2.4370     0.1480     0.0360
  440.5000   103.3600     7.8030     2.4400     0.1400     0.0340
  441.0000   104.0550     7.8230     2.4500     0.1290     0.0320
  441.5000   103.8470     7.8450     2.4580     0.1310     0.0300
  442.0000   104.2620     7.8460     2.4550     0.1350     0.0280
  442.5000   106.3770     7.8400     2.4510     0.1370     0.0270
  443.0000   109.7880     7.8340     2.4470     0.1390     0.0280
  443.5000   111.8140     7.8280     2.4460     0.1420     0.0280
  444.0000   112.4330     7.8220     2.4450     0.1450     0.0290
  444.5000   111.7460     7.8160     2.4440     0.1450     0.0290
  445.0000   110.6210     7.8060     2.4440     0.1410     0.0300
  445.5000   108.1940     7.7760     2.4460     0.1350     0.0300
  446.0000   106.1490     7.7910     2.4480     0.1370     0.0310
  446.5000   105.6270     7.8430     2.4470     0.1380     0.0310
