~VERSION INFORMATION
 VERS.                2.0:   CWLS LOG ASCII STANDARD - VERSION 2.0
 WRAP.                 NO:   ONE LINE PER DEPTH STEP
~WELL INFORMATION
#MNEM.UNIT      DATA TYPE    INFORMATION
#----------   ------------   ------------------------------
 STRT.F           42.0000:   START DEPTH
 STOP.F         3140.0000:   STOP DEPTH
 STEP.F            0.5000:   STEP LENGTH
 NULL.          -999.2500:   NO VALUE
 COMP. LAWRENCE-ALLISON & AS:   COMPANY
 WELL.     88 X 33 #88-33:   WELL
 FLD .             NPR #3:   FIELD
 LOC .      S33 T39N R78W:   LOCATION
 CNTY.            NATRONA:   COUNTY
 STAT.            WYOMING:   STATE
 CTRY. UNITED STATES OF AMERICA:   COUNTRY
 SRVC.       Schlumberger:   SERVICE COMPANY
 DATE.        13-DEC-1987:   LOGDATE
 API .       490251120300:   API NUMBER
~CURVE INFORMATION
#MNEM.UNIT       API CODE    CURVE DESCRIPTION
#----------   ------------   ------------------------------
 DEPT.F                  :   
 GRR .GAPI   07 310 01 00:   GAMMA RAY FROM RES
 SPR .MV     07 010 01 00:   SPONTANEOUS POTENTIAL
 ILD .OHMM   07 120 46 00:   INDUCTION LOG DEEP RES
 ILM .OHMM   07 120 44 00:   INDUCTION LOG MEDIUM RES
 SFLU.OHMM   07 220 01 00:   SPHERICALLY FOCUSED LOG UNAVERAGED RES
 DPHI.DEC    45 890 12 00:   DENSITY POROSITY SANDSTONE
 NPHI.DEC    42 890 03 00:   NEUTRON POROSITY SANDSTONE
 CALD.IN     45 280 60 00:   CALIPER FROM DENSITY LOG
 DRHO.G/C3   45 356 01 00:   DENSITY CORRECTION
 RHOB.G/C3   45 350 01 00:   BULK DENSITY
~PARAMETER INFORMATION
#MNEM.UNIT          VALUE    DESCRIPTION
#----------   ------------   ------------------------------
 PD  .                 GL:   PERMANENT DATUM
 EPD .F              5746:   ELEVATION PERMANENT DATUM
 LMF .                 KB:   LOG MEASURED FROM
 DAPD.F                11:   FEET ABOVE PERMANENT DATUM
 DMF .                 KB:   DRILLING MEASURED FROM
 EKB .F              5157:   KELLING BUSHING
 EGL .F              5146:   GROUND LEVEL
 DATE.        13-DEC-1987:   RUN DATE
 RUN .                  1:   RUN NUMBER
 DD  .F              3155:   DEPTH DRILLER
 DL  .F              3140:   DEPTH LOGGER
 BLI .F              3132:   BOTTOM LOG INTERVAL
 TLI .F               614:   TOP LOG INTERVAL
 CS  .IN            9.625:   CASING SIZE
 CBD .F               608:   CASING BOTTOM DRILLER
 CBL .F               614:   CASING BOTTOM LOGGER
 BS  .IN            7.875:   BIT SIZE
 BSD .F              3155:   BIT SIZE AT DEPTH
 DFT .       KCL DIS. PAC:   DRILLING FLUID TYPE
 DFD .                  9:   DRILLING FLUID DENSITY
 DFV .                 41:   DRILLING FLUID VISCOSITY
 DFPH.                9.5:   DRILLING FLUID PH
 DFL .                8.4:   DRILLING FLUID LOSS
 MSS .           FLOWLINE:   MUD SAMPLE SOURCE
 RMS .OHMM          0.523:   RESISTIVITY MUD SAMPLE
 MST .F                63:   MUD SAMPLE TEMPERATURE
 RMF .OHMM          0.435:   RESISTIVITY MUD FILTRATE SAMPLE
 MFST.F                63:   MUD FILTRATE SAMPLE TEMPERATURE
 RMC .OHMM          0.489:   RESISTIVITY MUD CAKE
 MCST.F                63:   MUD CAKE SAMPLE TEMPERATURE
 MFSS.              PRESS:   MUD FILTRATE SAMPLE SOURCE
 MCSS.               CALC:   MUD CAKE SAMPLE SOURCE
 RMB .OHMM          0.288:   RESISTIVITY MUD AT BHT
 BHT .F               120:   BOTTOM HOLE TEMPERATURE
 TCS .HRS            0600:   TIME CURCULATED STOPPED
 TLAB.HRS            1430:   TIME LOGGER AT BOTTOM
 MRT .F               120:   MAXIMUM RECORDED TEMPERATURE
 LUN .               8198:   LOGGING UNIT NUMBER
 LUL .             CASPER:   LOGGING UNIT LOCATION
 ENGI.          W. BENSON:   RECORDING ENGINEER
 WITN.        GARY STRONG:   WITNESSED BY
 CLNT.            A2DTECH:   CLIENT CODE
 ORIG.           5" PRINT:   ORIGIN OF DATA
 UWI .       490251120300:   UNIQUE WELL ID
 DICO. A2D Technologies, Inc.:   DIGITIZING COMPANY
~OTHER INFORMATION
~A   DEPT      GRR        SPR        ILD        ILM       SFLU       DPHI       NPHI       CALD       DRHO       RHOB   
# ...
 1147.5000   121.1181   -63.9761     7.5091     6.9532     8.5982     0.0803     0.2967     9.2863    -0.0151     2.5087
 1148.0000   124.0481   -63.9821     7.4557     6.9047     8.5970     0.0830     0.2952     9.2258    -0.0105     2.5044
 1148.5000   124.0552   -63.9881     7.4541     6.9523     8.5958     0.0821     0.3072     9.1802    -0.0045     2.5067
 1149.0000   121.7755   -63.9941     7.4011     7.0002     8.5353     0.0797     0.3184     9.1646    -0.0181     2.5105
 1149.5000   118.8320   -64.0000     7.3996     6.9996     8.5937     0.0773     0.3214     9.1340    -0.0307     2.5165
 1150.0000   116.3549   -64.0060     7.4057     6.9936     8.6523     0.0749     0.3202     9.1334    -0.0389     2.5262
 1150.5000   115.4294   -63.8682     7.4497     6.9253     8.6521     0.0764     0.3150     9.1628    -0.0396     2.5166
 1151.0000   117.2299   -63.7204     7.3471     6.8552     8.6521     0.0797     0.3165     9.1622    -0.0359     2.5127
 1151.5000   120.1599   -63.7279     7.2964     6.7141     8.5924     0.0784     0.3168     9.1616    -0.0330     2.5136
 1152.0000   121.9604   -63.4342     7.2943     6.6217     8.4157     0.0748     0.3150     9.1610    -0.0300     2.5237
 1152.5000   122.6313   -63.1405     7.2435     6.6217     8.3576     0.0718     0.3144     9.1454    -0.0286     2.5285
 1153.0000   119.2360   -63.1480     7.1959     6.6678     8.3576     0.0722     0.3150     9.1448    -0.0278     2.5258
 1153.5000   115.8407   -63.4567     7.0969     6.7141     8.2999     0.0755     0.3174     9.1442    -0.0286     2.5165
 1154.0000   114.4785   -63.7654     7.0969     6.8078     8.2427     0.0775     0.3210     9.1436    -0.0301     2.5127
 1154.5000   121.7006   -63.7729     7.0435     6.7608     8.1858     0.0772     0.3265     9.1429    -0.0323     2.5150
 1155.0000   126.2120   -63.7804     6.9992     6.7141     8.0732     0.0763     0.3295     9.1423    -0.0338     2.5165
 1155.5000   125.7534   -63.7879     6.9992     6.6217     7.9621     0.0772     0.3298     9.1417    -0.0353     2.5157
 1156.0000   121.2286   -63.7954     6.9992     6.5306     7.9621     0.0793     0.3292     9.1563    -0.0360     2.5112
 1156.5000   112.8634   -63.8028     6.9929     6.5306     8.0175     0.0820     0.3246     9.1555    -0.0360     2.5067
 1157.0000   111.7271   -63.8103     6.9509     6.4855     7.9621     0.0829     0.3195     9.1699    -0.0360     2.5045
 1157.5000   113.9794   -63.8178     6.9029     6.4855     7.9621     0.0817     0.3174     9.1693    -0.0360     2.5052
 1158.0000   114.6898   -63.8253     6.8952     6.4407     7.9621     0.0778     0.3162     9.1687    -0.0353     2.5112
 1158.5000   111.4809   -63.8328     6.8552     6.4855     7.9621     0.0757     0.3147     9.1681    -0.0323     2.5187
 1159.0000   110.1187   -63.8404     6.9029     6.5306     7.9621     0.0742     0.3117     9.1827    -0.0309     2.5210
 1159.5000   109.4342   -63.8479     6.9509     6.5306     8.0732     0.0751     0.3066     9.1971    -0.0301     2.5210
 1160.0000   109.1717   -63.8554     7.0479     6.5760     8.1858     0.0754     0.3042     9.2115    -0.0301     2.5195
 1160.5000   109.8725   -63.7122     7.1462     6.6678     8.2427     0.0741     0.3063     9.2107    -0.0294     2.5187
 1161.0000   112.5766   -63.5691     7.1959     6.7157     8.1858     0.0720     0.3141     9.2251    -0.0287     2.5240
 1161.5000   113.9253   -63.4071     7.1959     6.8102     8.1858     0.0696     0.3213     9.2245    -0.0272     2.5300
 1162.0000   113.9185   -63.1323     7.2964     6.9029     8.1858     0.0678     0.3192     9.2239    -0.0257     2.5322
 1162.5000   114.5895   -63.1652     7.3471     6.8552     8.2427     0.0654     0.3126     9.2233    -0.0243     2.5337
 1163.0000   115.2605   -63.2982     7.3982     6.8552     8.3576     0.0627     0.3020     9.2227    -0.0243     2.5382
 1163.5000   116.1573   -63.4578     7.3982     6.9029     8.4157     0.0639     0.2849     9.2221    -0.0250     2.5435
 1164.0000   115.9246   -63.4653     7.4497     6.9573     8.6521     0.0657     0.2828     9.2215    -0.0272     2.5397
 1164.5000   114.3365   -63.6234     7.5536     7.0479     8.7122     0.0660     0.2822     9.2359    -0.0295     2.5336
 1165.0000   114.3298   -63.6309     7.6062     7.0969     8.7727     0.0639     0.2846     9.2353    -0.0295     2.5390
 1165.5000   115.2266   -63.5633     7.6591     7.1553     8.7727     0.0629     0.2912     9.2347    -0.0287     2.5427
 1166.0000   117.0271   -63.4411     7.6591     7.2460     8.7727     0.0656     0.2999     9.2341    -0.0280     2.5390
 1166.5000   119.2794   -63.3189     7.7123     7.1959     8.6521     0.0729     0.3008     9.2335    -0.0288     2.5157
 1167.0000   119.9503   -63.2072     7.7660     7.1462     8.5920     0.0762     0.3035     9.2330    -0.0295     2.5157
 1167.5000   119.0284   -62.9135     7.7660     7.1462     8.5331     0.0753     0.3041     9.2324    -0.0288     2.5189
 1168.0000   115.6441   -62.7704     7.8200     7.2460     8.5939     0.0719     0.3023     9.2468    -0.0273     2.5277
 1168.5000   115.4131   -63.0809     7.8200     7.3471     8.7750     0.0704     0.2972     9.2462    -0.0266     2.5277
 1169.0000   114.9528   -63.3896     7.9291     7.5015     9.0251     0.0722     0.2906     9.2456    -0.0295     2.5214
 1169.5000   111.3316   -63.3971     8.0398     7.7123     9.4055     0.0767     0.2821     9.2450    -0.0347     2.5125
 1170.0000   104.9099   -63.5552     8.2658     7.9291     9.6036     0.0794     0.2677     9.2444    -0.0377     2.5135
 1170.5000    96.8434   -63.7133     8.4981     8.0398     9.7330     0.0779     0.2610     9.2433    -0.0385     2.5165
 1171.0000    96.6280   -63.7208     8.6766     8.0398     9.8007     0.0764     0.2626     9.2405    -0.0377     2.5202
 1171.5000   100.3889   -63.5758     8.7370     8.0957     9.8007     0.0746     0.2635     9.2378    -0.0370     2.5232
 1172.0000   110.3375   -63.5852     8.8589     8.1520     9.8688     0.0725     0.2638     9.2350    -0.0355     2.5255
 1172.5000   114.3072   -63.4402     8.9205     8.2658     9.9374     0.0704     0.2653     9.2322    -0.0340     2.5307
 1173.0000   115.5770   -63.4496     8.9826     8.3811    10.0064     0.0686     0.2683     9.2295    -0.0318     2.5360
 1173.5000   115.2513   -63.4571     8.9826     8.4394    10.1460     0.0628     0.2677     9.2267    -0.0296     2.5442
 1174.0000   112.0428   -63.4646     9.0450     8.4981    10.2269     0.0577     0.2661     9.2240    -0.0274     2.5502
 1174.5000   107.9956   -63.4720     9.0450     8.6167    10.2165     0.0583     0.2679     9.2212    -0.0267     2.5502
 1175.0000   105.4971   -63.4795     9.0450     8.6167     9.9949     0.0625     0.2695     9.2185    -0.0267     2.5442
 1175.5000   103.5302   -63.3346     9.1713     8.6766     9.8688     0.0677     0.2676     9.2157    -0.0312     2.5322
 1176.0000   103.2951   -63.3439     9.2351     8.7370    10.0325     0.0734     0.2658     9.2130    -0.0334     2.5195
 1176.5000   102.8343   -63.5001     9.3639     8.8589    10.5322     0.0783     0.2652     9.2102    -0.0348     2.5097
 1177.0000   103.0965   -63.2083     9.4946     8.8589    10.9490     0.0821     0.2670     9.2075    -0.0304     2.5045
 1177.5000   105.8006   -63.0652     9.6272     8.9826    11.0251     0.0833     0.2691     9.2204    -0.0267     2.5037
 1178.0000   106.9251   -63.0727     9.7615     9.0450    10.7984     0.0817     0.2703     9.2047    -0.0223     2.5067
 1178.5000   106.0130   -62.9292     9.7615     9.0450    10.4309     0.0808     0.2688     9.1741    -0.0193     2.5090
 1179.0000    99.6810   -62.7861     9.8294     9.0450    10.5764     0.0812     0.2685     9.1285    -0.0178     2.5090
 1179.5000    98.9965   -62.6434     9.8294     9.1713    11.0251     0.0834     0.2736     9.1279    -0.0201     2.5082
 1180.0000   105.7668   -62.6509     9.7615     9.3639    11.4136     0.0835     0.2800     9.1423    -0.0267     2.5052
 1180.5000   110.2781   -62.5075     9.7615     9.3639    11.2566     0.0793     0.2809     9.1569    -0.0327     2.5067
