~VERSION INFORMATION
 VERS.                2.0:   CWLS LOG ASCII STANDARD - VERSION 2.0
 WRAP.                 NO:   ONE LINE PER DEPTH STEP
~WELL INFORMATION
#MNEM.UNIT      DATA TYPE    INFORMATION
#----------   ------------   ------------------------------
 STRT.F           43.0000:   START DEPTH
 STOP.F          551.0000:   STOP DEPTH
 STEP.F            0.5000:   STEP LENGTH
 NULL.          -999.2500:   NO VALUE
 COMP. FENIX & SCISSON INC:   COMPANY
 WELL.   NPR 3  27-S #3-3:   WELL
 FLD .             TEAPOT:   FIELD
 LOC .       S3 T38N R78W:   LOCATION
 CNTY.            NATRONA:   COUNTY
 STAT.            WYOMING:   STATE
 CTRY. UNITED STATES OF AMERICA:   COUNTRY
 SRVC.           BIRDWELL:   SERVICE COMPANY
 DATE.        07-OCT-1978:   LOGDATE
 API .       490251071600:   API NUMBER
~CURVE INFORMATION
#MNEM.UNIT       API CODE    CURVE DESCRIPTION
#----------   ------------   ------------------------------
 DEPT.F                  :   
 SPR .MV     05 010 01 00:   SPONTANEOUS POTENTIAL FROM RES.
 SN  .OHMM   05 040 16 00:   SHORT NORMAL 16"
 ILD .OHMM   05 120 46 00:   INDUCTION LOG DEEP
 GRD .GAPI   45 310 01 00:   GAMMA RAY FROM DENSITY LOG
 CALD.IN     45 280 60 00:   CALIPER
 RHOB.G/C3   45 350 01 00:   BULK DENSITY
 CORR.G/C3   45 356 01 00:   DENSITY CORRECTION
 DPHI.DEC    45 890 12 00:   DENSITY POROSITY SANDSTONE
~PARAMETER INFORMATION
#MNEM.UNIT          VALUE    DESCRIPTION
#----------   ------------   ------------------------------
 PD  .                 GL:   PERMANENT DATUM
 EPD .F              5241:   ELEVATION PERMANENT DATUM
 LMF .                 KB:   LOG MEASURED FROM
 DAPD.F                 4:   FEET ABOVE PERMANENT DATUM
 DMF .                 KB:   DRILLING MEASURED FROM
 EKB .F              5245:   KELLING BUSHING
 EGL .F              5241:   GROUND LEVEL
 DATE.            10-7-78:   RUN DATE
 RUN .                  1:   RUN NUMBER
 DD  .F               552:   DEPTH DRILLER
 DL  .F               551:   DEPTH LOGGER
 BLI .F               545:   BOTTOM LOG INTERVAL
 TLI .F                48:   TOP LOG INTERVAL
 CS  .IN            8.625:   CASING SIZE
 CBL .F                43:   CASING BOTTOM LOGGER
 BS  .IN            7.875:   BIT SIZE
 BSD .F               552:   BIT SIZE AT DEPTH
 DFT .                KCL:   DRILLING FLUID TYPE
 DFD .                8.7:   DRILLING FLUID DENSITY
 DFV .                 38:   DRILLING FLUID VISCOSITY
 DFPH.                  9:   DRILLING FLUID PH
 DFL .                 38:   DRILLING FLUID LOSS
 MSS .            MUD PIT:   MUD SAMPLE SOURCE
 RMS .OHMM            .24:   RESISTIVITY MUD SAMPLE
 MST .F                48:   MUD SAMPLE TEMPERATURE
 RMF .OHMM             .2:   RESISTIVITY MUD FILTRATE SAMPLE
 MFST.F                62:   MUD FILTRATE SAMPLE TEMPERATURE
 RMC .OHMM             .3:   RESISTIVITY MUD CAKE
 MCST.F                62:   MUD CAKE SAMPLE TEMPERATURE
 MFSS.               MEAS:   MUD FILTRATE SAMPLE SOURCE
 MCSS.               MEAS:   MUD CAKE SAMPLE SOURCE
 TCS .HRS               3:   TIME CURCULATED STOPPED
 LUN .               2958:   LOGGING UNIT NUMBER
 LUL .               CASP:   LOGGING UNIT LOCATION
 ENGI.             MILLER:   RECORDING ENGINEER
 WITN.              AMEND:   WITNESSED BY
 CLNT.            A2DTECH:   CLIENT CODE
 ORIG.       2", 5" PRINT:   ORIGIN OF DATA
 UWI .       490251071600:   UNIQUE WELL ID
 DICO. A2D Technologies, Inc.:   DIGITIZING COMPANY
~OTHER INFORMATION
~A   DEPT      SPR         SN        ILD        GRD         CALD       RHOB      CORR        DPHI 
# ...
  124.0000   -44.9344     7.4435     8.8039  -999.2500     8.2968     2.4885     0.0039     0.1159
  124.5000   -44.3855     7.5473     8.8994  -999.2500     8.3168     2.4937     0.0039     0.1117
  125.0000   -44.1475     7.6527     9.0617  -999.2500     8.3360     2.4989     0.0040     0.1075
  125.5000   -44.1716     7.7382     9.2269  -999.2500     8.3350     2.5042     0.0041     0.1054
  126.0000   -44.2016     7.7404     9.3952  -999.2500     8.3332     2.5030     0.0042     0.1054
  126.5000   -44.2323     7.7426     9.5655  -999.2500     8.3314     2.5010     0.0042     0.1086
  127.0000   -44.2633     7.7448     9.5974  -999.2500     8.3296     2.5005     0.0043     0.1083
  127.5000   -44.2962     7.7470     9.6291  -999.2500     8.3279     2.5039     0.0044     0.1056
  128.0000   -44.3054     7.7491     9.6609  -999.2500     8.3261     2.5038     0.0044     0.1044
  128.5000   -43.8215     7.7513     9.6928  -999.2500     8.3244     2.5008     0.0045     0.1062
  129.0000   -43.3154     7.7535     9.7248  -999.2500     8.3226     2.4976     0.0046     0.1081
  129.5000   -43.1183     7.7557     9.7570  -999.2500     8.3209     2.5004     0.0046     0.1072
  130.0000   -43.0961     7.7579     9.7894  -999.2500     8.3191     2.5058     0.0047     0.1054
  130.5000   -43.0770     7.7601     9.8336  -999.2500     8.3176     2.5095     0.0048     0.1045
  131.0000   -43.0581     7.7622     9.8133  -999.2500     8.3020     2.5063     0.0048     0.1046
  131.5000   -43.0389     7.7644     9.7794  -999.2500     8.2787     2.4968     0.0049     0.1082
  132.0000   -43.0197     7.7666     9.7460  -999.2500     8.2551     2.4874     0.0057     0.1167
  132.5000   -43.0005     7.7688     9.7127  -999.2500     8.2285     2.4796     0.0108     0.1196
  133.0000   -42.9817     7.7710     9.6795  -999.2500     8.1875     2.4853     0.0159     0.1158
  133.5000   -42.9647     7.7732     9.6539  -999.2500     8.1471     2.4939     0.0168     0.1121
  134.0000   -42.9411     7.7754     9.6541  -999.2500     8.1068     2.4957     0.0167     0.1101
  134.5000   -42.7201     7.7776     9.6542  -999.2500     8.0664     2.4906     0.0165     0.1133
  135.0000   -41.6991     7.7798     9.6549  -999.2500     8.0261     2.4909     0.0163     0.1146
  135.5000   -41.1647     7.7819     9.6550  -999.2500     7.9857     2.4948     0.0161     0.1117
  136.0000   -41.2487     7.7841     9.5382  -999.2500     7.9453     2.4989     0.0160     0.1093
  136.5000   -41.3334     7.7863     9.4459  -999.2500     7.9050     2.5029     0.0158     0.1072
  137.0000   -40.9516     7.7885     9.3542  -999.2500     7.8639     2.5055     0.0156     0.1051
  137.5000   -40.4933     7.7907     9.3046  -999.2500     7.8914     2.5071     0.0155     0.1032
  138.0000   -40.3708     7.7929     9.3044  -999.2500     7.9406     2.5094     0.0153     0.1017
  138.5000   -40.4132     7.7951     9.3045  -999.2500     7.9776     2.5146     0.0152     0.0980
  139.0000   -40.4602     7.7973     9.3045  -999.2500     7.9708     2.5274     0.0151     0.0938
  139.5000   -40.5028     7.7995     9.3047  -999.2500     7.9644     2.5545     0.0097     0.0849
  140.0000   -40.4085     7.8017     9.3032  -999.2500     7.9558     2.5695     0.0032     0.0760
  140.5000   -39.8179     7.8041     9.3755  -999.2500     8.0704     2.5564    -0.0024     0.0683
  141.0000   -39.7357     7.8061     9.4321  -999.2500     8.2003     2.5396     0.0084     0.0731
  141.5000   -39.7309     7.8083     9.4891  -999.2500     8.2985     2.5226     0.0198     0.0811
  142.0000   -39.7271     7.6841     9.5468  -999.2500     8.2949     2.5068     0.0312     0.0991
  142.5000   -39.7225     7.4227     9.5940  -999.2500     8.2931     2.5050     0.0324     0.1039
  143.0000   -39.7176     7.1877     9.6372  -999.2500     8.2914     2.5038     0.0318     0.1065
  143.5000   -39.7128     7.2087     9.6803  -999.2500     8.2897     2.4978     0.0312     0.1107
  144.0000   -39.7080     7.2299     9.7237  -999.2500     8.2880     2.4916     0.0335     0.1129
  144.5000   -39.7032     7.2503     9.7673  -999.2500     8.2864     2.4901     0.0396     0.1148
  145.0000   -39.6984     7.2709     9.8110  -999.2500     8.2847     2.4888     0.0459     0.1167
  145.5000   -39.6936     7.2915     9.8338  -999.2500     8.2831     2.4875     0.0540     0.1176
  146.0000   -39.6888     7.3121     9.5924  -999.2500     8.2814     2.4863     0.0701     0.1174
  146.5000   -39.6840     7.3328     9.4081  -999.2500     8.2797     2.4900     0.0865     0.1149
  147.0000   -39.6792     7.3536     9.2273  -999.2500     8.2781     2.5096     0.0971     0.1063
  147.5000   -39.6744     7.3744     9.0500  -999.2500     8.2764     2.5236     0.0924     0.0934
  148.0000   -39.6695     7.3892     8.8762  -999.2500     8.2747     2.5192     0.0667     0.0934
  148.5000   -39.6647     7.3136     8.7056  -999.2500     8.2731     2.5105     0.0331     0.1014
  149.0000   -39.6599     7.2556     8.5384  -999.2500     8.2714     2.5018     0.0183     0.1068
  149.5000   -39.6551     7.1980     8.3744  -999.2500     8.2697     2.4930     0.0064     0.1122
  150.0000   -39.6503     7.1409     8.2134  -999.2500     8.2681     2.4841     0.0030     0.1181
  150.5000   -39.6455     7.0563     8.0814  -999.2500     8.2664     2.4863     0.0030     0.1167
  151.0000   -39.6407     7.0652     8.0106  -999.2500     8.2647     2.4883     0.0030     0.1150
  151.5000   -39.6359     7.0828     7.9401  -999.2500     8.2631     2.4875     0.0030     0.1148
  152.0000   -39.6311     7.1005     7.8711  -999.2500     8.2614     2.4866     0.0030     0.1151
  152.5000   -39.6262     7.1183     7.8098  -999.2500     8.2599     2.4919     0.0028     0.1149
  153.0000   -39.6214     7.1361     7.9075  -999.2500     8.2582     2.4924     0.0022     0.1114
  153.5000   -39.6166     7.1538     7.9968  -999.2500     8.2504     2.4889     0.0015     0.1134
  154.0000   -39.6118     7.1716     8.0871  -999.2500     8.1981     2.4864     0.0014     0.1157
  154.5000   -39.6070     7.2005     8.1785  -999.2500     8.1455     2.4921     0.0046     0.1133
  155.0000   -39.6022     7.3123     8.2709  -999.2500     8.0927     2.4987     0.0077     0.1107
  155.5000   -39.5974     7.4262     8.3644  -999.2500     8.0403     2.4990     0.0109     0.1090
  156.0000   -39.5926     7.5404     8.4851  -999.2500     8.0300     2.4994     0.0143     0.1090
  156.5000   -39.5877     7.5964     8.4798  -999.2500     8.0203     2.5045     0.0181     0.1050
  157.0000   -39.5829     7.5964     8.4724  -999.2500     8.0104     2.5135     0.0219     0.0978
  157.5000   -39.5781     7.5964     8.4650  -999.2500     8.0004     2.5196     0.0258     0.0942
  158.0000   -39.5733     7.5964     8.4576  -999.2500     7.9905     2.5159     0.0304     0.0957
  158.5000   -39.5685     7.5964     8.4502  -999.2500     7.9808     2.5115     0.0303     0.0972
  159.0000   -39.5637     7.5964     8.4429  -999.2500     7.9482     2.5122     0.0297     0.0974
  159.5000   -39.5589     7.5964     8.4355  -999.2500     7.9092     2.5199     0.0291     0.0948
  160.0000   -39.5550     7.5964     8.4282  -999.2500     7.8704     2.5271     0.0225     0.0922
  160.5000   -39.5495     7.5964     8.4211  -999.2500     7.8379     2.5218     0.0118     0.0969
  161.0000   -39.5341     7.5964     8.4135  -999.2500     7.8383     2.4957     0.0028     0.1029
  161.5000   -38.9765     7.5964     8.4072  -999.2500     7.8193     2.5008     0.0031     0.1089
  162.0000   -37.7228     7.5964     8.5947  -999.2500     7.7683     2.4952     0.0033     0.1102
  162.5000   -37.5321     7.5964     8.7617  -999.2500     7.7228     2.5055     0.0035     0.1033
  163.0000   -37.5118     7.5964     8.8039  -999.2500     7.7906     2.5215     0.0036     0.0964
  163.5000   -37.4950     7.5964     8.8039  -999.2500     7.8635     2.5348     0.0037     0.0896
  164.0000   -37.4762     7.5964     8.8040   103.7077     7.9355     2.5337     0.0039     0.0882
