~VERSION INFORMATION
 VERS.                2.0:   CWLS LOG ASCII STANDARD - VERSION 2.0
 WRAP.                 NO:   ONE LINE PER DEPTH STEP
~WELL INFORMATION
#MNEM.UNIT      DATA TYPE    INFORMATION
#----------   ------------   ------------------------------
 STRT.F           10.0000:   START DEPTH
 STOP.F          580.0000:   STOP DEPTH
 STEP.F            0.5000:   STEP LENGTH
 NULL.          -999.2500:   NO VALUE
 COMP. FENIX & SCISSON INC:   COMPANY
 WELL.     NPR 3 #28-S-34:   WELL
 FLD .        TEAPOT DOME:   FIELD
 LOC .      S34 T39N R78W:   LOCATION
 CNTY.            NATRONA:   COUNTY
 STAT.            WYOMING:   STATE
 CTRY. UNITED STATES OF AMERICA:   COUNTRY
 SRVC.           BIRDWELL:   SERVICE COMPANY
 DATE.        05-AUG-1978:   LOGDATE
 API .       490251068200:   API NUMBER
~CURVE INFORMATION
#MNEM.UNIT       API CODE    CURVE DESCRIPTION
#----------   ------------   ------------------------------
 DEPT.F                  :   
 SPR .MV     05 010 01 00:   SPONTANEOUS POTENTIAL FROM RES.
 IL  .OHMM   05 120 00 00:   INDUCTION LOG
 SN  .OHMM   05 040 16 00:   SHORT NORMAL 16"
 GRD .GAPI   45 310 01 00:   GAMMA RAY FROM DENSITY LOG
 CALD.IN     45 280 60 00:   CALIPER
 RHOB.G/C3   45 350 01 00:   BULK DENSITY
 DPHI.DEC    45 890 12 00:   DENSITY POROSITY SANDSTONE
 CORR.G/C3   45 356 01 00:   DENSITY CORRECTION
~PARAMETER INFORMATION
#MNEM.UNIT          VALUE    DESCRIPTION
#----------   ------------   ------------------------------
 PD  .                 GL:   PERMANENT DATUM
 EPD .F              5191:   ELEVATION PERMANENT DATUM
 LMF .                 KB:   LOG MEASURED FROM
 DAPD.F                 4:   FEET ABOVE PERMANENT DATUM
 DMF .                 KB:   DRILLING MEASURED FROM
 EKB .F              5195:   KELLING BUSHING
 EGL .F              5191:   GROUND LEVEL
 DATE.             8-5-78:   RUN DATE
 RUN .                  1:   RUN NUMBER
 DD  .F               570:   DEPTH DRILLER
 DL  .F               586:   DEPTH LOGGER
 BLI .F               580:   BOTTOM LOG INTERVAL
 TLI .F                30:   TOP LOG INTERVAL
 CS  .IN            8.625:   CASING SIZE
 BS  .IN            7.875:   BIT SIZE
 BSD .F               570:   BIT SIZE AT DEPTH
 DFT .                KCL:   DRILLING FLUID TYPE
 DFD .                8.6:   DRILLING FLUID DENSITY
 DFV .                 32:   DRILLING FLUID VISCOSITY
 DFPH.                9.5:   DRILLING FLUID PH
 MSS .          FLOW LINE:   MUD SAMPLE SOURCE
 RMS .OHMM             .9:   RESISTIVITY MUD SAMPLE
 MST .F                74:   MUD SAMPLE TEMPERATURE
 RMF .OHMM            .17:   RESISTIVITY MUD FILTRATE SAMPLE
 MFST.F                79:   MUD FILTRATE SAMPLE TEMPERATURE
 RMC .OHMM            .42:   RESISTIVITY MUD CAKE
 MCST.F                80:   MUD CAKE SAMPLE TEMPERATURE
 MFSS.               MEAS:   MUD FILTRATE SAMPLE SOURCE
 TCS .HRS               3:   TIME CURCULATED STOPPED
 LUN .               3006:   LOGGING UNIT NUMBER
 LUL .               CASP:   LOGGING UNIT LOCATION
 ENGI.             MILLER:   RECORDING ENGINEER
 WITN.           MCGINLEY:   WITNESSED BY
 CLNT.            A2DTECH:   CLIENT CODE
 ORIG.           5" PRINT:   ORIGIN OF DATA
 UWI .       490251068200:   UNIQUE WELL ID
 DICO. A2D Technologies, Inc.:   DIGITIZING COMPANY
~OTHER INFORMATION
~A   DEPT      SPR         IL         SN         GRD      CALD       RHOB       DPHI       CORR   
# ...
  334.0000   -17.2990     4.3470     3.9950    92.0590     7.6270     2.4510     0.1330     0.0010
  334.5000   -17.3380     4.5680     4.2650    95.4260     7.6340     2.4540     0.1270     0.0030
  335.0000   -17.3810     4.7750     4.5350    98.7680     7.6420     2.4640     0.1270     0.0050
  335.5000   -17.4250     4.9810     4.7450    99.6620     7.6500     2.4650     0.1290     0.0070
  336.0000   -17.4700     5.1550     4.8540    98.1770     7.6570     2.4620     0.1320     0.0090
  336.5000   -17.5140     5.1510     4.9350    96.6780     7.6650     2.4590     0.1340     0.0090
  337.0000   -17.5580     5.1440     4.9690    95.1630     7.6730     2.4550     0.1350     0.0070
  337.5000   -17.6020     5.1370     4.9690    93.8990     7.6800     2.4520     0.1350     0.0050
  338.0000   -17.6460     5.1300     4.9690    96.1990     7.7050     2.4520     0.1340     0.0030
  338.5000   -17.6910     5.1230     4.9690    97.7140     7.6950     2.4530     0.1420     0.0010
  339.0000   -17.7350     5.1160     4.9690    97.9570     7.6870     2.4340     0.1510    -0.0010
  339.5000   -17.7790     5.1090     4.9250    99.6450     7.6790     2.4160     0.1590    -0.0030
  340.0000   -17.8230     4.9950     4.7250    99.1830     7.6710     2.3970     0.1740    -0.0060
  340.5000   -17.8670     4.8140     4.5240    95.7440     7.6630     2.3780     0.1840    -0.0020
  341.0000   -17.8990     4.6320     4.3230    98.6930     7.6550     2.3620     0.1840     0.0050
  341.5000   -17.6820     4.4500     4.1890   109.2500     7.6470     2.3730     0.1730     0.0130
  342.0000   -17.4330     4.2680     4.0670   110.7290     7.6390     2.3880     0.1630     0.0070
  342.5000   -17.1820     4.0860     3.9460   105.0150     7.6310     2.4040     0.1530     0.0050
  343.0000   -16.9320     3.9120     3.8060    98.9150     7.6230     2.4190     0.1460     0.0110
  343.5000   -16.6820     3.8770     3.8330    92.8100     7.6150     2.4320     0.1470     0.0160
  344.0000   -16.4310     3.9370     3.8920    88.6780     7.6070     2.4300     0.1490     0.0020
  344.5000   -16.1720     4.1770     4.0160    88.4060     7.6030     2.4290     0.1440    -0.0040
  345.0000   -16.1030     4.4170     4.1750    91.0350     7.6010     2.4430     0.1370    -0.0010
  345.5000   -16.0640     4.6560     4.3330    96.7280     7.5980     2.4560     0.1300     0.0010
  346.0000   -15.9860     4.8960     4.4920   102.4960     7.5960     2.4690     0.1220     0.0040
  346.5000   -15.9090     5.1360     4.6510   101.9220     7.5930     2.4790     0.1210     0.0050
  347.0000   -15.8320     5.3760     4.8100   103.0060     7.5910     2.4770     0.1240     0.0030
  347.5000   -15.7550     5.6160     4.9680   103.5490     7.5880     2.4730     0.1260     0.0010
  348.0000   -15.7010     5.8560     5.1270    97.5510     7.5860     2.4700     0.1240     0.0030
  348.5000   -15.8560     6.0820     5.2860    93.2850     7.5860     2.4780     0.1200     0.0070
  349.0000   -16.0300     6.0820     5.4440    94.7140     7.5880     2.4850     0.1180     0.0120
  349.5000   -16.2040     6.0660     5.6030    97.8990     7.5900     2.4860     0.1180     0.0120
  350.0000   -16.3770     6.0470     5.6510   100.8530     7.5920     2.4860     0.1190     0.0100
  350.5000   -16.5030     6.0290     5.6510    97.6140     7.5940     2.4790     0.1240     0.0080
  351.0000   -16.5240     6.0100     5.6510    92.9370     7.5960     2.4710     0.1280     0.0060
  351.5000   -16.5510     5.9920     5.6510    90.3950     7.5990     2.4640     0.1330     0.0020
  352.0000   -16.5780     5.9710     5.5620    91.1710     7.6010     2.4560     0.1360    -0.0050
  352.5000   -16.6060     5.8960     5.4820    94.1650     7.6030     2.4490     0.1390    -0.0100
  353.0000   -16.6350     5.7900     5.4020    97.1700     7.6050     2.4450     0.1420    -0.0120
  353.5000   -16.6640     5.6840     5.3220    97.5430     7.6070     2.4410     0.1470    -0.0140
  354.0000   -16.6760     5.5780     5.2420    97.3000     7.6090     2.4290     0.1530    -0.0160
  354.5000   -17.1310     5.4020     5.1550    97.1430     7.6110     2.4150     0.1610    -0.0190
  355.0000   -16.8330     5.1980     4.9540    97.3850     7.6130     2.4010     0.1690    -0.0210
  355.5000   -16.5240     4.9950     4.7350    95.6280     7.6160     2.3870     0.1770    -0.0200
  356.0000   -16.2220     4.7910     4.5160    93.1940     7.6180     2.3730     0.1830    -0.0100
  356.5000   -15.9220     4.5870     4.3390    91.9690     7.6200     2.3630     0.1830     0.0000
  357.0000   -15.6200     4.3690     4.2490    95.7010     7.6220     2.3830     0.1660     0.0100
  357.5000   -15.3160     4.2890     4.1590    96.6570     7.6240     2.4120     0.1480     0.0110
  358.0000   -15.3510     4.2890     4.0590    95.3600     7.6300     2.4420     0.1290     0.0080
  358.5000   -15.4050     4.4530     4.2170    93.5180     7.6380     2.4720     0.1240     0.0060
  359.0000   -15.4600     4.7050     4.4320    95.5490     7.6460     2.4740     0.1260     0.0030
  359.5000   -15.5150     4.9580     4.6470   100.7170     7.6550     2.4680     0.1280     0.0000
  360.0000   -15.5690     5.2100     4.8620    98.5880     7.6620     2.4620     0.1310    -0.0010
  360.5000   -15.6240     5.4630     5.0770    95.7040     7.6850     2.4610     0.1300     0.0050
  361.0000   -15.6790     5.7150     5.2920    95.2160     7.6670     2.4670     0.1270     0.0100
  361.5000   -15.7330     5.9680     5.5080    99.5500     7.6510     2.4710     0.1260     0.0100
  362.0000   -15.7880     6.1380     5.7230   103.7800     7.6340     2.4700     0.1270     0.0070
  362.5000   -15.8430     6.1310     5.8640   106.4480     7.6180     2.4680     0.1220     0.0060
  363.0000   -15.8970     6.1240     5.8740   103.6090     7.6020     2.4810     0.1210     0.0090
  363.5000   -15.8930     6.1170     5.8840    99.0570     7.5850     2.4820     0.1210     0.0130
  364.0000   -15.8850     6.1090     5.8940    96.5430     7.5680     2.4820     0.1210     0.0150
  364.5000   -15.8780     6.1020     5.9040    98.4500     7.5650     2.4830     0.1180     0.0130
  365.0000   -15.8700     6.0940     5.9140   100.9100     7.5890     2.4830     0.1190     0.0120
  365.5000   -15.8620     6.0870     5.9200    99.5690     7.6130     2.4810     0.1210     0.0110
  366.0000   -15.8550     6.0820     5.9240    99.0460     7.6200     2.4780     0.1230     0.0090
  366.5000   -15.8470     6.0870     5.9280   104.7080     7.6100     2.4760     0.1210     0.0080
  367.0000   -15.8400     6.0920     5.9320   108.8490     7.6050     2.4790     0.1200     0.0070
  367.5000   -15.8320     6.0960     5.9360   106.4540     7.6130     2.4830     0.1180     0.0070
  368.0000   -15.8240     6.1010     5.9400    99.5010     7.6240     2.4860     0.1170     0.0070
  368.5000   -15.8170     6.1050     5.9440    99.2010     7.6350     2.4840     0.1190     0.0060
  369.0000   -15.8090     6.1090     5.9480   103.6490     7.6440     2.4800     0.1210     0.0060
  369.5000   -15.8020     6.1140     5.9520   107.3110     7.6220     2.4760     0.1220     0.0050
  370.0000   -15.7940     6.1180     5.9560   109.5190     7.5970     2.4730     0.1240     0.0050
  370.5000   -15.7860     6.1230     5.9600   103.5540     7.5720     2.4720     0.1250     0.0040
  371.0000   -15.7790     6.1270     5.9640   102.5780     7.5460     2.4720     0.1250     0.0030
  371.5000   -15.7710     6.1320     5.9680   103.8160     7.5530     2.4700     0.1300     0.0010
  372.0000   -15.7640     6.1400     5.9710   102.1810     7.5680     2.4620     0.1340     0.0010
  372.5000   -15.7560     6.1090     5.8180    99.0370     7.5830     2.4530     0.1380     0.0010
  373.0000   -15.7490     5.9530     5.6890    98.0380     7.5980     2.4450     0.1420     0.0060
  373.5000   -15.7410     5.7970     5.5600    98.3170     7.6130     2.4370     0.1460     0.0100
  374.0000   -15.7330     5.6420     5.4310   103.1370     7.6280     2.4280     0.1470     0.0150
