~VERSION INFORMATION
 VERS.                2.0:   CWLS LOG ASCII STANDARD - VERSION 2.0
 WRAP.                 NO:   ONE LINE PER DEPTH STEP
~WELL INFORMATION
#MNEM.UNIT      DATA TYPE    INFORMATION
#----------   ------------   ------------------------------
 STRT.F            0.0000:   START DEPTH
 STOP.F          561.0000:   STOP DEPTH
 STEP.F            0.1000:   STEP LENGTH
 NULL.          -999.2500:   NO VALUE
 COMP.       F D SERV INC:   COMPANY
 WELL.  83-1 sx 10 #83-10:   WELL
 FLD .             TEAPOT:   FIELD
 LOC .      S10 T38N R78W:   LOCATION
 CNTY.            NATRONA:   COUNTY
 STAT.            WYOMING:   STATE
 CTRY. UNITED STATES OF AMERICA:   COUNTRY
 SRVC.     Atlas Wireline:   SERVICE COMPANY
 DATE.        10-DEC-1992:   LOGDATE
 API .       490252258000:   API NUMBER
~CURVE INFORMATION
#MNEM.UNIT       API CODE    CURVE DESCRIPTION
#----------   ------------   ------------------------------
 DEPT.F                  :   
 GRR .GAPI   07 310 01 00:   GAMMA RAY
 RILD.OHMM   07 120 46 00:   INDUCTION LOG DEEP RESISTIVITY
 RILM.OHMM   07 120 44 00:   INDUCTION LOG MEDIUM RESISTIVITY
~PARAMETER INFORMATION
#MNEM.UNIT          VALUE    DESCRIPTION
#----------   ------------   ------------------------------
 PD  .                 GL:   PERMANENT DATUM
 EPD .F              5170:   ELEVATION PERMANENT DATUM
 LMF .                 KB:   LOG MEASURED FROM
 DAPD.F                10:   FEET ABOVE PERMANENT DATUM
 DMF .                 KB:   DRILLING MEASURED FROM
 EKB .F              5180:   KELLING BUSHING
 EDF .F              5179:   DRILLING FLOOR
 EGL .F              5170:   GROUND LEVEL
 DATE.        10-DEC-1992:   RUN DATE
 RUN .                  1:   RUN NUMBER
 DD  .F               567:   DEPTH DRILLER
 DL  .F               569:   DEPTH LOGGER
 BLI .F               560:   BOTTOM LOG INTERVAL
 TLI .F                97:   TOP LOG INTERVAL
 CS  .IN            8.625:   CASING SIZE
 CBD .F                97:   CASING BOTTOM DRILLER
 CBL .F                97:   CASING BOTTOM LOGGER
 BS  .IN            7.875:   BIT SIZE
 BSD .F               567:   BIT SIZE AT DEPTH
 DFT .           AIR FOAM:   DRILLING FLUID TYPE
 MRT .F                65:   MAXIMUM RECORDED TEMPERATURE
 LUN .           HL- 6274:   LOGGING UNIT NUMBER
 LUL .             CASPER:   LOGGING UNIT LOCATION
 ENGI.       P. RASMUSSEN:   RECORDING ENGINEER
 WITN.          G. STRONG:   WITNESSED BY
 CLNT.            A2DTECH:   CLIENT CODE
 ORIG.           5" PRINT:   ORIGIN OF DATA
 UWI .       490252258000:   UNIQUE WELL ID
 DICO. A2D Technologies, Inc.:   DIGITIZING COMPANY
~OTHER INFORMATION
~A    DEPT      GRR      RILD       RILM   
# ...
  127.4000   134.7496     7.8294     7.5824
  127.5000   134.8584     7.8026     7.5825
  127.6000   134.9892     7.7758     7.5826
  127.7000   135.1868     7.7762     7.5655
  127.8000   135.4484     7.7766     7.5304
  127.9000   135.7101     7.7771     7.5305
  128.0000   135.9717     7.7775     7.5306
  128.1000   136.2671     7.7779     7.5307
  128.2000   136.4949     7.7502     7.4971
  128.3000   136.7565     7.7247     7.4789
  128.4000   137.0181     7.7122     7.4790
  128.5000   137.2797     7.6717     7.4791
  128.6000   137.5413     7.6722     7.4792
  128.7000   137.8030     7.6726     7.4794
  128.8000   138.0880     7.6731     7.4795
  128.9000   138.3261     7.6735     7.4796
  129.0000   138.5877     7.6739     7.4797
  129.1000   138.8494     7.6605     7.4579
  129.2000   139.1110     7.6213     7.4282
  129.3000   139.3726     7.6218     7.4283
  129.4000   139.6342     7.5693     7.4292
  129.5000   139.9090     7.5696     7.4802
  129.6000   140.1574     7.5700     7.4803
  129.7000   140.4190     7.5483     7.4804
  129.8000   140.6806     7.5182     7.4805
  129.9000   140.8194     7.5186     7.4806
  130.0000   140.9004     7.5190     7.4807
  130.1000   141.1620     7.5195     7.4841
  130.2000   141.4264     7.5199     7.5329
  130.3000   141.4264     7.5203     7.5330
  130.4000   141.2095     7.5207     7.5331
  130.5000   140.7729     7.5211     7.5332
  130.6000   140.2497     7.5216     7.5535
  130.7000   139.7265     7.5230     7.5858
  130.8000   139.1539     7.5752     7.5859
  130.9000   138.3765     7.5755     7.5861
  131.0000   137.7845     7.5760     7.5862
  131.1000   137.1029     7.6008     7.5863
  131.2000   136.5034     7.6299     7.5864
  131.3000   135.9802     7.6303     7.5865
  131.4000   135.5585     7.6308     7.6022
  131.5000   135.2969     7.6312     7.6394
  131.6000   135.0353     7.6722     7.6395
  131.7000   134.7496     7.6855     7.6397
  131.8000   134.9871     7.6859     7.6398
  131.9000   135.0531     7.6864     7.6399
  132.0000   135.2069     7.6868     7.6400
  132.1000   135.3566     7.6872     7.6401
  132.2000   135.3566     7.6877     7.6402
  132.3000   135.3847     7.7301     7.6403
  132.4000   135.6601     7.7424     7.6404
  132.5000   135.6601     7.7428     7.6405
  132.6000   135.8660     7.7628     7.6406
  132.7000   135.9636     7.7980     7.6688
  132.8000   136.0858     7.7984     7.6940
  132.9000   136.3474     7.7989     7.6941
  133.0000   136.5706     7.8430     7.6942
  133.1000   136.5706     7.8544     7.6943
  133.2000   136.5706     7.8834     7.6944
  133.3000   136.5706     7.9103     7.7326
  133.4000   136.5706     7.9240     7.7481
  133.5000   136.5706     7.9666     7.7482
  133.6000   136.4799     7.9671     7.7483
  133.7000   136.1696     8.0133     7.7575
  133.8000   135.6464     8.0238     7.8024
  133.9000   135.0531     8.0242     7.8025
  134.0000   134.5999     8.0472     7.8026
  134.1000   134.0767     8.0813     7.8027
  134.2000   133.5535     8.0818     7.8293
  134.3000   132.9293     8.0823     7.8572
  134.4000   132.2035     8.1394     7.8691
  134.5000   131.6631     8.1398     7.9121
  134.6000   130.8042     8.1402     7.9122
  134.7000   130.0934     8.1647     7.9123
  134.8000   129.5036     8.1982     7.9494
  134.9000   128.8273     8.1987     7.9973
  135.0000   128.1538     8.1991     8.0231
  135.1000   127.6305     8.2571     8.0379
  135.2000   127.1349     8.2575     8.0791
  135.3000   126.8589     8.2580     8.0792
  135.4000   126.6117     8.2584     8.1355
  135.5000   126.5554     8.2589     8.1356
  135.6000   126.5554     8.2686     8.1688
  135.7000   126.6770     8.3177     8.1924
  135.8000   126.9386     8.3182     8.1925
  135.9000   127.1624     8.3186     8.2027
  136.0000   127.1624     8.3540     8.2497
  136.1000   127.4659     8.3778     8.2499
  136.2000   127.4659     8.3783     8.2252
  136.3000   127.8135     8.3788     8.1931
  136.4000   128.2048     8.3792     8.1932
  136.5000   128.5564     8.3798     8.1933
  136.6000   129.0796     8.4248     8.1935
  136.7000   129.5966     8.4394     8.1936
  136.8000   129.8938     8.4398     8.1937
  136.9000   130.3458     8.4403     8.1938
  137.0000   130.6849     8.4408     8.1743
  137.1000   130.9465     8.4413     8.1374
  137.2000   131.3085     8.4418     8.1375
  137.3000   131.7732     8.4422     8.1377
  137.4000   132.0348     8.4427     8.0926
  137.5000   132.3217     8.4431     8.0817
  137.6000   132.7944     8.4436     8.0818
  137.7000   133.1231     8.4441     8.0599
  137.8000   133.3847     8.4446     8.0262
  137.9000   133.6463     8.4451     8.0263
  138.0000   133.9080     8.4455     8.0264
  138.1000   134.1426     8.4072     8.0265
  138.2000   134.1426     8.3877     8.0266
  138.3000   134.3893     8.3660     8.0267
  138.4000   134.4461     8.3302     8.0269
  138.5000   134.4461     8.3249     8.0270
  138.6000   134.4461     8.2732     8.0271
  138.7000   134.3670     8.2737     8.0272
  138.8000   134.1426     8.2741     8.0273
  138.9000   134.1426     8.2435     8.0274
  139.0000   134.1426     8.2175     8.0275
  139.1000   133.9276     8.2179     8.0276
  139.2000   133.8392     8.2115     8.0277
  139.3000   133.8392     8.1617     8.0279
  139.4000   133.8392     8.1622     8.0280
  139.5000   133.7916     8.1626     8.0281
  139.6000   133.5357     8.1630     8.0282
  139.7000   133.5357     8.1396     8.0283
  139.8000   133.5357     8.1071     8.0284
  139.9000   133.5357     8.1076     8.0062
  140.0000   133.6773     8.1080     7.9732
  140.1000   133.8392     8.0521     7.9733
  140.2000   133.8970     8.0525     7.9734
  140.3000   134.1586     8.0529     7.9185
  140.4000   134.4461     8.0534     7.9186
  140.5000   134.6818     8.0538     7.9187
  140.6000   134.9435     8.0543     7.8941
  140.7000   135.2051     8.0536     7.8642
  140.8000   135.4667     7.9992     7.8546
  140.9000   135.7283     7.9996     7.8101
  141.0000   136.0162     7.9666     7.8102
  141.1000   136.5706     7.9448     7.7687
  141.2000   136.8166     7.9276     7.7225
  141.3000   137.2823     7.8805     7.6765
  141.4000   137.8055     7.8359     7.6499
  141.5000   138.3288     7.8364     7.6381
  141.6000   138.7735     7.7954     7.5973
  141.7000   138.9985     7.7491     7.5974
  141.8000   138.9985     7.7290     7.5546
  141.9000   138.9985     7.7294     7.5452
  142.0000   138.7840     7.7191     7.5168
  142.1000   138.6950     7.6765     7.4933
  142.2000   138.5643     7.6770     7.4934
  142.3000   138.3915     7.6774     7.4935
  142.4000   138.3445     7.6778     7.4936
  142.5000   138.0829     7.6515     7.4419
  142.6000   137.7845     7.6252     7.4420
  142.7000   137.3349     7.6140     7.4421
  142.8000   137.1775     7.5730     7.4186
  142.9000   137.0365     7.5735     7.3909
  143.0000   136.7749     7.5317     7.3910
  143.1000   136.5133     7.5216     7.3885
  143.2000   136.2671     7.5220     7.3402
  143.3000   136.2671     7.5224     7.3403
  143.4000   136.0320     7.5103     7.3404
  143.5000   135.7704     7.4708     7.3148
  143.6000   135.6601     7.4713     7.2899
  143.7000   135.6601     7.4717     7.2900
  143.8000   135.6601     7.4721     7.2901
  143.9000   135.6601     7.4445     7.2902
  144.0000   135.6601     7.4210     7.2903
  144.1000   135.4147     7.4214     7.2556
  144.2000   135.3566     7.4156     7.2402
  144.3000   135.3566     7.3706     7.2403
  144.4000   135.3566     7.3198     7.2404
  144.5000   135.3566     7.3201     7.2405
  144.6000   135.3566     7.2920     7.2406
  144.7000   135.3566     7.2700     7.2407
  144.8000   135.3566     7.2562     7.2408
  144.9000   135.3566     7.2201     7.2409
  145.0000   135.0127     7.2206     7.2176
  145.1000   134.6195     7.2211     7.1910
  145.2000   134.2697     7.2214     7.1911
  145.3000   133.7928     7.2218     7.1912
  145.4000   133.5268     7.2445     7.1914
  145.5000   132.9287     7.2732     7.1914
