~VERSION INFORMATION
 VERS.                2.0:   CWLS LOG ASCII STANDARD - VERSION 2.0
 WRAP.                 NO:   ONE LINE PER DEPTH STEP
~WELL INFORMATION
#MNEM.UNIT      DATA TYPE    INFORMATION
#----------   ------------   ------------------------------
 STRT.F           30.0000:   START DEPTH
 STOP.F          733.0000:   STOP DEPTH
 STEP.F            0.5000:   STEP LENGTH
 NULL.          -999.2500:   NO VALUE
 COMP. FENIX & SCISSON INC:   COMPANY
 WELL.    NPR-3 #51 S -34:   WELL
 FLD .             TEAPOT:   FIELD
 LOC .      S34 T39N R78W:   LOCATION
 CNTY.            NATRONA:   COUNTY
 STAT.            WYOMING:   STATE
 CTRY. UNITED STATES OF AMERICA:   COUNTRY
 SRVC.      Dresser Atlas:   SERVICE COMPANY
 DATE.        20-MAR-1977:   LOGDATE
 API .       490251031600:   API NUMBER
~CURVE INFORMATION
#MNEM.UNIT       API CODE    CURVE DESCRIPTION
#----------   ------------   ------------------------------
 DEPT.F                  :   
 CALD.IN     45 280 60 00:   CALIPER FROM DENSITY LOG
 GRD .GAPI   45 310 01 00:   GAMMA RAY FROM DENSITY LOG
 CORR.G/C3   45 356 01 00:   DENSITY CORRECTION
 DPHI.DEC    45 890 12 00:   DENSITY POROSITY SANDSTONE
 RHOB.G/C3   45 350 01 00:   BULK DENSITY
 SPR .MV     07 010 01 00:   SPONTANEOUS POTENTIAL
 ILD .OHMM   07 120 46 00:   INDUCTION LOG DEEP
 ILM .OHMM   07 120 44 00:   INDUCTION LOG MEDIUM
 SFL .OHMM   07 220 01 00:   SHALLOW FOCUSED LOG RESISTIVITY
~PARAMETER INFORMATION
#MNEM.UNIT          VALUE    DESCRIPTION
#----------   ------------   ------------------------------
 PD  .                 GL:   PERMANENT DATUM
 EPD .F              5065:   ELEVATION PERMANENT DATUM
 LMF .                 KB:   LOG MEASURED FROM
 DAPD.F                 4:   FEET ABOVE PERMANENT DATUM
 DMF .                 KB:   DRILLING MEASURED FROM
 EKB .F              5069:   KELLING BUSHING
 EGL .F              5065:   GROUND LEVEL
 DATE.        20-MAR-1977:   RUN DATE
 RUN .                  1:   RUN NUMBER
 DD  .F               735:   DEPTH DRILLER
 DL  .F               731:   DEPTH LOGGER
 BLI .F               729:   BOTTOM LOG INTERVAL
 TLI .F                42:   TOP LOG INTERVAL
 CS  .IN            8.625:   CASING SIZE
 CBD .F                40:   CASING BOTTOM DRILLER
 CBL .F                42:   CASING BOTTOM LOGGER
 BS  .IN            7.875:   BIT SIZE
 BSD .F               735:   BIT SIZE AT DEPTH
 DFT .           CHEM GEL:   DRILLING FLUID TYPE
 DFD .                9.0:   DRILLING FLUID DENSITY
 DFV .                 38:   DRILLING FLUID VISCOSITY
 DFPH.                8.5:   DRILLING FLUID PH
 DFL .                 72:   DRILLING FLUID LOSS
 MSS .           FLOWLINE:   MUD SAMPLE SOURCE
 RMS .OHMM             .4:   RESISTIVITY MUD SAMPLE
 MST .F                51:   MUD SAMPLE TEMPERATURE
 RMF .OHMM            .72:   RESISTIVITY MUD FILTRATE SAMPLE
 MFST.F                48:   MUD FILTRATE SAMPLE TEMPERATURE
 RMC .OHMM           1.16:   RESISTIVITY MUD CAKE
 MCST.F                48:   MUD CAKE SAMPLE TEMPERATURE
 MFSS.               MEAS:   MUD FILTRATE SAMPLE SOURCE
 MCSS.               MEAS:   MUD CAKE SAMPLE SOURCE
 RMB .OHMM            .31:   RESISTIVITY MUD AT BHT
 BHT .F                66:   BOTTOM HOLE TEMPERATURE
 TCS .HRS            0300:   TIME CURCULATED STOPPED
 MRT .F                66:   MAXIMUM RECORDED TEMPERATURE
 LUN .               6145:   LOGGING UNIT NUMBER
 LUL .              GLTTE:   LOGGING UNIT LOCATION
 ENGI.              RANCK:   RECORDING ENGINEER
 WITN.              BURKE:   WITNESSED BY
 CLNT.            A2DTECH:   CLIENT CODE
 ORIG.           5" PRINT:   ORIGIN OF DATA
 UWI .       490251031600:   UNIQUE WELL ID
 DICO. A2D Technologies, Inc.:   DIGITIZING COMPANY
~OTHER INFORMATION
~A   DEPT     CALD        GRD       CORR       DPHI       RHOB        SPR        ILD        ILM        SFL   
# ...
  249.0000     8.2538   108.9179     0.0419     0.0870     2.5078   -50.3327     5.8094     6.9247     7.5254
  249.5000     8.2556   109.6836     0.0420     0.0888     2.5056   -50.3148     5.8530     7.0251     7.5819
  250.0000     8.2570   109.4455     0.0407     0.0892     2.5042   -50.1499     5.8966     7.0779     7.6993
  250.5000     8.2576   107.0414     0.0392     0.0895     2.5031   -50.1360     6.0655     7.1860     7.8022
  251.0000     8.2581   105.8569     0.0365     0.0898     2.5019   -50.1223     6.2392     7.4901     7.9149
  251.5000     8.2587   104.5209     0.0336     0.0908     2.5007   -50.1088     6.4179     7.7048     8.0850
  252.0000     8.2592   101.6358     0.0307     0.0917     2.4998   -50.0953     6.4215     7.7627     8.2018
  252.5000     8.2598   100.2214     0.0309     0.0910     2.4998   -50.0818     6.3806     7.7760     8.4363
  253.0000     8.2603    99.7999     0.0325     0.0871     2.5051   -50.0683     6.3843     7.8327     8.8596
  253.5000     8.2609   100.7121     0.0312     0.0895     2.5089   -50.0548     6.3879     7.8831     8.9255
  254.0000     8.2615   101.6243     0.0313     0.0934     2.5022   -50.0413     6.3914     7.8875     8.9299
  254.5000     8.2620   102.2379     0.0300     0.0939     2.4970   -50.1776     6.3950     7.9467     9.0588
  255.0000     8.2626   102.5531     0.0286     0.0942     2.4962   -50.3134     6.3986     7.9511     9.3178
  255.5000     8.2631   102.7190     0.0288     0.0936     2.4978   -50.2994     6.3580     7.9555     9.6508
  256.0000     8.2637   101.5416     0.0289     0.0915     2.5001   -50.2859     6.3616     7.9600     9.7226
  256.5000     8.2643   100.3642     0.0306     0.0866     2.5076   -50.2724     6.2768     7.8549     9.4616
  257.0000     8.2655   100.2274     0.0323     0.0794     2.5174   -50.2589     6.2369     7.6445     9.1441
  257.5000     8.2671   101.7407     0.0339     0.0767     2.5250   -50.5439     6.2413     7.4398     8.7156
  258.0000     8.2534   102.0559     0.0340     0.0782     2.5280   -50.5304     6.2017     7.1410     8.4231
  258.5000     8.2552   104.4606     0.0342     0.0847     2.5210   -50.6696     6.2052     6.9498     8.3103
  259.0000     8.2568   105.7837     0.0343     0.0868     2.5129   -50.6527     6.1658     6.9047     8.2570
  259.5000     8.2435   106.5834     0.0346     0.0874     2.5063   -50.7919     6.1259     6.8609     8.2620
  260.0000     8.2451   105.2568     0.0361     0.0884     2.5041   -51.0769     6.0870     6.8657     8.2661
  260.5000     8.2468   107.8107     0.0271     0.0920     2.5027   -51.2126     6.0493     6.8212     8.3276
  261.0000     8.2485   109.5134     0.0199     0.0968     2.4952   -51.3450     6.0101     6.7788     8.3895
  261.5000     8.2501   110.3776     0.0170     0.1002     2.4847   -51.3315     5.9316     6.7826     8.5107
  262.0000     8.2518   110.0953     0.0157     0.1011     2.4788   -51.3181     5.9343     6.7386     8.5740
  262.5000     8.2535   109.9627     0.0173     0.0971     2.4901   -51.1553     5.8965     6.7433     8.5180
  263.0000     8.2551   110.1286     0.0250     0.0935     2.4999   -51.1418     5.8998     6.7471     8.3479
  263.5000     8.2568   110.7422     0.0282     0.0920     2.5029   -51.1283     5.8219     6.7509     8.3520
  264.0000     8.2431   110.9081     0.0253     0.0941     2.5029   -50.9656     5.8252     6.8016     8.3561
  264.5000     8.2452   110.6221     0.0209     0.0968     2.4977   -50.8028     5.8284     6.8054     8.4767
  265.0000     8.2468   110.6429     0.0180     0.0982     2.4918   -50.6401     5.8317     6.8092     8.5983
  265.5000     8.2635   110.5061     0.0152     0.1009     2.4880   -50.6266     5.8754     6.8603     8.7831
  266.0000     8.2651   109.7807     0.0154     0.1024     2.4858   -50.7658     5.9196     6.9118     8.7873
  266.5000     8.2668   108.9018     0.0140     0.1030     2.4844   -50.7489     5.9640     6.9157     8.6107
  267.0000     8.2685   108.3172     0.0126     0.1020     2.4844   -50.8880     5.9673     6.9196     8.4856
  267.5000     8.2701   108.1846     0.0113     0.1005     2.4867   -50.8712     5.9706     6.9234     8.2646
  268.0000     8.2715   108.5039     0.0099     0.0996     2.4915   -50.8577     6.0155     6.9754     8.1586
  268.5000     8.2731   110.1624     0.0116     0.0993     2.4989   -50.8442     6.0188     7.0278     8.1626
  269.0000     8.2747   111.5223     0.0133     0.0992     2.4986   -50.8307     6.0222     7.1386     8.1665
  269.5000     8.2764   112.5837     0.0119     0.0998     2.4920   -50.9665     6.1095     7.3500     8.2845
  270.0000     8.2631   113.0746     0.0136     0.1004     2.4816   -50.9530     6.1129     7.6029     8.3461
  270.5000     8.2647   112.9298     0.0137     0.1010     2.4862   -50.9395     6.1588     7.8192     8.5847
  271.0000     8.2664   110.0786     0.0139     0.1012     2.4914   -50.9260     6.1623     7.9269     8.8302
  271.5000     8.2681   109.8045     0.0155     0.1012     2.4982   -50.9125     6.1657     7.9313     9.0826
  272.0000     8.2697   108.7821     0.0157     0.1000     2.4893   -50.7498     6.2120     7.9357     9.2778
  272.5000     8.2714   108.7988     0.0173     0.0984     2.4826   -50.7363     6.3021     7.9401     9.2823
  273.0000     8.2731   109.8602     0.0190     0.0966     2.5006   -50.7228     6.3494     7.8353     9.0331
  273.5000     8.2747   107.1903     0.0192     0.0966     2.5074   -50.7093     6.3970     7.7318     8.7300
  274.0000     8.2764   105.4159     0.0193     0.0978     2.4992   -50.6985     6.4898     7.6827     8.8561
  274.5000     8.2627   106.1788     0.0194     0.1014     2.4850   -50.5358     6.5385     7.7405     9.1092
  275.0000     8.2648   107.6880     0.0181     0.1053     2.4767   -50.5224     6.5876     7.9074     9.2408
  275.5000     8.2511   109.0479     0.0182     0.1010     2.4888   -50.5090     6.5913     7.9668     9.3096
  276.0000     8.2532   109.8108     0.0185     0.0983     2.4978   -50.4756     6.5495     7.9712     9.3141
  276.5000     8.2395   109.9767     0.0217     0.0977     2.5039   -50.3328     6.5986     7.9757     9.3186
  277.0000     8.2266   109.2470     0.0247     0.0989     2.5017   -50.3194     6.6016     7.9801     9.3232
  277.5000     8.2283   108.6667     0.0264     0.0997     2.4987   -50.1567     6.6973     7.9284     9.3277
  278.0000     8.2146   108.5299     0.0265     0.0976     2.4978   -50.1433     6.7475     7.9339     9.3971
  278.5000     8.2163   108.2522     0.0282     0.0940     2.4965   -50.1299     6.8501     7.9935     9.4017
  279.0000     8.2029   108.1154     0.0283     0.0913     2.4980   -50.1164     6.9446     8.0535     9.4717
  279.5000     8.2046   108.1607     0.0300     0.0894     2.4996   -50.1030     6.9983     8.1704     9.6752
  280.0000     8.2063   108.7662     0.0286     0.0888     2.5019   -50.2388     7.1474     8.2318     9.8150
  280.5000     8.1930   109.2224     0.0288     0.0897     2.5027   -50.3746     7.2010     8.3513     9.9567
  281.0000     8.1947   109.3761     0.0259     0.0897     2.5027   -50.3611     7.3562     8.4725    10.1707
  281.5000     8.1963   108.0494     0.0261     0.0875     2.5042   -50.4970     7.4114     8.6551    10.2464
  282.0000     8.1980   106.7227     0.0247     0.0860     2.5065   -50.4834     7.5711     8.7202    10.3226
  282.5000     8.1997   106.1418     0.0234     0.0851     2.5088   -50.6194     7.6809     8.9082    10.4717
  283.0000     8.2013   106.0090     0.0235     0.0842     2.5104   -50.6056     7.7923     8.9751    10.5496
  283.5000     8.2030   106.4741     0.0206     0.0859     2.5074   -50.5921     7.8508     9.1053    10.6281
  284.0000     8.2046   106.7893     0.0148     0.0931     2.5007   -50.5787     7.8552     9.1737    10.6322
  284.5000     8.2063   106.9552     0.0074     0.1006     2.4835   -50.5652     7.8596     9.3069    10.7232
  285.0000     8.2080   106.9718     0.0045     0.1009     2.4805   -50.5517     7.9186     9.4419    10.7910
