~VERSION INFORMATION
 VERS.                2.0:   CWLS LOG ASCII STANDARD - VERSION 2.0
 WRAP.                 NO:   ONE LINE PER DEPTH STEP
~WELL INFORMATION
#MNEM.UNIT      DATA TYPE    INFORMATION
#----------   ------------   ------------------------------
 STRT.F           20.0000:   START DEPTH
 STOP.F          599.0000:   STOP DEPTH
 STEP.F            0.5000:   STEP LENGTH
 NULL.          -999.2500:   NO VALUE
 COMP. FENIX & SCISSON INC:   COMPANY
 WELL.    47 SX 34 #47-34:   WELL
 FLD .             TEAPOT:   FIELD
 LOC .      S34 T39N R78W:   LOCATION
 CNTY.            NATRONA:   COUNTY
 STAT.            WYOMING:   STATE
 CTRY. UNITED STATES OF AMERICA:   COUNTRY
 SRVC.       Schlumberger:   SERVICE COMPANY
 DATE.        24-JAN-1979:   LOGDATE
 API .       490251077000:   API NUMBER
~CURVE INFORMATION
#MNEM.UNIT       API CODE    CURVE DESCRIPTION
#----------   ------------   ------------------------------
 DEPT.F                  :   
 SN  .OHMM   05 040 16 00:   SHORT NORMAL 16"
 ILD .OHMM   05 120 46 00:   INDUCTION LOG DEEP
 SPR .MV     05 010 01 00:   SPONTANEOUS POTENTIAL FROM RES.
 CALD.IN     45 280 60 00:   CALIPER
 GRD .GAPI   45 310 01 00:   GAMMA RAY FROM DENSITY LOG
 DPHI.DEC    45 890 12 00:   DENSITY POROSITY SANDSTONE
 CORR.G/C3   45 356 01 00:   DENSITY CORRECTION
 RHOB.G/C3   45 350 01 00:   BULK DENSITY
~PARAMETER INFORMATION
#MNEM.UNIT          VALUE    DESCRIPTION
#----------   ------------   ------------------------------
 PD  .                 GL:   PERMANENT DATUM
 EPD .F              5132:   ELEVATION PERMANENT DATUM
 LMF .                 KB:   LOG MEASURED FROM
 DAPD.F                 4:   FEET ABOVE PERMANENT DATUM
 DMF .                 KB:   DRILLING MEASURED FROM
 EKB .F              5136:   KELLING BUSHING
 EGL .F              5132:   GROUND LEVEL
 DATE.            1-24-79:   RUN DATE
 RUN .                  1:   RUN NUMBER
 DD  .F               600:   DEPTH DRILLER
 DL  .F               600:   DEPTH LOGGER
 BLI .F               594:   BOTTOM LOG INTERVAL
 TLI .F                28:   TOP LOG INTERVAL
 CS  .IN            8.625:   CASING SIZE
 CBD .F                40:   CASING BOTTOM DRILLER
 BS  .IN            7.875:   BIT SIZE
 BSD .F               600:   BIT SIZE AT DEPTH
 DFT .                KCL:   DRILLING FLUID TYPE
 DFD .                8.8:   DRILLING FLUID DENSITY
 DFV .                 60:   DRILLING FLUID VISCOSITY
 DFPH.                9.5:   DRILLING FLUID PH
 DFL .               10.8:   DRILLING FLUID LOSS
 MSS .           FLOWLINE:   MUD SAMPLE SOURCE
 RMS .OHMM            .22:   RESISTIVITY MUD SAMPLE
 MST .F                60:   MUD SAMPLE TEMPERATURE
 RMF .OHMM             .2:   RESISTIVITY MUD FILTRATE SAMPLE
 MFST.F                61:   MUD FILTRATE SAMPLE TEMPERATURE
 RMC .OHMM             .3:   RESISTIVITY MUD CAKE
 MCST.F                61:   MUD CAKE SAMPLE TEMPERATURE
 MFSS.           MEASURED:   MUD FILTRATE SAMPLE SOURCE
 MCSS.           MEASURED:   MUD CAKE SAMPLE SOURCE
 RMB .OHMM            .23:   RESISTIVITY MUD AT BHT
 BHT .F                58:   BOTTOM HOLE TEMPERATURE
 TCS .HRS               4:   TIME CURCULATED STOPPED
 MRT .F                58:   MAXIMUM RECORDED TEMPERATURE
 LUN .               3029:   LOGGING UNIT NUMBER
 LUL .             CASPER:   LOGGING UNIT LOCATION
 ENGI.         B. ROLLINS:   RECORDING ENGINEER
 WITN.         RICHARDSON:   WITNESSED BY
 CLNT.            A2DTECH:   CLIENT CODE
 ORIG.           5" PRINT:   ORIGIN OF DATA
 UWI .       490251077000:   UNIQUE WELL ID
 DICO. A2D Technologies, Inc.:   DIGITIZING COMPANY
~OTHER INFORMATION
~A   DEPT       SN        ILD        SPR         CALD       GRD        DPHI       CORR       RHOB 
# ...
  263.0000     8.2337    11.2018   -20.1903     8.2041    96.5812     0.1261     0.0447     2.4671
  263.5000     8.1764    11.2016   -18.7959     8.2022    95.3482     0.1274     0.0419     2.4622
  264.0000     8.1170    11.1217   -18.3675     8.2004    95.5598     0.1257     0.0483     2.4715
  264.5000     8.1177    11.0168   -19.4002     8.1985   100.4768     0.1222     0.0575     2.4743
  265.0000     8.1174    10.9126   -20.4391     8.1966   102.8356     0.1270     0.0529     2.4657
  265.5000     8.1175    10.8095   -20.4109     8.1947   101.4379     0.1297     0.0484     2.4615
  266.0000     8.1175    10.7074   -19.8439     8.1929    99.4039     0.1243     0.0604     2.4634
  266.5000     8.1177    10.6063   -19.2550     8.1910    97.3675     0.1190     0.0720     2.4787
  267.0000     8.1175    10.5029   -19.5634     8.1891    95.8638     0.1174     0.0790     2.4846
  267.5000     8.1175    10.4119   -20.4786     8.1872    95.9516     0.1193     0.0703     2.4784
  268.0000     7.9465    10.3186   -21.3152     8.1854    98.1045     0.1243     0.0598     2.4700
  268.5000     7.7739    10.2262   -20.8401     8.1828   100.1877     0.1282     0.0492     2.4624
  269.0000     7.6051    10.1347   -19.9064     8.1682    98.8415     0.1302     0.0454     2.4626
  269.5000     7.4039    10.0439   -18.9192     8.1537    97.4068     0.1320     0.0511     2.4598
  270.0000     7.4636     9.9540   -19.6709     8.1275    98.7349     0.1327     0.0567     2.4563
  270.5000     7.5399     9.8648   -21.0153     8.0595   101.7673     0.1321     0.0626     2.4546
  271.0000     7.6174     9.7765   -21.6913     8.0464   102.5270     0.1323     0.0603     2.4550
  271.5000     7.6825     9.8478   -21.6592     8.0896   101.1889     0.1331     0.0543     2.4555
  272.0000     7.6387     9.8076   -20.9355     8.1322    98.5696     0.1337     0.0483     2.4554
  272.5000     7.5849     9.7396   -20.2817     8.1736    93.3326     0.1337     0.0421     2.4524
  273.0000     7.5312     9.6721   -20.2985     8.2035    89.5241     0.1337     0.0428     2.4494
  273.5000     7.4780     9.6050   -20.3105     8.1651    90.6599     0.1337     0.0443     2.4523
  274.0000     7.4251     9.5384   -19.9491     8.0875    94.3543     0.1330     0.0470     2.4597
  274.5000     7.3727     9.4723   -19.5571     8.0082    97.4724     0.1317     0.0498     2.4631
  275.0000     7.3205     9.4066   -19.1649     8.0035    95.1087     0.1413     0.0472     2.4455
  275.5000     7.2688     9.3414   -18.7817     8.0038    92.8742     0.1461     0.0467     2.4332
  276.0000     7.2174     9.2766   -18.6558     8.0235    90.8366     0.1453     0.0615     2.4353
  276.5000     7.1664     9.2123   -19.3877     8.1404    91.5936     0.1330     0.0756     2.4516
  277.0000     7.1364     9.1489   -20.1454     8.2983    92.6047     0.1274     0.0860     2.4664
  277.5000     7.1827     9.1633   -20.9099     8.2783    93.5987     0.1310     0.0822     2.4658
  278.0000     7.2596     9.1781   -21.7030     8.2494    94.5430     0.1369     0.0751     2.4471
  278.5000     7.3361     9.1928   -21.7399     8.2207    93.4994     0.1397     0.0680     2.4408
  279.0000     7.3361     9.2074   -21.4276     8.1910    92.4863     0.1421     0.0627     2.4397
  279.5000     7.2174     9.2220   -21.1119     8.1891    93.3042     0.1372     0.0674     2.4468
  280.0000     7.1347     9.2335   -20.7730     8.1996    95.6944     0.1309     0.0715     2.4592
  280.5000     7.0530     9.0720   -21.0897     8.2103    98.0008     0.1249     0.0669     2.4717
  281.0000     6.9722     8.8789   -21.6255     8.2211   100.3001     0.1249     0.0546     2.4727
  281.5000     6.8923     8.6899   -22.1721     8.2318   103.1674     0.1348     0.0421     2.4551
  282.0000     6.8133     8.5012   -22.7183     8.2435   100.8011     0.1408     0.0346     2.4427
  282.5000     6.7518     8.3159   -23.2654     8.2400    97.3066     0.1441     0.0322     2.4382
  283.0000     6.5371     8.1345   -23.8080     8.2329    97.4276     0.1382     0.0384     2.4490
  283.5000     6.3322     7.9571   -24.2977     8.2257   100.1603     0.1317     0.0442     2.4599
  284.0000     6.1348     7.7878   -24.8689     8.2186   101.2176     0.1297     0.0359     2.4597
  284.5000     6.1030     7.6355   -25.5012     8.2114    97.8379     0.1341     0.0244     2.4535
  285.0000     6.2011     7.6111   -26.1384     8.2040    96.7292     0.1272     0.0294     2.4590
  285.5000     6.2972     7.6111   -26.6831     8.2035    97.0425     0.1223     0.0358     2.4728
  286.0000     6.3904     7.6111   -26.0277     8.2036    98.7437     0.1220     0.0329     2.4724
  286.5000     6.4178     7.7591   -25.3997     8.2036    96.4960     0.1242     0.0287     2.4703
  287.0000     6.4442     7.8965   -24.7752     8.2038    94.0813     0.1261     0.0244     2.4683
  287.5000     6.4706     7.8965   -24.1377     8.2132    96.0459     0.1273     0.0201     2.4662
  288.0000     6.4971     7.8965   -24.3046     8.2324    99.4984     0.1284     0.0158     2.4641
  288.5000     6.5238     7.8927   -24.7259     8.2516   102.9800     0.1294     0.0119     2.4636
  289.0000     6.5506     7.9733   -25.1140     8.2708   105.4649     0.1291     0.0119     2.4635
  289.5000     6.5775     8.0295   -24.9434     8.2897   106.4934     0.1251     0.0168     2.4687
  290.0000     6.6045     8.0878   -24.7205     8.3047   105.0988     0.1213     0.0226     2.4757
  290.5000     6.6299     8.1460   -24.4933     8.3089   102.7059     0.1166     0.0240     2.4831
  291.0000     6.6912     8.2047   -24.3366     8.3132   100.2869     0.1166     0.0201     2.4827
  291.5000     6.7501     8.2637   -25.1358     8.3174    99.5003     0.1207     0.0158     2.4762
  292.0000     6.8059     8.3232   -25.9136     8.3216   101.4375     0.1245     0.0115     2.4680
  292.5000     6.8621     8.3831   -26.2090     8.3259    99.0719     0.1283     0.0071     2.4600
  293.0000     6.9188     8.4434   -26.0489     8.3301    97.7022     0.1309     0.0061     2.4594
  293.5000     6.9760     8.4997   -25.8990     8.3344   100.1477     0.1301     0.0084     2.4638
  294.0000     7.0062     8.4997   -26.0462     8.3387   103.0773     0.1294     0.0098     2.4643
  294.5000     7.0062     8.4996   -26.3432     8.3431   105.6686     0.1287     0.0062     2.4605
  295.0000     6.9830     8.4998   -26.6360     8.3416   103.5205     0.1281     0.0026     2.4638
  295.5000     6.9567     8.5004   -26.9050     8.3395   101.4756     0.1251    -0.0009     2.4606
  296.0000     6.9305     8.4528   -26.7453     8.3375    99.7827     0.1210    -0.0039     2.4869
  296.5000     6.9044     8.4163   -26.4296     8.3355   102.3687     0.1123     0.0037     2.5004
  297.0000     6.8783     8.3800   -26.1167     8.3335   104.8587     0.1094     0.0190     2.5007
  297.5000     6.8524     8.3438   -25.7143     8.3315   105.5531     0.1155     0.0302     2.4929
  298.0000     6.8266     8.3079   -25.6969     8.3295   104.5209     0.1227     0.0242     2.4774
  298.5000     6.8008     8.2720   -25.6975     8.3276   103.4767     0.1311     0.0163     2.4627
  299.0000     6.7752     8.1828   -25.5949     8.3255   102.4144     0.1425     0.0082     2.4473
  299.5000     6.7497     8.1689   -25.3838     8.3232   102.0626     0.1376     0.0056     2.4434
  300.0000     6.7242     8.1550   -25.1740     8.3120   104.0908     0.1322     0.0126     2.4513
  300.5000     6.6989     8.1412   -24.9608     8.2892   102.8387     0.1306     0.0159     2.4601
  301.0000     6.6861     8.1273   -24.9001     8.2664   101.8905     0.1293     0.0160     2.4596
  301.5000     6.6788     8.1135   -24.8964     8.2436   102.5322     0.1271     0.0165     2.4631
  302.0000     6.6715     8.0997   -25.0110     8.2294   103.4189     0.1225     0.0200     2.4701
  302.5000     6.6642     8.0859   -25.1359     8.2897   104.3135     0.1208     0.0178     2.4722
  303.0000     6.6569     8.0722   -25.2610     8.2493   105.1269     0.1277     0.0137     2.4680
