~VERSION INFORMATION
 VERS.                2.0:   CWLS LOG ASCII STANDARD - VERSION 2.0
 WRAP.                 NO:   ONE LINE PER DEPTH STEP
~WELL INFORMATION
#MNEM.UNIT      DATA TYPE    INFORMATION
#----------   ------------   ------------------------------
 STRT.F            4.0000:   START DEPTH
 STOP.F          528.0000:   STOP DEPTH
 STEP.F            0.1000:   STEP LENGTH
 NULL.          -999.2500:   NO VALUE
 COMP. BROWN JOHN E&C INC:   COMPANY
 WELL.    84-1 SHX- #84-3:   WELL
 FLD .        TEAPOT DOME:   FIELD
 LOC .       S3 T38N R78W:   LOCATION
 CNTY.            NATRONA:   COUNTY
 STAT.            WYOMING:   STATE
 CTRY. UNITED STATES OF AMERICA:   COUNTRY
 SRVC.     Atlas Wireline:   SERVICE COMPANY
 DATE.        18-JAN-1992:   LOGDATE
 API .       490252249900:   API NUMBER
~CURVE INFORMATION
#MNEM.UNIT       API CODE    CURVE DESCRIPTION
#----------   ------------   ------------------------------
 DEPT.F                  :   
 GRR .GAPI   07 310 01 00:   GAMMA RAY
 RILD.OHMM   07 120 46 00:   INDUCTION LOG DEEP RESISTIVITY
 RILM.OHMM   07 120 44 00:   INDUCTION LOG MEDIUM RESISTIVITY
~PARAMETER INFORMATION
#MNEM.UNIT          VALUE    DESCRIPTION
#----------   ------------   ------------------------------
 PD  .                 GL:   PERMANENT DATUM
 EPD .F              5147:   ELEVATION PERMANENT DATUM
 LMF .                 KB:   LOG MEASURED FROM
 DAPD.F                10:   FEET ABOVE PERMANENT DATUM
 DMF .                 KB:   DRILLING MEASURED FROM
 EKB .F              5157:   KELLING BUSHING
 EDF .F              5156:   DRILLING FLOOR
 EGL .F              5147:   GROUND LEVEL
 DATE.        18-JAN-1992:   RUN DATE
 RUN .                  1:   RUN NUMBER
 DD  .F               842:   DEPTH DRILLER
 DL  .F               837:   DEPTH LOGGER
 BLI .F               835:   BOTTOM LOG INTERVAL
 TLI .F                 4:   TOP LOG INTERVAL
 CS  .IN            8.625:   CASING SIZE
 CBD .F                39:   CASING BOTTOM DRILLER
 CBL .F                56:   CASING BOTTOM LOGGER
 BS  .IN             8.75:   BIT SIZE
 BSD .F               842:   BIT SIZE AT DEPTH
 DFT .                AIR:   DRILLING FLUID TYPE
 LUN .           HL- 6272:   LOGGING UNIT NUMBER
 LUL .             CASPER:   LOGGING UNIT LOCATION
 ENGI.       P. RASMUSSEN:   RECORDING ENGINEER
 WITN.          G. STRONG:   WITNESSED BY
 CLNT.            A2DTECH:   CLIENT CODE
 ORIG.           5" PRINT:   ORIGIN OF DATA
 UWI .       490252249900:   UNIQUE WELL ID
 DICO. A2D Technologies, Inc.:   DIGITIZING COMPANY
~OTHER INFORMATION
~A    DEPT      GRR      RILD       RILM   
# ...
   58.6000   127.1524     5.7484     5.5787
   58.7000   127.6506     6.3983     6.1232
   58.8000   128.1583     6.9114     6.6635
   58.9000   128.6465     7.2241     7.1743
   59.0000   129.5218     7.3969     7.6297
   59.1000   130.7844     7.4396     7.9741
   59.2000   132.1229     7.5229     8.1895
   59.3000   133.0962     7.5433     8.3069
   59.4000   133.9422     7.5658     8.4502
   59.5000   134.3746     7.5953     8.5958
   59.6000   134.8726     7.5878     8.7277
   59.7000   135.1598     7.4892     8.7806
   59.8000   135.1598     7.3445     8.7804
   59.9000   135.1598     7.1787     8.8160
   60.0000   135.1598     7.0325     8.8168
   60.1000   135.1598     6.9057     8.7013
   60.2000   135.0270     6.7431     8.3903
   60.3000   134.3909     6.6333     7.5816
   60.4000   132.5905     6.5752     7.3733
   60.5000   126.9406     6.5186     7.1728
   60.6000   124.1385     6.4443     7.0399
   60.7000   120.9010     6.3731     6.9656
   60.8000   117.6636     6.3305     6.9228
   60.9000   114.4273     6.3302     6.8862
   61.0000   111.1111     6.3078     6.8468
   61.1000   107.9529     6.2855     6.8262
   61.2000   105.0903     6.2851     6.8360
   61.3000   102.4835     6.2848     6.8749
   61.4000   100.3774     6.2844     6.9216
   61.5000    99.1962     6.2586     7.1839
   61.6000    98.6301     6.2400     7.5717
   61.7000    98.4151     6.2397     7.9810
   61.8000    98.1662     6.2408     8.3317
   61.9000    97.9172     6.2826     8.5932
   62.0000    97.7169     6.3412     8.7289
   62.1000    97.7169     6.3918     8.8444
   62.2000    98.6864     6.4415     8.9217
   62.3000    99.6823     6.5096     8.9599
   62.4000   100.9414     6.5494     8.9597
   62.5000   102.5880     6.6881     8.9594
   62.6000   104.6621     6.8421     8.9186
   62.7000   108.0670     7.0185     8.7819
   62.8000   109.9958     7.2310     8.5833
   62.9000   111.9192     7.4802     8.3889
   63.0000   114.1801     7.6966     8.1808
   63.1000   117.1195     7.9189     8.0144
   63.2000   119.9391     8.0938     7.8636
   63.3000   121.8726     8.2164     7.7497
   63.4000   123.3061     8.3041     7.6615
   63.5000   124.4202     8.3560     7.5746
   63.6000   125.4916     8.3556     7.5312
   63.7000   126.7169     8.3551     7.4549
   63.8000   127.8539     8.3333     7.3701
   63.9000   128.0676     8.2855     7.3001
   64.0000   128.1583     8.2379     7.2584
   64.1000   128.2612     8.1443     7.2123
   64.2000   128.4627     8.0871     7.1394
   64.3000   128.4627     8.0156     7.0849
   64.4000   128.7038     7.9097     7.0444
   64.5000   129.1385     7.7707     7.0041
   64.6000   129.7668     7.5737     6.9639
   64.7000   130.4390     7.4981     6.9242
   64.8000   130.9369     7.4127     6.8847
   64.9000   131.5069     7.3283     6.8453
   65.0000   131.9330     7.2350     6.8061
   65.1000   132.2734     7.1048     6.7633
   65.2000   132.6247     6.9745     6.6770
   65.3000   133.0757     6.8442     6.6434
   65.4000   133.3333     6.7140     6.6055
   65.5000   133.3333     6.6225     6.5677
   65.6000   133.3333     6.5652     6.5301
   65.7000   133.0740     6.5276     6.4922
   65.8000   132.5760     6.4886     6.4920
   65.9000   132.0401     6.4012     6.4637
   66.0000   130.8980     6.3713     6.4465
   66.1000   130.4730     6.3347     6.4348
   66.2000   129.9751     6.3115     6.4013
   66.3000   129.5787     6.3060     6.4011
   66.4000   129.2833     6.2669     6.3693
   66.5000   128.7671     6.2666     6.3562
   66.6000   128.5272     6.2662     6.3560
   66.7000   128.4627     6.2491     6.3559
   66.8000   128.3337     6.2219     6.3557
   66.9000   128.1583     6.2209     6.3203
   67.0000   128.1765     6.1852     6.3111
   67.1000   128.4627     6.1776     6.3109
   67.2000   129.3100     6.1773     6.3108
   67.3000   130.1497     6.1770     6.3106
   67.4000   130.9979     6.1767     6.3104
   67.5000   131.9937     6.1762     6.2795
   67.6000   133.0289     6.1759     6.2661
   67.7000   134.2250     6.1756     6.2659
   67.8000   135.6541     6.1753     6.2658
   67.9000   137.1481     6.1749     6.2656
   68.0000   138.4959     6.1746     6.3000
   68.1000   139.4923     6.1742     6.3092
   68.2000   140.6393     6.1738     6.3090
   68.3000   140.8505     6.1735     6.3194
   68.4000   141.0995     6.1847     6.3529
   68.5000   141.2481     6.2161     6.3526
   68.6000   141.2030     6.2157     6.3525
   68.7000   140.9437     6.2466     6.3749
   68.8000   140.7051     6.2585     6.3966
   68.9000   140.0897     6.2735     6.4029
   69.0000   139.3426     6.3090     6.4411
   69.1000   138.4506     6.3454     6.4409
   69.2000   137.2399     6.3451     6.4676
   69.3000   136.3775     6.3721     6.4857
   69.4000   135.5352     6.4082     6.4855
   69.5000   134.3838     6.4332     6.4874
   69.6000   133.2384     6.4358     6.5306
   69.7000   132.3758     6.4774     6.5304
   69.8000   132.1157     6.4771     6.5530
   69.9000   131.8777     6.5002     6.5758
   70.0000   131.6287     6.5217     6.5757
   70.1000   131.3797     6.5282     6.5754
   70.2000   131.2024     6.5667     6.5752
   70.3000   131.1860     6.5663     6.5751
   70.4000   130.8980     6.5935     6.5934
   70.5000   131.1080     6.6115     6.6208
   70.6000   131.3571     6.6220     6.6223
   70.7000   131.8048     6.6571     6.6668
   70.8000   132.5516     6.6567     6.6666
   70.9000   133.3333     6.6882     6.6664
   71.0000   133.8083     6.7260     6.6806
   71.1000   134.4885     6.7491     6.7128
   71.2000   135.1088     6.7550     6.7126
   71.3000   135.6067     6.7956     6.7124
   71.4000   136.1050     6.8317     6.7666
   71.5000   136.6819     6.8425     6.8252
   71.6000   137.1009     6.8421     6.8691
   71.7000   137.4448     6.8521     6.9192
   71.8000   137.6937     6.8908     6.9587
   71.9000   137.9428     6.9370     6.9984
   72.0000   138.2040     6.9691     7.0783
   72.1000   138.2040     7.0085     7.1278
   72.2000   138.3855     7.0333     7.1684
   72.3000   138.5084     7.0387     7.2092
   72.4000   138.5791     7.0818     7.2461
   72.5000   138.8128     7.0814     7.2458
   72.6000   138.5084     7.1091     7.2457
   72.7000   138.0907     7.1493     7.2726
   72.8000   137.2858     7.1797     7.2960
   72.9000   136.2896     7.1801     7.2958
   73.0000   135.3364     7.2208     7.2956
   73.1000   134.5510     7.2288     7.3365
   73.2000   133.8423     7.2284     7.3463
   73.3000   133.0952     7.2423     7.3461
   73.4000   132.4736     7.2782     7.3459
   73.5000   131.9757     7.2778     7.3457
   73.6000   131.4775     7.2774     7.3455
   73.7000   130.8980     7.3050     7.3453
   73.8000   130.8980     7.3275     7.3451
   73.9000   130.8980     7.3271     7.3449
   74.0000   130.9954     7.3267     7.3447
   74.1000   131.3286     7.3263     7.3445
   74.2000   132.1157     7.3259     7.3443
   74.3000   132.5870     7.3255     7.3441
   74.4000   133.0849     7.3251     7.3439
   74.5000   133.5829     7.3247     7.3563
   74.6000   134.0116     7.3242     7.3949
   74.7000   134.2606     7.3238     7.3947
   74.8000   134.5510     7.3234     7.3945
   74.9000   134.5510     7.3230     7.3943
   75.0000   134.5510     7.3226     7.3941
   75.1000   134.4542     7.3222     7.4017
   75.2000   134.1639     7.2811     7.4455
   75.3000   133.6377     7.2705     7.4453
   75.4000   133.1678     7.2701     7.4451
   75.5000   132.6697     7.2697     7.4668
   75.6000   131.9233     7.2693     7.4968
   75.7000   130.9274     7.2688     7.4966
   75.8000   129.9310     7.2684     7.4964
   75.9000   128.7671     7.2680     7.5324
   76.0000   127.5250     7.2676     7.5485
   76.1000   126.0311     7.2672     7.5483
   76.2000   124.8257     7.2668     7.5481
   76.3000   124.0784     7.2664     7.5479
   76.4000   123.2877     7.2660     7.5477
   76.5000   122.8188     7.2656     7.5474
   76.6000   122.4998     7.2652     7.5472
   76.7000   122.6216     7.2648     7.5470
