~VERSION INFORMATION
 VERS.                2.0:   CWLS LOG ASCII STANDARD - VERSION 2.0
 WRAP.                 NO:   ONE LINE PER DEPTH STEP
~WELL INFORMATION
#MNEM.UNIT      DATA TYPE    INFORMATION
#----------   ------------   ------------------------------
 STRT.F          432.0000:   START DEPTH
 STOP.F         1258.0000:   STOP DEPTH
 STEP.F            0.5000:   STEP LENGTH
 NULL.          -999.2500:   NO VALUE
 COMP. FENIX & SCISSON INC:   COMPANY
 WELL.   12 SHX 34 #12-34:   WELL
 FLD .            WILDCAT:   FIELD
 LOC .      S34 T39N R78W:   LOCATION
 CNTY.            NATRONA:   COUNTY
 STAT.            WYOMING:   STATE
 CTRY. UNITED STATES OF AMERICA:   COUNTRY
 SRVC.              Welex:   SERVICE COMPANY
 DATE.        23-APR-1979:   LOGDATE
 API .       490251078200:   API NUMBER
~CURVE INFORMATION
#MNEM.UNIT       API CODE    CURVE DESCRIPTION
#----------   ------------   ------------------------------
 DEPT.F                  :   
 CALD.IN     45 280 60 00:   CALIPER
 GRD .GAPI   45 310 01 00:   GAMMA RAY FROM DENSITY LOG
 RHOB.G/C3   45 350 01 00:   BULK DENSITY
 DPHI.DEC    45 890 12 00:   DENSITY POROSITY SANDSTONE
 CORR.G/C3   45 356 01 00:   DENSITY CORRECTION
~PARAMETER INFORMATION
#MNEM.UNIT          VALUE    DESCRIPTION
#----------   ------------   ------------------------------
 PD  .                 GL:   PERMANENT DATUM
 EPD .F              5092:   ELEVATION PERMANENT DATUM
 LMF .                 KB:   LOG MEASURED FROM
 DAPD.F                10:   FEET ABOVE PERMANENT DATUM
 DMF .                 KB:   DRILLING MEASURED FROM
 EKB .F              5102:   KELLING BUSHING
 EGL .F              5092:   GROUND LEVEL
 DATE.            4-23-79:   RUN DATE
 RUN .                  1:   RUN NUMBER
 DD  .F              1260:   DEPTH DRILLER
 DL  .F              1260:   DEPTH LOGGER
 BLI .F              1258:   BOTTOM LOG INTERVAL
 TLI .F               446:   TOP LOG INTERVAL
 CS  .IN            9.625:   CASING SIZE
 CBD .F               440:   CASING BOTTOM DRILLER
 BS  .IN            8.375:   BIT SIZE
 BSD .F              1260:   BIT SIZE AT DEPTH
 DFT .                OIL:   DRILLING FLUID TYPE
 DFD .                8.7:   DRILLING FLUID DENSITY
 TCS .HRS               1:   TIME CURCULATED STOPPED
 ENGI.               REIN:   RECORDING ENGINEER
 WITN.              AMEND:   WITNESSED BY
 CLNT.            A2DTECH:   CLIENT CODE
 ORIG.           5" PRINT:   ORIGIN OF DATA
 UWI .       490251078200:   UNIQUE WELL ID
 DICO. A2D Technologies, Inc.:   DIGITIZING COMPANY
~OTHER INFORMATION
~A   DEPT     CALD         GRD      RHOB       DPHI       CORR   
  432.0000  -999.2500    51.5182  -999.2500  -999.2500  -999.2500
  432.5000  -999.2500    50.6417  -999.2500  -999.2500  -999.2500
  433.0000  -999.2500    49.7651  -999.2500  -999.2500  -999.2500
  433.5000  -999.2500    49.8994  -999.2500  -999.2500  -999.2500
  434.0000  -999.2500    48.9427  -999.2500  -999.2500  -999.2500
  434.5000  -999.2500    47.7976  -999.2500  -999.2500  -999.2500
  435.0000  -999.2500    46.6490  -999.2500  -999.2500  -999.2500
  435.5000  -999.2500    46.1423  -999.2500  -999.2500  -999.2500
  436.0000  -999.2500    46.9144  -999.2500  -999.2500  -999.2500
  436.5000  -999.2500    48.0434  -999.2500  -999.2500  -999.2500
  437.0000  -999.2500    49.1717  -999.2500  -999.2500  -999.2500
  437.5000  -999.2500    50.3027  -999.2500  -999.2500  -999.2500
  438.0000  -999.2500    51.4539  -999.2500  -999.2500  -999.2500
  438.5000  -999.2500    51.0701  -999.2500  -999.2500  -999.2500
  439.0000  -999.2500    50.4208  -999.2500  -999.2500  -999.2500
  439.5000  -999.2500    49.9829  -999.2500  -999.2500  -999.2500
  440.0000  -999.2500    51.3251  -999.2500  -999.2500  -999.2500
  440.5000  -999.2500    51.3078  -999.2500  -999.2500  -999.2500
  441.0000  -999.2500    50.7743  -999.2500  -999.2500  -999.2500
  441.5000  -999.2500    50.2069  -999.2500  -999.2500  -999.2500
  442.0000  -999.2500    51.0759  -999.2500  -999.2500  -999.2500
  442.5000  -999.2500    51.9199  -999.2500  -999.2500  -999.2500
  443.0000  -999.2500    51.3034  -999.2500  -999.2500  -999.2500
  443.5000  -999.2500    50.7341  -999.2500  -999.2500  -999.2500
  444.0000  -999.2500    51.3417  -999.2500  -999.2500  -999.2500
  444.5000  -999.2500    51.5869  -999.2500  -999.2500  -999.2500
  445.0000  -999.2500    51.0141  -999.2500  -999.2500  -999.2500
  445.5000  -999.2500    50.4039  -999.2500  -999.2500  -999.2500
  446.0000  -999.2500    49.8765  -999.2500  -999.2500  -999.2500
  446.5000  -999.2500    50.2616  -999.2500  -999.2500  -999.2500
  447.0000  -999.2500    50.7417  -999.2500  -999.2500  -999.2500
  447.5000  -999.2500    50.7457  -999.2500  -999.2500  -999.2500
  448.0000  -999.2500    51.2038  -999.2500  -999.2500  -999.2500
  448.5000  -999.2500    55.7702  -999.2500  -999.2500  -999.2500
  449.0000  -999.2500    60.2877  -999.2500  -999.2500  -999.2500
  449.5000  -999.2500    63.2282  -999.2500  -999.2500  -999.2500
  450.0000     8.8851    64.2654     1.9331    -0.0187     0.2127
  450.5000     8.9174    65.7868     1.9170    -0.0223     0.1956
  451.0000     8.9620    67.7998     1.8490    -0.0247     0.1512
  451.5000     9.0233    69.8025     1.7976    -0.0169     0.1156
  452.0000     9.1620    71.7893     1.7376    -0.0033     0.0708
  452.5000     9.3782    73.8423     1.7342     0.0102     0.0250
  453.0000     9.5881    72.2552     2.0007     0.0178     0.0067
  453.5000     9.6930    70.9959     2.2649     0.0239    -0.0108
  454.0000     9.2783    80.5448     2.4484     0.0300    -0.0084
  454.5000     8.9382    88.6724     2.4982     0.0379     0.0050
  455.0000     8.7720    91.6791     2.5125     0.0323     0.0188
  455.5000     8.7576    90.9053     2.5269     0.0217     0.0325
  456.0000     8.7483    89.9767     2.5414     0.0109     0.0462
  456.5000     8.7396    89.0604     2.5500     0.0046     0.0597
  457.0000     8.7307    88.1452     2.5433     0.0031     0.0638
  457.5000     8.7218    87.2821     2.5227     0.0124     0.0562
  458.0000     8.7129    89.0420     2.5022     0.0289     0.0463
  458.5000     8.7040    91.6244     2.4832     0.0415     0.0363
  459.0000     8.6951    92.1690     2.4827     0.0415     0.0257
  459.5000     8.6862    90.9836     2.4893     0.0400     0.0216
  460.0000     8.6773    89.7629     2.4983     0.0353     0.0252
  460.5000     8.6684    89.7560     2.5071     0.0306     0.0307
  461.0000     8.6594    91.7818     2.5080     0.0278     0.0362
  461.5000     8.6505    93.7641     2.5048     0.0269     0.0417
  462.0000     8.6416    95.7159     2.4929     0.0341     0.0472
  462.5000     8.6380    96.3008     2.4928     0.0374     0.0473
  463.0000     8.6347    92.6084     2.4970     0.0384     0.0430
  463.5000     8.6313    89.5394     2.4866     0.0408     0.0386
  464.0000     8.6280    92.9008     2.4761     0.0432     0.0342
  464.5000     8.6246    97.5389     2.4768     0.0451     0.0299
  465.0000     8.6213    97.8693     2.4820     0.0443     0.0278
  465.5000     8.6179    96.0821     2.4870     0.0424     0.0312
  466.0000     8.6145    93.9676     2.4843     0.0411     0.0345
  466.5000     8.6111    93.6549     2.4768     0.0452     0.0346
  467.0000     8.6078    95.1970     2.4694     0.0496     0.0293
  467.5000     8.6044    96.3917     2.4619     0.0541     0.0240
  468.0000     8.6023   100.2926     2.4544     0.0586     0.0186
  468.5000     8.6043   100.4771     2.4507     0.0613     0.0157
  469.0000     8.6068    98.9335     2.4562     0.0582     0.0195
  469.5000     8.6092   103.4520     2.4636     0.0551     0.0245
  470.0000     8.6117   101.5821     2.4678     0.0520     0.0222
  470.5000     8.6142    99.4287     2.4678     0.0520     0.0174
  471.0000     8.6166    95.4948     2.4676     0.0522     0.0151
  471.5000     8.6191    90.5737     2.4801     0.0508     0.0217
  472.0000     8.6215    86.2493     2.4962     0.0383     0.0334
  472.5000     8.6261    88.2108     2.5109     0.0273     0.0313
  473.0000     8.6345    89.7853     2.4910     0.0387     0.0226
  473.5000     8.6429    88.5807     2.4669     0.0515     0.0152
  474.0000     8.6513    88.5371     2.4465     0.0596     0.0120
  474.5000     8.6597    90.2026     2.4476     0.0597     0.0143
  475.0000     8.6608    91.4365     2.4518     0.0594     0.0172
  475.5000     8.6629    89.3516     2.4548     0.0595     0.0163
  476.0000     8.6658    87.5141     2.4518     0.0613     0.0141
  476.5000     8.6687    89.4956     2.4488     0.0625     0.0110
  477.0000     8.6717    92.5274     2.4533     0.0607     0.0141
  477.5000     8.6746    91.0052     2.4632     0.0574     0.0206
  478.0000     8.6775    89.1501     2.4672     0.0540     0.0270
  478.5000     8.6805    88.8820     2.4587     0.0562     0.0246
  479.0000     8.6834    89.4369     2.4560     0.0580     0.0210
  479.5000     8.6863    87.5550     2.4615     0.0561     0.0175
  480.0000     8.6892    85.8637     2.4670     0.0520     0.0236
  480.5000     8.6922    87.4125     2.4725     0.0480     0.0327
  481.0000     8.6951    88.9355     2.4779     0.0460     0.0417
  481.5000     8.6980    90.0957     2.4831     0.0445     0.0421
  482.0000     8.7029    89.0889     2.4822     0.0435     0.0348
  482.5000     8.7109    88.4405     2.4799     0.0435     0.0276
  483.0000     8.7189    88.8367     2.4796     0.0437     0.0212
  483.5000     8.7268    89.6988     2.4836     0.0439     0.0157
  484.0000     8.7348    90.5341     2.4849     0.0431     0.0141
  484.5000     8.7428    90.7335     2.4818     0.0419     0.0154
  485.0000     8.7508    89.7409     2.4782     0.0432     0.0168
  485.5000     8.7582    89.1248     2.4746     0.0464     0.0182
  486.0000     8.7584    91.7799     2.4711     0.0486     0.0197
  486.5000     8.7542    93.4005     2.4675     0.0503     0.0211
  487.0000     8.7497    94.2804     2.4639     0.0520     0.0209
  487.5000     8.7451    97.1989     2.4658     0.0532     0.0200
  488.0000     8.7405    96.1693     2.4693     0.0518     0.0191
  488.5000     8.7360    94.3872     2.4729     0.0501     0.0182
  489.0000     8.7314    95.5073     2.4714     0.0491     0.0172
  489.5000     8.7269    95.5889     2.4665     0.0505     0.0164
  490.0000     8.7223    92.1813     2.4615     0.0529     0.0154
  490.5000     8.7178    88.7462     2.4599     0.0548     0.0135
  491.0000     8.7132    85.3583     2.4629     0.0541     0.0155
  491.5000     8.7086    83.0968     2.4658     0.0533     0.0186
  492.0000     8.7041    87.5134     2.4688     0.0525     0.0213
  492.5000     8.6995    90.3555     2.4706     0.0517     0.0211
