~VERSION INFORMATION
 VERS.                2.0:   CWLS LOG ASCII STANDARD - VERSION 2.0
 WRAP.                 NO:   ONE LINE PER DEPTH STEP
~WELL INFORMATION
#MNEM.UNIT      DATA TYPE    INFORMATION
#----------   ------------   ------------------------------
 STRT.F            0.0000:   START DEPTH
 STOP.F          561.0000:   STOP DEPTH
 STEP.F            0.1000:   STEP LENGTH
 NULL.          -999.2500:   NO VALUE
 COMP.       F D SERV INC:   COMPANY
 WELL.  83-1 sx 10 #83-10:   WELL
 FLD .             TEAPOT:   FIELD
 LOC .      S10 T38N R78W:   LOCATION
 CNTY.            NATRONA:   COUNTY
 STAT.            WYOMING:   STATE
 CTRY. UNITED STATES OF AMERICA:   COUNTRY
 SRVC.     Atlas Wireline:   SERVICE COMPANY
 DATE.        10-DEC-1992:   LOGDATE
 API .       490252258000:   API NUMBER
~CURVE INFORMATION
#MNEM.UNIT       API CODE    CURVE DESCRIPTION
#----------   ------------   ------------------------------
 DEPT.F                  :   
 GRR .GAPI   07 310 01 00:   GAMMA RAY
 RILD.OHMM   07 120 46 00:   INDUCTION LOG DEEP RESISTIVITY
 RILM.OHMM   07 120 44 00:   INDUCTION LOG MEDIUM RESISTIVITY
~PARAMETER INFORMATION
#MNEM.UNIT          VALUE    DESCRIPTION
#----------   ------------   ------------------------------
 PD  .                 GL:   PERMANENT DATUM
 EPD .F              5170:   ELEVATION PERMANENT DATUM
 LMF .                 KB:   LOG MEASURED FROM
 DAPD.F                10:   FEET ABOVE PERMANENT DATUM
 DMF .                 KB:   DRILLING MEASURED FROM
 EKB .F              5180:   KELLING BUSHING
 EDF .F              5179:   DRILLING FLOOR
 EGL .F              5170:   GROUND LEVEL
 DATE.        10-DEC-1992:   RUN DATE
 RUN .                  1:   RUN NUMBER
 DD  .F               567:   DEPTH DRILLER
 DL  .F               569:   DEPTH LOGGER
 BLI .F               560:   BOTTOM LOG INTERVAL
 TLI .F                97:   TOP LOG INTERVAL
 CS  .IN            8.625:   CASING SIZE
 CBD .F                97:   CASING BOTTOM DRILLER
 CBL .F                97:   CASING BOTTOM LOGGER
 BS  .IN            7.875:   BIT SIZE
 BSD .F               567:   BIT SIZE AT DEPTH
 DFT .           AIR FOAM:   DRILLING FLUID TYPE
 MRT .F                65:   MAXIMUM RECORDED TEMPERATURE
 LUN .           HL- 6274:   LOGGING UNIT NUMBER
 LUL .             CASPER:   LOGGING UNIT LOCATION
 ENGI.       P. RASMUSSEN:   RECORDING ENGINEER
 WITN.          G. STRONG:   WITNESSED BY
 CLNT.            A2DTECH:   CLIENT CODE
 ORIG.           5" PRINT:   ORIGIN OF DATA
 UWI .       490252258000:   UNIQUE WELL ID
 DICO. A2D Technologies, Inc.:   DIGITIZING COMPANY
~OTHER INFORMATION
~A    DEPT      GRR      RILD       RILM   
# ...
  273.0000   138.2681     6.2938     6.2699
  273.1000   138.5297     6.3344     6.2699
  273.2000   138.7913     6.3348     6.2699
  273.3000   138.8615     6.3351     6.2699
  273.4000   138.6047     6.3355     6.2699
  273.5000   138.3480     6.3358     6.2699
  273.6000   138.0544     6.3362     6.2860
  273.7000   137.6126     6.3337     6.3039
  273.8000   137.2743     6.2928     6.2699
  273.9000   136.8842     6.2931     6.2699
  274.0000   136.3683     6.2935     6.2699
  274.1000   135.8524     6.2938     6.2699
  274.2000   135.3368     6.2942     6.2699
  274.3000   135.0365     6.2946     6.2547
  274.4000   134.6081     6.2949     6.2265
  274.5000   134.2631     6.2953     6.2239
  274.6000   134.1329     6.2627     6.1834
  274.7000   134.2177     6.2258     6.1505
  274.8000   134.4793     6.1892     6.1141
  274.9000   134.7473     6.1527     6.0779
  275.0000   135.3571     6.1094     6.0419
  275.1000   135.7762     6.0373     6.0061
  275.2000   136.2971     5.9556     5.9706
  275.3000   136.9379     5.8957     5.9310
  275.4000   137.7179     5.8498     5.8694
  275.5000   138.4978     5.8153     5.8246
  275.6000   139.3167     5.7695     5.7717
  275.7000   140.3041     5.7013     5.7160
  275.8000   140.5354     5.6339     5.6755
  275.9000   140.5378     5.5561     5.6085
  276.0000   140.4269     5.5019     5.5330
  276.1000   140.2392     5.4370     5.4769
  276.2000   140.2416     5.3728     5.4344
  276.3000   140.2442     5.3193     5.3857
  276.4000   140.2464     5.2880     5.3331
  276.5000   140.2489     5.2560     5.2959
  276.6000   140.4022     5.1834     5.2336
  276.7000   140.5572     5.1589     5.1977
  276.8000   140.5596     5.1286     5.1463
  276.9000   140.5800     5.0845     5.1057
  277.0000   140.8682     5.0330     5.0755
  277.1000   141.1033     5.0034     5.0454
  277.2000   141.7419     4.9723     5.0156
  277.3000   142.3777     4.9726     4.9855
  277.4000   142.9984     4.9500     4.9855
  277.5000   143.7783     4.9208     4.9614
  277.6000   144.5583     4.9045     4.9320
  277.7000   145.4376     4.8971     4.9168
  277.8000   145.6659     4.8709     4.9168
  277.9000   145.7457     4.8712     4.9168
  278.0000   145.6105     4.8448     4.9168
  278.1000   145.3538     4.8378     4.8886
  278.2000   145.0481     4.8381     4.8827
  278.3000   144.5276     4.8383     4.8827
  278.4000   143.6337     4.8386     4.8827
  278.5000   143.4162     4.8389     4.8827
  278.6000   142.9842     4.8392     4.8827
  278.7000   142.5992     4.8394     4.8827
  278.8000   142.2558     4.8397     4.8827
  278.9000   141.6553     4.8400     4.9054
  279.0000   140.6131     4.8402     4.9168
  279.1000   139.0984     4.8405     4.9168
  279.2000   137.8231     4.8408     4.9246
  279.3000   136.1019     4.8411     4.9510
  279.4000   134.7871     4.8665     4.9510
  279.5000   134.1719     4.8959     4.9784
  279.6000   133.8795     4.9255     4.9855
  279.7000   133.3464     4.9552     5.0030
  279.8000   133.3487     4.9851     5.0203
  279.9000   132.7327     5.0152     5.0277
  280.0000   132.4431     5.0502     5.0553
  280.1000   132.5630     5.0759     5.0553
  280.2000   132.9711     5.1066     5.1101
  280.3000   133.7221     5.1374     5.1485
  280.4000   134.2739     5.1684     5.2145
  280.5000   135.2513     5.2046     5.3081
  280.6000   136.0910     5.2680     5.4035
  280.7000   136.7158     5.3053     5.4985
  280.8000   137.2366     5.3576     5.5716
  280.9000   137.7574     5.4222     5.6010
  281.0000   138.2781     5.4876     5.6585
  281.1000   138.8433     5.5537     5.7261
  281.2000   139.0826     5.6161     5.7945
  281.3000   139.3442     5.6512     5.8637
  281.4000   139.7543     5.7169     5.9336
  281.5000   140.0668     5.7585     6.0139
  281.6000   140.0692     5.8149     6.0763
  281.7000   140.0716     5.8691     6.1746
  281.8000   140.0743     5.9144     6.2460
  281.9000   140.0765     5.9857     6.2967
  282.0000   140.0789     6.0623     6.3718
  282.1000   140.0813     6.1309     6.4472
  282.2000   139.9862     6.2048     6.4915
  282.3000   139.7827     6.2797     6.5572
  282.4000   139.7851     6.3392     6.6088
  282.5000   139.7879     6.3774     6.6482
  282.6000   139.7900     6.4191     6.7012
  282.7000   139.7924     6.5033     6.7744
  282.8000   139.6596     6.5749     6.8149
  282.9000   139.4938     6.6542     6.8624
  283.0000   139.4962     6.7575     6.8962
  283.1000   139.4986     6.8633     6.9373
  283.2000   139.5014     6.9460     6.9989
  283.3000   139.5035     7.0272     7.0690
  283.4000   139.3332     7.0745     7.1111
  283.5000   139.0764     7.1501     7.1544
  283.6000   138.7355     7.2055     7.2043
  283.7000   138.1797     7.2490     7.2389
  283.8000   137.3912     7.2927     7.2820
  283.9000   136.4836     7.3367     7.3254
  284.0000   135.8544     7.3810     7.3560
  284.1000   135.2454     7.4318     7.3615
  284.2000   134.6077     7.4705     7.4073
  284.3000   133.9100     7.5156     7.4495
  284.4000   133.4272     7.5609     7.4938
  284.5000   133.1594     7.5908     7.5109
  284.6000   133.4098     7.5992     7.5308
  284.7000   133.4677     7.6451     7.5757
  284.8000   133.4701     7.6989     7.6159
  284.9000   133.5876     7.6993     7.6159
  285.0000   133.8493     7.7303     7.6584
  285.1000   134.1375     7.7769     7.6690
  285.2000   134.6940     7.8089     7.6690
  285.3000   134.9376     7.8093     7.6885
  285.4000   135.5935     7.8097     7.7225
  285.5000   136.3735     7.8650     7.7225
  285.6000   137.1534     7.8653     7.7225
  285.7000   137.8692     7.8360     7.6806
  285.8000   138.4099     7.8115     7.6690
  285.9000   139.2634     7.8119     7.6690
  286.0000   139.7349     7.8123     7.6690
  286.1000   140.4461     7.8128     7.6690
  286.2000   141.0800     7.8132     7.6661
  286.3000   141.6008     7.7773     7.6159
  286.4000   142.1216     7.7597     7.6159
  286.5000   142.6161     7.7601     7.5833
  286.6000   142.6188     7.7481     7.5632
  286.7000   142.8489     7.7070     7.5460
  286.8000   142.9269     7.7075     7.5109
  286.9000   143.0687     7.6654     7.5089
  287.0000   143.2352     7.6547     7.4589
  287.1000   143.2376     7.6284     7.4589
  287.2000   143.2336     7.5835     7.4589
  287.3000   142.9394     7.5388     7.4353
  287.4000   142.7201     7.4944     7.4073
  287.5000   142.4633     7.4459     7.3987
  287.6000   142.2066     7.4064     7.3549
  287.7000   141.9498     7.3628     7.3051
  287.8000   141.6490     7.2951     7.2681
  287.9000   141.1326     7.2256     7.2251
  288.0000   140.8320     7.1831     7.1823
  288.1000   140.4047     7.1407     7.1398
  288.2000   140.0591     7.0935     7.0976
  288.3000   139.8023     7.0939     7.0555
  288.4000   139.5456     7.0645     7.0069
  288.5000   139.2888     7.0229     6.9723
  288.6000   139.0253     6.9815     6.9310
  288.7000   138.7246     6.9404     6.8900
  288.8000   138.3104     6.9004     6.8492
  288.9000   137.7945     6.9008     6.8149
  289.0000   137.3980     6.8663     6.8149
  289.1000   137.1413     6.8535     6.7677
  289.2000   136.8846     6.8332     6.7677
  289.3000   136.6144     6.7929     6.7419
  289.4000   136.3711     6.7529     6.7209
  289.5000   136.3156     6.7129     6.7088
  289.6000   136.1611     6.7134     6.6743
  289.7000   136.0170     6.6808     6.6743
  289.8000   136.0878     6.6414     6.6743
  289.9000   136.3735     6.6023     6.6430
  290.0000   136.9349     6.5513     6.6037
  290.1000   137.4150     6.4793     6.5646
  290.2000   137.9358     6.4400     6.5257
  290.3000   138.4566     6.3664     6.4871
  290.4000   138.8714     6.3212     6.4465
  290.5000   139.3798     6.2606     6.3694
  290.6000   140.6434     6.2035     6.2876
  290.7000   141.5043     6.1670     6.2059
  290.8000   142.4355     6.1307     6.1241
  290.9000   143.2867     6.0925     6.0424
  291.0000   144.2104     6.0247     5.9607
  291.1000   145.1502     5.9536     5.8789
