~VERSION INFORMATION
 VERS.                2.0:   CWLS LOG ASCII STANDARD - VERSION 2.0
 WRAP.                 NO:   ONE LINE PER DEPTH STEP
~WELL INFORMATION
#MNEM.UNIT      DATA TYPE    INFORMATION
#----------   ------------   ------------------------------
 STRT.F            3.0000:   START DEPTH
 STOP.F         3449.0000:   STOP DEPTH
 STEP.F            0.5000:   STEP LENGTH
 NULL.          -999.2500:   NO VALUE
 COMP. LAWRENCE/ALLISON INC:   COMPANY
 WELL.       NPR 3 #24-10:   WELL
 FLD .             TEAPOT:   FIELD
 LOC .      S10 T38N R78W:   LOCATION
 CNTY.            NATRONA:   COUNTY
 STAT.            WYOMING:   STATE
 CTRY. UNITED STATES OF AMERICA:   COUNTRY
 SRVC.      Dresser Atlas:   SERVICE COMPANY
 DATE.        28-JUL-1985:   LOGDATE
 API .       490251104400:   API NUMBER
~CURVE INFORMATION
#MNEM.UNIT       API CODE    CURVE DESCRIPTION
#----------   ------------   ------------------------------
 DEPT.F                  :   
 PORD.DEC    45 890 12 00:   POROSITY DENSITY SANDSTONE
 CNC .DEC    42 890 03 00:   NEUTRON POROSITY SANDSTONE
 CORR.G/C3   45 356 01 00:   DENSITY CORRECTION
 DEN .G/C3   45 350 01 00:   COMPENSATED BULK DENSTIY
 AC  .US/F   60 520 00 00:   ACCOUSTIC
 CALR.IN     07 280 01 00:   CALIPER FROM RESISTIVITY
 GRR .GAPI   07 310 01 00:   GAMMA RAY
 RFOC.OHMM   07 220 04 00:   RESISTIVITY FOCUSED LOG
 RILD.OHMM   07 120 46 00:   INDUCTION LOG DEEP RESISTIVITY
 RILM.OHMM   07 120 44 00:   INDUCTION LOG MEDIUM RESISTIVITY
 SPR .MV     07 010 01 00:   SPONTANEOUS POTENTIAL
~PARAMETER INFORMATION
#MNEM.UNIT          VALUE    DESCRIPTION
#----------   ------------   ------------------------------
 PD  .                 GL:   PERMANENT DATUM
 EPD .F              5242:   ELEVATION PERMANENT DATUM
 LMF .                 KB:   LOG MEASURED FROM
 DAPD.F                13:   FEET ABOVE PERMANENT DATUM
 DMF .                 KB:   DRILLING MEASURED FROM
 EKB .F              5255:   KELLING BUSHING
 EGL .F              5242:   GROUND LEVEL
 DATE.        28-JUL-1985:   RUN DATE
 RUN .                  1:   RUN NUMBER
 DD  .F              3451:   DEPTH DRILLER
 DL  .F              3451:   DEPTH LOGGER
 BLI .F              3449:   BOTTOM LOG INTERVAL
 CS  .IN            8.625:   CASING SIZE
 CBD .F               688:   CASING BOTTOM DRILLER
 CBL .F               686:   CASING BOTTOM LOGGER
 BS  .IN            7.875:   BIT SIZE
 BSD .F              3451:   BIT SIZE AT DEPTH
 DFT .            KCL GEL:   DRILLING FLUID TYPE
 DFD .                8.9:   DRILLING FLUID DENSITY
 DFV .                 40:   DRILLING FLUID VISCOSITY
 DFPH.                8.0:   DRILLING FLUID PH
 DFL .                 10:   DRILLING FLUID LOSS
 MSS .           FLOWLINE:   MUD SAMPLE SOURCE
 RMS .OHMM           0.87:   RESISTIVITY MUD SAMPLE
 MST .F                92:   MUD SAMPLE TEMPERATURE
 RMF .OHMM             65:   RESISTIVITY MUD FILTRATE SAMPLE
 MFST.F                92:   MUD FILTRATE SAMPLE TEMPERATURE
 RMC .OHMM           1.09:   RESISTIVITY MUD CAKE
 MCST.F                92:   MUD CAKE SAMPLE TEMPERATURE
 MFSS.               CALC:   MUD FILTRATE SAMPLE SOURCE
 MCSS.               CALC:   MUD CAKE SAMPLE SOURCE
 RMB .OHMM            .66:   RESISTIVITY MUD AT BHT
 BHT .F               121:   BOTTOM HOLE TEMPERATURE
 TCS .HRS               4:   TIME CURCULATED STOPPED
 MRT .F               121:   MAXIMUM RECORDED TEMPERATURE
 LUN .               6264:   LOGGING UNIT NUMBER
 LUL .               GLTE:   LOGGING UNIT LOCATION
 ENGI.           FAHLSING:   RECORDING ENGINEER
 WITN.             STRONG:   WITNESSED BY
 CLNT.            A2DTECH:   CLIENT CODE
 ORIG.        2" 5" PRINT:   ORIGIN OF DATA
 UWI .       490251104400:   UNIQUE WELL ID
 DICO. A2D Technologies, Inc.:   DIGITIZING COMPANY
 R1  . POROSITY WITH SANDSTONE:   REMARKS 1
~OTHER INFORMATION
~A    DEPT    PORD        CNC       CORR        DEN         AC       CALR         GRR      RFOC       RILD       RILM        SPR   
# ...
 3419.0000     0.0745     0.2087     0.1021     2.5282    71.8318     8.0304  -999.2500    12.0647     9.0732     9.4996   -28.3133
 3419.5000     0.0736     0.2060     0.1158     2.5252    72.2062     8.0303  -999.2500    11.0795     8.9474     9.4326   -28.3133
 3420.0000     0.0688     0.2021     0.1157     2.5365    73.7092     8.0301  -999.2500     9.9823     8.8849     9.3661   -28.3133
 3420.5000     0.0604     0.1979     0.1173     2.5478  -999.2500     8.0300  -999.2500     9.2517     8.7012     9.2357   -28.3133
 3421.0000     0.0555     0.2088     0.1219     2.5546  -999.2500     8.0298  -999.2500     9.8007     8.5213     8.9816   -28.3133
 3421.5000     0.0549     0.2178     0.1247     2.5576  -999.2500     8.0297  -999.2500    10.6499     8.2874     8.6740   -28.3133
 3422.0000     0.0601     0.2211     0.1043     2.5486  -999.2500     8.0295  -999.2500    11.1785     8.1161     8.4354   -28.4639
 3422.5000     0.0659     0.2251     0.0780     2.5388  -999.2500     8.0294  -999.2500     9.6618     7.9483     8.2604   -28.6145
 3423.0000     0.0724     0.2266     0.0614     2.5313  -999.2500     8.0292  -999.2500     9.2026     7.7839     8.1454   -28.7651
 3423.5000     0.0704     0.2248     0.0539     2.5291  -999.2500     8.0291  -999.2500     8.8263     7.5703     7.9764   -28.9157
 3424.0000     0.0627     0.2163     0.0494     2.5419  -999.2500     8.0290  -999.2500     8.4069     7.3625     7.7570   -28.9157
 3424.5000     0.0576     0.2152     0.0479     2.5509  -999.2500     8.0288  -999.2500     8.0074     7.1604     7.5435   -28.7651
 3425.0000     0.0562     0.2252     0.0554     2.5554  -999.2500     8.0287  -999.2500     8.4631     6.7264     7.2349   -28.6145
 3425.5000     0.0666     0.2361     0.0644     2.5524  -999.2500     8.0285  -999.2500     9.0696     6.2315     6.5186   -28.4639
 3426.0000     0.0794     0.2522     0.0735     2.5366  -999.2500     8.0284  -999.2500     9.9240     5.7331     5.8327   -28.4639
 3426.5000     0.0797     0.2685     0.0885     2.5186  -999.2500     8.0282  -999.2500     7.4668     5.1659     5.2918   -28.6324
 3427.0000     0.0770     0.2804     0.1066     2.5178  -999.2500     8.0281  -999.2500     6.0633     4.7527     4.8346   -28.7651
 3427.5000     0.0758     0.2889     0.1217     2.5216  -999.2500     8.0279  -999.2500     5.3510     4.3726     4.4770   -28.9157
 3428.0000     0.0755     0.2926     0.1096     2.5246  -999.2500     8.0278  -999.2500     5.0967     4.1076     4.1762   -28.7651
 3428.5000     0.0770     0.2938     0.0916     2.5239  -999.2500     8.0276  -999.2500     5.0258     3.9125     4.0885   -28.7651
 3429.0000     0.0773     0.2905     0.0795     2.5216  -999.2500     8.0275  -999.2500     5.0251     3.8583     4.0622   -28.7651
 3429.5000     0.0755     0.2812     0.0735     2.5216  -999.2500     8.0122  -999.2500     5.0244     3.9120     4.0663   -28.7651
 3430.0000     0.0710     0.2728     0.0780     2.5278  -999.2500     8.0120  -999.2500     5.0587     3.9135     4.1466   -28.9157
 3430.5000     0.0707     0.2746     0.0825     2.5307  -999.2500     8.0119  -999.2500     5.2003     3.9661     4.2626   -29.0663
 3431.0000     0.0773     0.2803     0.0780     2.5260  -999.2500     8.0269  -999.2500     5.3831     3.9658     4.3215   -29.2169
 3431.5000     0.0818     0.2827     0.0720     2.5183  -999.2500     8.0267  -999.2500     5.5337     3.9932     4.3813   -29.2169
 3432.0000     0.0872     0.2836     0.0855     2.5119  -999.2500     8.0265  -999.2500     5.6493     4.0207     4.4114   -29.2169
 3432.5000     0.0881     0.2818     0.0976     2.5066  -999.2500     8.0264  -999.2500     5.6878     4.0484     4.4415   -29.2169
 3433.0000     0.0891     0.2710     0.1006     2.5029  -999.2500     8.0262  -999.2500     5.6870     4.1620     4.5028   -29.0663
 3433.5000     0.0863     0.2561     0.0901     2.5029  -999.2500     8.0261  -999.2500     5.6863     4.3387     4.5651   -28.9157
 3434.0000     0.0731     0.2114     0.0870     2.5097  -999.2500     8.0259  -999.2500     5.3924     4.5861     4.6606   -28.9157
 3434.5000     0.0611     0.1856     0.1006     2.5315  -999.2500     8.0258  -999.2500     4.8464     4.9841     4.8245   -28.6145
 3435.0000     0.0532     0.1808     0.1096     2.5601  -999.2500     8.0256  -999.2500     5.2662     5.5306     5.1705   -28.4639
 3435.5000     0.0517     0.1784     0.1157     2.5639  -999.2500     8.0406  -999.2500     6.3499     6.2228     6.0227   -28.3133
 3436.0000     0.0508     0.1788     0.1247     2.5647  -999.2500     8.0404  -999.2500     7.7635     7.0017     7.1629   -28.1627
 3436.5000     0.0496     0.1797     0.1398     2.5670  -999.2500     8.0403  -999.2500    10.3873     7.7156     9.3233   -27.8614
 3437.0000     0.0478     0.1818     0.1488     2.5715  -999.2500     8.0552  -999.2500    12.0978     8.4436    10.4895   -27.7108
 3437.5000     0.0428     0.1842     0.1503     2.5790  -999.2500     8.0550  -999.2500    13.6098     9.0499    11.0102   -27.5602
 3438.0000     0.0244     0.1848     0.1442     2.5888  -999.2500     8.0549  -999.2500    14.0886     9.5659    11.3186   -27.4096
 3438.5000     0.0039     0.1854     0.1181     2.6325  -999.2500     8.0548  -999.2500    12.2618     9.9030    11.4752   -27.4096
 3439.0000    -0.0022     0.0648     0.0793     2.6491  -999.2500     8.0546  -999.2500    11.4386    10.0408    11.4736   -27.4096
 3439.5000     0.0021    -0.0033     0.0654     2.6513  -999.2500     8.0394  -999.2500    10.8197    10.1804    11.3927   -27.4096
 3440.0000     0.0373     0.0250     0.0567     2.6273  -999.2500     8.0392  -999.2500    11.2779    10.1892    11.1564   -27.4096
 3440.5000     0.0536     0.1181     0.0554     2.5610  -999.2500     8.0240  -999.2500    12.5997    10.1790    10.5524   -27.4096
 3441.0000     0.0629     0.3009     0.0554     2.5490  -999.2500     8.0238  -999.2500    13.1338     9.9686     9.7738   -27.4096
 3441.5000     0.0668     0.6985     0.0524     2.5422  -999.2500     8.0237  -999.2500    12.3369     9.7625     8.9848   -27.4096
 3442.0000     0.0704     0.6494     0.0479     2.5347  -999.2500     8.0235  -999.2500    10.8123     9.5589     8.2641   -27.4096
 3442.5000     0.0741     0.3530     0.0448     2.5249  -999.2500     8.0234  -999.2500     9.5420     9.4282     7.7584   -27.2590
 3443.0000     0.0795     0.2994     0.0418     2.5151  -999.2500     8.0232  -999.2500     8.5386     9.3555     7.3347   -27.2590
 3443.5000     0.0852     0.2997     0.0433     2.5061  -999.2500     8.0231  -999.2500     7.8014     9.1595     6.9915   -27.2590
 3444.0000     0.0939     0.2994     0.0479     2.4933  -999.2500     8.0229  -999.2500     7.1774     9.1047     6.9031   -27.2590
 3444.5000     0.0994     0.2994     0.0494     2.4873  -999.2500     8.0228  -999.2500     6.6033     9.1040     6.8544   -27.1084
 3445.0000     0.1012     0.2991     0.0494     2.4850  -999.2500     8.0226  -999.2500     5.9501     9.1033     6.9014   -27.1084
 3445.5000     0.1027     0.2994     0.0418     2.4805  -999.2500     8.0225  -999.2500     5.3241     9.1027     6.9002   -27.1084
 3446.0000     0.1072     0.2994     0.0328     2.4715  -999.2500     8.0223  -999.2500     5.1422     9.1021     6.8993   -27.1084
 3446.5000  -999.2500  -999.2500  -999.2500  -999.2500  -999.2500     8.0222  -999.2500     5.1773     9.1015     6.9466   -27.1084
 3447.0000  -999.2500  -999.2500  -999.2500  -999.2500  -999.2500     8.0220  -999.2500     5.1368     9.1008     6.9454   -26.9578
 3447.5000  -999.2500  -999.2500  -999.2500  -999.2500  -999.2500     8.0219  -999.2500     4.8864     9.1002     6.9931   -27.1084
 3448.0000  -999.2500  -999.2500  -999.2500  -999.2500  -999.2500     8.0217  -999.2500     4.1318     9.1631     6.9919   -27.1084
 3448.5000  -999.2500  -999.2500  -999.2500  -999.2500  -999.2500     8.0065  -999.2500     3.1404     9.1623     6.9909   -27.1084
 3449.0000  -999.2500  -999.2500  -999.2500  -999.2500  -999.2500     8.0063  -999.2500     2.5679     9.1617     6.9900   -27.1084
