~VERSION INFORMATION
 VERS.                2.0:   CWLS LOG ASCII STANDARD - VERSION 2.0
 WRAP.                 NO:   ONE LINE PER DEPTH STEP
~WELL INFORMATION
#MNEM.UNIT      DATA TYPE    INFORMATION
#----------   ------------   ------------------------------
 STRT.F           41.0000:   START DEPTH
 STOP.F          433.0000:   STOP DEPTH
 STEP.F            0.5000:   STEP LENGTH
 NULL.          -999.2500:   NO VALUE
 COMP. LAWRENCE ALLISON & ASSOC.:   COMPANY
 WELL.   STX 10 #61-42-10:   WELL
 FLD .             TEAPOT:   FIELD
 LOC .      S10 T38N R78W:   LOCATION
 CNTY.            NATRONA:   COUNTY
 STAT.            WYOMING:   STATE
 CTRY. UNITED STATES OF AMERICA:   COUNTRY
 SRVC.              Welex:   SERVICE COMPANY
 DATE.        10-SEP-1987:   LOGDATE
 API .       490251116900:   API NUMBER
~CURVE INFORMATION
#MNEM.UNIT       API CODE    CURVE DESCRIPTION
#----------   ------------   ------------------------------
 DEPT.F                  :   
 GRR .GAPI   07 310 01 00:   GAMMA RAY
 GURD.OHMM   07 220 05 00:   SHALLOW SHORT GUARD RESISTIVITY
 ILD .OHMM   07 120 46 00:   INDUCTION LOG DEEP
 ILM .OHMM   07 120 44 00:   INDUCTION LOG MEDIUM
~PARAMETER INFORMATION
#MNEM.UNIT          VALUE    DESCRIPTION
#----------   ------------   ------------------------------
 PD  .                 GL:   PERMANENT DATUM
 EPD .F              5158:   ELEVATION PERMANENT DATUM
 LMF .                 KB:   LOG MEASURED FROM
 DAPD.F                 8:   FEET ABOVE PERMANENT DATUM
 DMF .                 KB:   DRILLING MEASURED FROM
 EKB .F              5166:   KELLING BUSHING
 EDF .F              5165:   DRILLING FLOOR
 EGL .F              5158:   GROUND LEVEL
 DATE.        10-SEP-1987:   RUN DATE
 RUN .                  1:   RUN NUMBER
 DD  .F               435:   DEPTH DRILLER
 DL  .F               435:   DEPTH LOGGER
 BLI .F               433:   BOTTOM LOG INTERVAL
 TLI .F                41:   TOP LOG INTERVAL
 CS  .IN            9.625:   CASING SIZE
 CBD .F                50:   CASING BOTTOM DRILLER
 CBL .F                50:   CASING BOTTOM LOGGER
 BS  .IN             8.75:   BIT SIZE
 BSD .F               435:   BIT SIZE AT DEPTH
 DFT .            KCL-GEL:   DRILLING FLUID TYPE
 RMS .OHMM            0.5:   RESISTIVITY MUD SAMPLE
 MST .F                80:   MUD SAMPLE TEMPERATURE
 RMF .OHMM           0.43:   RESISTIVITY MUD FILTRATE SAMPLE
 MFST.F                80:   MUD FILTRATE SAMPLE TEMPERATURE
 RMC .OHMM           0.68:   RESISTIVITY MUD CAKE
 MCST.F                80:   MUD CAKE SAMPLE TEMPERATURE
 MFSS.               MEAS:   MUD FILTRATE SAMPLE SOURCE
 MCSS.               MEAS:   MUD CAKE SAMPLE SOURCE
 RMB .OHMM            0.5:   RESISTIVITY MUD AT BHT
 BHT .F                80:   BOTTOM HOLE TEMPERATURE
 TCS .HRS             2.5:   TIME CURCULATED STOPPED
 TLAB.HRS            0314:   TIME LOGGER AT BOTTOM
 MRT .F                80:   MAXIMUM RECORDED TEMPERATURE
 LUN .              51165:   LOGGING UNIT NUMBER
 LUL .              GILTE:   LOGGING UNIT LOCATION
 ENGI.         JD ADDISON:   RECORDING ENGINEER
 WITN.             STRONG:   WITNESSED BY
 CLNT.            A2DTECH:   CLIENT CODE
 ORIG.           5" PRINT:   ORIGIN OF DATA
 UWI .       490251116900:   UNIQUE WELL ID
 DICO. A2D Technologies, Inc.:   DIGITIZING COMPANY
~OTHER INFORMATION
~A   DEPT       GRR      GURD        ILD        ILM   
# ...
  114.0000   105.9529     9.3172     8.9659     8.2354
  114.5000   109.7744     9.1640     9.0324     8.1257
  115.0000   110.6767     9.0058     8.9744     8.0730
  115.5000   110.0752     8.9435     8.8554     8.0206
  116.0000   113.9850     8.8184     8.7379     8.0247
  116.5000   115.1880     8.8286     8.6808     8.0279
  117.0000   109.1729     8.9541     8.6259     8.0869
  117.5000   110.0752     9.1444     8.6302     8.0902
  118.0000   110.9774     9.3387     8.6343     8.0935
  118.5000   105.2632     9.5372     8.6384     8.0968
  119.0000   103.4586     9.7399     8.7026     8.1563
  119.5000   104.3609     9.4112     8.7681     8.1596
  120.0000   106.2256     9.1568     8.7722     8.1629
  120.5000   109.5599     9.0328     8.7764     8.1663
  121.0000   111.2782     9.0359     8.6600     8.1696
  121.5000   113.9850     9.0383     8.5451     8.1730
  122.0000   110.6767     9.0408     8.4307     8.1771
  122.5000   107.9699     8.9809     8.3766     8.0672
  123.0000   110.6767     8.8604     8.2095     7.9605
  123.5000   112.4812     8.7410     8.1559     7.8535
  124.0000   110.0752     8.7434     8.0486     7.7488
  124.5000   106.4662     8.6849     8.0525     7.5936
  125.0000   104.0602     8.7482     8.0008     7.5436
  125.5000    99.5489     8.6896     8.0046     7.5474
  126.0000    94.7368     8.6320     8.0085     7.5505
  126.5000    96.8992     8.5163     7.9570     7.6060
  127.0000    99.6752     8.4593     7.9059     7.6091
  127.5000   104.0602     8.3458     7.7482     7.4491
  128.0000   110.0752     8.1766     7.4369     7.1487
  128.5000   114.5865     7.9535     7.1380     6.8211
  129.0000   116.3910     7.5696     6.8512     6.5920
  129.5000   118.4962     7.0281     6.6675     6.4141
  130.0000   120.6015     6.6056     6.5337     6.2423
  130.5000   119.3985     6.5613     6.5368     6.1585
  131.0000   117.5940     6.6550     6.5853     6.1616
  131.5000   115.7895     6.8912     6.6801     6.2933
  132.0000   114.2857     7.6470     6.8247     6.4279
  132.5000   110.9774     7.9184     6.9747     6.5653
  133.0000   107.9519     7.8654     7.1279     6.6594
  133.5000   107.0266     8.0889     7.4252     6.8018
  134.0000   106.1654     8.3182     7.6371     6.8569
  134.5000   101.6541     8.4949     7.7471     6.9989
  135.0000   100.4511     8.5563     7.8036     7.0503
  135.5000   103.1579     8.4409     7.7001     7.1021
  136.0000   109.7744     8.3850     7.5980     7.1050
  136.5000   117.2932     8.4461     7.4972     7.1079
  137.0000   121.5078     8.4484     7.4491     7.1105
  137.5000   121.8045     8.3345     7.4020     7.1137
  138.0000   114.3097     8.2217     7.4057     7.1166
  138.5000    97.7444     8.1109     7.3581     7.0703
  139.0000    94.4361     8.0021     7.3082     7.0245
  139.5000    92.3308     7.9491     7.1581     6.9309
  140.0000    89.9248     7.8959     6.9543     6.8354
  140.5000    91.7293     7.7899     6.7324     6.7008
  141.0000    96.5414     7.6850     6.5106     6.5659
  141.5000   100.7519     7.4757     6.2658     6.3023
  142.0000   105.2632     7.3256     5.9285     5.6445
  142.5000   107.9699     7.0120     5.6472     5.2332
  143.0000   107.6692     6.2950     5.4249     4.9880
  143.5000   103.7564     5.3702     5.3153     4.9210
  144.0000   100.4511     5.0470     5.3540     4.9577
  144.5000   104.5495     5.7184     5.5443     5.1342
  145.0000   110.6767     6.6146     5.8616     5.5422
  145.5000   112.1805     7.4940     6.2401     5.9414
  146.0000   107.6692     7.8681     6.5972     6.2842
  146.5000   102.5564     7.9799     6.9267     6.5555
  147.0000    95.6391     8.0933     7.1728     6.7845
  147.5000    90.8271     8.0955     7.3765     6.8818
  148.0000    93.5338     8.2106     7.5337     6.9323
  148.5000    97.7444     8.3333     7.6462     7.0317
  149.0000   102.5564     8.5043     7.8041     7.1325
  149.5000   101.0526     8.6856     7.8614     7.2850
  150.0000   101.3534     8.8090     7.9736     7.3385
  150.5000   102.9032     8.9342     8.0317     7.4438
  151.0000   104.6617     9.0612     8.0901     7.4985
  151.5000    99.5489     9.1265     8.1490     7.5536
  152.0000    99.2481     9.1290     8.2084     7.7150
  152.5000    98.3459     9.0679     8.2681     7.8293
  153.0000    96.5414     9.1340     8.3283     8.0012
  153.5000    94.4361     9.2638     8.3889     8.0525
  154.0000    96.8421     9.3954     8.4500     7.9994
  154.5000    97.7444     9.5967     8.5116     8.0035
  155.0000    98.9474     9.7316     8.5224     8.0623
  155.5000    99.5489     9.7343     8.5771     8.1215
  156.0000   103.7594     9.7374     8.5800     8.1248
  156.5000   109.1729     9.7401     8.5231     8.1282
  157.0000   106.7669     9.8104     8.5130     8.0746
  157.5000   107.1128     9.8131     8.4117     8.0787
  158.0000   106.7669     9.9525     8.3570     8.0820
  158.5000   104.6617    10.0237     8.3018     8.0853
  159.0000   104.0602     9.7898     8.1913     8.0886
  159.5000   104.9624     9.5932     8.1375     8.0361
  160.0000   107.3684     9.4615     8.0842     7.9840
  160.5000   104.3609     9.2661     7.9752     7.8578
  161.0000    97.7444     9.1526     7.8640     7.7104
  161.5000    94.4361     9.0949     7.7010     7.5645
  162.0000    86.0150     9.0992     7.5029     7.4629
  162.5000    81.2030     9.0396     7.3007     7.3134
  163.0000    85.1128     8.9816     7.1040     7.1168
  163.5000    92.0933     8.8022     6.9125     6.8777
  164.0000    94.3117     8.5660     6.6799     6.5554
  164.5000    99.5489     8.1648     6.4106     6.2482
  165.0000   100.7519     7.6755     6.1098     6.2076
  165.5000   101.9549     7.2626     5.7431     5.9578
  166.0000   104.0602     6.7264     5.2876     5.5237
  166.5000    99.4476     6.2031     4.7682     5.0047
  167.0000   101.5588     5.8314     4.2952     4.5032
  167.5000   100.3617     5.4065     3.8903     3.9415
  168.0000    99.1631     4.9097     3.3782     3.4576
  168.5000    98.2667     4.3367     2.9633     2.9915
  169.0000    98.5749     3.6244     2.7283     2.6793
  169.5000    99.1808     2.9260     2.6547     2.6070
  170.0000    92.5716     2.7694     2.6926     2.6083
  170.5000    88.3670     2.7903     2.7500     2.6275
  171.0000    86.8612     2.8700     2.8477     2.7023
  171.5000    86.5743     3.1252     3.0526     2.8179
  172.0000    88.6869     3.6033     3.4109     3.0000
  172.5000    95.3094     4.5698     3.8112     3.3622
  173.0000    98.9243     5.5112     4.2897     3.8471
  173.5000   101.0354     6.3762     4.7708     4.6120
  174.0000   104.3496     6.8838     5.2994     5.1894
  174.5000   107.9645     7.1295     5.6998     5.5248
  175.0000   110.0757     7.1824     5.9433     5.7452
  175.5000   113.6906     7.0382     6.1120     5.9433
  176.0000   117.9070     6.9447     6.2423     6.0936
  176.5000   121.2212     6.9963     6.2444     6.1384
  177.0000   124.5354     7.0002     6.2465     6.0565
  177.5000   127.3082     7.1499     6.1628     5.9764
  178.0000   126.5644     7.3548     6.0383     5.8961
  178.5000   123.9530     7.5127     5.8756     5.7780
  179.0000   123.6567     7.5684     5.6387     5.5839
  179.5000   122.7618     7.2640     5.4075     5.3963
  180.0000   123.9707     6.5965     5.2245     5.2151
  180.5000   125.7811     5.9489     5.0888     5.0399
  181.0000   123.9825     5.5538     5.0905     4.9384
  181.5000   116.4696     5.4794     5.1276     4.9404
  182.0000   117.9778     5.7548     5.1649     4.9768
  182.5000   111.3686     5.7975     5.2749     5.0134
  183.0000   109.2692     6.0927     5.4247     5.0912
  183.5000   108.3729     6.4952     5.6175     5.3033
  184.0000   109.3133     6.7612     5.9390     5.5302
  184.5000   114.4012     6.9063     6.2789     5.8471
  185.0000   119.8206     7.2025     6.5925     6.1822
  185.5000   124.0371     7.6690     6.8754     6.4467
  186.0000   125.8475     8.2795     7.1230     6.7225
  186.5000   124.9496     8.6945     7.2788     6.9138
