~VERSION INFORMATION
 VERS.                2.0:   CWLS LOG ASCII STANDARD - VERSION 2.0
 WRAP.                 NO:   ONE LINE PER DEPTH STEP
~WELL INFORMATION
#MNEM.UNIT      DATA TYPE    INFORMATION
#----------   ------------   ------------------------------
 STRT.F          598.0000:   START DEPTH
 STOP.F         2552.0000:   STOP DEPTH
 STEP.F            0.5000:   STEP LENGTH
 NULL.          -999.2500:   NO VALUE
 COMP. FENIX & SCISSON INC:   COMPANY
 WELL.     15-SHX-2 #15-2:   WELL
 FLD .             TEAPOT:   FIELD
 LOC .       S2 T38N R78W:   LOCATION
 CNTY.            NATRONA:   COUNTY
 STAT.            WYOMING:   STATE
 CTRY. UNITED STATES OF AMERICA:   COUNTRY
 SRVC.              Welex:   SERVICE COMPANY
 DATE.        03-JUN-1979:   LOGDATE
 API .       490251002100:   API NUMBER
~CURVE INFORMATION
#MNEM.UNIT       API CODE    CURVE DESCRIPTION
#----------   ------------   ------------------------------
 DEPT.F                  :   
 CALD.IN     45 280 60 00:   CALIPER
 GRD .GAPI   45 310 01 00:   GAMMA RAY FROM DENSITY LOG
 RHOB.G/C3   45 350 01 00:   BULK DENSITY
 DPHI.DEC    45 890 12 00:   DENSITY POROSITY SANDSTONE
 CORR.G/C3   45 356 01 00:   DENSITY CORRECTION
~PARAMETER INFORMATION
#MNEM.UNIT          VALUE    DESCRIPTION
#----------   ------------   ------------------------------
 PD  .                 GL:   PERMANENT DATUM
 EPD .F              5118:   ELEVATION PERMANENT DATUM
 LMF .                 KB:   LOG MEASURED FROM
 DAPD.F                10:   FEET ABOVE PERMANENT DATUM
 DMF .                 KB:   DRILLING MEASURED FROM
 EKB .F              5128:   KELLING BUSHING
 EGL .F              5118:   GROUND LEVEL
 DATE.             6-3-79:   RUN DATE
 RUN .                  1:   RUN NUMBER
 DD  .F              2569:   DEPTH DRILLER
 DL  .F              2554:   DEPTH LOGGER
 BLI .F              2552:   BOTTOM LOG INTERVAL
 TLI .F               622:   TOP LOG INTERVAL
 CS  .IN            9.625:   CASING SIZE
 CBD .F               622:   CASING BOTTOM DRILLER
 BS  .IN             8.75:   BIT SIZE
 BSD .F              2569:   BIT SIZE AT DEPTH
 DFT .        AIR DRILLED:   DRILLING FLUID TYPE
 TCS .HRS             2.5:   TIME CURCULATED STOPPED
 MRT .F               124:   MAXIMUM RECORDED TEMPERATURE
 ENGI.               REIN:   RECORDING ENGINEER
 WITN.              AMEND:   WITNESSED BY
 CLNT.            A2DTECH:   CLIENT CODE
 ORIG.           5" PRINT:   ORIGIN OF DATA
 UWI .       490251002100:   UNIQUE WELL ID
 DICO. A2D Technologies, Inc.:   DIGITIZING COMPANY
~OTHER INFORMATION
~A   DEPT     CALD         GRD      RHOB       DPHI       CORR   
# ...
  842.0000     9.3649   100.2249     2.5321     0.0139     0.0329
  842.5000     9.3941   100.6542     2.5428     0.0087     0.0386
  843.0000     9.4231   100.2908     2.5537    -0.0017     0.0443
  843.5000     9.4520   100.8068     2.5591    -0.0073     0.0499
  844.0000     9.4809   101.4306     2.5550    -0.0054     0.0550
  844.5000     9.5096   101.3396     2.5470     0.0009     0.0551
  845.0000     9.5375   100.5294     2.5389     0.0073     0.0518
  845.5000     9.5553    99.7393     2.5308     0.0109     0.0472
  846.0000     9.5558   100.7993     2.5249     0.0143     0.0425
  846.5000     9.5558   102.5106     2.5220     0.0176     0.0379
  847.0000     9.5558   104.2513     2.5224     0.0165     0.0333
  847.5000     9.5558   104.1336     2.5324     0.0119     0.0312
  848.0000     9.5558   103.3333     2.5354     0.0101     0.0330
  848.5000     9.5558   104.3075     2.5277     0.0163     0.0320
  849.0000     9.5558   105.5064     2.5195     0.0225     0.0306
  849.5000     9.5558   106.7078     2.5114     0.0266     0.0291
  850.0000     9.5558   107.8942     2.5029     0.0298     0.0299
  850.5000     9.5597   106.9000     2.4924     0.0323     0.0318
  851.0000     9.5735   104.6479     2.4827     0.0387     0.0337
  851.5000     9.5871   102.3216     2.4783     0.0463     0.0351
  852.0000     9.6008    99.2261     2.4656     0.0478     0.0316
  852.5000     9.6148    98.9790     2.4530     0.0614     0.0269
  853.0000     9.6157   101.0096     2.4417     0.0711     0.0221
  853.5000     9.6160   102.0042     2.4423     0.0648     0.0172
  854.0000     9.5938   101.4235     2.4880     0.0453     0.0170
  854.5000     9.5635   101.1682     2.5245     0.0259     0.0173
  855.0000     9.5331   103.1071     2.5339     0.0123     0.0184
  855.5000     9.5027   104.1417     2.5287     0.0140     0.0195
  856.0000     9.4723   102.6225     2.5225     0.0180     0.0206
  856.5000     9.4420   100.5622     2.5214     0.0184     0.0216
  857.0000     9.4116    98.8414     2.5238     0.0175     0.0228
  857.5000     9.3813   100.0159     2.5197     0.0194     0.0227
  858.0000     9.3508    99.6396     2.5150     0.0222     0.0202
  858.5000     9.3360    97.8980     2.5108     0.0255     0.0176
  859.0000     9.3341    98.9483     2.5140     0.0255     0.0178
  859.5000     9.3324   100.4396     2.5215     0.0192     0.0201
  860.0000     9.3308   101.4266     2.5319     0.0120     0.0225
  860.5000     9.3291    99.7572     2.5421     0.0043     0.0249
  861.0000     9.3274    97.7962     2.5492     0.0021     0.0254
  861.5000     9.3258    97.2894     2.5494     0.0007     0.0258
  862.0000     9.3241    97.1178     2.5498     0.0007     0.0262
  862.5000     9.3225    97.5267     2.5492     0.0019     0.0266
  863.0000     9.3208    96.6507     2.5431     0.0053     0.0270
  863.5000     9.3191    95.6856     2.5382     0.0075     0.0260
  864.0000     9.3175    94.8391     2.5448     0.0039     0.0249
  864.5000     9.3143    94.2896     2.5500     0.0011     0.0238
  865.0000     9.3100    92.6262     2.5468     0.0011     0.0228
  865.5000     9.3056    91.5853     2.5426     0.0039     0.0217
  866.0000     9.3012    91.5550     2.5384     0.0076     0.0207
  866.5000     9.2971    90.1443     2.5340     0.0099     0.0196
  867.0000     9.3011    88.6280     2.5366     0.0080     0.0185
  867.5000     9.3056    87.1852     2.5445     0.0037     0.0174
  868.0000     9.3101    88.2579     2.5512     0.0007     0.0189
  868.5000     9.3146    89.4343     2.5485     0.0007     0.0223
  869.0000     9.3191    89.0466     2.5443     0.0029     0.0230
  869.5000     9.3236    88.5680     2.5463     0.0047     0.0230
  870.0000     9.3281    88.0572     2.5488     0.0055     0.0230
  870.5000     9.3325    89.1843     2.5418     0.0071     0.0216
  871.0000     9.3370    88.9504     2.5326     0.0124     0.0202
  871.5000     9.3415    87.5688     2.5241     0.0179     0.0187
  872.0000     9.3460    86.1783     2.5243     0.0180     0.0173
  872.5000     9.3505    85.2924     2.5260     0.0163     0.0170
  873.0000     9.3550    85.8207     2.5241     0.0164     0.0170
  873.5000     9.3595    86.6718     2.5190     0.0186     0.0162
  874.0000     9.3639    87.5527     2.5140     0.0209     0.0151
  874.5000     9.3684    87.3019     2.5092     0.0231     0.0141
  875.0000     9.3729    86.8058     2.5127     0.0251     0.0130
  875.5000     9.3802    86.3049     2.5223     0.0207     0.0137
  876.0000     9.4004    85.7995     2.5277     0.0168     0.0157
  876.5000     9.4204    85.7411     2.5304     0.0140     0.0176
  877.0000     9.4404    85.9482     2.5376     0.0092     0.0195
  877.5000     9.4604    86.1462     2.5373     0.0096     0.0210
  878.0000     9.4803    86.9093     2.5327     0.0123     0.0210
  878.5000     9.4969    88.6498     2.5366     0.0107     0.0210
  879.0000     9.4990    90.5667     2.5437     0.0049     0.0210
  879.5000     9.5014    90.9569     2.5481     0.0023     0.0210
  880.0000     9.5038    89.2936     2.5443     0.0056     0.0210
  880.5000     9.5063    87.7354     2.5384     0.0096     0.0210
  881.0000     9.5087    87.5583     2.5325     0.0119     0.0210
  881.5000     9.5111    87.4725     2.5288     0.0110     0.0210
  882.0000     9.5135    85.4145     2.5353     0.0080     0.0210
  882.5000     9.5165    82.9948     2.5428     0.0052     0.0210
  883.0000     9.5330    82.6525     2.5440     0.0043     0.0210
  883.5000     9.5497    83.5738     2.5447     0.0039     0.0210
  884.0000     9.5662    84.5201     2.5476     0.0029     0.0210
  884.5000     9.5762    85.4799     2.5505     0.0013     0.0210
  885.0000     9.5475    84.7032     2.5524     0.0003     0.0204
  885.5000     9.5045    83.3246     2.5402     0.0084     0.0175
  886.0000     9.4609    81.8977     2.5261     0.0162     0.0146
  886.5000     9.4174    82.4152     2.5118     0.0241     0.0117
  887.0000     9.3739    82.7446     2.5077     0.0299     0.0090
  887.5000     9.3303    83.0192     2.5157     0.0283     0.0096
  888.0000     9.2866    85.4415     2.5230     0.0203     0.0104
  888.5000     9.2444    86.4151     2.5297     0.0127     0.0113
  889.0000     9.2157    85.5278     2.5364     0.0092     0.0122
  889.5000     9.2172    84.7549     2.5431     0.0049     0.0129
  890.0000     9.2165    84.9246     2.5488     0.0006     0.0168
  890.5000     9.2138    83.1564     2.5518    -0.0006     0.0209
  891.0000     9.2112    81.4608     2.5488     0.0022     0.0210
  891.5000     9.2086    81.0961     2.5450     0.0050     0.0215
  892.0000     9.2059    81.8715     2.5411     0.0078     0.0221
  892.5000     9.2033    81.0740     2.5373     0.0106     0.0226
  893.0000     9.2007    80.3349     2.5335     0.0123     0.0232
  893.5000     9.1983    80.3978     2.5322     0.0127     0.0238
  894.0000     9.1842    81.4225     2.5332     0.0116     0.0243
  894.5000     9.1654    81.2593     2.5357     0.0106     0.0249
  895.0000     9.1465    80.6069     2.5382     0.0085     0.0255
  895.5000     9.1268    80.8847     2.5434     0.0055     0.0260
  896.0000     9.1025    81.0257     2.5660    -0.0050     0.0265
  896.5000     9.0971    79.0587     2.5917    -0.0234     0.0274
  897.0000     9.0976    79.5177     2.6096    -0.0401     0.0319
  897.5000     9.1063    82.7736     2.5917    -0.0397     0.0353
  898.0000     9.1433    86.3759     2.5748    -0.0212     0.0371
  898.5000     9.1787    89.9689     2.5588    -0.0068     0.0329
  899.0000     9.2142    91.1301     2.5586    -0.0041     0.0284
  899.5000     9.2497    91.9347     2.5608    -0.0045     0.0291
  900.0000     9.2851    93.0502     2.5631    -0.0053     0.0373
  900.5000     9.3177    94.2698     2.5651    -0.0058     0.0431
  901.0000     9.3168    94.8546     2.5647    -0.0065     0.0417
  901.5000     9.3289    94.4835     2.5641    -0.0061     0.0376
  902.0000     9.3525    93.1938     2.5522     0.0010     0.0334
  902.5000     9.3761    91.9173     2.5371     0.0088     0.0293
