~VERSION INFORMATION
 VERS.                2.0:   CWLS LOG ASCII STANDARD - VERSION 2.0
 WRAP.                 NO:   ONE LINE PER DEPTH STEP
~WELL INFORMATION
#MNEM.UNIT      DATA TYPE    INFORMATION
#----------   ------------   ------------------------------
 STRT.F           34.0000:   START DEPTH
 STOP.F          616.0000:   STOP DEPTH
 STEP.F            0.5000:   STEP LENGTH
 NULL.          -999.2500:   NO VALUE
 COMP. FENIX & SCISSON INC:   COMPANY
 WELL. NAVAL PETROLEUM RESERVE 3 S-10 #86-10:   WELL
 FLD .             TEAPOT:   FIELD
 LOC .      S10 T38N R78W:   LOCATION
 CNTY.            NATRONA:   COUNTY
 STAT.            WYOMING:   STATE
 CTRY. UNITED STATES OF AMERICA:   COUNTRY
 SRVC.              Welex:   SERVICE COMPANY
 DATE.        12-APR-1977:   LOGDATE
 API .       490251033800:   API NUMBER
~CURVE INFORMATION
#MNEM.UNIT       API CODE    CURVE DESCRIPTION
#----------   ------------   ------------------------------
 DEPT.F                  :   
 CALD.IN     45 280 60 00:   CALIPER FROM DENSITY LOG
 GRD .GAPI   45 310 01 00:   GAMMA RAY FROM DENSITY LOG
 CORR.G/C3   45 356 01 00:   DENSITY CORRECTION
 DPHI.DEC    45 890 12 00:   DENSITY POROSITY SANDSTONE
 RHOB.G/C3   45 350 01 00:   BULK DENSITY
 SPR .MV     07 010 01 00:   SPONTANEOUS POTENTIAL
 ILD .OHMM   07 120 46 00:   INDUCTION LOG DEEP
 ILM .OHMM   07 120 44 00:   INDUCTION LOG MEDIUM
 SGRD.OHMM   07 221 05 00:   SHALLOW SHORT GUARD RESISTIVITY
~PARAMETER INFORMATION
#MNEM.UNIT          VALUE    DESCRIPTION
#----------   ------------   ------------------------------
 PD  .                 GL:   PERMANENT DATUM
 EPD .F              5240:   ELEVATION PERMANENT DATUM
 LMF .                 KB:   LOG MEASURED FROM
 DAPD.F                 5:   FEET ABOVE PERMANENT DATUM
 DMF .                 KB:   DRILLING MEASURED FROM
 EKB .F              5245:   KELLING BUSHING
 EGL .F              5240:   GROUND LEVEL
 DATE.        12-APR-1977:   RUN DATE
 RUN .                  1:   RUN NUMBER
 DD  .F               625:   DEPTH DRILLER
 DL  .F               617:   DEPTH LOGGER
 BLI .F               615:   BOTTOM LOG INTERVAL
 TLI .F                35:   TOP LOG INTERVAL
 CS  .IN            8.625:   CASING SIZE
 BS  .IN            7.875:   BIT SIZE
 BSD .F               625:   BIT SIZE AT DEPTH
 DFT .           KCL- GEL:   DRILLING FLUID TYPE
 DFD .                8.8:   DRILLING FLUID DENSITY
 BHT .F                68:   BOTTOM HOLE TEMPERATURE
 TCS .HRS            0100:   TIME CURCULATED STOPPED
 MRT .F                68:   MAXIMUM RECORDED TEMPERATURE
 ENGI.        E. CALLAHAN:   RECORDING ENGINEER
 WITN.            R. LYON:   WITNESSED BY
 CLNT.            A2DTECH:   CLIENT CODE
 ORIG.           5" PRINT:   ORIGIN OF DATA
 UWI .       490251033800:   UNIQUE WELL ID
 DICO. A2D Technologies, Inc.:   DIGITIZING COMPANY
~OTHER INFORMATION
~A   DEPT     CALD        GRD       CORR       DPHI         RHOB      SPR        ILD        ILM       SGRD   
# ...
  472.0000     7.8046    70.6707     0.0378     0.1852     2.3465   -63.3294    22.2145    23.1569    39.4531
  472.5000     7.8057    71.5653     0.0349     0.1827     2.3413   -63.4731    21.7536    22.3648    36.0515
  473.0000     7.8066    72.4600     0.0335     0.1888     2.3331   -63.4731    21.3023    22.5154    35.3035
  473.5000     7.8075    73.3546     0.0351     0.1914     2.3346   -63.4731    21.1510    25.4967    37.0479
  474.0000     7.8230    74.3976     0.0382     0.1884     2.3414   -63.3234    21.1466    24.9677    37.8173
  474.5000     7.8091    75.2923     0.0412     0.1843     2.3467   -62.8743    20.9964    22.8150    38.0723
  475.0000     7.8102    76.3353     0.0428     0.1834     2.3475   -62.7246    20.5608    24.1086    39.4041
  475.5000     7.8111    77.3794     0.0429     0.1794     2.3550   -62.2754    20.1342    25.8306    42.5118
  476.0000     7.8268    77.9782     0.0414     0.1754     2.3610   -62.1257    19.5805    25.8229    41.6298
  476.5000     7.8129    78.7255     0.0370     0.1759     2.3618   -61.8263    19.0420    22.4555    35.0092
  477.0000     7.8286    79.4728     0.0341     0.1777     2.3566   -61.5269    18.3906    19.9797    31.3335
  477.5000     7.8295    80.0717     0.0311     0.1810     2.3499   -61.0778    17.8848    20.4127    30.0529
  478.0000     7.8304    80.5163     0.0267     0.1861     2.3349   -60.6287    17.3930    22.1722    29.8395
  478.5000     7.8313    80.5207     0.0268     0.1903     2.3335   -60.4790    17.0321    23.0946    29.8333
  479.0000     7.8322    80.2284     0.0284     0.1872     2.3350   -60.4790    16.7945    22.4511    30.0343
  479.5000     7.8331    80.2329     0.0330     0.1860     2.3380   -60.7784    16.5603    21.0902    30.4466
  480.0000     7.8340    80.3956     0.0345     0.1824     2.3463   -61.2275    16.5568    19.5485    30.6517
  480.5000     7.8349    80.8353     0.0361     0.1767     2.3554   -61.6766    16.5534    22.4915    30.8581
  481.0000     7.8357    80.9881     0.0377     0.1728     2.3644   -62.2754    16.6649    22.9116    31.4989
  481.5000     7.8366    80.9926     0.0378     0.1703     2.3674   -62.7246    16.7771    20.6237    31.4923
  482.0000     7.8375    81.1593     0.0378     0.1718     2.3637   -62.8743    16.7737    19.2268    28.9769
  482.5000     7.8384    81.3131     0.0364     0.1697     2.3705   -62.8743    16.7702    18.3491    29.3746
  483.0000     7.8393    81.4669     0.0320     0.1646     2.3788   -62.8743    16.8840    18.2188    30.4024
  483.5000     7.8402    82.0658     0.0291     0.1643     2.3788   -62.7246    16.8797    18.7558    30.8197
  484.0000     7.8411    83.1276     0.0261     0.1654     2.3751   -62.4251    16.8762    20.5017    29.3510
  484.5000     7.8568    84.1538     0.0217     0.1675     2.3714   -62.2754    16.7563    20.4096    28.7472
  485.0000     7.9022    84.4362     0.0203     0.1708     2.3654   -62.2754    16.7528    19.2399    28.9409
  485.5000     7.9328    84.4406     0.0174     0.1699     2.3677   -62.2754    16.6339    19.7949    29.5507
  486.0000     7.9485    84.4451     0.0159     0.1681     2.3708   -62.2754    16.5157    20.0675    29.7408
  486.5000     7.9643    84.4495     0.0145     0.1665     2.3746   -62.2754    16.3985    20.4635    28.3162
  487.0000     7.9948    84.4540     0.0131     0.1653     2.3768   -62.2754    16.1697    21.2029    26.7839
  487.5000     7.9957    84.4585     0.0116     0.1665     2.3731   -62.2754    15.9442    20.8124    25.8658
  488.0000     8.0114    84.3143     0.0102     0.1683     2.3717   -62.1257    15.8309    19.3493    25.3274
  488.5000     8.0123    84.0221     0.0088     0.1679     2.3709   -61.6766    15.5025    19.5284    25.3386
  489.0000     8.0132    83.8507     0.0089     0.1682     2.3702   -61.0778    15.1808    20.3275    25.8647
  489.5000     8.0141    83.5858     0.0089     0.1676     2.3740   -60.6287    14.9691    20.4381    25.8592
  490.0000     8.0119    83.5914     0.0090     0.1625     2.3831   -60.6287    14.5574    18.9352    25.1480
  490.5000     8.0008    83.5958     0.0091     0.1580     2.3876   -61.6766    14.1571    18.8007    25.1428
  491.0000     8.0018    83.6003     0.0092     0.1579     2.3869   -62.4251    13.7677    18.7969    25.1376
  491.5000     7.9878    83.6047     0.0092     0.1585     2.3892   -63.0240    13.4821    18.2799    24.9031
  492.0000     7.9887    83.6092     0.0093     0.1486     2.4199   -63.3234    13.2023    17.2919    23.5537
  492.5000     7.9896    83.6136     0.0094     0.1363     2.4269   -63.3234    13.0182    17.2883    23.1201
  493.0000     7.9884    83.4686     0.0095     0.1260     2.4417   -63.1737    12.8366    17.7698    23.2761
  493.5000     7.9617    83.3246     0.0095     0.1184     2.4565   -63.1737    12.8339    18.3925    22.3237
  494.0000     7.9626    82.8851     0.0096     0.1107     2.4713   -63.0240    13.0102    17.7625    21.2637
  494.5000     7.9486    82.4444     0.0097     0.1030     2.4861   -63.0240    13.1887    17.6363    21.4080
  495.0000     7.9347    81.2619     0.0098     0.0947     2.5009   -63.0240    13.4626    17.8784    21.5522
  495.5000     7.9208    78.7441     0.0113     0.0863     2.5162   -63.0240    13.8375    18.6324    21.6974
  496.0000     7.9217    76.3747     0.0159     0.0786     2.5244   -62.8743    14.5213    19.8256    22.3006
  496.5000     7.9226    74.0052     0.0235     0.0759     2.5252   -62.8743    15.1337    21.5377    25.7832
  497.0000     7.9234    70.7456     0.0341     0.0845     2.5103   -62.5749    15.5553    22.1388    52.5761
  497.5000     7.9243    72.5305     0.0387     0.1007     2.4863   -62.2754    15.8783    20.9411    59.1303
  498.0000     7.9252    75.2055     0.0372     0.1187     2.4650   -62.1257    15.8750    18.4848    34.2202
  498.5000     7.9261    78.0289     0.0283     0.1249     2.4339   -61.6766    15.8717    17.7294    22.9027
  499.0000     7.9270    80.8524     0.0224     0.1387     2.4175   -61.2275    15.8684    17.7257    21.9668
  499.5000     7.9131    80.1150     0.0194     0.1453     2.4115   -61.0778    15.6471    18.2194    22.4229
  500.0000     7.8991    79.2147     0.0232     0.1438     2.4123   -60.9104    15.2168    18.5987    22.2275
  500.5000     7.9897    79.0538     0.0275     0.1408     2.4183   -60.8043    14.8993    17.8317    21.1999
  501.0000     7.9912    78.8928     0.0317     0.1378     2.4244   -60.6982    14.4886    16.8617    20.6183
  501.5000     7.9927    78.8189     0.0364     0.1353     2.4266   -60.6287    14.0892    16.0441    20.3279
  502.0000     7.9942    79.1276     0.0365     0.1377     2.4207   -60.4790    13.7008    15.5002    20.0416
  502.5000     7.9957    79.5895     0.0336     0.1407     2.4177   -60.3293    13.3231    15.7434    20.0139
  503.0000     7.9972    79.8991     0.0292     0.1391     2.4245   -60.3293    12.9558    16.2735    20.0457
  503.5000     8.0283    80.5054     0.0279     0.1343     2.4335   -60.0299    12.6861    15.4974    20.0973
  504.0000     8.0447    81.4085     0.0310     0.1264     2.4500   -60.0299    12.3364    14.8620    20.1429
  504.5000     8.0758    82.9140     0.0371     0.1166     2.4725   -60.0299    12.0796    14.9601    19.9934
  505.0000     8.0921    83.7980     0.0372     0.1106     2.4808   -60.0299    11.9103    15.0601    19.7100
  505.5000     8.0936    83.5131     0.0359     0.1081     2.4786   -60.0299    11.6624    14.0471    19.4307
  506.0000     8.0654    83.5252     0.0315     0.1111     2.4726   -59.8802    11.3409    14.2392    19.0230
  506.5000     8.0669    84.1562     0.0271     0.1144     2.4659   -59.8802    11.2596    14.3332    18.4952
  507.0000     8.0684    85.9644     0.0242     0.1177     2.4622   -59.8802    11.1018    14.0327    17.9821
  507.5000     8.0398    87.5964     0.0213     0.1170     2.4547   -59.8802    11.0222    13.2724    17.4832
  508.0000     8.0417    89.0781     0.0199     0.1179     2.4495   -59.7305    10.8677    13.0855    17.1164
