~VERSION INFORMATION
 VERS.                2.0:   CWLS LOG ASCII STANDARD - VERSION 2.0
 WRAP.                 NO:   ONE LINE PER DEPTH STEP
~WELL INFORMATION
#MNEM.UNIT      DATA TYPE    INFORMATION
#----------   ------------   ------------------------------
 STRT.F           30.0000:   START DEPTH
 STOP.F         2441.0000:   STOP DEPTH
 STEP.F            0.5000:   STEP LENGTH
 NULL.          -999.2500:   NO VALUE
 COMP. FENIX & SCISSON INC:   COMPANY
 WELL.      NPR 3 #81 S-4:   WELL
 FLD .             TEAPOT:   FIELD
 LOC .       S4 T38N R78W:   LOCATION
 CNTY.            NATRONA:   COUNTY
 STAT.            WYOMING:   STATE
 CTRY. UNITED STATES OF AMERICA:   COUNTRY
 SRVC.            Unknown:   SERVICE COMPANY
 DATE.        28-MAR-1978:   LOGDATE
 API .       490251060700:   API NUMBER
~CURVE INFORMATION
#MNEM.UNIT       API CODE    CURVE DESCRIPTION
#----------   ------------   ------------------------------
 DEPT.F                  :   
 CALD.IN     45 280 60 00:   CALIPER
 RHOB.G/C3   45 350 01 00:   BULK DENSITY
 DPHI.DEC    45 890 12 00:   DENSITY POROSITY SANDSTONE
 CORR.G/C3   45 356 01 00:   DENSITY CORRECTION
 GRD .GAPI   45 310 01 00:   GAMMA RAY FROM DENSITY LOG
~PARAMETER INFORMATION
#MNEM.UNIT          VALUE    DESCRIPTION
#----------   ------------   ------------------------------
 PD  .                 GL:   PERMANENT DATUM
 EPD .F              5169:   ELEVATION PERMANENT DATUM
 LMF .                 KB:   LOG MEASURED FROM
 DAPD.F                10:   FEET ABOVE PERMANENT DATUM
 DMF .                 KB:   DRILLING MEASURED FROM
 EKB .F              5179:   KELLING BUSHING
 EGL .F              5169:   GROUND LEVEL
 DATE.          3-28-1978:   RUN DATE
 RUN .                  1:   RUN NUMBER
 DD  .F              2454:   DEPTH DRILLER
 DL  .F              2443:   DEPTH LOGGER
 BLI .F              2441:   BOTTOM LOG INTERVAL
 TLI .F                40:   TOP LOG INTERVAL
 CS  .IN            9.625:   CASING SIZE
 CBD .F               660:   CASING BOTTOM DRILLER
 CBL .F               660:   CASING BOTTOM LOGGER
 BS  .IN             8.75:   BIT SIZE
 BSD .F              2454:   BIT SIZE AT DEPTH
 DFT .           AIR MIST:   DRILLING FLUID TYPE
 TCS .HRS               2:   TIME CURCULATED STOPPED
 LUN .               2958:   LOGGING UNIT NUMBER
 LUL .               CASP:   LOGGING UNIT LOCATION
 ENGI.             MILLER:   RECORDING ENGINEER
 CLNT.            A2DTECH:   CLIENT CODE
 ORIG.       2"  5" PRINT:   ORIGIN OF DATA
 UWI .       490251060700:   UNIQUE WELL ID
 DICO. A2D Technologies, Inc.:   DIGITIZING COMPANY
~OTHER INFORMATION
~A   DEPT     CALD       RHOB       DPHI       CORR        GRD   
# ...
 1677.0000     9.5975     2.5102     0.0850    -0.0031   160.2706
 1677.5000     9.6181     2.5184     0.0798     0.0043   159.6769
 1678.0000     9.6389     2.5236     0.0862     0.0074   159.0944
 1678.5000     9.6596     2.5133     0.0910     0.0063   157.9362
 1679.0000     9.6791     2.5041     0.0897     0.0051   155.4593
 1679.5000     9.6883     2.5052     0.0878     0.0042   152.9976
 1680.0000     9.6979     2.5087     0.0890     0.0126   152.0448
 1680.5000     9.7076     2.5227     0.0816     0.0202   157.1727
 1681.0000     9.7166     2.5284     0.0786     0.0229   160.7948
 1681.5000     9.7138     2.5264     0.0818     0.0225   160.8671
 1682.0000     9.7106     2.5243     0.0760     0.0202   161.0031
 1682.5000     9.7074     2.5340     0.0686     0.0230   161.1457
 1683.0000     9.7043     2.5481     0.0619     0.0387   161.2898
 1683.5000     9.7011     2.5528     0.0623     0.0508   161.4366
 1684.0000     9.6978     2.5484     0.0663     0.0532   161.6555
 1684.5000     9.7017     2.5536     0.0555     0.0559   161.9074
 1685.0000     9.7080     2.5593     0.0603     0.0633   162.1608
 1685.5000     9.7144     2.5649     0.0491     0.0711   162.4182
 1686.0000     9.7144     2.5608     0.0663     0.0758   162.6389
 1686.5000     9.7101     2.5435     0.0727     0.0573   161.9783
 1687.0000     9.7058     2.5366     0.0660     0.0536   161.2774
 1687.5000     9.7015     2.5519     0.0596     0.0637   160.5799
 1688.0000     9.6971     2.5633     0.0515     0.0818   159.8820
 1688.5000     9.6928     2.5753     0.0471     0.1065   159.1898
 1689.0000     9.6885     2.5740     0.0513     0.1214   158.6892
 1689.5000     9.6842     2.5710     0.0495     0.1259   159.3961
 1690.0000     9.6798     2.5440     0.0664     0.1219   160.7501
 1690.5000     9.6755     2.5006     0.0777     0.0603   161.8670
 1691.0000     9.6712     2.5117     0.0830     0.0321   159.9514
 1691.5000     9.6669     2.5266     0.0797     0.0390   157.9122
 1692.0000     9.6625     2.5315     0.0763     0.0483   155.8666
 1692.5000     9.6583     2.5273     0.0756     0.0491   155.8861
 1693.0000     9.6530     2.5273     0.0778     0.0457   157.7321
 1693.5000     9.6476     2.5406     0.0714     0.0517   159.1699
 1694.0000     9.6422     2.5398     0.0679     0.0582   157.7417
 1694.5000     9.6369     2.5344     0.0730     0.0454   157.5115
 1695.0000     9.6315     2.5474     0.0587     0.0389   158.2831
 1695.5000     9.6261     2.5557     0.0663     0.0344   159.0571
 1696.0000     9.6207     2.5469     0.0655     0.0301   158.7882
 1696.5000     9.6153     2.5527     0.0626     0.0279   158.4452
 1697.0000     9.6100     2.5517     0.0611     0.0257   158.1133
 1697.5000     9.6046     2.5501     0.0657     0.0236   158.1492
 1698.0000     9.5992     2.5419     0.0687     0.0225   158.7742
 1698.5000     9.5938     2.5442     0.0639     0.0254   159.4959
 1699.0000     9.5884     2.5523     0.0619     0.0278   158.7944
 1699.5000     9.5830     2.5468     0.0679     0.0250   158.1385
 1700.0000     9.5784     2.5379     0.0749     0.0221   157.7000
 1700.5000     9.5826     2.5357     0.0706     0.0265   158.5379
 1701.0000     9.5867     2.5427     0.0667     0.0316   157.7141
 1701.5000     9.5907     2.5484     0.0656     0.0368   153.3372
 1702.0000     9.5948     2.5427     0.0671     0.0376   149.0639
 1702.5000     9.5988     2.5441     0.0695     0.0366   146.5009
 1703.0000     9.6028     2.5515     0.0587     0.0367   148.3556
 1703.5000     9.6069     2.5585     0.0606     0.0410   151.4860
 1704.0000     9.6110     2.5638     0.0531     0.0454   154.6528
 1704.5000     9.6150     2.5543     0.0645     0.0417   156.2705
 1705.0000     9.6165     2.5405     0.0711     0.0378   154.9989
 1705.5000     9.6106     2.5407     0.0681     0.0370   153.7585
 1706.0000     9.6049     2.5449     0.0738     0.0363   152.5131
 1706.5000     9.5991     2.5320     0.0767     0.0267   151.9700
 1707.0000     9.6007     2.5198     0.0842     0.0137   151.5881
 1707.5000     9.6178     2.5120     0.0858     0.0006   153.8145
 1708.0000     9.6347     2.5318     0.0615     0.0085   156.6288
 1708.5000     9.6517     2.5494     0.0667     0.0209   158.1292
 1709.0000     9.6574     2.5463     0.0655     0.0281   153.9847
 1709.5000     9.6575     2.5488     0.0664     0.0244   154.3328
 1710.0000     9.6575     2.5373     0.0712     0.0201   154.7347
 1710.5000     9.6538     2.5330     0.0726     0.0211   153.4123
 1711.0000     9.6466     2.5440     0.0619     0.0229   151.6754
 1711.5000     9.6391     2.5517     0.0675     0.0248   149.9162
 1712.0000     9.6479     2.5428     0.0565     0.0267   149.4347
 1712.5000     9.6657     2.5650     0.0545     0.0285   152.0922
 1713.0000     9.6835     2.5671     0.0513     0.0304   153.7873
 1713.5000     9.6969     2.5715     0.0491     0.0319   153.8800
 1714.0000     9.6940     2.5670     0.0616     0.0225   153.7182
 1714.5000     9.6913     2.5434     0.0750     0.0123   153.5494
 1715.0000     9.6888     2.5224     0.0865     0.0023   153.6120
 1715.5000     9.6862     2.5016     0.0938     0.0018   156.3068
 1716.0000     9.6836     2.5226     0.0663     0.0121   160.2036
 1716.5000     9.6810     2.5399     0.0712     0.0275   163.2206
 1717.0000     9.6784     2.5333     0.0759     0.0310   161.5489
 1717.5000     9.6788     2.5453     0.0759     0.0317   160.0438
 1718.0000     9.6811     2.5571     0.0557     0.0514   158.5431
 1718.5000     9.6835     2.5456     0.0675     0.0542   158.3013
 1719.0000     9.6860     2.5402     0.0702     0.0395   158.2982
 1719.5000     9.6884     2.5373     0.0723     0.0341   158.2927
 1720.0000     9.6908     2.5377     0.0707     0.0351   158.3702
 1720.5000     9.6932     2.5519     0.0628     0.0361   159.6571
 1721.0000     9.6956     2.5582     0.0563     0.0456   160.9164
 1721.5000     9.6980     2.5607     0.0607     0.0558   161.3757
 1722.0000     9.7005     2.5479     0.0664     0.0572   161.0955
 1722.5000     9.7029     2.5417     0.0687     0.0518   162.2843
 1723.0000     9.7054     2.5506     0.0633     0.0519   164.2878
 1723.5000     9.7079     2.5524     0.0656     0.0501   166.3256
 1724.0000     9.7103     2.5270     0.0679     0.0417   166.4485
 1724.5000     9.7128     2.5136     0.0699     0.0353   166.8899
 1725.0000     9.7152     2.5505     0.0624     0.0532   169.8977
 1725.5000     9.7161     2.5562     0.0563     0.0731   170.1205
 1726.0000     9.7131     2.5558     0.0670     0.0877   169.2246
 1726.5000     9.7102     2.5412     0.0699     0.0750   168.6059
 1727.0000     9.7072     2.5425     0.0678     0.0745   168.6185
 1727.5000     9.7043     2.5489     0.0670     0.0770   168.6528
 1728.0000     9.7014     2.5225     0.0688     0.0680   166.9778
 1728.5000     9.6985     2.5109     0.0707     0.0522   164.9500
 1729.0000     9.6955     2.5343     0.0675     0.0595   165.0020
 1729.5000     9.6926     2.5507     0.0615     0.0716   166.6790
 1730.0000     9.6897     2.5601     0.0533     0.0882   168.2842
 1730.5000     9.6867     2.5691     0.0504     0.1036   169.1684
 1731.0000     9.6838     2.5594     0.0587     0.1029   166.9600
 1731.5000     9.6809     2.5560     0.0622     0.1014   164.7055
 1732.0000     9.6779     2.5528     0.0607     0.0999   164.2492
 1732.5000     9.6761     2.5478     0.0653     0.1000   164.0765
 1733.0000     9.6745     2.5364     0.0754     0.0909   163.9454
 1733.5000     9.6730     2.5278     0.0834     0.0793   161.4021
 1734.0000     9.6714     2.5538     0.0567     0.0746   157.5737
 1734.5000     9.6699     2.5813     0.0356     0.0919   155.6609
 1735.0000     9.6683     2.6012     0.0291     0.1088   157.6980
 1735.5000     9.6668     2.5564     0.0651     0.0998   160.3550
 1736.0000     9.6652     2.5466     0.0617     0.0712   163.7333
 1736.5000     9.6636     2.5401     0.0599     0.0620   166.8635
 1737.0000     9.6621     2.5414     0.0687     0.0632   167.8212
 1737.5000     9.6605     2.5429     0.0822     0.0647   168.5702
