~VERSION INFORMATION
 VERS.                2.0:   CWLS LOG ASCII STANDARD - VERSION 2.0
 WRAP.                 NO:   ONE LINE PER DEPTH STEP
~WELL INFORMATION
#MNEM.UNIT      DATA TYPE    INFORMATION
#----------   ------------   ------------------------------
 STRT.F            0.0000:   START DEPTH
 STOP.F          555.0000:   STOP DEPTH
 STEP.F            0.5000:   STEP LENGTH
 NULL.          -999.2500:   NO VALUE
 COMP.       F D SERV INC:   COMPANY
 WELL. NAVAL PETROLEUM RESERVE 3 SX-3 #77-3:   WELL
 FLD .        N. P. R NO3:   FIELD
 LOC .       S3 T38N R78W:   LOCATION
 CNTY.            NATRONA:   COUNTY
 STAT.            WYOMING:   STATE
 CTRY. UNITED STATES OF AMERICA:   COUNTRY
 SRVC.     Atlas Wireline:   SERVICE COMPANY
 DATE.        26-OCT-1992:   LOGDATE
 API .       490252255200:   API NUMBER
~CURVE INFORMATION
#MNEM.UNIT       API CODE    CURVE DESCRIPTION
#----------   ------------   ------------------------------
 DEPT.F                  :   
 GRR .GAPI   07 310 01 00:   GAMMA RAY
 RILD.OHMM   07 120 46 00:   INDUCTION LOG DEEP RESISTIVITY
 RILM.OHMM   07 120 44 00:   INDUCTION LOG MEDIUM RESISTIVITY
~PARAMETER INFORMATION
#MNEM.UNIT          VALUE    DESCRIPTION
#----------   ------------   ------------------------------
 PD  .                 GL:   PERMANENT DATUM
 EPD .F              5161:   ELEVATION PERMANENT DATUM
 LMF .                 KB:   LOG MEASURED FROM
 DAPD.F                10:   FEET ABOVE PERMANENT DATUM
 DMF .                 KB:   DRILLING MEASURED FROM
 EKB .F              5171:   KELLING BUSHING
 EDF .F              5170:   DRILLING FLOOR
 EGL .F              5161:   GROUND LEVEL
 DATE.        26-OCT-1992:   RUN DATE
 RUN .                  1:   RUN NUMBER
 DD  .F               562:   DEPTH DRILLER
 DL  .F               563:   DEPTH LOGGER
 BLI .F               555:   BOTTOM LOG INTERVAL
 CS  .IN            8.625:   CASING SIZE
 CBD .F                85:   CASING BOTTOM DRILLER
 CBL .F                56:   CASING BOTTOM LOGGER
 BS  .IN            7.875:   BIT SIZE
 BSD .F               562:   BIT SIZE AT DEPTH
 DFT .           AIR FOAM:   DRILLING FLUID TYPE
 TCS .HRS               1:   TIME CURCULATED STOPPED
 MRT .F                67:   MAXIMUM RECORDED TEMPERATURE
 LUN .            HL-6274:   LOGGING UNIT NUMBER
 LUL .             CASPER:   LOGGING UNIT LOCATION
 ENGI.             RAUTIO:   RECORDING ENGINEER
 WITN.        GARY STRONG:   WITNESSED BY
 CLNT.            A2DTECH:   CLIENT CODE
 ORIG.           5" PRINT:   ORIGIN OF DATA
 UWI .       490252255200:   UNIQUE WELL ID
 DICO. A2D Technologies, Inc.:   DIGITIZING COMPANY
~OTHER INFORMATION
~A    DEPT      GRR      RILD       RILM   
# ...
  364.0000    98.1285    20.0306    19.1053
  364.5000    98.3709    19.8899    19.2358
  365.0000    95.9319    19.7502    19.3685
  365.5000    95.6196    19.7488    19.0968
  366.0000    95.3072    20.0252    18.9615
  366.5000    94.6914    20.0235    18.8270
  367.0000    95.5930    19.8828    18.5636
  367.5000    96.7981    19.4693    18.5611
  368.0000    98.0032    19.0644    18.4295
  368.5000    94.0468    18.5380    18.4270
  369.0000    93.1297    18.4077    18.4244
  369.5000    94.9395    18.4065    18.1442
  370.0000    98.2691    18.1500    18.0373
  370.5000   100.0834    18.0224    17.9094
  371.0000    99.4653    17.8958    17.7824
  371.5000    99.1530    17.8945    17.6564
  372.0000    97.6267    17.7686    17.6540
  372.5000    97.3143    17.5209    17.6516
  373.0000   100.0347    17.5197    17.6492
  373.5000   101.5433    17.5186    17.5241
  374.0000   100.6240    17.3955    17.5217
  374.5000    98.4907    17.5165    17.5192
  375.0000    95.1434    17.5150    17.3950
  375.5000    93.6171    17.5138    17.3921
  376.0000    93.5761    17.5126    17.3897
  376.5000    95.1189    17.5113    17.3874
  377.0000    95.7150    17.5099    17.2641
  377.5000    95.0992    17.3872    17.2618
  378.0000    96.3020    17.6305    17.2594
  378.5000    98.1149    17.3845    17.1371
  379.0000    97.8025    17.2623    17.0156
  379.5000    96.2762    17.2612    16.8950
  380.0000    95.9639    17.3812    16.5427
  380.5000    98.0772    17.3798    16.5404
  381.0000    99.8893    17.5003    16.7708
  381.5000   101.0966    17.7564    16.7679
  382.0000   101.3913    17.8684    16.7656
  382.5000   101.0767    17.6191    16.8808
  383.0000   100.1574    17.3735    16.9966
  383.5000    98.9346    17.3723    17.2331
  384.0000    98.9257    17.3712    17.0966
  384.5000    97.9595    17.3700    16.8709
  385.0000    98.9058    17.2479    16.4044
  385.5000   100.4144    16.8892    15.9507
  386.0000   100.7113    16.3086    15.6181
  386.5000    97.9688    16.0750    15.2925
  387.0000    93.4076    15.7469    14.9737
  387.5000    94.3092    15.6360    14.7641
  388.0000    97.3352    15.4181    14.6595
  388.5000   100.0578    15.0974    14.5556
  389.0000    97.2120    14.8870    14.4524
  389.5000    95.4877    14.8860    14.5516
  390.0000    95.7824    14.7814    14.6515
  390.5000    95.1643    14.6776    14.5471
  391.0000    93.6380    14.3723    14.3436
  391.5000    93.3257    14.1697    14.2419
  392.0000    93.9238    14.1711    14.1409
  392.5000    95.1289    14.0713    13.9431
  393.0000    97.5721    13.8752    13.6524
  393.5000    97.8426    13.5866    13.5556
  394.0000    98.7420    13.5857    13.4165
  394.5000   100.8576    13.5847    13.3632
  395.0000   102.6697    13.3954    13.1770
  395.5000   103.8748    13.3013    13.1748
  396.0000   104.4751    13.2078    13.0814
  396.5000   102.6431    13.2069    12.9887
  397.0000   101.4203    13.0150    13.0587
  397.5000   102.6555    12.9312    12.9678
  398.0000   105.3458    13.1124    12.8775
  398.5000   105.9461    12.7503    12.8775
  399.0000   105.9350    12.8530    12.8775
  399.5000   105.9262    12.9471    12.8775
  400.0000   100.4561    13.1086    12.8775
  400.5000    98.0179    13.2894    12.9678
  401.0000    99.2333    13.2849    13.0587
  401.5000    99.5348    13.1898    13.1503
  402.0000    99.2266    13.6538    13.2425
  402.5000    95.8751    13.7466    13.3354
  403.0000    99.5455    13.8392    13.6179
  403.5000   102.0031    13.7382    13.6179
  404.0000   102.5634    13.5440    13.6179
  404.5000    99.2111    13.3525    13.4289
  405.0000    96.7728    13.2559    13.2425
  405.5000    99.8140    12.8866    13.0587
  406.0000   102.5515    12.5282    12.8775
  406.5000   100.4169    12.2652    12.5225
  407.0000    99.8052    12.0918    12.1773
  407.5000   102.2882    11.9208    11.8417
  408.0000   104.9743    11.6705    11.5960
  408.5000   105.2750    11.5056    11.5152
  409.0000   106.7941    11.4223    11.4350
  409.5000   109.2265    11.4185    11.3554
  410.0000   110.1375    11.5760    11.3554
  410.5000   103.7411    11.8178    11.5152
  411.0000   100.6940    12.2344    11.9392
  411.5000   100.0822    13.1157    12.8775
  412.0000    99.7747    14.1590    15.2289
  412.5000    99.1623    15.3924    17.2702
  413.0000    96.7240    16.8663    19.3133
  413.5000    90.6328    18.8967    22.5228
  414.0000    80.5842    21.0566    26.6355
  414.5000    76.9283    24.2060    28.9654
  415.0000    75.7076    27.8264    30.4175
  415.5000    75.4003    30.2504    31.4991
  416.0000    73.2460    31.2597    31.9425
  416.5000    71.4370    31.3414    31.7200
  417.0000    75.6951    30.8656    31.4991
  417.5000    77.2149    30.4291    31.0620
  418.0000    78.1245    30.4190    30.6308
  418.5000    79.9480    30.1991    30.4175
  419.0000    82.0759    29.3593    30.2057
  419.5000    83.2907    29.7641    29.7865
  420.0000    82.6788    28.9364    28.9654
  420.5000    82.3715    27.7416    28.4934
  421.0000    83.2810    27.5411    27.5826
  421.5000    84.1913    27.3388    27.0104
  422.0000    86.3192    26.3720    26.4500
  422.5000    89.9693    25.8407    25.9013
  423.0000    90.5759    25.6539    25.7209
  423.5000    89.3545    24.9405    25.3639
  424.0000    87.2206    24.7603    25.0119
  424.5000    86.3044    24.9287    24.8377
  425.0000    87.6206    25.0948    25.0119
  425.5000    89.9508    24.7401    25.1873
  426.0000    91.7743    24.3903    24.8377
  426.5000    92.3809    24.3821    24.4930
  427.0000    90.5507    24.0374    24.1531
  427.5000    88.4169    24.0309    24.1531
  428.0000    87.1558    24.0244    24.3224
  428.5000    88.4109    24.1878    24.6648
  429.0000    89.6256    24.3507    25.1873
  429.5000    89.9271    24.8577    25.5418
  430.0000    89.3146    25.3771    25.7209
  430.5000    88.0940    25.3700    25.5418
  431.0000    86.8734    25.1851    25.1873
  431.5000    87.1748    24.4847    24.4930
  432.0000    89.3027    23.9707    24.1531
  432.5000    91.1263    23.6318    23.8178
  433.0000    90.4941    23.1356    23.3237
  433.5000    88.6849    22.8086    22.6750
  434.0000    89.2902    22.3297    21.9020
  434.5000    90.8093    21.5501    21.1499
  435.0000    91.7203    21.3277    20.5669
  435.5000    92.9343    20.0914    19.8607
  436.0000    93.8446    19.2618    19.5851
  436.5000    94.7548    19.1226    19.1788
  437.0000    93.8386    19.1174    18.7809
  437.5000    94.1401    18.7160    18.5202
  438.0000    94.4415    18.4514    18.6501
  438.5000    94.4379    18.3181    18.7809
  439.0000    94.7393    18.4414    18.9126
  439.5000    94.4319    18.4352    18.9126
  440.0000    94.1246    18.6893    18.7809
  440.5000    94.1216    18.5543    18.5202
  441.0000    94.7275    18.0383    18.2632
  441.5000    98.0882    17.5367    17.8843
  442.0000   102.7175    17.1685    17.5133
  442.5000   102.0238    16.8080    17.0305
  443.0000    97.1502    16.2231    16.6625
  443.5000    94.7119    15.8694    16.2175
  444.0000    95.3186    15.4433    15.7704
  444.5000    94.4016    15.2250    15.4432
  445.0000    92.8766    14.9054    15.2289
  445.5000    93.4825    14.7976    15.2289
  446.0000    94.6972    15.1078    15.2289
  446.5000    93.4758    14.7896    15.3357
  447.0000    91.6464    14.6827    15.2289
  447.5000    89.8169    14.6786    15.0053
  448.0000    89.2059    14.5716    14.7060
  448.5000    93.4640    14.3656    14.4009
  449.0000    96.2007    13.9662    14.0039
  449.5000    98.3287    13.7687    13.8096
  450.0000    98.9346    13.6692    13.9064
  450.5000    97.3739    13.5704    13.9054
  451.0000    95.2749    13.5784    13.8076
  451.5000    93.4455    13.6753    13.6151
  452.0000    94.0115    13.6772    13.4252
  452.5000    95.2035    13.1102    13.1456
  453.0000    97.0112    12.9380    13.0531
  453.5000    96.9892    12.8497    13.0522
  454.0000    96.0611    12.7616    13.0514
  454.5000    97.2575    12.7637    13.0505
