~VERSION INFORMATION
 VERS.                2.0:   CWLS LOG ASCII STANDARD - VERSION 2.0
 WRAP.                 NO:   ONE LINE PER DEPTH STEP
~WELL INFORMATION
#MNEM.UNIT      DATA TYPE    INFORMATION
#----------   ------------   ------------------------------
 STRT.F           32.0000:   START DEPTH
 STOP.F          688.5000:   STOP DEPTH
 STEP.F            0.5000:   STEP LENGTH
 NULL.          -999.2500:   NO VALUE
 COMP. FENIX & SCISSON INC:   COMPANY
 WELL.       NPR 3 #78-34:   WELL
 FLD .  TEAPOT DOME NPR-3:   FIELD
 LOC .      S34 T39N R78W:   LOCATION
 CNTY.            NATRONA:   COUNTY
 STAT.            WYOMING:   STATE
 CTRY. UNITED STATES OF AMERICA:   COUNTRY
 SRVC.           BIRDWELL:   SERVICE COMPANY
 DATE.        16-AUG-1978:   LOGDATE
 API .       490251070700:   API NUMBER
~CURVE INFORMATION
#MNEM.UNIT       API CODE    CURVE DESCRIPTION
#----------   ------------   ------------------------------
 DEPT.F                  :   
 SPR .MV     05 010 01 00:   SPONTANEOUS POTENTIAL
 SN  .OHMM   05 040 16 00:   SHORT NORMAL 16'
 ILD .OHMM   05 120 46 00:   INDUCTION LOG DEEP RESISTIVITY
 CALD.IN     45 280 60 00:   CALIPER
 GRD .GAPI   45 310 01 00:   GAMMA RAY FROM DENSITY LOG
 RHOB.G/C3   45 350 01 00:   BULK DENSITY
 DPHI.DEC    45 890 12 00:   DENSITY POROSITY SANDSTONE
 CORR.G/C3   45 356 01 00:   DENSITY CORRECTION
~PARAMETER INFORMATION
#MNEM.UNIT          VALUE    DESCRIPTION
#----------   ------------   ------------------------------
 PD  .                 GL:   PERMANENT DATUM
 EPD .F              5085:   ELEVATION PERMANENT DATUM
 LMF .                 KB:   LOG MEASURED FROM
 DAPD.F                 4:   FEET ABOVE PERMANENT DATUM
 DMF .                 KB:   DRILLING MEASURED FROM
 EKB .F              5089:   KELLING BUSHING
 EGL .F              5085:   GROUND LEVEL
 DATE.          8-16-1978:   RUN DATE
 RUN .                  1:   RUN NUMBER
 DD  .F               680:   DEPTH DRILLER
 DL  .F               688:   DEPTH LOGGER
 BLI .F               682:   BOTTOM LOG INTERVAL
 TLI .F                50:   TOP LOG INTERVAL
 CS  .IN            8.625:   CASING SIZE
 CBD .F                40:   CASING BOTTOM DRILLER
 BS  .IN            7.875:   BIT SIZE
 BSD .F               680:   BIT SIZE AT DEPTH
 DFT .                KCL:   DRILLING FLUID TYPE
 RMS .OHMM            .32:   RESISTIVITY MUD SAMPLE
 MST .F                64:   MUD SAMPLE TEMPERATURE
 RMF .OHMM             .3:   RESISTIVITY MUD FILTRATE SAMPLE
 MFST.F                76:   MUD FILTRATE SAMPLE TEMPERATURE
 RMC .OHMM            .16:   RESISTIVITY MUD CAKE
 MCST.F                64:   MUD CAKE SAMPLE TEMPERATURE
 MFSS.               MEAS:   MUD FILTRATE SAMPLE SOURCE
 MCSS.               MEAS:   MUD CAKE SAMPLE SOURCE
 TCS .HRS               1:   TIME CURCULATED STOPPED
 LUN .               3006:   LOGGING UNIT NUMBER
 LUL .               CASP:   LOGGING UNIT LOCATION
 ENGI.             MILLER:   RECORDING ENGINEER
 WITN.           MCGINLEY:   WITNESSED BY
 CLNT.            A2DTECH:   CLIENT CODE
 ORIG.           5" PRINT:   ORIGIN OF DATA
 UWI .       490251070700:   UNIQUE WELL ID
 DICO. A2D Technologies, Inc.:   DIGITIZING COMPANY
~OTHER INFORMATION
~A   DEPT      SPR         SN        ILD       CALD         GRD      RHOB       DPHI       CORR   
# ...
  113.0000   -35.5497     6.8542     6.0946     7.6267    81.6518     2.4612     0.1325     0.0225
  113.5000   -35.4621     6.8542     6.1052     7.6267    80.4040     2.4647     0.1321     0.0228
  114.0000   -35.3744     6.8542     6.1157     7.6267    80.2850     2.4688     0.1271     0.0232
  114.5000   -35.2868     6.8542     6.1262     7.6267    80.2075     2.4806     0.1214     0.0236
  115.0000   -35.1981     6.8542     6.1368     7.6267    80.1575     2.4803     0.1261     0.0239
  115.5000   -35.1764     6.8542     6.1473     7.6267    80.4174     2.4785     0.1277     0.0237
  116.0000   -35.1843     6.8542     6.1579     7.6267    81.2014     2.4774     0.1251     0.0234
  116.5000   -35.1929     6.8542     6.1686     7.6267    84.1326     2.4798     0.1224     0.0231
  117.0000   -35.2015     6.8542     6.1792     7.6267    86.9619     2.4803     0.1229     0.0229
  117.5000   -35.2099     6.8542     6.1898     7.6267    87.5476     2.4742     0.1265     0.0226
  118.0000   -35.2184     6.8542     6.2059     7.6266    86.5685     2.4683     0.1301     0.0223
  118.5000   -35.2269     6.8542     6.2404     7.6267    83.5837     2.4645     0.1338     0.0220
  119.0000   -35.2354     6.8542     6.2751     7.6334    81.6063     2.4655     0.1342     0.0227
  119.5000   -35.2438     6.8542     6.3099     7.6697    81.5722     2.4679     0.1310     0.0236
  120.0000   -35.2523     6.8542     6.3450     7.7053    82.0170     2.4697     0.1287     0.0246
  120.5000   -35.2608     6.8542     6.3803     7.7408    83.6494     2.4710     0.1289     0.0255
  121.0000   -35.2693     6.8542     6.4158     7.7763    85.1930     2.4723     0.1288     0.0265
  121.5000   -35.2777     6.8542     6.4514     7.8118    86.7509     2.4736     0.1279     0.0275
  122.0000   -35.2862     6.8542     6.4873     7.8476    88.0253     2.4749     0.1271     0.0298
  122.5000   -35.2947     6.8542     6.5234     7.8845    85.2069     2.4761     0.1262     0.0341
  123.0000   -35.3032     6.8542     6.5596     7.8987    82.3933     2.4776     0.1241     0.0384
  123.5000   -35.3116     6.8542     6.5966     7.9120    80.7427     2.4864     0.1179     0.0423
  124.0000   -35.3201     6.8542     6.6071     7.9255    81.2859     2.4953     0.1126     0.0437
  124.5000   -35.3286     6.8542     6.5716     7.9391    81.4232     2.4944     0.1186     0.0453
  125.0000   -35.3371     6.8542     6.5242     7.9526    81.0471     2.4896     0.1190     0.0468
  125.5000   -35.3455     6.8542     6.4771     7.9661    81.7601     2.4885     0.1166     0.0483
  126.0000   -35.3543     6.8542     6.4305     7.9797    82.8527     2.4886     0.1185     0.0500
  126.5000   -35.3647     6.8542     6.3841     7.9932    83.9467     2.4919     0.1163     0.0550
  127.0000   -35.3604     6.8542     6.3381     8.0068    84.7760     2.4945     0.1146     0.0602
  127.5000   -35.0632     6.8542     6.2925     8.0203    84.9069     2.4929     0.1158     0.0654
  128.0000   -34.7599     6.8542     6.2471     8.0339    84.6785     2.4932     0.1161     0.0706
  128.5000   -34.4563     6.8542     6.2021     8.0474    83.2924     2.4955     0.1138     0.0757
  129.0000   -34.1506     6.8542     6.1951     8.0612    80.9987     2.4977     0.1130     0.0750
  129.5000   -33.7503     6.8542     6.2029     8.0525    80.0205     2.4999     0.1122     0.0741
  130.0000   -33.7654     6.8542     6.2091     8.0320    80.1690     2.5032     0.1104     0.0732
  130.5000   -33.7678     6.8541     6.2153     8.0112    80.4553     2.5102     0.1044     0.0723
  131.0000   -33.7675     6.8617     6.2215     7.9904    80.3748     2.5157     0.1002     0.0654
  131.5000   -33.7675     6.8713     6.2277     7.9697    79.5365     2.5121     0.1042     0.0540
  132.0000   -33.7675     6.8809     6.2339     7.9489    77.9232     2.4967     0.1153     0.0424
  132.5000   -33.7675     6.8906     6.2401     7.9282    76.5780     2.4811     0.1274     0.0305
  133.0000   -33.7675     6.9002     6.2463     7.9075    78.3195     2.4709     0.1294     0.0298
  133.5000   -33.7675     6.9099     6.2526     7.8858    80.7559     2.4695     0.1313     0.0299
  134.0000   -33.7675     6.9195     6.2588     7.8403    83.2106     2.4743     0.1280     0.0299
  134.5000   -33.7675     6.9292     6.2650     7.7931    85.6790     2.4755     0.1246     0.0299
  135.0000   -33.7675     6.9389     6.2713     7.7460    85.0090     2.4811     0.1212     0.0299
  135.5000   -33.7675     6.9486     6.2776     7.6990    83.8784     2.4877     0.1178     0.0299
  136.0000   -33.7675     6.9583     6.2838     7.6520    84.3325     2.4909     0.1162     0.0299
  136.5000   -33.7675     6.9681     6.2901     7.6049    86.0043     2.4677     0.1353     0.0295
  137.0000   -33.7675     6.9778     6.2964     7.5579    86.3591     2.4650     0.1306     0.0286
  137.5000   -33.7675     6.9876     6.3026     7.5109    88.6113     2.4711     0.1266     0.0276
  138.0000   -33.7675     6.9973     6.3089     7.4639    90.9927     2.4726     0.1274     0.0266
  138.5000   -33.7675     7.0071     6.3152     7.4168    87.5259     2.4709     0.1285     0.0256
  139.0000   -33.7675     7.0169     6.3215     7.3698    84.1232     2.4730     0.1293     0.0246
  139.5000   -33.7675     7.0267     6.3278     7.3223    81.0635     2.4770     0.1248     0.0236
  140.0000   -33.7675     7.0366     6.3341     7.3073    78.8804     2.4767     0.1234     0.0226
  140.5000   -33.7675     7.0461     6.3404     7.3057    78.5425     2.4754     0.1278     0.0220
  141.0000   -33.7675     7.0297     6.3468     7.3373    82.8738     2.4804     0.1252     0.0220
  141.5000   -33.7675     7.0110     6.3531     7.3572    88.1195     2.4817     0.1242     0.0220
  142.0000   -33.7675     6.9923     6.3594     7.3765    89.3364     2.4819     0.1234     0.0220
  142.5000   -33.7675     6.9737     6.3675     7.3957    89.7756     2.4820     0.1231     0.0220
  143.0000   -33.7675     6.9551     6.3450     7.4150    90.2050     2.4823     0.1234     0.0220
  143.5000   -33.7676     6.9365     6.3067     7.4424    90.6422     2.4824     0.1249     0.0220
  144.0000   -33.7677     6.9180     6.2685     7.4849    91.0711     2.4844     0.1219     0.0220
  144.5000   -33.7678     6.8996     6.2306     7.5272    91.3586     2.4876     0.1188     0.0220
  145.0000   -33.7538     6.8812     6.1929     7.5694    90.5537     2.4885     0.1174     0.0219
  145.5000   -33.6665     6.8629     6.1555     7.6117    89.5793     2.4857     0.1180     0.0228
  146.0000   -33.5802     6.8446     6.1182     7.6540    89.9506     2.4825     0.1188     0.0241
  146.5000   -33.4940     6.8263     6.0812     7.6963    90.2985     2.4794     0.1214     0.0253
  147.0000   -33.4078     6.8081     6.0444     7.7386    90.6531     2.4762     0.1248     0.0266
  147.5000   -33.3216     6.7900     6.0266     7.7809    90.5059     2.4730     0.1281     0.0279
  148.0000   -33.2355     6.7719     6.0368     7.8235    90.1485     2.4731     0.1297     0.0349
  148.5000   -33.1492     6.7538     6.0446     7.8647    89.7246     2.4844     0.1185     0.0402
  149.0000   -33.0627     6.7294     6.0524     7.8555    87.8530     2.4851     0.1226     0.0406
  149.5000   -32.9752     6.7475     6.0601     7.8439    86.4962     2.4837     0.1218     0.0412
  150.0000   -33.0143     6.7757     6.0679     7.8325    89.2038     2.4824     0.1220     0.0417
  150.5000   -33.0706     6.8041     6.0756     7.8211    89.4498     2.4819     0.1253     0.0422
  151.0000   -33.1270     6.8326     6.0885     7.8098    88.5912     2.4848     0.1166     0.0428
  151.5000   -33.1832     6.8612     6.1265     7.7984    89.2002     2.4865     0.1234     0.0433
  152.0000   -33.2393     6.8899     6.1646     7.7871    89.4271     2.4852     0.1197     0.0438
  152.5000   -33.2953     6.9187     6.2030     7.7757    88.3568     2.4864     0.1158     0.0443
  153.0000   -33.3515     6.9476     6.2417     7.7664    89.0960     2.4896     0.1183     0.0449
