~VERSION INFORMATION
 VERS.                2.0:   CWLS LOG ASCII STANDARD - VERSION 2.0
 WRAP.                 NO:   ONE LINE PER DEPTH STEP
~WELL INFORMATION
#MNEM.UNIT      DATA TYPE    INFORMATION
#----------   ------------   ------------------------------
 STRT.F           30.5000:   START DEPTH
 STOP.F          674.0000:   STOP DEPTH
 STEP.F            0.5000:   STEP LENGTH
 NULL.          -999.2500:   NO VALUE
 COMP. FENIX & SCISSON INC:   COMPANY
 WELL. NPR 3 #37 SX 34-34:   WELL
 FLD .        TEAPOT DOME:   FIELD
 LOC .      S34 T39N R78W:   LOCATION
 CNTY.            NATRONA:   COUNTY
 STAT.            WYOMING:   STATE
 CTRY. UNITED STATES OF AMERICA:   COUNTRY
 SRVC.           BIRDWELL:   SERVICE COMPANY
 DATE.        21-JAN-1979:   LOGDATE
 API .       490251074400:   API NUMBER
~CURVE INFORMATION
#MNEM.UNIT       API CODE    CURVE DESCRIPTION
#----------   ------------   ------------------------------
 DEPT.F                  :   
 SPR .MV     05 010 01 00:   SPONTANEOUS POTENTIAL FROM RES.
 SN  .OHMM   05 040 16 00:   SHORT NORMAL 16"
 IL  .OHMM   05 120 00 00:   INDUCTION LOG
 CALD.IN     45 280 60 00:   CALIPER
 GRD .GAPI   45 310 01 00:   GAMMA RAY FROM DENSITY LOG
 RHOB.G/C3   45 350 01 00:   BULK DENSITY
 DPHI.DEC    45 890 12 00:   DENSITY POROSITY SANDSTONE
 CORR.G/C3   45 356 01 00:   DENSITY CORRECTION
~PARAMETER INFORMATION
#MNEM.UNIT          VALUE    DESCRIPTION
#----------   ------------   ------------------------------
 PD  .                 GL:   PERMANENT DATUM
 EPD .F              5175:   ELEVATION PERMANENT DATUM
 LMF .                 KB:   LOG MEASURED FROM
 DAPD.F                 4:   FEET ABOVE PERMANENT DATUM
 DMF .                 KB:   DRILLING MEASURED FROM
 EKB .F              5179:   KELLING BUSHING
 EGL .F              5175:   GROUND LEVEL
 DATE.            1-21-79:   RUN DATE
 RUN .                  1:   RUN NUMBER
 DD  .F               674:   DEPTH DRILLER
 DL  .F               673:   DEPTH LOGGER
 BLI .F               666:   BOTTOM LOG INTERVAL
 TLI .F                40:   TOP LOG INTERVAL
 CS  .IN            8.625:   CASING SIZE
 CBD .F                40:   CASING BOTTOM DRILLER
 CBL .F                30:   CASING BOTTOM LOGGER
 BS  .IN            7.875:   BIT SIZE
 BSD .F               674:   BIT SIZE AT DEPTH
 DFT .                KCL:   DRILLING FLUID TYPE
 DFD .                8.8:   DRILLING FLUID DENSITY
 DFV .                 60:   DRILLING FLUID VISCOSITY
 DFPH.                9.5:   DRILLING FLUID PH
 DFL .                  8:   DRILLING FLUID LOSS
 MSS .           FLOWLINE:   MUD SAMPLE SOURCE
 RMS .OHMM            .23:   RESISTIVITY MUD SAMPLE
 MST .F                56:   MUD SAMPLE TEMPERATURE
 MFSS.           MEASURED:   MUD FILTRATE SAMPLE SOURCE
 MCSS.           MEASURED:   MUD CAKE SAMPLE SOURCE
 RMB .OHMM            .22:   RESISTIVITY MUD AT BHT
 BHT .F                60:   BOTTOM HOLE TEMPERATURE
 TCS .HRS               4:   TIME CURCULATED STOPPED
 MRT .F                60:   MAXIMUM RECORDED TEMPERATURE
 LUN .               3006:   LOGGING UNIT NUMBER
 LUL .             CASPER:   LOGGING UNIT LOCATION
 ENGI.            ROLLINS:   RECORDING ENGINEER
 WITN.           DINSMORE:   WITNESSED BY
 CLNT.            A2DTECH:   CLIENT CODE
 ORIG.       2", 5" PRINT:   ORIGIN OF DATA
 UWI .       490251074400:   UNIQUE WELL ID
 DICO. A2D Technologies, Inc.:   DIGITIZING COMPANY
~OTHER INFORMATION
~A   DEPT      SPR         SN         IL       CALD        GRD       RHOB       DPHI       CORR   
# ...
  273.5000   -45.1920     7.8790     7.7400     8.1380   111.3860     2.4800     0.1180     0.0100
  274.0000   -45.2010     7.9830     7.7780     8.1380   110.1600     2.4810     0.1180     0.0110
  274.5000   -45.2110     8.1240     7.8350     8.1380   108.7270     2.4820     0.1190     0.0110
  275.0000   -45.2210     8.2660     7.9880     8.1380   109.9510     2.4810     0.1210     0.0120
  275.5000   -45.2310     8.4070     8.1410     8.1380   111.5180     2.4790     0.1210     0.0120
  276.0000   -45.2410     8.5940     8.2950     8.1380   112.1500     2.4780     0.1200     0.0190
  276.5000   -45.2510     8.8360     8.4480     8.1460   112.6870     2.4780     0.1190     0.0260
  277.0000   -45.2610     9.0790     8.6010     8.1530   109.4370     2.4770     0.1180     0.0330
  277.5000   -45.2710     9.3220     8.7540     8.1600   107.1760     2.4770     0.1150     0.0330
  278.0000   -45.2810     9.5650     8.9080     8.1670   105.3310     2.4880     0.1070     0.0290
  278.5000   -45.2910     9.8080     9.0610     8.1750   106.4650     2.5000     0.0990     0.0260
  279.0000   -45.3010    10.0500     9.2140     8.1780   110.7960     2.5120     0.0900     0.0220
  279.5000   -45.3110    10.2930     9.3680     8.1770   115.4580     2.5240     0.0860     0.0200
  280.0000   -45.3200    10.5360     9.5660     8.1760   117.0880     2.5320     0.0880     0.0210
  280.5000   -45.3300    10.7790     9.5340     8.1750   112.7690     2.5350     0.0930     0.0220
  281.0000   -45.3400    11.0220     9.4890     8.1740   107.3690     2.5270     0.0990     0.0220
  281.5000   -45.3500    11.2640     9.4440     8.1730   103.3000     2.5190     0.1040     0.0230
  282.0000   -45.3600    11.5020     9.3990     8.1720   103.0720     2.5100     0.1090     0.0240
  282.5000   -45.3710    11.3450     9.3550     8.1720   102.8340     2.5020     0.1130     0.0240
  283.0000   -45.3840    11.1910     9.3100     8.1710   102.1720     2.4980     0.1140     0.0250
  283.5000   -45.3870    11.0360     9.2490     8.1700    99.9950     2.4930     0.1140     0.0260
  284.0000   -45.6210    10.8820     9.1860     8.1690    98.9120     2.4900     0.1140     0.0260
  284.5000   -46.0510    10.7270     9.1230     8.1680    98.3300     2.4890     0.1140     0.0270
  285.0000   -46.5320    10.5730     9.0600     8.1670    99.2330     2.4880     0.1150     0.0280
  285.5000   -47.0230    10.4190     8.9970     8.1660   100.7200     2.4870     0.1160     0.0270
  286.0000   -47.2110    10.3780     8.9350     8.1650   105.6680     2.4860     0.1170     0.0260
  286.5000   -47.2440    10.3590     8.8720     8.1650   105.2060     2.4850     0.1170     0.0250
  287.0000   -47.2750    10.3410     8.8040     8.1640   102.9150     2.4850     0.1180     0.0240
  287.5000   -47.3060    10.3220     8.7930     8.1630   102.5880     2.4850     0.1160     0.0190
  288.0000   -47.3370    10.3040     8.7810     8.1620   100.7590     2.4880     0.1130     0.0120
  288.5000   -47.3680    10.2850     8.7690     8.1610    98.3440     2.4920     0.1110     0.0050
  289.0000   -47.3980    10.2670     8.7570     8.1600    95.9400     2.4950     0.1110     0.0060
  289.5000   -47.4290    10.2490     8.7450     8.1590    95.3420     2.4970     0.1150     0.0080
  290.0000   -47.4600    10.2300     8.7330     8.1590    97.3000     2.4920     0.1150     0.0100
  290.5000   -47.4900    10.2120     8.7120     8.1580   100.2240     2.4910     0.1150     0.0120
  291.0000   -47.5210    10.1360     8.6200     8.1570   103.1750     2.4900     0.1220     0.0140
  291.5000   -47.5520    10.0110     8.5290     8.1560   103.8490     2.4820     0.1280     0.0130
  292.0000   -47.5830     9.8860     8.4380     8.1550   103.3650     2.4670     0.1280     0.0120
  292.5000   -47.6130     9.7620     8.3470     8.1540   100.3420     2.4670     0.1260     0.0100
  293.0000   -47.6440     9.6370     8.2550     8.1530   100.1000     2.4700     0.1240     0.0090
  293.5000   -47.6750     9.5130     8.1640     8.1520   102.8210     2.4730     0.1250     0.0080
  294.0000   -47.7050     9.3340     8.0790     8.1510   106.3330     2.4720     0.1310     0.0090
  294.5000   -47.7360     9.1340     8.0070     8.1500   108.0530     2.4690     0.1370     0.0100
  295.0000   -47.7670     9.0140     7.9350     8.1490   104.3340     2.4620     0.1390     0.0110
  295.5000   -47.7970     8.9500     7.8630     8.1480    99.5930     2.4560     0.1390     0.0120
  296.0000   -47.8280     8.8870     7.7910     8.1470    95.3920     2.4520     0.1370     0.0160
  296.5000   -47.8590     8.8230     7.7190     8.1460    96.8560     2.4520     0.1360     0.0200
  297.0000   -47.8900     8.7040     7.6470     8.1450    97.9090     2.4530     0.1350     0.0170
  297.5000   -47.9200     8.5600     7.5750     8.1440    97.9570     2.4540     0.1320     0.0150
  298.0000   -47.9510     8.4160     7.5030     8.1430   100.5130     2.4580     0.1300     0.0120
  298.5000   -47.9820     8.3170     7.4300     8.1420   102.2630     2.4610     0.1300     0.0120
  299.0000   -48.0120     8.2550     7.3720     8.1410   101.3930     2.4630     0.1300     0.0130
  299.5000   -48.0430     8.1930     7.3310     8.1400    99.7700     2.4630     0.1310     0.0130
  300.0000   -48.0740     8.1310     7.2900     8.1390    96.4540     2.4610     0.1340     0.0140
  300.5000   -48.1040     8.0680     7.2490     8.1380    92.2960     2.4590     0.1410     0.0140
  301.0000   -48.1350     8.0190     7.2080     8.1380    88.1130     2.4550     0.1430     0.0150
  301.5000   -48.1660     7.9930     7.1670     8.1380    88.1790     2.4490     0.1430     0.0150
  302.0000   -48.1970     7.9660     7.1260     8.1380    90.7940     2.4450     0.1430     0.0160
  302.5000   -48.2270     7.9400     7.0850     8.1380    95.2700     2.4440     0.1440     0.0160
  303.0000   -48.2580     7.9130     7.0360     8.1380    98.8610     2.4420     0.1460     0.0170
  303.5000   -48.2890     7.8870     6.9700     8.1380   101.6380     2.4390     0.1480     0.0170
  304.0000   -48.3190     7.8610     6.9030     8.1380   101.9000     2.4360     0.1470     0.0170
  304.5000   -48.3500     7.8340     6.8520     8.1380   100.7300     2.4350     0.1420     0.0180
  305.0000   -48.3810     7.8090     6.8230     8.1380    99.7780     2.4380     0.1400     0.0180
  305.5000   -48.4520     7.6440     6.7930     8.1380    99.6770     2.4430     0.1400     0.0190
  306.0000   -48.5680     7.4880     6.7640     8.1380   100.6260     2.4460     0.1400     0.0190
  306.5000   -48.6830     7.3320     6.7350     8.1380   104.6040     2.4460     0.1400     0.0200
  307.0000   -48.7980     7.1760     6.7060     8.1380   107.4220     2.4460     0.1370     0.0190
  307.5000   -48.9130     7.0480     6.6760     8.1380   109.6050     2.4500     0.1340     0.0160
  308.0000   -49.0290     7.0110     6.6470     8.1380   109.5600     2.4550     0.1300     0.0140
  308.5000   -49.1440     6.9740     6.6150     8.1380   108.4920     2.4610     0.1290     0.0110
  309.0000   -49.2590     6.9270     6.6480     8.1380   107.1260     2.4650     0.1300     0.0090
  309.5000   -49.3750     6.9570     6.6920     8.1340   104.2760     2.4640     0.1340     0.0060
  310.0000   -49.4900     6.9950     6.7370     8.1280   100.8210     2.4570     0.1370     0.0070
  310.5000   -49.5970     7.0340     6.7820     8.1220    98.1820     2.4540     0.1380     0.0080
  311.0000   -49.6140     7.0720     6.8270     8.1160    99.9710     2.4530     0.1360     0.0100
  311.5000   -49.6280     7.1110     6.8720     8.1100   104.1350     2.4540     0.1340     0.0110
  312.0000   -49.6420     7.1490     6.9160     8.1040   107.1780     2.4560     0.1330     0.0120
  312.5000   -49.6560     7.1880     6.9610     8.0980   109.3160     2.4580     0.1310     0.0140
  313.0000   -49.6700     7.2260     7.0060     8.0930   110.9020     2.4600     0.1310     0.0150
  313.5000   -49.6840     7.2650     7.0510     8.0870   109.3970     2.4600     0.1310     0.0160
