~VERSION INFORMATION
 VERS.                2.0:   CWLS LOG ASCII STANDARD - VERSION 2.0
 WRAP.                 NO:   ONE LINE PER DEPTH STEP
~WELL INFORMATION
#MNEM.UNIT      DATA TYPE    INFORMATION
#----------   ------------   ------------------------------
 STRT.F           27.0000:   START DEPTH
 STOP.F          538.0000:   STOP DEPTH
 STEP.F            0.5000:   STEP LENGTH
 NULL.          -999.2500:   NO VALUE
 COMP. FENIX & SCISSON INC:   COMPANY
 WELL.        NPR 3 #24-3:   WELL
 FLD .             TEAPOT:   FIELD
 LOC .       S3 T38N R78W:   LOCATION
 CNTY.            NATRONA:   COUNTY
 STAT.            WYOMING:   STATE
 CTRY. UNITED STATES OF AMERICA:   COUNTRY
 SRVC.            Unknown:   SERVICE COMPANY
 DATE.        26-SEP-1978:   LOGDATE
 API .       490251068800:   API NUMBER
~CURVE INFORMATION
#MNEM.UNIT       API CODE    CURVE DESCRIPTION
#----------   ------------   ------------------------------
 DEPT.F                  :   
 SPR .MV     05 010 01 00:   SPONTANEOUS POTENTIAL FROM RES.
 ILD .OHMM   05 120 46 00:   INDUCTION LOG DEEP
 SN  .OHMM   05 040 16 00:   SHORT NORMAL 16"
 CALD.IN     45 280 60 00:   CALIPER
 GRD .GAPI   45 310 01 00:   GAMMA RAY FROM DENSITY LOG
 DEN .G/C3   45 350 01 00:   COMPENSATED BULK DENSTIY
 DPHI.DEC    45 890 12 00:   DENSITY POROSITY SANDSTONE
 CORR.G/C3   45 356 01 00:   DENSITY CORRECTION
~PARAMETER INFORMATION
#MNEM.UNIT          VALUE    DESCRIPTION
#----------   ------------   ------------------------------
 PD  .                 GL:   PERMANENT DATUM
 EPD .F              5200:   ELEVATION PERMANENT DATUM
 LMF .                 KB:   LOG MEASURED FROM
 DAPD.F                 4:   FEET ABOVE PERMANENT DATUM
 DMF .                 KB:   DRILLING MEASURED FROM
 EKB .F              5204:   KELLING BUSHING
 EGL .F              5200:   GROUND LEVEL
 DATE.            9-26-78:   RUN DATE
 RUN .                  1:   RUN NUMBER
 DD  .F               537:   DEPTH DRILLER
 DL  .F               538:   DEPTH LOGGER
 BLI .F               532:   BOTTOM LOG INTERVAL
 TLI .F                40:   TOP LOG INTERVAL
 CS  .IN            8.625:   CASING SIZE
 CBD .F                40:   CASING BOTTOM DRILLER
 CBL .F                46:   CASING BOTTOM LOGGER
 BS  .IN            7.875:   BIT SIZE
 BSD .F               537:   BIT SIZE AT DEPTH
 DFT .                KCL:   DRILLING FLUID TYPE
 DFD .                8.7:   DRILLING FLUID DENSITY
 DFV .                 37:   DRILLING FLUID VISCOSITY
 DFPH.                  9:   DRILLING FLUID PH
 DFL .                 10:   DRILLING FLUID LOSS
 MSS .          FLOW LINE:   MUD SAMPLE SOURCE
 RMS .OHMM            .18:   RESISTIVITY MUD SAMPLE
 MST .F                72:   MUD SAMPLE TEMPERATURE
 RMF .OHMM            .16:   RESISTIVITY MUD FILTRATE SAMPLE
 MFST.F                76:   MUD FILTRATE SAMPLE TEMPERATURE
 RMC .OHMM            .26:   RESISTIVITY MUD CAKE
 MCST.F                76:   MUD CAKE SAMPLE TEMPERATURE
 MFSS.               MEAS:   MUD FILTRATE SAMPLE SOURCE
 RMB .OHMM            .18:   RESISTIVITY MUD AT BHT
 BHT .F                71:   BOTTOM HOLE TEMPERATURE
 TCS .HRS               3:   TIME CURCULATED STOPPED
 MRT .F                71:   MAXIMUM RECORDED TEMPERATURE
 LUN .               2958:   LOGGING UNIT NUMBER
 LUL .               CASP:   LOGGING UNIT LOCATION
 ENGI.           REYNOLDS:   RECORDING ENGINEER
 WITN.              AMEND:   WITNESSED BY
 CLNT.            A2DTECH:   CLIENT CODE
 ORIG.           5" PRINT:   ORIGIN OF DATA
 UWI .       490251068800:   UNIQUE WELL ID
 DICO. A2D Technologies, Inc.:   DIGITIZING COMPANY
~OTHER INFORMATION
~A   DEPT      SPR        ILD         SN       CALD         GRD       DEN       DPHI       CORR   
# ...
  229.5000   -61.1582     7.7880     8.1632     7.9049   127.6291     2.5011     0.0970     0.0214
  230.0000   -61.1332     7.8662     8.1792     7.8984   125.3510     2.5066     0.0962     0.0187
  230.5000   -61.1329     7.9727     8.1939     7.8919   122.9992     2.5093     0.0990     0.0170
  231.0000   -61.1331     8.0882     8.2086     7.8854   122.5698     2.5047     0.1017     0.0170
  231.5000   -61.1332     8.1114     8.2233     7.8789   122.3215     2.5001     0.1044     0.0170
  232.0000   -61.1332     8.1366     8.2390     7.8724   122.0852     2.4985     0.1054     0.0170
  232.5000   -61.1332     8.1632     8.2771     7.8658   122.1338     2.4996     0.1040     0.0170
  233.0000   -61.1332     8.2264     8.3179     7.8594   123.6177     2.5021     0.1014     0.0156
  233.5000   -61.1333     8.2935     8.3588     7.8528   125.1962     2.5009     0.1043     0.0138
  234.0000   -61.1323     8.3610     8.3926     7.8493   126.5383     2.4984     0.1072     0.0121
  234.5000   -61.1903     8.4291     8.3597     7.8479   126.0497     2.4959     0.1067     0.0104
  235.0000   -61.2766     8.4705     8.3319     7.8465   123.0501     2.4955     0.0999     0.0087
  235.5000   -61.3640     8.4705     8.3042     7.8452   120.9213     2.4980     0.0932     0.0070
  236.0000   -61.4518     8.4705     8.2766     7.8438   120.8970     2.5113     0.0838     0.0058
  236.5000   -61.5270     8.4705     8.2491     7.8425   120.8653     2.5245     0.0877     0.0094
  237.0000   -61.4640     8.4705     8.2216     7.8411   122.3005     2.5278     0.0940     0.0203
  237.5000   -61.4005     8.4647     8.1943     7.8398   124.1619     2.5129     0.0994     0.0306
  238.0000   -61.3377     8.4366     8.1670     7.8384   126.0284     2.5096     0.0977     0.0293
  238.5000   -61.2750     8.4095     8.1398     7.8371   126.0962     2.5176     0.0948     0.0273
  239.0000   -61.2121     8.3825     8.1128     7.8358   125.0350     2.5201     0.0957     0.0270
  239.5000   -61.1437     8.3556     8.0882     7.8344   122.5251     2.5137     0.0975     0.0270
  240.0000   -61.3102     8.3287     8.0450     7.8330   118.9324     2.5088     0.0994     0.0257
  240.5000   -61.5495     8.2054     8.0056     7.8317   116.5003     2.5114     0.0979     0.0235
  241.0000   -61.7905     8.0882     7.9664     7.8302   117.1913     2.5138     0.0946     0.0227
  241.5000   -62.0308     7.9618     7.8736     7.8325   117.8556     2.5151     0.0942     0.0224
  242.0000   -62.2707     7.8267     7.6735     7.8360   118.5522     2.5165     0.0957     0.0220
  242.5000   -62.6393     7.6940     7.4785     7.8394   118.4246     2.5166     0.0996     0.0216
  243.0000   -63.0075     7.5635     7.2885     7.8429   118.0539     2.5163     0.1036     0.0213
  243.5000   -63.3657     7.4352     7.1033     7.8463   117.6712     2.5065     0.1076     0.0210
  244.0000   -63.7508     7.3067     6.9228     7.8497   117.2897     2.4960     0.1122     0.0227
  244.5000   -64.8068     7.0789     6.6469     7.8532   117.2965     2.4855     0.1173     0.0245
  245.0000   -65.0356     6.8540     6.3129     7.8566   117.2669     2.4757     0.1224     0.0263
  245.5000   -65.2742     6.5066     5.9960     7.8600   117.2036     2.4715     0.1278     0.0282
  246.0000   -65.2483     6.0012     5.6951     7.8624   117.1465     2.4644     0.1338     0.0290
  246.5000   -65.1739     5.5350     5.4094     7.8656   117.3777     2.4519     0.1449     0.0290
  247.0000   -65.1316     4.9697     5.1380     8.0828   118.3113     2.4334     0.1667     0.0278
  247.5000   -65.6321     4.3094     4.8184     7.9366   119.2727     2.4066     0.1900     0.0318
  248.0000   -66.1390     3.7369     4.5099     8.1400   118.9298     2.3627     0.2136     0.0408
  248.5000   -66.6372     3.2404     4.2199     8.3231   117.8144     2.3187     0.2328     0.0499
  249.0000   -66.8701     3.0644     3.9490     7.6981   116.6891     2.2837     0.2444     0.0591
  249.5000   -66.3633     2.9352     3.6953     8.0089   115.7061     2.2659     0.2470     0.0685
  250.0000   -66.3018     2.8477     3.6208     8.1707   116.1782     2.2852     0.2279     0.0640
  250.5000   -66.2843     2.8477     3.7225     8.2402   119.2001     2.3225     0.2013     0.0461
  251.0000   -66.1291     2.8477     3.8281     7.7440   126.3642     2.3599     0.1760     0.0279
  251.5000   -65.9715     3.0198     3.9483     7.6938   133.4655     2.3967     0.1629     0.0269
  252.0000   -65.8129     3.3774     4.0828     7.5958   132.3330     2.4221     0.1497     0.0270
  252.5000   -65.5159     3.7775     4.4673     8.1880   130.9429     2.4362     0.1355     0.0271
  253.0000   -64.8959     4.2249     4.9282     7.7969   130.1531     2.4499     0.1275     0.0291
  253.5000   -64.2625     4.7253     5.4368     7.7911   130.9994     2.4637     0.1183     0.0315
  254.0000   -63.9108     5.2850     5.8068     7.7897   133.4100     2.4774     0.1133     0.0362
  254.5000   -63.7132     5.8073     6.1421     7.7898   139.2116     2.4902     0.1074     0.0409
  255.0000   -63.7180     6.1603     6.5069     7.7904   146.5354     2.4926     0.1074     0.0459
  255.5000   -63.7176     6.4933     6.6986     7.8204   150.9999     2.4945     0.1074     0.0463
  256.0000   -63.7178     6.5881     6.8043     7.8530   154.7712     2.4945     0.1074     0.0455
  256.5000   -63.7176     6.6842     6.8571     7.8237   158.4887     2.4951     0.1047     0.0422
  257.0000   -63.7183     6.7861     6.9103     7.8302   161.2933     2.4997     0.1011     0.0369
  257.5000   -63.6233     6.7861     6.9640     7.9222   163.2453     2.5044     0.0986     0.0316
  258.0000   -63.4582     6.6479     6.9768     7.8927   165.2575     2.5064     0.1065     0.0270
  258.5000   -63.3548     6.4704     6.8886     7.8900   165.7031     2.5020     0.1148     0.0353
  259.0000   -63.6111     6.2385     6.7355     7.8897   165.7389     2.4878     0.1234     0.0444
  259.5000   -63.6993     5.9191     6.5857     7.8897   164.6217     2.4738     0.1313     0.0536
  260.0000   -63.6555     5.6160     6.4393     7.9071   160.7290     2.4597     0.1393     0.0624
  260.5000   -63.6098     5.4367     6.2961     8.0584   151.6181     2.4458     0.1426     0.0516
  261.0000   -63.5628     5.4367     6.1561     8.2736   142.3581     2.4354     0.1374     0.0407
  261.5000   -63.5271     5.3354     6.0182     8.6843   137.4971     2.4431     0.1350     0.0410
  262.0000   -63.7646     5.1680     6.0182     7.9682   133.7513     2.4486     0.1378     0.0410
  262.5000   -64.0159     5.0058     6.0182     7.8407   131.4022     2.4485     0.1352     0.0376
  263.0000   -64.2673     4.9113     6.0182     9.1383   133.9750     2.4553     0.1265     0.0314
  263.5000   -64.5047     5.1712     6.1212     8.4552   136.4658     2.4724     0.1178     0.0252
  264.0000   -64.4669     5.3939     6.2516     7.9236   138.2755     2.4893     0.1091     0.0238
  264.5000   -64.4179     5.6262     6.4408     7.9436   138.2984     2.5044     0.1011     0.0226
  265.0000   -64.3704     5.8685     6.6725     8.1511   138.5490     2.5071     0.0970     0.0214
  265.5000   -64.3265     6.1905     6.9124     8.4767   138.9837     2.5122     0.0929     0.0202
  266.0000   -64.1088     6.5752     7.1610     7.9704   139.4173     2.5188     0.0888     0.0191
  266.5000   -63.9309     6.9782     7.3652     7.9872   139.6995     2.5253     0.0870     0.0199
  267.0000   -64.0276     7.4025     7.4880     7.9878   139.6945     2.5279     0.0891     0.0208
  267.5000   -64.1189     7.6521     7.5929     7.9858   139.9839     2.5231     0.0912     0.0218
  268.0000   -64.2107     7.6521     7.6993     7.9834   142.0468     2.5185     0.0933     0.0227
  268.5000   -64.3062     7.6521     7.8071     7.9810   145.3209     2.5164     0.0942     0.0237
  269.0000   -64.1364     7.6530     7.8671     7.9786   146.2051     2.5192     0.0939     0.0246
  269.5000   -63.9261     7.5894     7.7359     7.9762   144.9331     2.5220     0.0931     0.0240
