~VERSION INFORMATION
 VERS.                2.0:   CWLS LOG ASCII STANDARD - VERSION 2.0
 WRAP.                 NO:   ONE LINE PER DEPTH STEP
~WELL INFORMATION
#MNEM.UNIT      DATA TYPE    INFORMATION
#----------   ------------   ------------------------------
 STRT.F           60.0000:   START DEPTH
 STOP.F         3052.0000:   STOP DEPTH
 STEP.F            0.5000:   STEP LENGTH
 NULL.          -999.2500:   NO VALUE
 COMP.   FLUOR DANIEL INC:   COMPANY
 WELL. NAVAL PETROLEUM RESERVE 3 X-14 #57-14:   WELL
 FLD .            WILDCAT:   FIELD
 LOC .      S14 T38N R78W:   LOCATION
 CNTY.            NATRONA:   COUNTY
 STAT.            WYOMING:   STATE
 CTRY. UNITED STATES OF AMERICA:   COUNTRY
 SRVC.            Unknown:   SERVICE COMPANY
 DATE.        16-MAY-1995:   LOGDATE
 API .       490252272000:   API NUMBER
~CURVE INFORMATION
#MNEM.UNIT       API CODE    CURVE DESCRIPTION
#----------   ------------   ------------------------------
 DEPT.F                  :   
 ROP .FT/HR  91 810 01 00:   RAT OF DRILLING PENETRATION
 TGAS.TC/CC  91 830 01 00:   TOTAL GAS UNIT
~PARAMETER INFORMATION
#MNEM.UNIT          VALUE    DESCRIPTION
#----------   ------------   ------------------------------
 EKB .F              5312:   KELLING BUSHING
 EGL .F              5302:   GROUND LEVEL
 DATE.        16-MAY-1995:   RUN DATE
 RUN .                  1:   RUN NUMBER
 BLI .F              3062:   BOTTOM LOG INTERVAL
 TLI .F                60:   TOP LOG INTERVAL
 ENGI.     C.TOWER/R.HUSK:   RECORDING ENGINEER
 CLNT.            A2DTECH:   CLIENT CODE
 ORIG.           5" PRINT:   ORIGIN OF DATA
 UWI .       490252272000:   UNIQUE WELL ID
 DICO. A2D Technologies, Inc.:   DIGITIZING COMPANY
~OTHER INFORMATION
~A   DEPT        ROP       TGAS 
# ...
  424.5000     0.5417     1.0757
  425.0000     0.5421     1.0661
  425.5000     0.5424     1.0565
  426.0000     0.5428     1.0468
  426.5000     0.5432     1.0372
  427.0000     0.5436     1.0276
  427.5000     0.5440     1.0180
  428.0000     0.5444     1.0084
  428.5000     0.5447     0.9988
  429.0000     0.5451     0.9891
  429.5000     0.5454     0.9795
  430.0000     0.5458     0.9699
  430.5000     0.5462     0.9603
  431.0000     0.5465     0.9507
  431.5000     0.5469     0.9410
  432.0000     0.5474     0.9314
  432.5000     0.5477     0.9218
  433.0000     0.5481     0.9122
  433.5000     0.5485     0.9026
  434.0000     0.5488     0.8929
  434.5000     0.5492     0.8833
  435.0000     0.5496     0.8737
  435.5000     0.5499     0.8641
  436.0000     0.5503     0.8545
  436.5000     0.5507     0.8448
  437.0000     0.5510     0.8352
  437.5000     0.5515     0.8256
  438.0000     0.5518     0.8160
  438.5000     0.5522     0.8064
  439.0000     0.5526     0.7968
  439.5000     0.5529     0.7871
  440.0000     0.5533     0.7775
  440.5000     0.5537     0.7679
  441.0000     0.5540     0.7583
  441.5000     0.5544     0.7487
  442.0000     0.7791     0.7390
  442.5000     0.7795     0.7294
  443.0000     0.7799     0.7198
  443.5000     0.7802     0.7102
  444.0000     0.7806     0.7006
  444.5000     0.7810     0.6909
  445.0000     0.7813     0.6813
  445.5000     0.7817     0.6717
  446.0000     0.7821     0.6621
  446.5000     0.7824     0.6525
  447.0000     0.7828     0.6429
  447.5000     0.7833     0.6332
  448.0000     0.7649     0.6236
  448.5000     0.7653     0.6140
  449.0000     0.7657     0.6044
  449.5000     0.7660     0.5948
  450.0000     0.7757     0.5851
  450.5000     0.7759     0.5765
  451.0000     0.7761     0.5785
  451.5000     0.7856     0.5804
  452.0000     0.7858     0.5823
  452.5000     0.7860     0.5842
  453.0000     0.7862     0.5861
  453.5000     0.7864     0.5880
  454.0000     0.7866     0.5898
  454.5000     0.7868     0.5917
  455.0000     0.7869     0.5936
  455.5000     0.7871     0.5955
  456.0000     0.7873     0.5974
  456.5000     0.7688     0.5993
  457.0000     0.7690     0.6011
  457.5000     0.7692     0.6030
  458.0000     0.7694     0.6049
  458.5000     0.7695     0.6068
  459.0000     0.7697     0.6087
  459.5000     0.7699     0.6106
  460.0000     0.7701     0.6125
  460.5000     0.7703     0.6143
  461.0000     0.7705     0.6162
  461.5000     0.7707     0.6181
  462.0000     0.7709     0.6200
  462.5000     0.7710     0.6219
  463.0000     0.7712     0.6238
  463.5000     0.7714     0.6256
  464.0000     0.7716     0.6275
  464.5000     0.7718     0.6294
  465.0000     0.7720     0.6313
  465.5000     0.7721     0.6332
  466.0000     0.7723     0.6351
  466.5000     0.7726     0.6369
  467.0000     0.7727     0.6388
  467.5000     0.7729     0.6407
  468.0000     0.7731     0.6426
  468.5000     0.7733     0.6445
  469.0000     0.7735     0.6464
  469.5000     0.7830     0.6483
  470.0000     0.7832     0.6501
  470.5000     0.7834     0.6520
  471.0000     0.7836     0.6539
  471.5000     0.7837     0.6558
  472.0000     0.7839     0.6577
  472.5000     0.7841     0.6596
  473.0000     0.7843     0.6614
  473.5000     0.7938     0.6633
  474.0000     0.5697     0.6652
  474.5000     0.5699     0.6671
  475.0000     0.5701     0.6690
  475.5000     0.5703     0.6709
  476.0000     0.5705     0.6727
  476.5000     0.5707     0.6746
  477.0000     0.5709     0.6765
  477.5000     0.5710     0.6784
  478.0000     0.5712     0.6803
  478.5000     0.5714     0.6822
  479.0000     0.5716     0.6841
  479.5000     0.5718     0.6859
  480.0000     0.5720     0.6878
  480.5000     0.5815     0.6897
  481.0000     0.5817     0.6916
  481.5000     0.5819     0.6935
  482.0000     0.5821     0.6954
  482.5000     0.5823     0.6972
  483.0000     0.5824     0.6991
  483.5000     0.5826     0.7010
  484.0000     0.5828     0.7029
  484.5000     0.5830     0.7048
  485.0000     0.5832     0.7067
  485.5000     0.5834     0.7086
  486.0000     0.5836     0.7104
  486.5000     0.5838     0.7123
  487.0000     0.5840     0.7142
  487.5000     0.5841     0.7161
  488.0000     0.5843     0.7180
  488.5000     0.5845     0.7199
  489.0000     0.5847     0.7217
  489.5000     0.5849     0.7236
  490.0000     0.5851     0.7255
  490.5000     0.5852     0.7274
  491.0000     0.5854     0.7293
  491.5000     0.5856     0.7312
  492.0000     0.5858     0.7330
  492.5000     0.5860     0.7349
  493.0000     0.5675     0.7368
  493.5000     0.5677     0.7387
  494.0000     0.5679     0.7406
  494.5000     0.5774     0.7425
  495.0000     0.5682     0.7444
  495.5000     0.5778     0.7462
  496.0000     0.5873     0.7481
  496.5000     0.5781     0.7500
  497.0000     0.5783     0.7519
  497.5000     0.5692     0.7538
  498.0000     0.5693     0.7557
  498.5000     0.5695     0.7575
  499.0000     0.5604     0.7594
  499.5000     0.5699     0.7613
  500.0000     0.5701     0.7632
  500.5000     0.5800     0.8820
  501.0000     0.5804     0.9835
  501.5000     0.5715     1.0006
  502.0000     0.5720     1.0247
  502.5000     0.5725     1.1068
  503.0000     0.5729     1.1889
  503.5000     0.5734     1.2589
  504.0000     0.5738     1.3354
  504.5000     0.5743     1.4830
  505.0000     0.5749     1.5000
  505.5000     0.5753     1.5171
  506.0000     0.5758     1.5342
  506.5000     0.5762     1.5513
  507.0000     0.5767     1.5684
  507.5000     0.5771     1.6435
  508.0000     0.5776     1.7506
  508.5000     0.5781     1.8022
  509.0000     0.5785     1.8057
  509.5000     0.5790     1.8092
  510.0000     0.5794     1.8126
  510.5000     0.5800     1.8161
  511.0000     0.5805     1.8196
  511.5000     0.5809     1.8231
  512.0000     0.5814     1.8265
  512.5000     0.4976     1.8300
  513.0000     0.4982     1.8335
  513.5000     0.4986     1.8370
  514.0000     0.4991     1.8404
  514.5000     0.7706     1.8439
  515.0000     0.7804     1.8474
  515.5000     0.7808     1.8509
  516.0000     0.7814     1.8544
  516.5000     0.7819     1.8578
  517.0000     0.7823     1.8613
  517.5000     0.7828     1.8648
  518.0000     0.7832     1.8683
  518.5000     0.7837     1.8717
  519.0000     0.7841     1.8752
  519.5000     0.7846     1.8787
  520.0000     0.7851     1.8822
  520.5000     0.7855     1.8856
  521.0000     0.7860     1.8891
  521.5000     0.7865     1.8926
  522.0000     0.7870     1.8961
  522.5000     0.7314     1.8996
  523.0000     0.6289     1.9030
  523.5000     0.6295     1.9065
  524.0000     0.6299     1.9100
  524.5000     0.6304     1.9135
  525.0000     0.6309     1.9169
  525.5000     0.6313     1.9204
  526.0000     0.6318     1.9239
  526.5000     0.6516     1.9274
  527.0000     0.8197     1.9308
  527.5000     0.8202     1.9343
  528.0000     0.8206     1.9378
  528.5000     1.0080     1.9413
  529.0000     1.0085     1.9448
  529.5000     1.0089     1.9482
  530.0000     1.0094     1.9517
  530.5000     1.2358     1.9552
  531.0000     1.2346     1.9587
  531.5000     1.2350     1.9621
  532.0000     1.1740     1.9656
  532.5000     1.0210     1.9691
  533.0000     1.0216     1.9726
  533.5000     1.0314     1.9761
  534.0000     1.1346     1.9795
  534.5000     1.1444     1.9830
  535.0000     1.1449     1.9865
  535.5000     1.1547     1.9900
  536.0000     1.1552     1.9934
  536.5000     0.8005     1.9969
  537.0000     0.8009     2.0004
  537.5000     0.8014     2.0039
  538.0000     0.8019     2.0073
  538.5000     0.7463     2.0108
  539.0000     0.7561     2.0143
  539.5000     0.7566     2.0178
  540.0000     0.8225     2.0213
  540.5000     0.8229     2.0247
  541.0000     0.8327     2.0282
  541.5000     0.8332     2.0317
  542.0000     0.6280     2.0352
  542.5000     0.6285     2.0386
  543.0000     0.6290     2.0421
  543.5000     0.6294     2.0456
  544.0000     0.6300     2.0491
  544.5000     0.6304     2.0525
  545.0000     0.6309     2.0560
  545.5000     0.6407     2.0595
