~VERSION INFORMATION
 VERS.                2.0:   CWLS LOG ASCII STANDARD - VERSION 2.0
 WRAP.                 NO:   ONE LINE PER DEPTH STEP
~WELL INFORMATION
#MNEM.UNIT      DATA TYPE    INFORMATION
#----------   ------------   ------------------------------
 STRT.F            5.0000:   START DEPTH
 STOP.F          610.0000:   STOP DEPTH
 STEP.F            0.5000:   STEP LENGTH
 NULL.          -999.2500:   NO VALUE
 COMP. FENIX & SCISSON INC:   COMPANY
 WELL.        NPR 3 #25-3:   WELL
 FLD .        TEAPOT DOME:   FIELD
 LOC .       S3 T38N R78W:   LOCATION
 CNTY.            NATRONA:   COUNTY
 STAT.            WYOMING:   STATE
 CTRY. UNITED STATES OF AMERICA:   COUNTRY
 SRVC.           BIRDWELL:   SERVICE COMPANY
 DATE.        28-SEP-1978:   LOGDATE
 API .       490251068900:   API NUMBER
~CURVE INFORMATION
#MNEM.UNIT       API CODE    CURVE DESCRIPTION
#----------   ------------   ------------------------------
 DEPT.F                  :   
 SPR .MV     05 010 01 00:   SPONTANEOUS POTENTIAL FROM RES.
 IL  .OHMM   05 120 00 00:   INDUCTION LOG
 SN  .OHMM   05 040 16 00:   SHORT NORMAL 16"
 CALD.IN     45 280 60 00:   CALIPER
 GRD .GAPI   45 310 01 00:   GAMMA RAY FROM DENSITY LOG
 CORR.G/C3   45 356 01 00:   DENSITY CORRECTION
 DEN .G/C3   45 350 01 00:   COMPENSATED BULK DENSTIY
 DPHI.DEC    45 890 12 00:   DENSITY POROSITY SANDSTONE
~PARAMETER INFORMATION
#MNEM.UNIT          VALUE    DESCRIPTION
#----------   ------------   ------------------------------
 PD  .                 GL:   PERMANENT DATUM
 EPD .F              5249:   ELEVATION PERMANENT DATUM
 LMF .                 KB:   LOG MEASURED FROM
 DAPD.F                 4:   FEET ABOVE PERMANENT DATUM
 DMF .                 KB:   DRILLING MEASURED FROM
 EKB .F              5253:   KELLING BUSHING
 EGL .F              5249:   GROUND LEVEL
 DATE.            9-28-78:   RUN DATE
 RUN .                  1:   RUN NUMBER
 DD  .F               616:   DEPTH DRILLER
 DL  .F               613:   DEPTH LOGGER
 BLI .F               607:   BOTTOM LOG INTERVAL
 TLI .F                40:   TOP LOG INTERVAL
 BS  .IN            7.875:   BIT SIZE
 BSD .F               616:   BIT SIZE AT DEPTH
 DFT .                KCL:   DRILLING FLUID TYPE
 DFD .                8.7:   DRILLING FLUID DENSITY
 DFV .                 33:   DRILLING FLUID VISCOSITY
 DFPH.                  9:   DRILLING FLUID PH
 DFL .                  5:   DRILLING FLUID LOSS
 MSS .            MUD PIT:   MUD SAMPLE SOURCE
 RMS .OHMM            .14:   RESISTIVITY MUD SAMPLE
 MST .F                65:   MUD SAMPLE TEMPERATURE
 RMF .OHMM            2.1:   RESISTIVITY MUD FILTRATE SAMPLE
 MFST.F                65:   MUD FILTRATE SAMPLE TEMPERATURE
 RMC .OHMM            .32:   RESISTIVITY MUD CAKE
 MCST.F                65:   MUD CAKE SAMPLE TEMPERATURE
 MFSS.               MEAS:   MUD FILTRATE SAMPLE SOURCE
 TCS .HRS               2:   TIME CURCULATED STOPPED
 LUN .               2958:   LOGGING UNIT NUMBER
 LUL .               CASP:   LOGGING UNIT LOCATION
 ENGI.            ROLLINS:   RECORDING ENGINEER
 WITN.              AMEND:   WITNESSED BY
 CLNT.            A2DTECH:   CLIENT CODE
 ORIG.           5" PRINT:   ORIGIN OF DATA
 UWI .       490251068900:   UNIQUE WELL ID
 DICO. A2D Technologies, Inc.:   DIGITIZING COMPANY
~OTHER INFORMATION
~A    DEPT     SPR         IL         SN         CALD       GRD      CORR        DEN       DPHI   
# ...
  329.0000   -31.8618     4.9847     5.5552     8.5080   121.2813    -0.0030     2.4854     0.1312
  329.5000   -32.0385     4.7075     5.5010     8.5105   125.2082    -0.0030     2.4699     0.1401
  330.0000   -32.0359     4.5465     5.4651     8.5122   129.5158    -0.0030     2.4543     0.1442
  330.5000   -32.0340     4.6135     5.5088     8.5138   130.5536    -0.0030     2.4464     0.1442
  331.0000   -31.8962     4.7010     5.5852     8.5153   130.1352    -0.0030     2.4465     0.1442
  331.5000   -31.5133     4.7901     5.7156     8.5168   129.2397    -0.0030     2.4464     0.1442
  332.0000   -31.1339     4.8809     5.8893     8.5184   125.5264    -0.0030     2.4464     0.1437
  332.5000   -30.7546     5.0781     6.0683     8.5199   121.7271    -0.0030     2.4524     0.1230
  333.0000   -30.3862     5.4731     6.2528     8.5215   120.6844    -0.0030     2.4843     0.1125
  333.5000   -30.1063     5.8988     6.4494     8.5230   120.9103    -0.0030     2.4975     0.1094
  334.0000   -29.8221     6.3577     6.6824     8.5245   120.9192    -0.0030     2.4962     0.1151
  334.5000   -29.5375     6.6555     6.9421     8.5261   120.7718    -0.0030     2.4896     0.1218
  335.0000   -29.2529     6.7264     6.9632     8.5276   120.9559    -0.0018     2.4837     0.1226
  335.5000   -28.9679     6.7980     6.9913     8.5292   121.8592     0.0010     2.4824     0.1170
  336.0000   -28.6836     6.8155     7.0190     8.5307   124.2595     0.0031     2.4855     0.1199
  336.5000   -28.4145     6.8155     7.0471     8.5323   126.5027     0.0002     2.4957     0.1203
  337.0000   -28.2685     6.8155     7.0753     8.5338   128.7673    -0.0032     2.5104     0.1013
  337.5000   -28.1180     6.8155     7.1036     8.5353   129.6838    -0.0065     2.5125     0.1018
  338.0000   -27.9671     6.8155     7.1320     8.5369   128.4675    -0.0073     2.5073     0.1076
  338.5000   -27.8161     6.8155     7.1606     8.5384   126.5669    -0.0077     2.5023     0.1082
  339.0000   -27.6656     6.8155     7.2023     8.5400   126.5741    -0.0081     2.5016     0.1073
  339.5000   -27.5140     6.8155     7.1831     8.5415   127.2411    -0.0085     2.5036     0.1063
  340.0000   -27.4304     6.8155     7.1479     8.5430   127.9332    -0.0089     2.5054     0.1094
  340.5000   -27.4000     6.8155     7.1128     8.5446   127.8423    -0.0072     2.5020     0.1112
  341.0000   -27.3706     6.8155     7.0778     8.5461   127.6774    -0.0047     2.4983     0.1089
  341.5000   -27.3414     6.8155     7.0432     8.5477   127.5101    -0.0020     2.4985     0.1086
  342.0000   -27.3120     6.8155     7.0062     8.5492   127.4070     0.0006     2.5008     0.1086
  342.5000   -27.2825     6.8155     7.0234     8.5507   128.4019     0.0032     2.5040     0.1052
  343.0000   -27.2495     6.8153     7.0418     8.5515   129.4152     0.0059     2.5104     0.0970
  343.5000   -27.3820     6.7993     7.0603     8.5409   129.7739     0.0085     2.5222     0.0889
  344.0000   -27.5678     6.7691     7.0789     8.5251   129.7770     0.0111     2.5335     0.0862
  344.5000   -27.7558     6.7388     7.0975     8.5090   129.7647     0.0126     2.5407     0.0901
  345.0000   -27.8083     6.7087     7.1164     8.4930   130.2969     0.0105     2.5375     0.0965
  345.5000   -27.5260     6.6787     7.1365     8.4915   130.9039     0.0086     2.5293     0.0994
  346.0000   -27.2453     6.6488     7.0864     8.5061   131.5110     0.0066     2.5155     0.0994
  346.5000   -27.1026     6.6192     6.9918     8.5143   131.6389     0.0046     2.5145     0.0994
  347.0000   -27.3088     6.5894     6.8826     8.5167   131.7470     0.0027     2.5153     0.1002
  347.5000   -27.5078     6.5583     6.7751     8.5192   134.2219     0.0007     2.5161     0.1009
  348.0000   -27.7076     6.4550     6.6693     8.5219   136.0244    -0.0012     2.5159     0.1046
  348.5000   -27.9072     6.3537     6.5651     8.5246   136.1676    -0.0030     2.5041     0.1133
  349.0000   -28.1069     6.2540     6.4626     8.5272   136.3173    -0.0035     2.4926     0.1201
  349.5000   -28.3065     6.1560     6.3617     8.5299   136.4164    -0.0039     2.4823     0.1263
  350.0000   -28.5062     6.0594     6.2807     8.5325   136.5471    -0.0043     2.4736     0.1294
  350.5000   -28.7058     5.9369     6.2085     8.5352   136.9711    -0.0047     2.4715     0.1277
  351.0000   -28.9038     5.9917     6.1371     8.5379   137.6800    -0.0051     2.4739     0.1212
  351.5000   -29.1055     5.8273     6.0666     8.5405   138.3959    -0.0055     2.4821     0.1125
  352.0000   -29.3060     5.6823     5.9969     8.5432   138.2812    -0.0060     2.4934     0.1082
  352.5000   -29.5051     5.5113     5.9280     8.5458   137.5779    -0.0064     2.5009     0.1166
  353.0000   -29.6449     5.4147     5.8825     8.5485   135.6973    -0.0068     2.4937     0.1249
  353.5000   -29.5530     5.4287     5.9276     8.5512   134.6113    -0.0060     2.4808     0.1338
  354.0000   -29.4358     5.4377     5.9763     8.5539   134.6082    -0.0041     2.4555     0.1524
  354.5000   -29.3174     5.4467     6.0253     8.5566   134.6117    -0.0022     2.4279     0.1594
  355.0000   -29.1992     5.4557     6.1316     8.5594   133.8890    -0.0003     2.4174     0.1586
  355.5000   -29.0810     5.4650     6.2863     8.5621   132.6131     0.0016     2.4201     0.1483
  356.0000   -28.9620     5.7470     6.4494     8.5648   131.3379     0.0035     2.4469     0.1370
  356.5000   -28.8471     6.0300     6.4061     8.5676   130.5747     0.0054     2.4670     0.1200
  357.0000   -28.8679     6.2849     6.3617     8.5703   130.3193     0.0071     2.4880     0.1133
  357.5000   -28.8958     6.5506     6.3177     8.5730   129.6079     0.0059     2.4959     0.1106
  358.0000   -28.9231     6.8276     6.2738     8.5758   129.1652     0.0050     2.4962     0.1115
  358.5000   -28.9503     6.9421     6.2610     8.5785   129.3510     0.0058     2.4955     0.1142
  359.0000   -28.9772     6.6127     6.2449     8.5812   129.8539     0.0066     2.4949     0.1123
  359.5000   -29.0044     6.2243     6.2289     8.5840   131.3428     0.0075     2.4945     0.1070
  360.0000   -29.0340     5.8588     6.1785     8.5867   131.6177     0.0083     2.4993     0.1066
  360.5000   -29.1695     5.5147     6.0008     8.5894   131.6640     0.0092     2.5045     0.1094
  361.0000   -29.4774     5.1909     5.8294     8.5922   131.7051     0.0100     2.5009     0.1122
  361.5000   -29.7826     5.0307     5.6699     8.5949   131.7483     0.0107     2.4975     0.1277
  362.0000   -30.0891     4.9636     5.6180     8.5976   131.7856     0.0190     2.4781     0.1434
  362.5000   -30.3941     4.9309     5.6180     8.6004   131.9462     0.0290     2.4510     0.1526
  363.0000   -30.3370     4.8984     5.6190     8.6031   132.1299     0.0279     2.4330     0.1518
  363.5000   -30.1077     4.8938     5.6157     8.6059   132.3145     0.0013     2.4388     0.1379
  364.0000   -29.8792     4.8892     5.9520     8.6086   132.4999     0.0005     2.4522     0.1271
  364.5000   -29.6521     5.1839     6.1935     8.6113   132.5893     0.0088     2.4655     0.1162
  365.0000   -29.4548     5.6603     6.4455     8.6133   132.4203     0.0073     2.4810     0.1087
  365.5000   -29.0482     6.1753     6.6826     8.6152   131.8927     0.0052     2.4987     0.1052
  366.0000   -28.6031     6.6262     6.8776     8.6172   129.6672     0.0031     2.5135     0.1036
  366.5000   -28.1556     6.8263     7.0756     8.6191   127.4925     0.0010     2.5146     0.1034
  367.0000   -27.7106     7.0325     7.1883     8.6210   125.2833    -0.0010     2.5119     0.1040
  367.5000   -27.2628     7.2023     7.2930     8.6229   124.8724    -0.0034     2.5087     0.1034
  368.0000   -26.9926     7.2168     7.3992     8.6248   124.4304    -0.0057     2.5125     0.0999
  368.5000   -26.8772     7.2327     7.4724     8.6267   121.7702    -0.0080     2.5176     0.0997
  369.0000   -26.7652     7.2487     7.4379     8.6286   119.1133    -0.0104     2.5164     0.1002
