~VERSION INFORMATION
 VERS.                2.0:   CWLS LOG ASCII STANDARD - VERSION 2.0
 WRAP.                 NO:   ONE LINE PER DEPTH STEP
~WELL INFORMATION
#MNEM.UNIT      DATA TYPE    INFORMATION
#----------   ------------   ------------------------------
 STRT.F           40.0000:   START DEPTH
 STOP.F          950.5000:   STOP DEPTH
 STEP.F            0.5000:   STEP LENGTH
 NULL.          -999.2500:   NO VALUE
 COMP. FENIX & SCISSON INC:   COMPANY
 WELL.       NPR 3 #44-14:   WELL
 FLD .             TEAPOT:   FIELD
 LOC .      S14 T38N R78W:   LOCATION
 CNTY.            NATRONA:   COUNTY
 STAT.            WYOMING:   STATE
 CTRY. UNITED STATES OF AMERICA:   COUNTRY
 SRVC.            Unknown:   SERVICE COMPANY
 DATE.        05-JAN-1979:   LOGDATE
 API .       490251076100:   API NUMBER
~CURVE INFORMATION
#MNEM.UNIT       API CODE    CURVE DESCRIPTION
#----------   ------------   ------------------------------
 DEPT.F                  :   
 SPR .MV     05 010 01 00:   SPONTANEOUS POTENTIAL FROM RES.
 SN  .OHMM   05 040 16 00:   SHORT NORMAL 16"
 IL  .OHMM   05 120 00 00:   INDUCTION LOG
 CALD.IN     45 280 60 00:   CALIPER
 GRD .GAPI   45 310 01 00:   GAMMA RAY FROM DENSITY LOG
 RHOB.G/C3   45 350 01 00:   BULK DENSITY
 DPHI.DEC    45 890 12 00:   DENSITY POROSITY SANDSTONE
 CORR.G/C3   45 356 01 00:   DENSITY CORRECTION
~PARAMETER INFORMATION
#MNEM.UNIT          VALUE    DESCRIPTION
#----------   ------------   ------------------------------
 PD  .                 GL:   PERMANENT DATUM
 EPD .F              5266:   ELEVATION PERMANENT DATUM
 LMF .                 KB:   LOG MEASURED FROM
 DAPD.F                 4:   FEET ABOVE PERMANENT DATUM
 DMF .                 KB:   DRILLING MEASURED FROM
 EKB .F              5270:   KELLING BUSHING
 EGL .F              5266:   GROUND LEVEL
 DATE.             1-5-79:   RUN DATE
 RUN .                  1:   RUN NUMBER
 DD  .F               950:   DEPTH DRILLER
 DL  .F               943:   DEPTH LOGGER
 BLI .F               937:   BOTTOM LOG INTERVAL
 TLI .F                40:   TOP LOG INTERVAL
 CS  .IN            8.625:   CASING SIZE
 CBL .F                40:   CASING BOTTOM LOGGER
 BS  .IN            7.875:   BIT SIZE
 BSD .F               950:   BIT SIZE AT DEPTH
 DFT .                KCL:   DRILLING FLUID TYPE
 DFV .                 42:   DRILLING FLUID VISCOSITY
 DFL .               10.5:   DRILLING FLUID LOSS
 MSS .           FLOWLINE:   MUD SAMPLE SOURCE
 RMS .OHMM            .23:   RESISTIVITY MUD SAMPLE
 RMF .OHMM            .23:   RESISTIVITY MUD FILTRATE SAMPLE
 RMC .OHMM             .2:   RESISTIVITY MUD CAKE
 MFSS.           MEASURED:   MUD FILTRATE SAMPLE SOURCE
 MCSS.           MEASURED:   MUD CAKE SAMPLE SOURCE
 RMB .OHMM             .2:   RESISTIVITY MUD AT BHT
 BHT .F                70:   BOTTOM HOLE TEMPERATURE
 TCS .HRS               5:   TIME CURCULATED STOPPED
 MRT .F                70:   MAXIMUM RECORDED TEMPERATURE
 LUL .             CASPER:   LOGGING UNIT LOCATION
 ENGI.             MILLER:   RECORDING ENGINEER
 WITN.           DINSMORE:   WITNESSED BY
 CLNT.            A2DTECH:   CLIENT CODE
 ORIG.           5" PRINT:   ORIGIN OF DATA
 UWI .       490251076100:   UNIQUE WELL ID
 DICO. A2D Technologies, Inc.:   DIGITIZING COMPANY
~OTHER INFORMATION
~A   DEPT      SPR           SN         IL     CALD        GRD       RHOB       DPHI       CORR   
# ...
  485.5000   -34.1720     8.1820     9.5660     8.1800   102.6040     2.4580     0.1400     0.0100
  486.0000   -34.7030     8.1820     9.5120     8.1700    99.0860     2.4570     0.1400     0.0200
  486.5000   -35.1500     8.1740     9.4610     8.1590   100.2680     2.4560     0.1420     0.0380
  487.0000   -34.8650     8.1570     9.4100     8.1250   100.7150     2.4550     0.1380     0.0600
  487.5000   -34.6360     8.1400     9.3580     8.0920   102.5660     2.4840     0.1260     0.0900
  488.0000   -34.9680     8.1230     9.3070     8.0590   109.0990     2.5170     0.1140     0.1200
  488.5000   -34.6620     8.1060     9.2550     8.0260   115.6500     2.5240     0.0990     0.1380
  489.0000   -34.4890     8.0890     9.2040     7.9720   114.2700     2.5150     0.1050     0.1150
  489.5000   -34.8100     8.0720     9.1520     7.8280   110.3460     2.5050     0.1090     0.0910
  490.0000   -35.2460     8.0550     9.1010     7.6850   108.7510     2.5050     0.1110     0.0680
  490.5000   -35.3260     8.0380     9.0500     7.6010   114.3070     2.5030     0.1160     0.0440
  491.0000   -35.3940     8.0220     8.9980     7.5640   110.7320     2.4890     0.1240     0.0190
  491.5000   -35.0610     8.0050     8.9470     7.5380   106.4580     2.4770     0.1250     0.0140
  492.0000   -34.6720     7.9880     8.8950     7.5120   102.1660     2.4830     0.1250     0.0140
  492.5000   -35.2410     7.9710     8.8440     7.4870   100.3700     2.4780     0.1320     0.0130
  493.0000   -35.5760     7.9540     8.8060     7.4650   104.8090     2.4580     0.1440     0.0070
  493.5000   -35.2790     7.9370     8.7390     7.4910   111.6840     2.4500     0.1470     0.0060
  494.0000   -35.7800     7.9200     8.6610     7.5170   116.7600     2.4420     0.1540     0.0060
  494.5000   -35.6640     7.9030     8.5830     7.5430   115.9670     2.4230     0.1660     0.0070
  495.0000   -35.3580     7.8860     8.5050     7.5690   115.1500     2.4110     0.1690     0.0090
  495.5000   -35.2630     7.8690     8.4270     7.6360   114.1550     2.4100     0.1680     0.0110
  496.0000   -34.9460     7.8520     8.3330     7.7590   113.8150     2.4210     0.1620     0.0120
  496.5000   -34.3890     7.8350     8.5600     7.8780   111.0500     2.4420     0.1480     0.0140
  497.0000   -34.3300     7.8160     8.9700     7.8530   110.4450     2.4520     0.1440     0.0160
  497.5000   -34.2580     7.7640     8.9210     7.8270   113.6510     2.4650     0.1370     0.0240
  498.0000   -34.6560     7.6760     8.8350     7.8620   118.0010     2.4760     0.1260     0.0320
  498.5000   -34.7540     7.5890     8.7260     7.8970   117.1010     2.4640     0.1380     0.0270
  499.0000   -34.6830     7.5010     8.8060     7.9310   119.3490     2.4510     0.1440     0.0100
  499.5000   -34.6500     7.4130     8.5590     7.9620   120.4140     2.4480     0.1470     0.0000
  500.0000   -34.9100     7.3250     8.3970     7.9680   120.0670     2.4440     0.1490    -0.0080
  500.5000   -35.1790     7.2380     8.2350     7.9740   121.8470     2.4400     0.1520    -0.0080
  501.0000   -35.8060     7.1500     8.0730     7.9800   120.6950     2.4370     0.1520    -0.0080
  501.5000   -36.4820     7.0620     7.9110     7.9860   118.5980     2.4360     0.1530    -0.0010
  502.0000   -36.5540     6.9740     7.7490     7.9920   117.6830     2.4460     0.1460     0.0050
  502.5000   -36.5230     6.8870     7.5880     7.9980   120.2640     2.4580     0.1430     0.0110
  503.0000   -36.4890     6.8700     7.4260     8.0040   118.7260     2.4560     0.1410     0.0130
  503.5000   -36.4540     6.8700     7.2600     8.0100   118.5170     2.4540     0.1430     0.0150
  504.0000   -36.4200     6.9460     7.3410     8.0160   120.3750     2.4530     0.1420     0.0240
  504.5000   -36.4000     7.0450     7.4460     8.0210   124.8760     2.4540     0.1390     0.0350
  505.0000   -36.0310     7.1440     7.5510     8.0270   129.7190     2.4670     0.1350     0.0430
  505.5000   -35.5380     7.2430     7.6560     8.0330   123.4350     2.4620     0.1420     0.0330
  506.0000   -35.3250     7.3420     7.7620     8.0400   112.9440     2.4550     0.1410     0.0320
  506.5000   -35.2110     7.3940     7.8670     8.0320   106.0010     2.4620     0.1370     0.0340
  507.0000   -35.2070     7.3940     7.9720     8.0200   105.1030     2.4700     0.1330     0.0290
  507.5000   -35.2080     7.3940     8.0780     8.0070   109.8960     2.4730     0.1310     0.0220
  508.0000   -35.2090     7.3940     8.1820     7.9950   108.9830     2.4760     0.1290     0.0150
  508.5000   -35.2080     7.3940     8.1660     7.9830   107.4850     2.4690     0.1350     0.0080
  509.0000   -35.3680     7.3940     8.1500     7.9910   108.6360     2.4540     0.1440     0.0040
  509.5000   -35.6360     7.3940     8.1350     8.0020   110.1500     2.4540     0.1390     0.0040
  510.0000   -35.9050     7.3940     8.1190     8.0120   107.0640     2.4570     0.1430     0.0130
  510.5000   -36.1730     7.3940     8.1040     8.0230   100.6900     2.4460     0.1480     0.0230
  511.0000   -35.8650     7.3940     8.0880     8.0340   100.8710     2.4350     0.1560     0.0310
  511.5000   -35.5080     7.3940     8.0720     8.0390   104.7970     2.4280     0.1590     0.0600
  512.0000   -35.1500     7.3940     8.0570     8.0350   108.4700     2.4580     0.1380     0.1110
  512.5000   -34.8340     7.3940     8.0330     8.0310   112.4400     2.4910     0.1180     0.1780
  513.0000   -35.1170     7.3940     8.0430     8.0260   117.0600     2.5310     0.1010     0.2200
  513.5000   -35.3900     7.4510     8.0660     8.0220   117.0000     2.5910     0.1000     0.2440
  514.0000   -35.2590     7.5060     8.0900     8.0070   116.9880     2.5620     0.1120     0.1910
  514.5000   -35.1120     7.5610     8.1130     7.9870   116.9770     2.4700     0.1300     0.0970
  515.0000   -34.9640     7.6160     8.1370     7.9680   116.5750     2.4540     0.1420     0.0420
  515.5000   -34.8330     7.6700     8.1600     7.9480   114.8730     2.4520     0.1410     0.0130
  516.0000   -35.4170     7.7250     8.1840     7.9280   113.2120     2.4560     0.1370     0.0090
  516.5000   -35.9500     7.7800     8.2070     7.9220   111.7180     2.4680     0.1330     0.0060
  517.0000   -35.6400     7.8350     8.2310     7.9220   112.7740     2.4720     0.1290     0.0100
  517.5000   -35.3050     7.8860     8.2540     7.9210   112.1700     2.4800     0.1280     0.0140
  518.0000   -35.0480     7.8590     8.2350     7.9210   112.2910     2.4730     0.1320     0.0120
  518.5000   -34.8280     7.8340     8.2100     7.9210   110.3570     2.4630     0.1390     0.0100
  519.0000   -35.0130     7.8090     8.1850     7.9210   106.9300     2.4530     0.1410     0.0070
  519.5000   -35.1910     7.7830     8.1600     7.9210   105.0900     2.4520     0.1390     0.0050
  520.0000   -34.9250     7.7580     8.1350     7.9210   105.1130     2.4540     0.1390     0.0030
  520.5000   -34.6400     7.7390     8.1100     7.9210   108.5730     2.4540     0.1410     0.0010
  521.0000   -34.3540     7.7290     8.0850     7.9210   103.7060     2.4540     0.1420    -0.0020
  521.5000   -34.2760     7.7200     8.0600     7.9210   105.3350     2.4540     0.1430    -0.0040
  522.0000   -34.3720     7.7100     8.0320     7.9210   107.8010     2.4540     0.1400     0.0020
  522.5000   -34.4670     7.7000     8.0250     7.9210   105.4990     2.4620     0.1360     0.0070
  523.0000   -34.5640     7.6910     8.0170     7.9210   108.9960     2.4700     0.1330     0.0120
  523.5000   -34.6620     7.6810     8.0100     7.9210   112.2050     2.4770     0.1290     0.0120
  524.0000   -34.7590     7.6720     8.0020     7.9210   113.4660     2.4800     0.1260     0.0100
  524.5000   -34.9980     7.6620     7.9940     7.9210   116.0320     2.4820     0.1280     0.0040
  525.0000   -35.4340     7.6520     7.9860     7.9260   114.0290     2.4810     0.1300    -0.0030
  525.5000   -35.7700     7.6430     7.9780     7.9340   111.6450     2.4640     0.1360    -0.0090
