~VERSION INFORMATION
 VERS.                2.0:   CWLS LOG ASCII STANDARD - VERSION 2.0
 WRAP.                 NO:   ONE LINE PER DEPTH STEP
~WELL INFORMATION
#MNEM.UNIT      DATA TYPE    INFORMATION
#----------   ------------   ------------------------------
 STRT.F          502.0000:   START DEPTH
 STOP.F         5661.0000:   STOP DEPTH
 STEP.F            0.5000:   STEP LENGTH
 NULL.          -999.2500:   NO VALUE
 COMP. FENIX & SCISSON INC:   COMPANY
 WELL.   NPR 3 #32DX22-22:   WELL
 FLD .             TEAPOT:   FIELD
 LOC .      S22 T38N R78W:   LOCATION
 CNTY.            NATRONA:   COUNTY
 STAT.            WYOMING:   STATE
 CTRY. UNITED STATES OF AMERICA:   COUNTRY
 SRVC.       Schlumberger:   SERVICE COMPANY
 DATE.        29-NOV-1978:   LOGDATE
 API .       490251073100:   API NUMBER
~CURVE INFORMATION
#MNEM.UNIT       API CODE    CURVE DESCRIPTION
#----------   ------------   ------------------------------
 DEPT.F                  :   
 SPR .MV     07 010 01 00:   SPONTANEOUS POTENTIAL
 GRR .GAPI   07 310 01 00:   GAMMA RAY FROM RES. LOG.
 SFL .OHMM   07 220 01 00:   SHALLOW FOCUSED LOG RESISTIVITY
 ILD .OHMM   07 120 46 00:   INDUCTION LOG DEEP
 ILM .OHMM   07 120 44 00:   INDUCTION LOG MEDIUM
 NPHI.DEC    42 890 03 00:   NEUTRON POROSITY SANDSTONE
 DPHI.DEC    45 890 12 00:   DENSITY POROSITY SANDSTONE
 RHOB.G/C3   45 350 01 00:   BULK DENSITY
 CORR.G/C3   45 356 01 00:   DENSITY CORRECTION
 CALD.IN     45 280 60 00:   CALIPER
~PARAMETER INFORMATION
#MNEM.UNIT          VALUE    DESCRIPTION
#----------   ------------   ------------------------------
 PD  .                 GL:   PERMANENT DATUM
 EPD .F              5514:   ELEVATION PERMANENT DATUM
 LMF .                 KB:   LOG MEASURED FROM
 DAPD.F                10:   FEET ABOVE PERMANENT DATUM
 DMF .                 KB:   DRILLING MEASURED FROM
 EKB .F              5524:   KELLING BUSHING
 EGL .F              5514:   GROUND LEVEL
 DATE.           11-29-78:   RUN DATE
 RUN .                  1:   RUN NUMBER
 DD  .F              5680:   DEPTH DRILLER
 DL  .F              5667:   DEPTH LOGGER
 BLI .F              5661:   BOTTOM LOG INTERVAL
 TLI .F               530:   TOP LOG INTERVAL
 CS  .IN            8.625:   CASING SIZE
 CBD .F               513:   CASING BOTTOM DRILLER
 CBL .F               530:   CASING BOTTOM LOGGER
 BS  .IN            7.875:   BIT SIZE
 BSD .F              5680:   BIT SIZE AT DEPTH
 DFT .                FGM:   DRILLING FLUID TYPE
 DFD .                9.2:   DRILLING FLUID DENSITY
 DFV .                 50:   DRILLING FLUID VISCOSITY
 DFPH.               11.5:   DRILLING FLUID PH
 DFL .                6.8:   DRILLING FLUID LOSS
 MSS .               TANK:   MUD SAMPLE SOURCE
 RMS .OHMM           1.45:   RESISTIVITY MUD SAMPLE
 MST .F                56:   MUD SAMPLE TEMPERATURE
 RMF .OHMM           1.16:   RESISTIVITY MUD FILTRATE SAMPLE
 MFST.F                56:   MUD FILTRATE SAMPLE TEMPERATURE
 MFSS.               MEAS:   MUD FILTRATE SAMPLE SOURCE
 RMB .OHMM            .62:   RESISTIVITY MUD AT BHT
 BHT .F               132:   BOTTOM HOLE TEMPERATURE
 TCS .HRS            0700:   TIME CURCULATED STOPPED
 TLAB.HRS            1200:   TIME LOGGER AT BOTTOM
 MRT .F               132:   MAXIMUM RECORDED TEMPERATURE
 LUN .               8039:   LOGGING UNIT NUMBER
 LUL .               CSPR:   LOGGING UNIT LOCATION
 ENGI.           STADULIS:   RECORDING ENGINEER
 WITN.           DINSMORE:   WITNESSED BY
 CLNT.            A2DTECH:   CLIENT CODE
 ORIG.       2", 5" PRINT:   ORIGIN OF DATA
 UWI .       490251073100:   UNIQUE WELL ID
 DICO. A2D Technologies, Inc.:   DIGITIZING COMPANY
~OTHER INFORMATION
~A   DEPT      SPR         GRR       SFL        ILD        ILM       NPHI       DPHI       RHOB       CORR       CALD   
# ...
  870.5000   -12.9530   103.3297     4.6539     5.0068     4.7776  -999.2500  -999.2500  -999.2500  -999.2500  -999.2500
  871.0000   -12.8360   105.1461     4.5553     4.9075     4.6570  -999.2500  -999.2500  -999.2500  -999.2500  -999.2500
  871.5000   -13.0881   104.1520     4.4587     4.9288     4.5396  -999.2500  -999.2500  -999.2500  -999.2500  -999.2500
  872.0000   -13.3748   102.5575     4.3553     4.9553     4.4360  -999.2500  -999.2500  -999.2500  -999.2500  -999.2500
  872.5000   -13.6604   100.3665     4.3165     4.9819     4.4573  -999.2500  -999.2500  -999.2500  -999.2500  -999.2500
  873.0000   -13.9444    98.5858     4.3134     5.0760     4.4769  -999.2500  -999.2500  -999.2500  -999.2500  -999.2500
  873.5000   -14.2206    96.9115     4.4174     5.2855     4.6981  -999.2500  -999.2500  -999.2500  -999.2500  -999.2500
  874.0000   -14.5187    93.5349     4.6873     5.5035     4.9573  -999.2500  -999.2500  -999.2500  -999.2500  -999.2500
  874.5000   -16.8486    90.1307     5.3513     5.7308     5.3035  -999.2500  -999.2500  -999.2500  -999.2500  -999.2500
  875.0000   -19.2716    87.2263     6.1175     5.9675     5.5482  -999.2500  -999.2500  -999.2500  -999.2500  -999.2500
  875.5000   -21.6815    88.0086     6.0404     6.2137     5.5971  -999.2500  -999.2500  -999.2500  -999.2500  -999.2500
  876.0000   -24.5508    90.8651     5.9649     6.3658     5.6452  -999.2500  -999.2500  -999.2500  -999.2500  -999.2500
  876.5000   -28.2437    93.7114     5.8885     6.4069     5.6907  -999.2500  -999.2500  -999.2500  -999.2500  -999.2500
  877.0000   -30.8544    92.8431     5.8424     6.4639     5.7366  -999.2500  -999.2500  -999.2500  -999.2500  -999.2500
  877.5000   -31.9855    90.9625     5.8430     6.4350     5.7366  -999.2500  -999.2500  -999.2500  -999.2500  -999.2500
  878.0000   -31.3866    90.2402     5.8430     6.3871     5.7104  -999.2500  -999.2500  -999.2500  -999.2500  -999.2500
  878.5000   -30.8166    93.0635     5.8430     6.3331     5.6799  -999.2500  -999.2500  -999.2500  -999.2500  -999.2500
  879.0000   -30.3644    94.8448     5.8440     6.2408     5.6495  -999.2500  -999.2500  -999.2500  -999.2500  -999.2500
  879.5000   -30.2353    96.0150     5.8450     6.1499     5.5996  -999.2500  -999.2500  -999.2500  -999.2500  -999.2500
  880.0000   -30.1033    97.1454     5.7175     6.0604     5.5242  -999.2500  -999.2500  -999.2500  -999.2500  -999.2500
  880.5000   -29.9712    99.8647     5.6129     5.9716     5.4498  -999.2500  -999.2500  -999.2500  -999.2500  -999.2500
  881.0000   -29.8389   102.9646     5.4806     5.8968     5.3764  -999.2500  -999.2500  -999.2500  -999.2500  -999.2500
  881.5000   -29.7063   106.0595     5.3485     5.9140     5.3040  -999.2500  -999.2500  -999.2500  -999.2500  -999.2500
  882.0000   -29.5725   108.8202     5.2213     5.9351     5.2326  -999.2500  -999.2500  -999.2500  -999.2500  -999.2500
  882.5000   -29.4403   107.3442     5.0347     5.9563     5.1855  -999.2500  -999.2500  -999.2500  -999.2500  -999.2500
  883.0000   -29.5234   103.2650     4.9075     5.9776     5.3447  -999.2500  -999.2500  -999.2500  -999.2500  -999.2500
  883.5000   -30.1249    99.0404     5.3548     5.9990     5.4674  -999.2500  -999.2500  -999.2500  -999.2500  -999.2500
  884.0000   -30.7078    95.4037     5.8969     6.0205     5.5808  -999.2500  -999.2500  -999.2500  -999.2500  -999.2500
  884.5000   -31.2880    93.8165     6.3464     6.0420     5.5808  -999.2500  -999.2500  -999.2500  -999.2500  -999.2500
  885.0000   -31.6447    93.1477     6.1063     6.0638     5.5520  -999.2500  -999.2500  -999.2500  -999.2500  -999.2500
  885.5000   -31.7032    94.6797     5.7077     6.0857     5.4035  -999.2500  -999.2500  -999.2500  -999.2500  -999.2500
  886.0000   -31.7641    96.8382     5.3352     6.1178     5.2589  -999.2500  -999.2500  -999.2500  -999.2500  -999.2500
  886.5000   -31.8242    99.0343     5.2333     6.0148     5.1381  -999.2500  -999.2500  -999.2500  -999.2500  -999.2500
  887.0000   -31.8848    99.9460     5.2402     5.8983     5.1768  -999.2500  -999.2500  -999.2500  -999.2500  -999.2500
  887.5000   -31.9463    98.8986     5.2764     5.9499     5.2110  -999.2500  -999.2500  -999.2500  -999.2500  -999.2500
  888.0000   -32.0085    98.0082     5.3130     5.8029     5.2453  -999.2500  -999.2500  -999.2500  -999.2500  -999.2500
  888.5000   -31.9486    98.0481     5.3503     5.6842     5.2816  -999.2500  -999.2500  -999.2500  -999.2500  -999.2500
  889.0000   -31.5187    97.2112     5.3807     5.6625     5.2213  -999.2500  -999.2500  -999.2500  -999.2500  -999.2500
  889.5000   -31.0940    96.1434     5.1974     5.6322     5.1588  -999.2500  -999.2500  -999.2500  -999.2500  -999.2500
  890.0000   -30.6701    96.5982     5.0215     5.6625     5.0970  -999.2500  -999.2500  -999.2500  -999.2500  -999.2500
  890.5000   -30.2495   103.9758     4.8626     5.7082     5.0359  -999.2500  -999.2500  -999.2500  -999.2500  -999.2500
  891.0000   -29.9965   109.2250     4.8626     5.7542     4.9528  -999.2500  -999.2500  -999.2500  -999.2500  -999.2500
  891.5000   -29.9614   110.5910     5.1182     5.8001     5.0678  -999.2500  -999.2500  -999.2500  -999.2500  -999.2500
  892.0000   -29.9228   108.8902     5.3872     5.8437     5.2593  -999.2500  -999.2500  -999.2500  -999.2500  -999.2500
  892.5000   -29.8855   103.7050     5.6842     5.9420     5.4385  -999.2500  -999.2500  -999.2500  -999.2500  -999.2500
  893.0000   -29.8469    96.9624     5.6842     6.0349     5.4960  -999.2500  -999.2500  -999.2500  -999.2500  -999.2500
  893.5000   -29.8126    90.7532     5.5975     6.1287     5.5403  -999.2500  -999.2500  -999.2500  -999.2500  -999.2500
  894.0000   -29.5745    89.6997     5.5297     6.2245     5.5808  -999.2500  -999.2500  -999.2500  -999.2500  -999.2500
  894.5000   -29.2497    91.6674     5.6339     6.3198     5.7730  -999.2500  -999.2500  -999.2500  -999.2500  -999.2500
  895.0000   -29.3431    95.1359     5.7829     6.4151     5.8430  -999.2500  -999.2500  -999.2500  -999.2500  -999.2500
  895.5000   -29.5297    97.4194     5.9359     6.5118     5.9138  -999.2500  -999.2500  -999.2500  -999.2500  -999.2500
  896.0000   -30.0248    95.5810     6.0925     6.6099     5.9684  -999.2500  -999.2500  -999.2500  -999.2500  -999.2500
  896.5000   -30.6304    93.6338     6.2333     6.7096     6.0062  -999.2500  -999.2500  -999.2500  -999.2500  -999.2500
  897.0000   -31.0136    92.8684     6.1170     6.8301     5.9331  -999.2500  -999.2500  -999.2500  -999.2500  -999.2500
  897.5000   -31.0094    91.8892     5.9718     6.8211     5.8565  -999.2500  -999.2500  -999.2500  -999.2500  -999.2500
  898.0000   -31.0065    90.1348     5.8430     6.8103     5.7904  -999.2500  -999.2500  -999.2500  -999.2500  -999.2500
  898.5000   -31.2076    88.3534     6.0852     6.7991     5.9318  -999.2500  -999.2500  -999.2500  -999.2500  -999.2500
  899.0000   -31.4801    89.1294     6.4049     6.7881     6.1175  -999.2500  -999.2500  -999.2500  -999.2500  -999.2500
  899.5000   -31.7547    90.5699     6.3178     6.7771     6.0720  -999.2500  -999.2500  -999.2500  -999.2500  -999.2500
  900.0000   -32.0272    90.4691     6.1796     6.7661     6.0062  -999.2500  -999.2500  -999.2500  -999.2500  -999.2500
  900.5000   -32.3030    89.8217     6.0616     6.7552     6.0543  -999.2500  -999.2500  -999.2500  -999.2500  -999.2500
  901.0000   -32.1885    87.3123     6.0616     6.7442     6.0987  -999.2500  -999.2500  -999.2500  -999.2500  -999.2500
  901.5000   -31.7692    85.1398     5.9765     6.7333     6.1175  -999.2500  -999.2500  -999.2500  -999.2500  -999.2500
  902.0000   -31.3454    87.5413     5.7602     6.7224     5.9383  -999.2500  -999.2500  -999.2500  -999.2500  -999.2500
  902.5000   -30.9214    93.5902     5.6842     6.7115     5.8434  -999.2500  -999.2500  -999.2500  -999.2500  -999.2500
  903.0000   -30.4978    97.8372     5.8929     6.6573     5.9207  -999.2500  -999.2500  -999.2500  -999.2500  -999.2500
  903.5000   -30.0742    97.4325     6.0417     6.5570     5.9832  -999.2500  -999.2500  -999.2500  -999.2500  -999.2500
