~VERSION INFORMATION
 VERS.                2.0:   CWLS LOG ASCII STANDARD - VERSION 2.0
 WRAP.                 NO:   ONE LINE PER DEPTH STEP
~WELL INFORMATION
#MNEM.UNIT      DATA TYPE    INFORMATION
#----------   ------------   ------------------------------
 STRT.F           30.0000:   START DEPTH
 STOP.F         2441.0000:   STOP DEPTH
 STEP.F            0.5000:   STEP LENGTH
 NULL.          -999.2500:   NO VALUE
 COMP. FENIX & SCISSON INC:   COMPANY
 WELL.      NPR 3 #81 S-4:   WELL
 FLD .             TEAPOT:   FIELD
 LOC .       S4 T38N R78W:   LOCATION
 CNTY.            NATRONA:   COUNTY
 STAT.            WYOMING:   STATE
 CTRY. UNITED STATES OF AMERICA:   COUNTRY
 SRVC.            Unknown:   SERVICE COMPANY
 DATE.        28-MAR-1978:   LOGDATE
 API .       490251060700:   API NUMBER
~CURVE INFORMATION
#MNEM.UNIT       API CODE    CURVE DESCRIPTION
#----------   ------------   ------------------------------
 DEPT.F                  :   
 CALD.IN     45 280 60 00:   CALIPER
 RHOB.G/C3   45 350 01 00:   BULK DENSITY
 DPHI.DEC    45 890 12 00:   DENSITY POROSITY SANDSTONE
 CORR.G/C3   45 356 01 00:   DENSITY CORRECTION
 GRD .GAPI   45 310 01 00:   GAMMA RAY FROM DENSITY LOG
~PARAMETER INFORMATION
#MNEM.UNIT          VALUE    DESCRIPTION
#----------   ------------   ------------------------------
 PD  .                 GL:   PERMANENT DATUM
 EPD .F              5169:   ELEVATION PERMANENT DATUM
 LMF .                 KB:   LOG MEASURED FROM
 DAPD.F                10:   FEET ABOVE PERMANENT DATUM
 DMF .                 KB:   DRILLING MEASURED FROM
 EKB .F              5179:   KELLING BUSHING
 EGL .F              5169:   GROUND LEVEL
 DATE.          3-28-1978:   RUN DATE
 RUN .                  1:   RUN NUMBER
 DD  .F              2454:   DEPTH DRILLER
 DL  .F              2443:   DEPTH LOGGER
 BLI .F              2441:   BOTTOM LOG INTERVAL
 TLI .F                40:   TOP LOG INTERVAL
 CS  .IN            9.625:   CASING SIZE
 CBD .F               660:   CASING BOTTOM DRILLER
 CBL .F               660:   CASING BOTTOM LOGGER
 BS  .IN             8.75:   BIT SIZE
 BSD .F              2454:   BIT SIZE AT DEPTH
 DFT .           AIR MIST:   DRILLING FLUID TYPE
 TCS .HRS               2:   TIME CURCULATED STOPPED
 LUN .               2958:   LOGGING UNIT NUMBER
 LUL .               CASP:   LOGGING UNIT LOCATION
 ENGI.             MILLER:   RECORDING ENGINEER
 CLNT.            A2DTECH:   CLIENT CODE
 ORIG.       2"  5" PRINT:   ORIGIN OF DATA
 UWI .       490251060700:   UNIQUE WELL ID
 DICO. A2D Technologies, Inc.:   DIGITIZING COMPANY
~OTHER INFORMATION
~A   DEPT     CALD       RHOB       DPHI       CORR        GRD   
# ...
 1921.0000     9.4593     2.4265     0.1290    -0.0161   267.7370
 1921.5000     9.4593     2.4387     0.1269    -0.0096   266.7163
 1922.0000     9.4593     2.4357     0.1299    -0.0041   263.2155
 1922.5000     9.4593     2.4362     0.1300    -0.0019   255.7451
 1923.0000     9.4593     2.4351     0.1310    -0.0003   251.4565
 1923.5000     9.4593     2.4234     0.1348    -0.0021   252.2566
 1924.0000     9.4593     2.4217     0.1327    -0.0039   265.4437
 1924.5000     9.4597     2.4409     0.1297     0.0004   283.2808
 1925.0000     9.4614     2.4472     0.1267     0.0038   299.1766
 1925.5000     9.4631     2.4464     0.1260     0.0015   308.2374
 1926.0000     9.4648     2.4388     0.1423    -0.0007   309.5129
 1926.5000     9.4664     2.4306     0.1551    -0.0030   307.0801
 1927.0000     9.4681     2.4104     0.1381    -0.0052   308.1042
 1927.5000     9.4698     2.4112     0.1381    -0.0075   308.3941
 1928.0000     9.4715     2.4143     0.1453    -0.0065   289.3511
 1928.5000     9.4732     2.4019     0.1438    -0.0022   267.3101
 1929.0000     9.4748     2.4100     0.1419     0.0021   256.9464
 1929.5000     9.4765     2.4230     0.1400     0.0064   248.9909
 1930.0000     9.4782     2.4307     0.1389     0.0043   238.7045
 1930.5000     9.4791     2.4224     0.1429    -0.0015   227.6170
 1931.0000     9.4791     2.4137     0.1468    -0.0068   222.8927
 1931.5000     9.4791     2.4147     0.1493    -0.0100   224.1771
 1932.0000     9.4791     2.4162     0.1458    -0.0110   222.9728
 1932.5000     9.4791     2.4178     0.1376    -0.0119   227.3754
 1933.0000     9.4791     2.4194     0.1309    -0.0120   229.9721
 1933.5000     9.4791     2.4209     0.1266    -0.0120   226.4975
 1934.0000     9.4791     2.4226     0.1341    -0.0117   218.5122
 1934.5000     9.4791     2.4313     0.1413    -0.0080   207.5784
 1935.0000     9.4791     2.4430     0.1266    -0.0014   197.2669
 1935.5000     9.4790     2.4557     0.1158     0.0012   188.5169
 1936.0000     9.4812     2.4684     0.1087     0.0034   188.0222
 1936.5000     9.4844     2.4813     0.1014     0.0056   188.0905
 1937.0000     9.4876     2.4862     0.1014     0.0051   183.3874
 1937.5000     9.4909     2.4783     0.1078     0.0035   171.8083
 1938.0000     9.4942     2.4713     0.1102     0.0021   161.0073
 1938.5000     9.4974     2.4780     0.1047     0.0033   152.1993
 1939.0000     9.4979     2.4885     0.1006     0.0063   148.3965
 1939.5000     9.4960     2.5017     0.0893     0.0095   147.7671
 1940.0000     9.4941     2.5257     0.0857     0.0166   160.7452
 1940.5000     9.4922     2.5486     0.0838     0.0371   179.2398
 1941.0000     9.4903     2.5239     0.0983     0.0429   194.1907
 1941.5000     9.4884     2.4903     0.1078     0.0156   198.2661
 1942.0000     9.4865     2.4866     0.1102    -0.0003   197.8777
 1942.5000     9.4846     2.4771     0.1186    -0.0045   194.8008
 1943.0000     9.4827     2.4643     0.1175    -0.0081   192.8380
 1943.5000     9.4808     2.4622     0.1192    -0.0066   193.7666
 1944.0000     9.4789     2.4587     0.1229    -0.0080   195.7987
 1944.5000     9.4770     2.4537     0.1230    -0.0101   197.6027
 1945.0000     9.4751     2.4569     0.1182    -0.0077   197.2159
 1945.5000     9.4732     2.4778     0.1134    -0.0026   196.8352
 1946.0000     9.4713     2.4788     0.1086     0.0030   196.5039
 1946.5000     9.4694     2.4756     0.1098     0.0035   193.7079
 1947.0000     9.4675     2.4778     0.1106     0.0028   190.2526
 1947.5000     9.4656     2.4725     0.1166     0.0020   189.2548
 1948.0000     9.4637     2.4667     0.1137     0.0012   189.7076
 1948.5000     9.4618     2.4723     0.1122     0.0004   190.1854
 1949.0000     9.4598     2.4724     0.1122     0.0010   190.6137
 1949.5000     9.4615     2.4852     0.1089     0.0033   188.4326
 1950.0000     9.4647     2.4975     0.1014     0.0056   184.7868
 1950.5000     9.4680     2.4997     0.1014     0.0079   184.9497
 1951.0000     9.4712     2.4927     0.1047     0.0070   185.1158
 1951.5000     9.4745     2.4907     0.1075     0.0058   185.5410
 1952.0000     9.4777     2.4968     0.1054     0.0046   187.4193
 1952.5000     9.4810     2.4802     0.1186     0.0004   189.2863
 1953.0000     9.4843     2.4686     0.1138    -0.0089   191.8785
 1953.5000     9.4875     2.4723     0.1134    -0.0160   194.8952
 1954.0000     9.4908     2.4705     0.1182    -0.0135   195.8466
 1954.5000     9.4940     2.4735     0.1151    -0.0111   189.7444
 1955.0000     9.4973     2.4769     0.1116    -0.0086   186.8988
 1955.5000     9.4985     2.4778     0.1111    -0.0090   184.6130
 1956.0000     9.4977     2.4754     0.1127    -0.0105   183.7144
 1956.5000     9.4968     2.4729     0.1142    -0.0119   187.5704
 1957.0000     9.4960     2.4705     0.1142    -0.0093   191.0920
 1957.5000     9.4952     2.4685     0.1144    -0.0064   194.7906
 1958.0000     9.4943     2.4707     0.1150    -0.0035   198.5574
 1958.5000     9.4935     2.4821     0.1128    -0.0007   198.4391
 1959.0000     9.4927     2.4924     0.1087     0.0019   198.2232
 1959.5000     9.4918     2.4892     0.1062     0.0000   199.4379
 1960.0000     9.4910     2.4887     0.1110    -0.0018   199.4758
 1960.5000     9.4902     2.4933     0.0990     0.0086   190.3805
 1961.0000     9.4894     2.4855     0.1029     0.0206   181.2358
 1961.5000     9.4885     2.4805     0.1078     0.0276   179.7526
 1962.0000     9.4877     2.4809     0.1078     0.0308   182.5095
 1962.5000     9.4869     2.4813     0.1081     0.0317   185.9198
 1963.0000     9.4860     2.4800     0.1103     0.0255   189.3079
 1963.5000     9.4852     2.4720     0.1157     0.0192   192.6866
 1964.0000     9.4844     2.4702     0.1189     0.0094   192.4027
 1964.5000     9.4836     2.4754     0.1117     0.0011   190.6045
 1965.0000     9.4827     2.4722     0.1118    -0.0021   188.8160
 1965.5000     9.4819     2.4696     0.1147    -0.0037   187.1997
 1966.0000     9.4811     2.4618     0.1241    -0.0018   187.2426
 1966.5000     9.4803     2.4573     0.1205    -0.0001   187.2702
 1967.0000     9.4794     2.4618     0.1190     0.0016   186.2097
 1967.5000     9.4841     2.4621     0.1195     0.0051   184.8539
 1968.0000     9.4924     2.4627     0.1194     0.0098   184.1843
 1968.5000     9.5009     2.4687     0.1139     0.0068   187.4921
 1969.0000     9.5093     2.4641     0.1162     0.0037   190.8824
 1969.5000     9.5177     2.4592     0.1170     0.0038   191.8693
 1970.0000     9.5188     2.4739     0.1130     0.0078   186.0451
 1970.5000     9.5187     2.4891     0.1035     0.0155   181.8860
 1971.0000     9.5187     2.4963     0.0994     0.0241   180.4696
 1971.5000     9.5187     2.4957     0.0987     0.0259   182.8911
 1972.0000     9.5187     2.4970     0.0938     0.0250   187.2213
 1972.5000     9.5187     2.4995     0.0935     0.0240   192.3914
 1973.0000     9.5187     2.5013     0.0934     0.0231   190.4058
 1973.5000     9.5187     2.4923     0.0972     0.0224   187.1702
 1974.0000     9.5187     2.4862     0.1018     0.0102   183.8922
 1974.5000     9.5187     2.4944     0.0984     0.0102   180.9589
 1975.0000     9.5187     2.4911     0.0977     0.0114   181.0654
 1975.5000     9.5187     2.5031     0.1002     0.0105   185.4353
 1976.0000     9.5187     2.4945     0.1056     0.0066   188.4440
 1976.5000     9.5187     2.4805     0.1106    -0.0036   190.3929
 1977.0000     9.5187     2.4766     0.1101    -0.0125   187.6783
 1977.5000     9.5187     2.4776     0.1089    -0.0139   184.7765
 1978.0000     9.5187     2.4764     0.1133    -0.0155   183.7433
 1978.5000     9.5187     2.4649     0.1209    -0.0171   185.1790
 1979.0000     9.5187     2.4537     0.1252    -0.0177   186.6743
 1979.5000     9.5187     2.4469     0.1286    -0.0169   188.0379
 1980.0000     9.5187     2.4540     0.1228    -0.0163   187.3395
 1980.5000     9.5187     2.4646     0.1163    -0.0087   186.3468
 1981.0000     9.5187     2.4686     0.1149    -0.0047   185.6340
 1981.5000     9.5187     2.4619     0.1177    -0.0058   186.4214
