~VERSION INFORMATION
 VERS.                2.0:   CWLS LOG ASCII STANDARD - VERSION 2.0
 WRAP.                 NO:   ONE LINE PER DEPTH STEP
~WELL INFORMATION
#MNEM.UNIT      DATA TYPE    INFORMATION
#----------   ------------   ------------------------------
 STRT.F           29.0000:   START DEPTH
 STOP.F          539.0000:   STOP DEPTH
 STEP.F            0.1000:   STEP LENGTH
 NULL.          -999.2500:   NO VALUE
 COMP. LAWRENCE/ALLISON INC:   COMPANY
 WELL. NPR 3 81-11 STX #10-10:   WELL
 FLD .             TEAPOT:   FIELD
 LOC .      S10 T38N R78W:   LOCATION
 CNTY.            NATRONA:   COUNTY
 STAT.            WYOMING:   STATE
 CTRY. UNITED STATES OF AMERICA:   COUNTRY
 SRVC.           Gearhart:   SERVICE COMPANY
 DATE.        01-JUN-1987:   LOGDATE
 API .       490251113000:   API NUMBER
~CURVE INFORMATION
#MNEM.UNIT       API CODE    CURVE DESCRIPTION
#----------   ------------   ------------------------------
 DEPT.F                  :   
 GRR .GAPI   07 310 01 00:   GAMMA RAY FROM RES. LOG.
 ILD .OHMM   07 120 46 00:   INDUCTION LOG DEEP RESISTIVITY
 RILM.OHMM   07 120 44 00:   INDUCTION LOG MEDIUM RESISTIVITY
~PARAMETER INFORMATION
#MNEM.UNIT          VALUE    DESCRIPTION
#----------   ------------   ------------------------------
 PD  .                 GL:   PERMANENT DATUM
 EPD .F              5156:   ELEVATION PERMANENT DATUM
 LMF .                 KB:   LOG MEASURED FROM
 DAPD.F                 8:   FEET ABOVE PERMANENT DATUM
 DMF .                 KB:   DRILLING MEASURED FROM
 EKB .F              5164:   KELLING BUSHING
 EDF .F              5162:   DRILLING FLOOR
 EGL .F              5156:   GROUND LEVEL
 DATE.             6-1-87:   RUN DATE
 RUN .                  1:   RUN NUMBER
 DD  .F               550:   DEPTH DRILLER
 DL  .F               546:   DEPTH LOGGER
 BLI .F               540:   BOTTOM LOG INTERVAL
 TLI .F                30:   TOP LOG INTERVAL
 CS  .IN            8.625:   CASING SIZE
 CBD .F                50:   CASING BOTTOM DRILLER
 CBL .F                49:   CASING BOTTOM LOGGER
 BS  .IN            7.875:   BIT SIZE
 BSD .F               550:   BIT SIZE AT DEPTH
 DFT .                AIR:   DRILLING FLUID TYPE
 TLAB.HRS            0634:   TIME LOGGER AT BOTTOM
 MRT .F                80:   MAXIMUM RECORDED TEMPERATURE
 LUN .               7597:   LOGGING UNIT NUMBER
 LUL .           GILLETTE:   LOGGING UNIT LOCATION
 ENGI. WEATHERMON/JOHNSTON:   RECORDING ENGINEER
 WITN.             STRONG:   WITNESSED BY
 CLNT.            A2DTECH:   CLIENT CODE
 ORIG.       2", 5" PRINT:   ORIGIN OF DATA
 UWI .       490251113000:   UNIQUE WELL ID
 DICO. A2D Technologies, Inc.:   DIGITIZING COMPANY
~OTHER INFORMATION
~A   DEPT       GRR       ILD       RILM   
# ...
  429.4000    89.6640    20.3073    20.6209
  429.5000    89.9525    20.2480    20.5723
  429.6000    90.0836    20.1895    20.5243
  429.7000    90.2147    20.1310    20.4762
  429.8000    90.3457    20.0725    20.4282
  429.9000    90.4768    20.0140    20.3802
  430.0000    90.6079    19.9555    20.3321
  430.1000    90.4359    19.8979    20.2847
  430.2000    90.2640    19.8402    20.2372
  430.3000    90.0920    19.7826    20.1897
  430.4000    89.9200    19.7250    20.1423
  430.5000    89.7480    19.6673    20.0948
  430.6000    89.5457    19.6105    20.0479
  430.7000    89.3434    19.5537    20.0010
  430.8000    89.1410    19.4969    19.9541
  430.9000    88.9387    19.4401    19.9071
  431.0000    88.7364    19.3832    19.8602
  431.1000    88.4786    19.3524    19.8138
  431.2000    88.2209    19.3217    19.7673
  431.3000    87.9631    19.2909    19.7209
  431.4000    87.7054    19.2601    19.6744
  431.5000    87.4476    19.2293    19.6280
  431.6000    87.2672    19.1940    19.5751
  431.7000    87.0868    19.1588    19.5222
  431.8000    86.9064    19.1236    19.4694
  431.9000    86.7260    19.0883    19.4165
  432.0000    86.5456    19.0531    19.3637
  432.1000    86.6362    19.0181    19.3114
  432.2000    86.7268    18.9832    19.2592
  432.3000    86.8174    18.9483    19.2070
  432.4000    86.9080    18.9134    19.1547
  432.5000    86.9986    18.8785    19.1025
  432.6000    87.2639    18.8409    19.0509
  432.7000    87.5293    18.8033    18.9994
  432.8000    87.7946    18.7658    18.9479
  432.9000    88.0600    18.7282    18.8963
  433.0000    88.3253    18.6907    18.8448
  433.1000    88.5823    18.6340    18.7939
  433.2000    88.8393    18.5773    18.7431
  433.3000    89.0963    18.5207    18.6922
  433.4000    89.3533    18.4640    18.6414
  433.5000    89.6103    18.4073    18.5906
  433.6000    89.3919    18.3515    18.5404
  433.7000    89.1735    18.2957    18.4902
  433.8000    88.9551    18.2399    18.4401
  433.9000    88.7367    18.1841    18.3899
  434.0000    88.5183    18.1283    18.3398
  434.1000    87.9676    18.0733    18.2903
  434.2000    87.4169    18.0183    18.2408
  434.3000    86.8661    17.9634    18.1913
  434.4000    86.3154    17.9084    18.1419
  434.5000    85.7647    17.8534    18.0924
  434.6000    85.4345    17.7993    18.0436
  434.7000    85.1043    17.7452    17.9948
  434.8000    84.7742    17.6910    17.9459
  434.9000    84.4440    17.6369    17.8971
  435.0000    84.1139    17.5828    17.8483
  435.1000    84.1148    17.5294    17.8002
  435.2000    84.1158    17.4761    17.7520
  435.3000    84.1168    17.4228    17.7038
  435.4000    84.1178    17.3695    17.6557
  435.5000    84.1188    17.3162    17.6075
  435.6000    84.1250    17.2637    17.5606
  435.7000    84.1312    17.2112    17.5136
  435.8000    84.1374    17.1587    17.4666
  435.9000    84.1436    17.1061    17.4197
  436.0000    84.1498    17.0536    17.3727
  436.1000    83.8523    17.0018    17.3262
  436.2000    83.5547    16.9501    17.2798
  436.3000    83.2572    16.8983    17.2333
  436.4000    82.9596    16.8465    17.1868
  436.5000    82.6621    16.7947    17.1403
  436.6000    82.3738    16.7442    17.0950
  436.7000    82.0854    16.6937    17.0496
  436.8000    81.7971    16.6432    17.0043
  436.9000    81.5088    16.5926    16.9589
  437.0000    81.2204    16.5421    16.9136
  437.1000    81.3472    16.4928    16.8688
  437.2000    81.4740    16.4435    16.8241
  437.3000    81.6008    16.3941    16.7793
  437.4000    81.7275    16.3448    16.7346
  437.5000    81.8543    16.2955    16.6898
  437.6000    82.5454    16.2491    16.6457
  437.7000    83.2365    16.2027    16.6015
  437.8000    83.9277    16.1562    16.5574
  437.9000    84.6188    16.1098    16.5132
  438.0000    85.3099    16.0634    16.4691
  438.1000    85.8203    16.0173    16.4255
  438.2000    86.3306    15.9712    16.3819
  438.3000    86.8410    15.9251    16.3384
  438.4000    87.3514    15.8790    16.2948
  438.5000    87.8617    15.8329    16.2512
  438.6000    87.6424    15.7875    16.2082
  438.7000    87.4230    15.7421    16.1652
  438.8000    87.2037    15.6967    16.1222
  438.9000    86.9843    15.6513    16.0793
  439.0000    86.7650    15.6059    16.0363
  439.1000    86.5367    15.5611    15.9938
  439.2000    86.3083    15.5163    15.9514
  439.3000    86.0800    15.4716    15.9090
  439.4000    85.8517    15.4268    15.8666
  439.5000    85.6233    15.3820    15.8241
  439.6000    85.4797    15.3378    15.7823
  439.7000    85.3361    15.2937    15.7404
  439.8000    85.1925    15.2495    15.6985
  439.9000    85.0488    15.2053    15.6567
  440.0000    84.9052    15.1611    15.6148
  440.1000    85.0283    15.1188    15.5735
  440.2000    85.1515    15.0764    15.5322
  440.3000    85.2746    15.0341    15.4909
  440.4000    85.3977    14.9917    15.4496
  440.5000    85.5209    14.9494    15.4083
  440.6000    85.5744    14.9360    15.3675
  440.7000    85.6279    14.9226    15.3267
  440.8000    85.6814    14.9092    15.2860
  440.9000    85.7349    14.8958    15.2452
  441.0000    85.7884    14.8824    15.2044
  441.1000    85.8367    14.8616    15.1531
  441.2000    85.8850    14.8408    15.1017
  441.3000    85.9333    14.8199    15.0503
  441.4000    85.9815    14.7991    14.9989
  441.5000    86.0298    14.7783    14.9475
  441.6000    86.2136    14.7295    14.9476
  441.7000    86.3973    14.6807    14.9477
  441.8000    86.5811    14.6319    14.9477
  441.9000    86.7649    14.5831    14.9478
  442.0000    86.9486    14.5344    14.9479
  442.1000    87.3759    14.5451    14.9630
  442.2000    87.8031    14.5558    14.9780
  442.3000    88.2303    14.5665    14.9931
  442.4000    88.6576    14.5772    15.0082
  442.5000    89.0848    14.5879    15.0232
  442.6000    89.3998    14.6018    15.0362
  442.7000    89.7148    14.6157    15.0491
  442.8000    90.0298    14.6296    15.0620
  442.9000    90.3448    14.6435    15.0749
  443.0000    90.6598    14.6574    15.0879
  443.1000    90.5970    14.6714    15.1008
  443.2000    90.5343    14.6854    15.1137
  443.3000    90.4716    14.6993    15.1266
  443.4000    90.4089    14.7133    15.1395
  443.5000    90.3461    14.7272    15.1524
  443.6000    90.1537    14.7413    15.1685
  443.7000    89.9613    14.7553    15.1846
  443.8000    89.7689    14.7693    15.2007
  443.9000    89.5765    14.7834    15.2168
  444.0000    89.3841    14.7974    15.2329
  444.1000    89.3458    14.8115    15.2237
  444.2000    89.3075    14.8256    15.2145
  444.3000    89.2692    14.8397    15.2053
  444.4000    89.2309    14.8538    15.1962
  444.5000    89.1926    14.8679    15.1870
  444.6000    89.3955    14.8842    15.1749
  444.7000    89.5985    14.9006    15.1628
  444.8000    89.8014    14.9169    15.1508
  444.9000    90.0044    14.9332    15.1387
  445.0000    90.2074    14.9496    15.1266
  445.1000    90.4096    14.9318    15.1146
  445.2000    90.6118    14.9141    15.1026
  445.3000    90.8140    14.8964    15.0906
  445.4000    91.0162    14.8787    15.0785
  445.5000    91.2184    14.8610    15.0665
  445.6000    91.4183    14.8402    15.0545
  445.7000    91.6183    14.8194    15.0426
  445.8000    91.8183    14.7987    15.0306
  445.9000    92.0182    14.7779    15.0186
  446.0000    92.2182    14.7571    15.0066
  446.1000    92.1759    14.7365    14.9947
  446.2000    92.1336    14.7158    14.9828
  446.3000    92.0912    14.6952    14.9709
  446.4000    92.0489    14.6746    14.9590
  446.5000    92.0066    14.6540    14.9471
  446.6000    91.8609    14.6335    14.9353
  446.7000    91.7153    14.6130    14.9236
  446.8000    91.5696    14.5925    14.9118
  446.9000    91.4240    14.5720    14.9000
  447.0000    91.2783    14.5515    14.8882
  447.1000    91.1409    14.5312    14.8762
  447.2000    91.0035    14.5108    14.8643
  447.3000    90.8660    14.4905    14.8524
  447.4000    90.7286    14.4702    14.8404
  447.5000    90.5912    14.4498    14.8285
