~VERSION INFORMATION
 VERS.                2.0:   CWLS LOG ASCII STANDARD - VERSION 2.0
 WRAP.                 NO:   ONE LINE PER DEPTH STEP
~WELL INFORMATION
#MNEM.UNIT      DATA TYPE    INFORMATION
#----------   ------------   ------------------------------
 STRT.F          974.5000:   START DEPTH
 STOP.F         2805.0000:   STOP DEPTH
 STEP.F            0.5000:   STEP LENGTH
 NULL.          -999.2500:   NO VALUE
 COMP.   FLUOR DANIEL INC:   COMPANY
 WELL. NAVAL PETROLEUM RESERVE 3 SHX- #38-14:   WELL
 FLD .             TEAPOT:   FIELD
 LOC .      S14 T38N R78W:   LOCATION
 CNTY.            NATRONA:   COUNTY
 STAT.            WYOMING:   STATE
 CTRY. UNITED STATES OF AMERICA:   COUNTRY
 SRVC.            Unknown:   SERVICE COMPANY
 DATE.        20-AUG-1995:   LOGDATE
 API .       490252273400:   API NUMBER
~CURVE INFORMATION
#MNEM.UNIT       API CODE    CURVE DESCRIPTION
#----------   ------------   ------------------------------
 DEPT.F                  :   
 ROP .MIN/FT 91 810 01 00:   RAT OF DRILLING PENETRATION
 TGAS.UNITS  91 830 01 00:   TOTAL GAS FROM HOTWIRE
~PARAMETER INFORMATION
#MNEM.UNIT          VALUE    DESCRIPTION
#----------   ------------   ------------------------------
 EKB .F              5264:   KELLING BUSHING
 EGL .F              5254:   GROUND LEVEL
 DATE.            8-20-95:   RUN DATE
 DD  .F              2805:   DEPTH DRILLER
 CBD .F               980:   CASING BOTTOM DRILLER
 ENGI.              TOWER:   RECORDING ENGINEER
 WITN.               HUSK:   WITNESSED BY
 CLNT.            A2DTECH:   CLIENT CODE
 ORIG.           5" PRINT:   ORIGIN OF DATA
 UWI .       490252273400:   UNIQUE WELL ID
 DICO. A2D Technologies, Inc.:   DIGITIZING COMPANY
~OTHER INFORMATION
~A   DEPT      ROP         TGAS 
# ...
 2189.5000     0.5846    10.1876
 2190.0000     0.5842    10.2005
 2190.5000     0.5838    10.2134
 2191.0000     0.5943    10.2262
 2191.5000     0.5938    10.4570
 2192.0000     0.6044    10.4699
 2192.5000     0.6039    10.4828
 2193.0000     0.6035    10.4956
 2193.5000     0.6141    10.5085
 2194.0000     0.6136    10.5235
 2194.5000     0.6132    10.5364
 2195.0000     0.6128    10.5493
 2195.5000     0.6124    10.5621
 2196.0000     0.6119    10.3549
 2196.5000     0.6115    10.3699
 2197.0000     0.6220    10.3828
 2197.5000     0.6216    10.3957
 2198.0000     0.6103    10.4086
 2198.5000     0.6099    10.4214
 2199.0000     0.6095    10.2142
 2199.5000     0.6091    10.2314
 2200.0000     0.6196    10.2443
 2200.5000     0.6087    10.2129
 2201.0000     0.5978    10.1753
 2201.5000     0.5761    10.1378
 2202.0000     0.5761    10.1003
 2202.5000     0.5652    10.0627
 2203.0000     0.5652    10.0252
 2203.5000     0.5652     9.9876
 2204.0000     0.5652     9.9501
 2204.5000     0.5652     9.9125
 2205.0000     0.5652     9.8750
 2205.5000     0.5652     9.8375
 2206.0000     0.5652     9.7999
 2206.5000     0.5652     9.7624
 2207.0000     0.5652     9.7248
 2207.5000     0.5761     9.6873
 2208.0000     0.5761     9.6497
 2208.5000     0.5761     9.6272
 2209.0000     0.5761     9.6470
 2209.5000     0.5761     9.6619
 2210.0000     0.5761     9.6768
 2210.5000     0.5761     9.6917
 2211.0000     0.5761     9.7090
 2211.5000     0.5761     9.7239
 2212.0000     0.5761     9.7388
 2212.5000     0.5761     9.7537
 2213.0000     0.5761     9.7686
 2213.5000     0.5761     9.7834
 2214.0000     0.5870     9.7983
 2214.5000     0.5870     9.8157
 2215.0000     0.5978     9.8306
 2215.5000     0.5978     9.8455
 2216.0000     0.6087     9.8603
 2216.5000     0.6087     9.8752
 2217.0000     0.6087     9.8901
 2217.5000     0.6087     9.9050
 2218.0000     0.6087     9.9223
 2218.5000     0.6087     9.9372
 2219.0000     0.6087     9.9521
 2219.5000     0.6087     9.9670
 2220.0000     0.6087     9.9819
 2220.5000     0.6087     9.7764
 2221.0000     0.6087     9.5733
 2221.5000     0.6087     9.3703
 2222.0000     0.6087     9.1672
 2222.5000     0.6087     9.1871
 2223.0000     0.6087     9.2020
 2223.5000     0.6087     9.2169
 2224.0000     0.6087     9.2317
 2224.5000     0.6087     9.2491
 2225.0000     0.6087     9.2640
 2225.5000     0.6087     9.2789
 2226.0000     0.7717     9.2937
 2226.5000     0.7826     9.3086
 2227.0000     0.7826     9.5414
 2227.5000     0.7935     9.5563
 2228.0000     0.6630     9.5737
 2228.5000     0.6739     9.5886
 2229.0000     0.6739     9.6034
 2229.5000     0.6848     9.6183
 2230.0000     0.6776     9.6332
 2230.5000     0.6196     9.4277
 2231.0000     0.6196     9.6654
 2231.5000     0.6196     9.4574
 2232.0000     0.6196     9.4773
 2232.5000     0.6304     9.4922
 2233.0000     0.6304     9.5071
 2233.5000     0.6304     9.5219
 2234.0000     0.6304     9.5368
 2234.5000     0.6304     9.7721
 2235.0000     0.6304     9.7870
 2235.5000     0.6304     9.8019
 2236.0000     0.6196     9.8167
 2236.5000     0.6196     9.8316
 2237.0000     0.6196     9.8465
 2237.5000     0.6196     9.8614
 2238.0000     0.6196     9.8788
 2238.5000     0.6196     9.8936
 2239.0000     0.6087     9.9085
 2239.5000     0.6087     9.9234
 2240.0000     0.7609     9.9383
 2240.5000     0.7717     9.9532
 2241.0000     0.7717     9.9705
 2241.5000     0.7609     9.9854
 2242.0000     0.7283    10.0003
 2242.5000     0.6957    10.0152
 2243.0000     0.6957    10.0301
 2243.5000     0.7065    10.0449
 2244.0000     0.6612    10.0598
 2244.5000     0.6522    10.0772
 2245.0000     0.6522    10.0921
 2245.5000     0.6522    10.1070
 2246.0000     0.6522    10.1218
 2246.5000     0.6522    10.1367
 2247.0000     0.6522    10.1516
 2247.5000     0.6413    10.1665
 2248.0000     0.6413    10.1838
 2248.5000     0.6413    10.1987
 2249.0000     0.6413    10.2136
 2249.5000     0.6304    10.2285
 2250.0000     0.6196    10.2434
 2250.5000     0.6957    10.2600
 2251.0000     0.6957    10.2797
 2251.5000     0.6968    10.2994
 2252.0000     0.7065    10.3191
 2252.5000     0.7065    10.3388
 2253.0000     0.7065    10.3585
 2253.5000     0.7065    10.3782
 2254.0000     0.7065    10.3979
 2254.5000     0.7065    10.4176
 2255.0000     0.7065    10.4373
 2255.5000     0.7065    10.4570
 2256.0000     0.7065    10.4767
 2256.5000     0.7065    10.4964
 2257.0000     0.6957    10.5161
 2257.5000     0.6957    10.5358
 2258.0000     0.6957    10.5555
 2258.5000     0.6957    10.5752
 2259.0000     0.6957    10.5949
 2259.5000     0.7065    10.6146
 2260.0000     0.7065    10.6343
 2260.5000     0.6957    10.6565
 2261.0000     0.6957    10.6725
 2261.5000     0.6957    10.6570
 2262.0000     0.6957    10.6423
 2262.5000     0.6848    10.6277
 2263.0000     0.6739    10.6130
 2263.5000     0.6739    10.5984
 2264.0000     0.6739    10.5838
 2264.5000     0.6630    10.5691
 2265.0000     0.6630    10.5545
 2265.5000     0.6630    10.5398
 2266.0000     0.6630    10.5252
 2266.5000     0.6630    10.5106
 2267.0000     0.6630    10.4959
 2267.5000     0.6630    10.4813
 2268.0000     0.6630    10.4666
 2268.5000     0.6630    10.4520
 2269.0000     0.6630    10.4374
 2269.5000     0.6848    10.4227
 2270.0000     0.6957    10.4081
 2270.5000     0.7065    10.3934
 2271.0000     0.7065    10.3788
 2271.5000     0.7065    10.3642
 2272.0000     0.7174    10.3495
 2272.5000     0.7283    10.3349
 2273.0000     0.7283    10.3202
 2273.5000     0.7391    10.3056
 2274.0000     0.7391    10.2910
 2274.5000     0.7391    10.2763
 2275.0000     0.7391    10.2617
 2275.5000     0.7391    10.2471
 2276.0000     0.6884    10.2324
 2276.5000     0.6087    10.2178
 2277.0000     0.6087    10.2031
 2277.5000     0.6087    10.1885
 2278.0000     0.6087    10.1739
 2278.5000     0.6087    10.1592
 2279.0000     0.6196    10.1446
 2279.5000     0.6196    10.1299
 2280.0000     0.6304    10.1136
 2280.5000     0.6192    10.1222
 2281.0000     0.6296    10.1198
 2281.5000     0.6184    10.1173
 2282.0000     0.6287    10.1148
 2282.5000     0.6175    10.1124
 2283.0000     0.6171    10.1099
 2283.5000     0.6167    10.1074
 2284.0000     0.6163    10.1050
 2284.5000     0.6159    10.1025
 2285.0000     0.6155    10.1000
 2285.5000     0.6151    10.0976
 2286.0000     0.6147    10.0951
 2286.5000     0.6143    10.0926
 2287.0000     0.6139    10.0902
 2287.5000     0.6134    10.0877
 2288.0000     0.6130    10.0852
 2288.5000     0.6126    10.0828
 2289.0000     0.6122    10.0803
 2289.5000     0.6009    10.0778
 2290.0000     0.6005    10.0754
 2290.5000     0.6001    10.0729
 2291.0000     0.5997    10.0704
 2291.5000     0.5993    10.0680
 2292.0000     0.5880    10.0655
 2292.5000     0.5876    10.0630
 2293.0000     0.5890    10.0606
 2293.5000     0.5977    10.0581
 2294.0000     0.5972    10.0556
 2294.5000     0.5968    10.0532
 2295.0000     0.5964    10.0507
 2295.5000     0.5960    10.0482
 2296.0000     0.5956    10.0458
 2296.5000     0.5952    10.0433
 2297.0000     0.5948    10.0408
 2297.5000     0.5944    10.0384
 2298.0000     0.5940    10.0359
 2298.5000     0.5936    10.0334
 2299.0000     0.5932    10.0309
 2299.5000     0.5927    10.0285
 2300.0000     0.5923    10.0258
 2300.5000     0.6029    10.0293
 2301.0000     0.6024    10.0331
 2301.5000     0.6130    10.0369
 2302.0000     0.6125    10.0407
 2302.5000     0.6012    10.0445
 2303.0000     0.6117    10.0483
 2303.5000     0.6113    10.0520
 2304.0000     0.6109    10.0558
 2304.5000     0.6105    10.0596
 2305.0000     0.6101    10.0634
 2305.5000     0.6205    10.0672
 2306.0000     0.6310    10.0710
 2306.5000     0.6958    10.0748
 2307.0000     0.6953    10.0786
 2307.5000     0.6949    10.0824
 2308.0000     0.6945    10.0862
 2308.5000     0.6941    10.0900
 2309.0000     0.7046    10.0937
 2309.5000     0.7042    10.0975
 2310.0000     0.7038    10.1013
 2310.5000     0.6925    10.1051
