~VERSION INFORMATION
 VERS.                2.0:   CWLS LOG ASCII STANDARD - VERSION 2.0
 WRAP.                 NO:   ONE LINE PER DEPTH STEP
~WELL INFORMATION
#MNEM.UNIT      DATA TYPE    INFORMATION
#----------   ------------   ------------------------------
 STRT.F            4.0000:   START DEPTH
 STOP.F          528.0000:   STOP DEPTH
 STEP.F            0.1000:   STEP LENGTH
 NULL.          -999.2500:   NO VALUE
 COMP. BROWN JOHN E&C INC:   COMPANY
 WELL.    84-1 SHX- #84-3:   WELL
 FLD .        TEAPOT DOME:   FIELD
 LOC .       S3 T38N R78W:   LOCATION
 CNTY.            NATRONA:   COUNTY
 STAT.            WYOMING:   STATE
 CTRY. UNITED STATES OF AMERICA:   COUNTRY
 SRVC.     Atlas Wireline:   SERVICE COMPANY
 DATE.        18-JAN-1992:   LOGDATE
 API .       490252249900:   API NUMBER
~CURVE INFORMATION
#MNEM.UNIT       API CODE    CURVE DESCRIPTION
#----------   ------------   ------------------------------
 DEPT.F                  :   
 GRR .GAPI   07 310 01 00:   GAMMA RAY
 RILD.OHMM   07 120 46 00:   INDUCTION LOG DEEP RESISTIVITY
 RILM.OHMM   07 120 44 00:   INDUCTION LOG MEDIUM RESISTIVITY
~PARAMETER INFORMATION
#MNEM.UNIT          VALUE    DESCRIPTION
#----------   ------------   ------------------------------
 PD  .                 GL:   PERMANENT DATUM
 EPD .F              5147:   ELEVATION PERMANENT DATUM
 LMF .                 KB:   LOG MEASURED FROM
 DAPD.F                10:   FEET ABOVE PERMANENT DATUM
 DMF .                 KB:   DRILLING MEASURED FROM
 EKB .F              5157:   KELLING BUSHING
 EDF .F              5156:   DRILLING FLOOR
 EGL .F              5147:   GROUND LEVEL
 DATE.        18-JAN-1992:   RUN DATE
 RUN .                  1:   RUN NUMBER
 DD  .F               842:   DEPTH DRILLER
 DL  .F               837:   DEPTH LOGGER
 BLI .F               835:   BOTTOM LOG INTERVAL
 TLI .F                 4:   TOP LOG INTERVAL
 CS  .IN            8.625:   CASING SIZE
 CBD .F                39:   CASING BOTTOM DRILLER
 CBL .F                56:   CASING BOTTOM LOGGER
 BS  .IN             8.75:   BIT SIZE
 BSD .F               842:   BIT SIZE AT DEPTH
 DFT .                AIR:   DRILLING FLUID TYPE
 LUN .           HL- 6272:   LOGGING UNIT NUMBER
 LUL .             CASPER:   LOGGING UNIT LOCATION
 ENGI.       P. RASMUSSEN:   RECORDING ENGINEER
 WITN.          G. STRONG:   WITNESSED BY
 CLNT.            A2DTECH:   CLIENT CODE
 ORIG.           5" PRINT:   ORIGIN OF DATA
 UWI .       490252249900:   UNIQUE WELL ID
 DICO. A2D Technologies, Inc.:   DIGITIZING COMPANY
~OTHER INFORMATION
~A    DEPT      GRR      RILD       RILM   
# ...
  149.6000   141.3392     8.1421     8.4069
  149.7000   142.4992     8.1420     8.4068
  149.8000   143.5028     8.1419     8.4067
  149.9000   144.1288     8.1417     8.4066
  150.0000   144.3769     8.1457     8.4067
  150.1000   143.8093     8.1553     8.4067
  150.2000   143.2417     8.1650     8.4068
  150.3000   142.6741     8.1747     8.4069
  150.4000   142.1065     8.1844     8.4069
  150.5000   141.5389     8.1940     8.4070
  150.6000   141.1871     8.1894     8.4072
  150.7000   140.7265     8.1448     8.4073
  150.8000   140.0388     8.1453     8.4074
  150.9000   139.5356     8.1457     8.3896
  151.0000   138.8145     8.1202     8.3493
  151.1000   138.0760     8.0901     8.3494
  151.2000   137.4646     8.0905     8.3495
  151.3000   137.0433     8.0910     8.3497
  151.4000   136.8120     8.0914     8.3497
  151.5000   137.4229     8.0625     8.3498
  151.6000   138.0353     8.0362     8.3500
  151.7000   138.9254     8.0366     8.3501
  151.8000   139.8264     8.0371     8.3502
  151.9000   140.6349     8.0375     8.3503
  152.0000   141.9942     8.0052     8.3504
  152.1000   142.4418     7.9826     8.3506
  152.2000   142.7724     7.9830     8.3507
  152.3000   143.0218     7.9822     8.3508
  152.4000   143.2713     7.9286     8.3509
  152.5000   143.5259     7.9289     8.3510
  152.6000   143.5283     7.9294     8.3511
  152.7000   143.3458     7.9298     8.3513
  152.8000   142.9732     7.9303     8.3514
  152.9000   142.5526     7.9308     8.3515
  153.0000   142.2799     7.9312     8.3516
  153.1000   141.4132     7.9316     8.3517
  153.2000   140.8026     7.9320     8.3519
  153.3000   139.9167     7.9325     8.3520
  153.4000   138.9309     7.9329     8.3521
  153.5000   137.9456     7.9334     8.3522
  153.6000   136.8659     7.9338     8.3389
  153.7000   136.1977     7.9342     8.2945
  153.8000   135.4590     7.9229     8.2946
  153.9000   134.8300     7.8800     8.2181
  154.0000   134.3385     7.8806     8.1529
  154.1000   133.8383     7.8452     8.1070
  154.2000   133.5980     7.8014     8.0614
  154.3000   133.3534     7.7727     8.0114
  154.4000   133.1088     7.7682     7.9711
  154.5000   132.9362     7.7197     7.9263
  154.6000   132.9387     7.7201     7.9010
  154.7000   132.9415     7.6921     7.8921
  154.8000   133.1486     7.6491     7.8464
  154.9000   133.3980     7.6063     7.8465
  155.0000   133.6474     7.5621     7.8139
  155.1000   133.8626     7.5625     7.7922
  155.2000   133.8653     7.5318     7.7802
  155.3000   134.3163     7.5108     7.7384
  155.4000   134.8127     7.5112     7.7385
  155.5000   135.4193     7.5116     7.7386
  155.6000   136.2159     7.5121     7.7387
  155.7000   137.2207     7.4783     7.7388
  155.8000   138.1977     7.4607     7.7389
  155.9000   139.1880     7.4611     7.7391
  156.0000   140.1786     7.4615     7.7392
  156.1000   141.2420     7.4620     7.7393
  156.2000   142.5263     7.4251     7.7209
  156.3000   144.8344     7.3837     7.6858
  156.4000   145.6599     7.3600     7.6859
  156.5000   146.3524     7.3524     7.6860
  156.6000   146.6650     7.3097     7.6546
  156.7000   146.6674     7.3101     7.6115
  156.8000   146.6701     7.3105     7.5687
  156.9000   146.4472     7.2902     7.5276
  157.0000   146.2027     7.2605     7.5277
  157.1000   145.7356     7.2609     7.5278
  157.2000   145.0512     7.2614     7.5036
  157.3000   144.5544     7.2286     7.4758
  157.4000   144.0680     7.1882     7.4759
  157.5000   143.3891     7.1620     7.4760
  157.6000   142.7810     7.1624     7.4392
  157.7000   142.2157     7.1629     7.4244
  157.8000   141.5269     7.1633     7.4244
  157.9000   141.8338     7.1637     7.4245
  158.0000   142.2492     7.1641     7.4246
  158.1000   143.0452     7.1645     7.4647
  158.2000   143.6644     7.1649     7.4767
  158.3000   143.6669     7.1653     7.4768
  158.4000   143.6695     7.1657     7.4769
  158.5000   143.6717     7.1661     7.4781
  158.6000   143.5051     7.1777     7.5206
  158.7000   143.0363     7.2170     7.5295
  158.8000   142.2428     7.2175     7.5535
  158.9000   141.2499     7.2178     7.5964
  159.0000   140.2715     7.2181     7.6353
  159.1000   139.0974     7.2330     7.6355
  159.2000   137.8648     7.2694     7.6731
  159.3000   136.5579     7.2699     7.6890
  159.4000   135.1304     7.2703     7.7067
  159.5000   134.2740     7.2979     7.7505
  159.6000   133.8612     7.3219     7.7971
  159.7000   133.3695     7.3223     7.8389
  159.8000   133.0650     7.3227     7.8519
  159.9000   133.2882     7.3634     7.8519
  160.0000   134.8938     7.3747     7.8520
  160.1000   136.2560     7.3964     7.8529
  160.2000   137.4012     7.4388     7.8975
  160.3000   138.2792     7.4815     7.9073
  160.4000   138.9108     7.5323     7.9073
  160.5000   139.1611     7.5326     7.9075
  160.6000   139.6554     7.5330     7.9076
  160.7000   139.9629     7.5487     7.9077
  160.8000   140.2123     7.5866     7.9078
  160.9000   140.4617     7.5870     7.9079
  161.0000   140.7112     7.6648     7.9080
  161.1000   140.9998     7.6943     7.9081
  161.2000   141.0019     7.7136     7.9082
  161.3000   141.1556     7.7489     7.9501
  161.4000   141.3106     7.7494     7.9637
  161.5000   141.3131     7.7926     7.9638
  161.6000   141.3157     7.8044     7.9639
  161.7000   141.3179     7.8275     7.9642
  161.8000   141.3204     7.8723     8.0095
  161.9000   141.3228     7.9152     8.0199
  162.0000   141.3253     7.9158     8.0200
  162.1000   141.3277     7.9530     8.0342
  162.2000   141.3301     7.9719     8.0762
  162.3000   141.1427     7.9723     8.0764
  162.4000   140.7651     7.9728     8.0765
  162.5000   140.2734     7.9733     8.1048
  162.6000   139.8011     7.9737     8.1331
  162.7000   139.5189     7.9741     8.1332
  162.8000   139.1027     7.9746     8.1334
  162.9000   138.9155     7.9750     8.1760
  163.0000   138.8226     7.9755     8.1904
  163.1000   138.6160     7.9759     8.2332
  163.2000   138.6190     7.9764     8.3054
  163.3000   138.1645     7.9768     8.3056
  163.4000   138.0158     7.9772     8.3057
  163.5000   137.9039     7.9777     8.3418
  163.6000   137.7168     7.9782     8.3639
  163.7000   137.7191     7.9786     8.3783
  163.8000   137.7215     7.9790     8.4226
  163.9000   137.5334     7.9795     8.4228
  164.0000   137.4225     7.9800     8.4229
  164.1000   137.4250     7.9804     8.3942
  164.2000   137.4472     8.0216     8.3647
  164.3000   137.7341     8.0370     8.3648
  164.4000   137.7362     8.0375     8.3649
  164.5000   137.7386     8.0380     8.3650
  164.6000   137.7410     8.0384     8.3651
  164.7000   137.7435     8.0389     8.3652
  164.8000   137.7461     8.0393     8.3756
  164.9000   137.7484     8.0398     8.4239
  165.0000   137.7508     8.0402     8.4241
  165.1000   137.8685     8.0406     8.4242
  165.2000   138.0596     8.0412     8.4242
  165.3000   138.0635     8.0041     8.4243
  165.4000   138.3128     7.9861     8.4245
  165.5000   138.3708     7.9866     8.4246
  165.6000   138.3732     7.9871     8.4247
  165.7000   138.3757     7.9875     8.4248
  165.8000   138.3574     7.9879     8.4250
  165.9000   138.0770     7.9884     8.4251
  166.0000   137.8684     7.9888     8.4252
  166.1000   137.7775     7.9893     8.4253
  166.2000   137.6831     7.9897     8.4255
  166.3000   137.3984     7.9902     8.4255
  166.4000   136.8731     7.9906     8.4256
  166.5000   136.6454     7.9911     8.4258
  166.6000   136.2278     7.9915     8.4259
  166.7000   135.7361     7.9919     8.4260
  166.8000   135.2444     7.9925     8.4261
  166.9000   134.7552     7.9928     8.4262
  167.0000   134.5105     7.9932     8.4264
  167.1000   134.2660     7.9937     8.4265
  167.2000   134.1568     7.9942     8.4266
  167.3000   134.1593     7.9946     8.4267
  167.4000   134.1402     7.9950     8.4268
  167.5000   133.8605     7.9955     8.4269
  167.6000   133.8626     7.9959     8.4271
  167.7000   133.8650     7.9964     8.4272
