~VERSION INFORMATION
 VERS.                2.0:   CWLS LOG ASCII STANDARD - VERSION 2.0
 WRAP.                 NO:   ONE LINE PER DEPTH STEP
~WELL INFORMATION
#MNEM.UNIT      DATA TYPE    INFORMATION
#----------   ------------   ------------------------------
 STRT.F          598.0000:   START DEPTH
 STOP.F         2552.0000:   STOP DEPTH
 STEP.F            0.5000:   STEP LENGTH
 NULL.          -999.2500:   NO VALUE
 COMP. FENIX & SCISSON INC:   COMPANY
 WELL.     15-SHX-2 #15-2:   WELL
 FLD .             TEAPOT:   FIELD
 LOC .       S2 T38N R78W:   LOCATION
 CNTY.            NATRONA:   COUNTY
 STAT.            WYOMING:   STATE
 CTRY. UNITED STATES OF AMERICA:   COUNTRY
 SRVC.              Welex:   SERVICE COMPANY
 DATE.        03-JUN-1979:   LOGDATE
 API .       490251002100:   API NUMBER
~CURVE INFORMATION
#MNEM.UNIT       API CODE    CURVE DESCRIPTION
#----------   ------------   ------------------------------
 DEPT.F                  :   
 CALD.IN     45 280 60 00:   CALIPER
 GRD .GAPI   45 310 01 00:   GAMMA RAY FROM DENSITY LOG
 RHOB.G/C3   45 350 01 00:   BULK DENSITY
 DPHI.DEC    45 890 12 00:   DENSITY POROSITY SANDSTONE
 CORR.G/C3   45 356 01 00:   DENSITY CORRECTION
~PARAMETER INFORMATION
#MNEM.UNIT          VALUE    DESCRIPTION
#----------   ------------   ------------------------------
 PD  .                 GL:   PERMANENT DATUM
 EPD .F              5118:   ELEVATION PERMANENT DATUM
 LMF .                 KB:   LOG MEASURED FROM
 DAPD.F                10:   FEET ABOVE PERMANENT DATUM
 DMF .                 KB:   DRILLING MEASURED FROM
 EKB .F              5128:   KELLING BUSHING
 EGL .F              5118:   GROUND LEVEL
 DATE.             6-3-79:   RUN DATE
 RUN .                  1:   RUN NUMBER
 DD  .F              2569:   DEPTH DRILLER
 DL  .F              2554:   DEPTH LOGGER
 BLI .F              2552:   BOTTOM LOG INTERVAL
 TLI .F               622:   TOP LOG INTERVAL
 CS  .IN            9.625:   CASING SIZE
 CBD .F               622:   CASING BOTTOM DRILLER
 BS  .IN             8.75:   BIT SIZE
 BSD .F              2569:   BIT SIZE AT DEPTH
 DFT .        AIR DRILLED:   DRILLING FLUID TYPE
 TCS .HRS             2.5:   TIME CURCULATED STOPPED
 MRT .F               124:   MAXIMUM RECORDED TEMPERATURE
 ENGI.               REIN:   RECORDING ENGINEER
 WITN.              AMEND:   WITNESSED BY
 CLNT.            A2DTECH:   CLIENT CODE
 ORIG.           5" PRINT:   ORIGIN OF DATA
 UWI .       490251002100:   UNIQUE WELL ID
 DICO. A2D Technologies, Inc.:   DIGITIZING COMPANY
~OTHER INFORMATION
~A   DEPT     CALD         GRD      RHOB       DPHI       CORR   
# ...
 2123.0000     8.7876   114.4301     2.4736     0.0527     0.0169
 2123.5000     8.7826   117.8584     2.4871     0.0463     0.0201
 2124.0000     8.7775   120.6850     2.5004     0.0361     0.0233
 2124.5000     8.7725   118.6707     2.5137     0.0260     0.0265
 2125.0000     8.7674   116.2943     2.5165     0.0215     0.0288
 2125.5000     8.7624   113.9155     2.5147     0.0239     0.0273
 2126.0000     8.7573   111.5540     2.5151     0.0263     0.0258
 2126.5000     8.7522   110.0222     2.5170     0.0254     0.0243
 2127.0000     8.7472   112.6968     2.5088     0.0247     0.0229
 2127.5000     8.7422   113.9622     2.4920     0.0342     0.0214
 2128.0000     8.7404   115.4505     2.4766     0.0462     0.0199
 2128.5000     8.7441   118.4485     2.4771     0.0487     0.0185
 2129.0000     8.7477   121.4364     2.4767     0.0503     0.0171
 2129.5000     8.7514   123.2648     2.4686     0.0549     0.0165
 2130.0000     8.7550   120.2530     2.4619     0.0596     0.0160
 2130.5000     8.7586   117.8485     2.4647     0.0579     0.0154
 2131.0000     8.7623   118.5165     2.4657     0.0562     0.0148
 2131.5000     8.7659   119.5702     2.4572     0.0552     0.0143
 2132.0000     8.7696   119.7330     2.4488     0.0597     0.0137
 2132.5000     8.7732   118.2173     2.4405     0.0719     0.0131
 2133.0000     8.7768   116.7321     2.4322     0.0806     0.0123
 2133.5000     8.7805   116.9353     2.4239     0.0844     0.0105
 2134.0000     8.7841   120.3194     2.4155     0.0881     0.0086
 2134.5000     8.7877   121.6677     2.4117     0.0920     0.0068
 2135.0000     8.7914   119.1062     2.4120     0.0924     0.0049
 2135.5000     8.7951   116.5371     2.4148     0.0894     0.0031
 2136.0000     8.7986   113.9685     2.4203     0.0864     0.0039
 2136.5000     8.7947   111.3756     2.4258     0.0836     0.0049
 2137.0000     8.7904   109.5813     2.4316     0.0784     0.0059
 2137.5000     8.7860   109.2353     2.4375     0.0772     0.0068
 2138.0000     8.7817   108.2570     2.4452     0.0729     0.0078
 2138.5000     8.7777   107.0052     2.4534     0.0673     0.0088
 2139.0000     8.7743   105.8952     2.4577     0.0632     0.0085
 2139.5000     8.7709   106.2641     2.4521     0.0683     0.0076
 2140.0000     8.7675   108.8744     2.4436     0.0751     0.0070
 2140.5000     8.7641   112.0784     2.4352     0.0786     0.0086
 2141.0000     8.7608   113.9732     2.4280     0.0795     0.0102
 2141.5000     8.7574   117.0069     2.4304     0.0796     0.0119
 2142.0000     8.7540   120.1734     2.4312     0.0815     0.0136
 2142.5000     8.7506   122.4032     2.4288     0.0828     0.0152
 2143.0000     8.7472   121.0691     2.4264     0.0816     0.0169
 2143.5000     8.7438   118.6562     2.4241     0.0848     0.0185
 2144.0000     8.7404   116.2564     2.4250     0.0847     0.0202
 2144.5000     8.7371   114.0427     2.4285     0.0808     0.0219
 2145.0000     8.7337   112.3491     2.4319     0.0775     0.0235
 2145.5000     8.7303   110.0204     2.4393     0.0735     0.0252
 2146.0000     8.7269   107.4204     2.4468     0.0692     0.0269
 2146.5000     8.7235   104.8078     2.4543     0.0656     0.0287
 2147.0000     8.7199   103.9267     2.4626     0.0584     0.0268
 2147.5000     8.7204   105.1484     2.4748     0.0510     0.0262
 2148.0000     8.7222   106.3887     2.4873     0.0421     0.0254
 2148.5000     8.7240   107.6691     2.4999     0.0333     0.0250
 2149.0000     8.7258   107.0860     2.5045     0.0303     0.0237
 2149.5000     8.7276   104.0571     2.4940     0.0383     0.0194
 2150.0000     8.7295   100.9825     2.4807     0.0470     0.0151
 2150.5000     8.7313    97.8921     2.4744     0.0520     0.0108
 2151.0000     8.7331    94.7378     2.4749     0.0517     0.0070
 2151.5000     8.7349    95.0094     2.4716     0.0519     0.0086
 2152.0000     8.7367    97.4402     2.4670     0.0551     0.0100
 2152.5000     8.7386   100.5746     2.4622     0.0584     0.0110
 2153.0000     8.7404   105.5519     2.4562     0.0623     0.0105
 2153.5000     8.7423   109.1280     2.4495     0.0670     0.0100
 2154.0000     8.7442   113.0065     2.4428     0.0716     0.0095
 2154.5000     8.7461   117.9044     2.4361     0.0763     0.0090
 2155.0000     8.7480   119.6253     2.4293     0.0786     0.0099
 2155.5000     8.7499   116.7858     2.4307     0.0800     0.0117
 2156.0000     8.7518   114.0847     2.4373     0.0792     0.0135
 2156.5000     8.7537   114.5395     2.4456     0.0693     0.0153
 2157.0000     8.7556   109.0100     2.4540     0.0645     0.0171
 2157.5000     8.7575   107.9167     2.4637     0.0595     0.0189
 2158.0000     8.7594   108.7501     2.4748     0.0540     0.0207
 2158.5000     8.7613   109.0732     2.4856     0.0448     0.0226
 2159.0000     8.7632   105.4917     2.4925     0.0387     0.0251
 2159.5000     8.7651   104.0351     2.4893     0.0407     0.0248
 2160.0000     8.7670   106.7314     2.4843     0.0444     0.0244
 2160.5000     8.7689   110.1770     2.4792     0.0476     0.0241
 2161.0000     8.7708   112.8864     2.4817     0.0467     0.0237
 2161.5000     8.7727   111.1573     2.4867     0.0449     0.0233
 2162.0000     8.7746   109.0573     2.4917     0.0406     0.0230
 2162.5000     8.7765   111.1441     2.4968     0.0362     0.0235
 2163.0000     8.7785   109.2701     2.4990     0.0347     0.0244
 2163.5000     8.7786   106.2153     2.4990     0.0347     0.0253
 2164.0000     8.7781   103.0914     2.5005     0.0347     0.0261
 2164.5000     8.7777   102.1505     2.5048     0.0316     0.0270
 2165.0000     8.7773   105.2510     2.5091     0.0280     0.0279
 2165.5000     8.7768   108.6485     2.5134     0.0243     0.0289
 2166.0000     8.7764   110.1209     2.5157     0.0227     0.0257
 2166.5000     8.7760   108.5828     2.4992     0.0349     0.0214
 2167.0000     8.7755   106.5892     2.4815     0.0474     0.0171
 2167.5000     8.7751   104.5903     2.4724     0.0523     0.0128
 2168.0000     8.7747   102.8965     2.4710     0.0552     0.0110
 2168.5000     8.7743   102.9360     2.4711     0.0549     0.0104
 2169.0000     8.7738   102.8746     2.4665     0.0553     0.0097
 2169.5000     8.7734   101.4736     2.4607     0.0584     0.0090
 2170.0000     8.7730    99.4506     2.4567     0.0615     0.0083
 2170.5000     8.7725    97.4313     2.4618     0.0628     0.0076
 2171.0000     8.7721    95.3975     2.4669     0.0576     0.0069
 2171.5000     8.7717    94.8632     2.4744     0.0495     0.0118
 2172.0000     8.7712    96.5135     2.4848     0.0414     0.0158
 2172.5000     8.7708    98.0989     2.5002     0.0332     0.0199
 2173.0000     8.7704    97.8766     2.5156     0.0251     0.0240
 2173.5000     8.7700    97.0967     2.5299     0.0170     0.0280
 2174.0000     8.7695    96.4622     2.5385     0.0088     0.0321
 2174.5000     8.7691    98.9312     2.5473     0.0027     0.0363
 2175.0000     8.7687   101.6136     2.5513     0.0019     0.0371
 2175.5000     8.7682   100.4125     2.5437     0.0029     0.0386
 2176.0000     8.7678    98.3514     2.5344     0.0096     0.0355
 2176.5000     8.7674    98.5684     2.5251     0.0164     0.0326
 2177.0000     8.7669   100.1610     2.5162     0.0231     0.0297
 2177.5000     8.7665   101.4823     2.5157     0.0233     0.0268
 2178.0000     8.7661   101.4050     2.5189     0.0228     0.0238
 2178.5000     8.7657   100.1056     2.5161     0.0246     0.0212
 2179.0000     8.7652    98.7657     2.5183     0.0244     0.0189
 2179.5000     8.7648    97.4430     2.5198     0.0219     0.0190
 2180.0000     8.7644    96.8102     2.5131     0.0215     0.0182
 2180.5000     8.7639    97.6318     2.5062     0.0284     0.0175
 2181.0000     8.7635    98.4357     2.4993     0.0337     0.0168
 2181.5000     8.7631    99.5669     2.4938     0.0368     0.0160
 2182.0000     8.7626   102.1212     2.4939     0.0380     0.0153
 2182.5000     8.7622   104.6017     2.4985     0.0371     0.0151
 2183.0000     8.7618   105.9581     2.5038     0.0352     0.0153
 2183.5000     8.7613   102.8491     2.5041     0.0315     0.0155
