~VERSION INFORMATION
 VERS.                2.0:   CWLS LOG ASCII STANDARD - VERSION 2.0
 WRAP.                 NO:   ONE LINE PER DEPTH STEP
~WELL INFORMATION
#MNEM.UNIT      DATA TYPE    INFORMATION
#----------   ------------   ------------------------------
 STRT.F            0.0000:   START DEPTH
 STOP.F         2758.0000:   STOP DEPTH
 STEP.F            0.5000:   STEP LENGTH
 NULL.          -999.2500:   NO VALUE
 COMP. FENIX & SCISSON INC:   COMPANY
 WELL.       402A #402-20:   WELL
 FLD .             TEAPOT:   FIELD
 LOC .      S20 T39N R78W:   LOCATION
 CNTY.            NATRONA:   COUNTY
 STAT.            WYOMING:   STATE
 CTRY. UNITED STATES OF AMERICA:   COUNTRY
 SRVC.      NL McCullough:   SERVICE COMPANY
 DATE.        15-JUL-1965:   LOGDATE
 API .       490251021100:   API NUMBER
~CURVE INFORMATION
#MNEM.UNIT       API CODE    CURVE DESCRIPTION
#----------   ------------   ------------------------------
 DEPT.F                  :   
 GR  .GAPI   30 310 01 00:   GAMMA RAY
 CALI.IN     70 280 01 00:   CALIPER
~PARAMETER INFORMATION
#MNEM.UNIT          VALUE    DESCRIPTION
#----------   ------------   ------------------------------
 PD  .                 GL:   PERMANENT DATUM
 LMF .                 GL:   LOG MEASURED FROM
 DMF .                 GL:   DRILLING MEASURED FROM
 DATE.            7-15-65:   RUN DATE
 RUN .                  1:   RUN NUMBER
 DL  .F              2759:   DEPTH LOGGER
 BLI .F              2758:   BOTTOM LOG INTERVAL
 TLI .F              2100:   TOP LOG INTERVAL
 CS  .IN                7:   CASING SIZE
 ENGI. FITZSIMMONS/COWLTHORPE:   RECORDING ENGINEER
 WITN.             HUDSON:   WITNESSED BY
 CLNT.            A2DTECH:   CLIENT CODE
 ORIG.           5" PRINT:   ORIGIN OF DATA
 UWI .       490251021100:   UNIQUE WELL ID
 DICO. A2D Technologies, Inc.:   DIGITIZING COMPANY
~OTHER INFORMATION
~A    DEPT      GR         CALI 
# ...
 2187.0000    45.8821     5.5920
 2187.5000    46.1940     5.5920
 2188.0000    45.9822     5.5920
 2188.5000    44.7104     5.5920
 2189.0000    42.8592     5.5920
 2189.5000    43.2683     5.5920
 2190.0000    43.9831     5.5919
 2190.5000    45.1535     5.5961
 2191.0000    45.6371     5.6021
 2191.5000    42.8384     5.6082
 2192.0000    40.6585     5.6115
 2192.5000    40.5014     5.6078
 2193.0000    39.4238     5.6042
 2193.5000    38.0343     5.6007
 2194.0000    36.8787     5.5970
 2194.5000    36.2678     5.5927
 2195.0000    35.9183     5.5742
 2195.5000    35.6105     5.5985
 2196.0000    37.8830     5.6108
 2196.5000    41.3780     5.6075
 2197.0000    43.9930     5.6044
 2197.5000    44.1947     5.6013
 2198.0000    45.4833     5.5981
 2198.5000    47.0989     5.5950
 2199.0000    49.0001     5.5922
 2199.5000    49.8706     5.5970
 2200.0000    51.3282     5.6020
 2200.5000    53.1114     5.6070
 2201.0000    54.8774     5.6118
 2201.5000    58.2022     5.6095
 2202.0000    60.6859     5.6069
 2202.5000    54.5415     5.6043
 2203.0000    51.4378     5.6017
 2203.5000    53.0084     5.5991
 2204.0000    54.8455     5.5965
 2204.5000    52.6139     5.5939
 2205.0000    51.5038     5.5921
 2205.5000    55.9808     5.5944
 2206.0000    64.7522     5.5967
 2206.5000    65.6921     5.5989
 2207.0000    64.5411     5.6012
 2207.5000    62.6484     5.6035
 2208.0000    60.2789     5.6057
 2208.5000    61.3229     5.6080
 2209.0000    64.1120     5.6103
 2209.5000    66.9032     5.6076
 2210.0000    67.6994     5.5840
 2210.5000    66.7285     5.5748
 2211.0000    64.5509     5.5869
 2211.5000    64.0490     5.5982
 2212.0000    59.5222     5.6102
 2212.5000    56.9751     5.5728
 2213.0000    57.1368     5.5831
 2213.5000    57.2817     5.6077
 2214.0000    57.1664     5.6275
 2214.5000    55.4828     5.5922
 2215.0000    53.2427     5.5949
 2215.5000    51.2356     5.5967
 2216.0000    51.5176     5.5988
 2216.5000    54.2613     5.6008
 2217.0000    56.9538     5.6028
 2217.5000    58.7192     5.6048
 2218.0000    59.4266     5.6068
 2218.5000    59.8934     5.6088
 2219.0000    60.9837     5.6107
 2219.5000    59.2371     5.6120
 2220.0000    59.8610     5.6120
 2220.5000    60.0561     5.6120
 2221.0000    57.7357     5.6120
 2221.5000    55.4006     5.6120
 2222.0000    53.0254     5.6120
 2222.5000    47.1717     5.6120
 2223.0000    42.3992     5.6120
 2223.5000    46.1762     5.6120
 2224.0000    49.4676     5.6120
 2224.5000    51.8194     5.6120
 2225.0000    48.2115     5.6120
 2225.5000    46.9171     5.6120
 2226.0000    49.3068     5.6120
 2226.5000    47.6650     5.6120
 2227.0000    46.0859     5.6120
 2227.5000    47.6448     5.6120
 2228.0000    49.9232     5.6120
 2228.5000    52.2737     5.6120
 2229.0000    52.8770     5.6120
 2229.5000    53.0615     5.6119
 2230.0000    53.4434     5.6160
 2230.5000    55.8436     5.6213
 2231.0000    57.6848     5.6266
 2231.5000    53.6565     5.6319
 2232.0000    49.1362     5.6372
 2232.5000    51.2944     5.6425
 2233.0000    53.4696     5.6478
 2233.5000    50.7492     5.6531
 2234.0000    53.5727     5.6584
 2234.5000    53.0645     5.6637
 2235.0000    52.3753     5.6690
 2235.5000    54.1459     5.6743
 2236.0000    51.6063     5.6796
 2236.5000    48.2146     5.6850
 2237.0000    48.0942     5.6903
 2237.5000    50.9861     5.6956
 2238.0000    52.4897     5.7009
 2238.5000    49.9310     5.7062
 2239.0000    49.9600     5.7116
 2239.5000    52.0308     5.7082
 2240.0000    55.1948     5.7036
 2240.5000    49.3394     5.6989
 2241.0000    49.9316     5.6943
 2241.5000    55.5273     5.6897
 2242.0000    57.7992     5.6851
 2242.5000    59.2708     5.6804
 2243.0000    61.8261     5.6758
 2243.5000    64.2680     5.6728
 2244.0000    62.7488     5.6773
 2244.5000    60.8957     5.6816
 2245.0000    59.0329     5.6860
 2245.5000    56.1050     5.6903
 2246.0000    52.6991     5.6921
 2246.5000    49.2660     5.6922
 2247.0000    46.0806     5.6922
 2247.5000    46.2475     5.6921
 2248.0000    51.9290     5.6922
 2248.5000    56.6703     5.6761
 2249.0000    59.0443     5.6487
 2249.5000    57.4544     5.6535
 2250.0000    56.1612     5.6523
 2250.5000    56.7647     5.6520
 2251.0000    57.2780     5.6521
 2251.5000    56.1245     5.6521
 2252.0000    54.9046     5.6521
 2252.5000    53.3191     5.6521
 2253.0000    50.9949     5.6521
 2253.5000    48.6831     5.6521
 2254.0000    46.9027     5.6521
 2254.5000    49.1697     5.6521
 2255.0000    51.0123     5.6521
 2255.5000    50.9878     5.6521
 2256.0000    50.2044     5.6521
 2256.5000    55.8238     5.6522
 2257.0000    53.4311     5.6485
 2257.5000    49.4479     5.6163
 2258.0000    46.2146     5.5829
 2258.5000    47.8303     5.6014
 2259.0000    48.7032     5.6323
 2259.5000    48.6830     5.6319
 2260.0000    50.8644     5.6321
 2260.5000    52.8112     5.6321
 2261.0000    46.1197     5.6321
 2261.5000    49.0691     5.6321
 2262.0000    51.2927     5.6321
 2262.5000    48.7103     5.6321
 2263.0000    45.9633     5.6321
 2263.5000    45.8203     5.6321
 2264.0000    51.4630     5.6321
 2264.5000    49.4355     5.6321
 2265.0000    48.5125     5.6321
 2265.5000    49.9531     5.6321
 2266.0000    47.3992     5.6321
 2266.5000    43.2381     5.6321
 2267.0000    38.1825     5.6321
 2267.5000    34.9487     5.6321
 2268.0000    32.0846     5.6321
 2268.5000    31.4604     5.6321
 2269.0000    36.4928     5.6321
 2269.5000    42.3882     5.6321
 2270.0000    52.8255     5.6321
 2270.5000    58.3161     5.6321
 2271.0000    58.7023     5.6321
 2271.5000    55.5377     5.6321
 2272.0000    53.0330     5.6321
 2272.5000    52.5065     5.6321
 2273.0000    49.2773     5.6321
 2273.5000    49.0162     5.6321
 2274.0000    51.6826     5.6321
 2274.5000    53.0586     5.6321
 2275.0000    47.9783     5.6321
 2275.5000    46.3394     5.6321
 2276.0000    51.3146     5.6321
 2276.5000    50.9515     5.6321
 2277.0000    53.7683     5.6321
 2277.5000    56.4520     5.6321
 2278.0000    55.5612     5.6321
 2278.5000    55.0240     5.6321
 2279.0000    54.4256     5.6321
 2279.5000    50.5539     5.6321
 2280.0000    49.6288     5.6321
 2280.5000    53.5735     5.6321
 2281.0000    58.1383     5.6321
 2281.5000    59.3507     5.6321
 2282.0000    60.4457     5.6321
 2282.5000    61.6274     5.6321
 2283.0000    59.5097     5.6321
 2283.5000    59.8850     5.6321
 2284.0000    64.0715     5.6321
 2284.5000    64.6822     5.6294
 2285.0000    65.4258     5.6263
 2285.5000    62.5414     5.6232
 2286.0000    63.6945     5.6200
 2286.5000    64.9106     5.6169
 2287.0000    65.5616     5.6138
 2287.5000    66.4493     5.6109
 2288.0000    66.9074     5.6056
 2288.5000    66.2645     5.6005
 2289.0000    66.9967     5.5953
 2289.5000    67.4300     5.5901
 2290.0000    63.4101     5.5849
 2290.5000    61.5750     5.5798
 2291.0000    61.1291     5.5746
 2291.5000    59.2934     5.5709
 2292.0000    56.3293     5.5688
 2292.5000    55.7432     5.5667
 2293.0000    59.0008     5.5646
 2293.5000    61.3681     5.5624
 2294.0000    58.1236     5.5603
 2294.5000    57.9665     5.5582
 2295.0000    58.8869     5.5561
 2295.5000    57.1392     5.5539
 2296.0000    56.9157     5.5521
 2296.5000    58.6885     5.5544
 2297.0000    60.3930     5.5568
 2297.5000    61.8358     5.5592
 2298.0000    57.5243     5.5616
 2298.5000    54.2547     5.5640
 2299.0000    51.0444     5.5664
 2299.5000    45.9620     5.5688
 2300.0000    45.2777     5.5714
 2300.5000    47.7734     5.5700
 2301.0000    50.5844     5.5661
 2301.5000    50.8355     5.5621
 2302.0000    50.9416     5.5582
 2302.5000    51.0424     5.5543
 2303.0000    52.7153     5.5519
 2303.5000    55.3129     5.5519
 2304.0000    56.0376     5.5519
 2304.5000    58.2383     5.5519
 2305.0000    58.6890     5.5519
 2305.5000    60.1636     5.5519
 2306.0000    59.0066     5.5519
 2306.5000    55.8935     5.5519
 2307.0000    58.3227     5.5519
 2307.5000    56.6674     5.5519
 2308.0000    55.0981     5.5519
