~VERSION INFORMATION
 VERS.                2.0:   CWLS LOG ASCII STANDARD - VERSION 2.0
 WRAP.                 NO:   ONE LINE PER DEPTH STEP
~WELL INFORMATION
#MNEM.UNIT      DATA TYPE    INFORMATION
#----------   ------------   ------------------------------
 STRT.F           10.0000:   START DEPTH
 STOP.F          485.0000:   STOP DEPTH
 STEP.F            0.5000:   STEP LENGTH
 NULL.          -999.2500:   NO VALUE
 COMP. FENIX & SCISSON INC:   COMPANY
 WELL.    56 S 3 SX #56-3:   WELL
 FLD .             TEAPOT:   FIELD
 LOC .       S3 T38N R78W:   LOCATION
 CNTY.            NATRONA:   COUNTY
 STAT.            WYOMING:   STATE
 CTRY. UNITED STATES OF AMERICA:   COUNTRY
 SRVC.            Unknown:   SERVICE COMPANY
 DATE.        09-OCT-1978:   LOGDATE
 API .       490251071900:   API NUMBER
~CURVE INFORMATION
#MNEM.UNIT       API CODE    CURVE DESCRIPTION
#----------   ------------   ------------------------------
 DEPT.F                  :   
 SPR .MV     05 010 01 00:   SPONTANEOUS POTENTIAL FROM RES.
 SN  .OHMM   05 040 16 00:   SHORT NORMAL 16"
 ILD .OHMM   05 120 46 00:   INDUCTION LOG DEEP
 CALD.IN     45 280 60 00:   CALIPER
 GRD .GAPI   45 310 01 00:   GAMMA RAY FROM DENSITY LOG
 CORR.G/C3   45 356 01 00:   DENSITY CORRECTION
 RHOB.G/C3   45 350 01 00:   BULK DENSITY
 DPHI.DEC    45 890 12 00:   DENSITY POROSITY SANDSTONE
~PARAMETER INFORMATION
#MNEM.UNIT          VALUE    DESCRIPTION
#----------   ------------   ------------------------------
 PD  .                 GL:   PERMANENT DATUM
 EPD .F              5188:   ELEVATION PERMANENT DATUM
 LMF .                 KB:   LOG MEASURED FROM
 DAPD.F                 4:   FEET ABOVE PERMANENT DATUM
 DMF .                 KB:   DRILLING MEASURED FROM
 EKB .F              5192:   KELLING BUSHING
 EGL .F              5188:   GROUND LEVEL
 DATE.            10-9-78:   RUN DATE
 RUN .                  1:   RUN NUMBER
 DD  .F               485:   DEPTH DRILLER
 DL  .F               485:   DEPTH LOGGER
 BLI .F               479:   BOTTOM LOG INTERVAL
 TLI .F                32:   TOP LOG INTERVAL
 CS  .IN            8.625:   CASING SIZE
 BS  .IN            7.875:   BIT SIZE
 BSD .F               485:   BIT SIZE AT DEPTH
 DFT .                KCL:   DRILLING FLUID TYPE
 DFD .                8.8:   DRILLING FLUID DENSITY
 DFV .                 41:   DRILLING FLUID VISCOSITY
 DFPH.                  9:   DRILLING FLUID PH
 DFL .                7.6:   DRILLING FLUID LOSS
 MSS .          FLOW LINE:   MUD SAMPLE SOURCE
 RMS .OHMM            .18:   RESISTIVITY MUD SAMPLE
 MST .F                60:   MUD SAMPLE TEMPERATURE
 RMF .OHMM            .16:   RESISTIVITY MUD FILTRATE SAMPLE
 MFST.F                70:   MUD FILTRATE SAMPLE TEMPERATURE
 RMC .OHMM            .26:   RESISTIVITY MUD CAKE
 MCST.F                70:   MUD CAKE SAMPLE TEMPERATURE
 MFSS.               MEAS:   MUD FILTRATE SAMPLE SOURCE
 MCSS.               MEAS:   MUD CAKE SAMPLE SOURCE
 TCS .HRS             1.5:   TIME CURCULATED STOPPED
 LUN .               2958:   LOGGING UNIT NUMBER
 LUL .               CASP:   LOGGING UNIT LOCATION
 ENGI.             MILLER:   RECORDING ENGINEER
 WITN.              AMEND:   WITNESSED BY
 CLNT.            A2DTECH:   CLIENT CODE
 ORIG.           5" PRINT:   ORIGIN OF DATA
 UWI .       490251071900:   UNIQUE WELL ID
 DICO. A2D Technologies, Inc.:   DIGITIZING COMPANY
~OTHER INFORMATION
~A   DEPT      SPR         SN        ILD       CALD         GRD      CORR       RHOB       DPHI   
# ...
  253.0000   -29.4643     7.2262     8.2234     8.1943   116.1312     0.0132     2.5125     0.1016
  253.5000   -29.4643     7.2184     8.2153     8.1938   114.9480     0.0089     2.5099     0.1032
  254.0000   -29.4643     7.2106     8.2088     8.1932   109.3510     0.0104     2.5099     0.1036
  254.5000   -29.4643     7.2028     8.2024     8.1927   109.0997     0.0115     2.5106     0.1040
  255.0000   -29.4643     7.1951     8.1959     8.1921   108.5303     0.0146     2.5113     0.1018
  255.5000   -29.4643     7.1873     8.1895     8.1916   107.6547     0.0226     2.5142     0.0997
  256.0000   -29.4643     7.1795     8.1831     8.1910   105.3593     0.0282     2.5206     0.0975
  256.5000   -29.4643     7.1717     8.1766     8.1905   106.2559     0.0263     2.5222     0.0954
  257.0000   -29.4643     7.1654     8.1702     8.1899   109.2109     0.0244     2.5225     0.0936
  257.5000   -29.4643     7.1969     8.1643     8.1894   111.8008     0.0222     2.5227     0.0932
  258.0000   -29.4643     7.2313     8.1573     8.1889   110.4232     0.0201     2.5232     0.0928
  258.5000   -29.4643     7.1969     8.1539     8.1883   108.1651     0.0181     2.5235     0.0927
  259.0000   -29.4643     7.1467     8.0406     8.1878   105.6587     0.0159     2.5235     0.0930
  259.5000   -29.4643     7.0998     7.6581     8.1873   105.5883     0.0140     2.5240     0.0932
  260.0000   -29.4643     6.9528     7.2938     8.1867   105.7911     0.0117     2.5182     0.0934
  260.5000   -29.4643     6.7810     6.9469     8.1862   107.1282     0.0098     2.5126     0.1045
  261.0000   -29.4644     6.4849     6.6166     8.1857   108.4722     0.0093     2.4649     0.1317
  261.5000   -29.4648     6.2005     6.4752     8.1851   108.9048     0.0074     2.4083     0.1588
  262.0000   -29.4638     5.9080     6.4766     8.1846   116.3687     0.0235     2.3577     0.1900
  262.5000   -29.3971     5.9080     6.4752     8.1845   128.1846     0.0520     2.3520     0.1962
  263.0000   -28.9533     6.3586     6.4765     8.1769   131.9869     0.0673     2.3941     0.1761
  263.5000   -28.4895     6.2428     6.6399     8.1539   129.8958     0.0443     2.4514     0.1561
  264.0000   -28.1770     6.5129     7.1181     8.1316   113.4419     0.0222     2.4765     0.1360
  264.5000   -27.8763     7.1732     7.9434     8.1087   106.8769     0.0113     2.5042     0.1159
  265.0000   -27.7346     7.9005     9.1331     8.0861   107.6224     0.0086     2.5131     0.1040
  265.5000   -27.6008     8.2548    10.3399     8.0670   108.3137     0.0091     2.5199     0.0982
  266.0000   -27.4675     8.4937    10.6525     8.0670   109.1249     0.0089     2.5268     0.0940
  266.5000   -27.3375     8.7050    10.6584     8.0669   109.8217     0.0089     2.5335     0.0898
  267.0000   -27.1962     8.8891    10.6800     8.0675   109.7843     0.0089     2.5403     0.0876
  267.5000   -26.7106     9.0771    10.6984     8.0679   107.7348     0.0089     2.5318     0.0932
  268.0000   -24.0296     9.2196    10.7169     8.0682   107.0592     0.0089     2.5187     0.0987
  268.5000   -23.3724     9.3027    10.7351     8.0687   107.8291     0.0089     2.5055     0.1043
  269.0000   -22.8174     9.4789    11.3296     8.0690   109.2334     0.0089     2.4931     0.1097
  269.5000   -22.2550     9.8031    11.9492     8.0694   110.2240     0.0090     2.4836     0.1142
  270.0000   -21.6009    10.1384    12.6027     8.0698   110.4282     0.0096     2.4753     0.1187
  270.5000   -20.5950    10.5131    13.8783     8.0702   108.7403     0.0102     2.4671     0.1274
  271.0000   -19.6651    11.1191    15.5245     8.0706   106.2160     0.0108     2.4343     0.1424
  271.5000   -19.4915    11.7601    17.6837     8.0709    92.2952     0.0114     2.3832     0.1732
  272.0000   -19.3087    12.4380    20.3123     8.0713    78.0816     0.0120     2.3567     0.1997
  272.5000   -19.1373    12.8288    22.2860     8.0717    63.2095     0.0126     2.3529     0.1973
  273.0000   -19.0496    13.1687    23.0144     8.0721    59.5348     0.0132     2.3469     0.1954
  273.5000   -18.9595    13.4754    23.2727     8.0724    61.3928     0.0138     2.3242     0.2134
  274.0000   -18.4894    13.7193    23.4412     8.0728    64.3822     0.0144     2.3012     0.2313
  274.5000   -17.9647    13.8911    23.4412     8.0732    66.6290     0.0150     2.2939     0.2305
  275.0000   -16.9957    13.9106    23.4412     8.0735    67.0228     0.0156     2.3089     0.2213
  275.5000   -15.8931    13.9301    23.4412     8.0739    67.4157     0.0162     2.3231     0.2105
  276.0000   -15.6725    13.9496    23.2036     8.0743    69.9044     0.0169     2.3223     0.2119
  276.5000   -15.4218    13.9692    22.9329     8.0747    73.7965     0.0174     2.3107     0.2185
  277.0000   -15.1667    13.9888    22.6643     8.0750    74.0497     0.0181     2.3011     0.2218
  277.5000   -14.9150    14.0084    22.3985     8.0754    72.7920     0.0186     2.3000     0.2251
  278.0000   -14.5997    14.0127    22.1852     8.0758    70.1459     0.0193     2.2996     0.2259
  278.5000   -14.3861    14.0128    23.1059     8.0761    67.7729     0.0199     2.3025     0.2231
  279.0000   -14.3877    14.0128    23.9366     8.0765    65.3887     0.0202     2.3013     0.2213
  279.5000   -14.4538    14.0128    24.7956     8.0769    62.9462     0.0246     2.2978     0.2233
  280.0000   -14.8124    14.0128    25.6852     8.0773    60.6702     0.0348     2.2954     0.2253
  280.5000   -15.1677    14.0128    26.6061     8.0776    58.5040     0.0445     2.3001     0.2272
  281.0000   -15.2649    14.0128    27.1804     8.0780    57.2902     0.0547     2.3086     0.2216
  281.5000   -15.3525    14.0126    27.2446     8.0784    57.1278     0.0650     2.3193     0.2160
  282.0000   -15.4454    14.0134    27.3090     8.0788    57.3537     0.0835     2.3233     0.2125
  282.5000   -15.5427    14.0465    27.3735     8.0791    61.4098     0.1022     2.3231     0.2105
  283.0000   -15.6397    14.0815    27.4382     8.0795    65.0946     0.1212     2.3297     0.2086
  283.5000   -15.7367    14.1168    27.5030     8.0799    69.4773     0.1401     2.3325     0.2066
  284.0000   -15.8335    14.1886    27.5670     8.0802    70.1705     0.1590     2.3319     0.2086
  284.5000   -15.9310    14.3636    27.6319     8.0806    70.9155     0.1778     2.3313     0.2105
  285.0000   -15.9717    14.5371    28.0532     8.0810    70.6222     0.1972     2.3330     0.2078
  285.5000   -15.9720    14.6375    28.6887     8.0814    70.3645     0.2117     2.3638     0.1903
  286.0000   -15.9722    14.7363    29.3401     8.0817    70.0830     0.2141     2.4357     0.1739
  286.5000   -15.9722    14.8357    30.0411     8.0821    69.6821     0.2150     2.5067     0.1618
  287.0000   -15.9722    14.9437    29.1616     8.0825    70.3480     0.1462     2.5413     0.1497
  287.5000   -15.9722    14.9308    28.2606     8.0829    71.8499     0.0771     2.5387     0.1376
  288.0000   -15.9722    14.9168    29.3266     8.0832    72.5940     0.0721     2.5069     0.1215
  288.5000   -15.9725    14.9029    31.0172     8.0836    72.7375     0.0697     2.4636     0.1358
  289.0000   -15.9722    14.8890    30.1922     8.0840    72.9905     0.0698     2.4195     0.1654
  289.5000   -15.9681    14.8751    28.7392     8.0844    74.8696     0.0681     2.3914     0.1704
  290.0000   -16.1201    14.8612    27.3562     8.0847    76.4820     0.0617     2.3848     0.1753
  290.5000   -16.3133    14.8473    26.0397     8.0851    78.2891     0.0554     2.3760     0.1803
  291.0000   -16.5082    14.8336    25.1527     8.0855    78.3564     0.0483     2.3627     0.1870
  291.5000   -16.6961    14.8196    24.5465     8.0858    78.2402     0.0437     2.3360     0.2006
  292.0000   -17.5061    14.8070    24.0218     8.0862    75.6386     0.0423     2.3155     0.2142
  292.5000   -18.4841    14.6921    23.4548     8.0866    71.4117     0.0403     2.3149     0.2169
  293.0000   -18.6124    14.5870    22.9019     8.0870    69.2625     0.0387     2.3237     0.2156
