~VERSION INFORMATION
 VERS.                2.0:   CWLS LOG ASCII STANDARD - VERSION 2.0
 WRAP.                 NO:   ONE LINE PER DEPTH STEP
~WELL INFORMATION
#MNEM.UNIT      DATA TYPE    INFORMATION
#----------   ------------   ------------------------------
 STRT.F           39.5000:   START DEPTH
 STOP.F          591.0000:   STOP DEPTH
 STEP.F            0.5000:   STEP LENGTH
 NULL.          -999.2500:   NO VALUE
 COMP. FENIX & SCISSON INC:   COMPANY
 WELL.      26 SX 3 #26-3:   WELL
 FLD .             TEAPOT:   FIELD
 LOC .       S3 T38N R78W:   LOCATION
 CNTY.            NATRONA:   COUNTY
 STAT.            WYOMING:   STATE
 CTRY. UNITED STATES OF AMERICA:   COUNTRY
 SRVC.           BIRDWELL:   SERVICE COMPANY
 DATE.        01-OCT-1978:   LOGDATE
 API .       490251071500:   API NUMBER
~CURVE INFORMATION
#MNEM.UNIT       API CODE    CURVE DESCRIPTION
#----------   ------------   ------------------------------
 DEPT.F                  :   
 SPR .MV     05 010 01 00:   SPONTANEOUS POTENTIAL FROM RES.
 SN  .OHMM   05 040 16 00:   SHORT NORMAL 16"
 ILD .OHMM   05 120 46 00:   INDUCTION LOG DEEP
 RHOB.G/C3   45 350 01 00:   BULK DENSITY
 CORR.G/C3   45 356 01 00:   DENSITY CORRECTION
 DPHI.DEC    45 890 12 00:   DENSITY POROSITY SANDSTONE
 GRD .GAPI   45 310 01 00:   GAMMA RAY FROM DENSITY LOG
 CALD.IN     45 280 60 00:   CALIPER
~PARAMETER INFORMATION
#MNEM.UNIT          VALUE    DESCRIPTION
#----------   ------------   ------------------------------
 PD  .                 GL:   PERMANENT DATUM
 EPD .F              5225:   ELEVATION PERMANENT DATUM
 LMF .                 KB:   LOG MEASURED FROM
 DAPD.F                 4:   FEET ABOVE PERMANENT DATUM
 DMF .                 KB:   DRILLING MEASURED FROM
 EKB .F              5229:   KELLING BUSHING
 EGL .F              5225:   GROUND LEVEL
 DATE.            10-1-78:   RUN DATE
 RUN .                  1:   RUN NUMBER
 DD  .F               600:   DEPTH DRILLER
 DL  .F               597:   DEPTH LOGGER
 BLI .F               591:   BOTTOM LOG INTERVAL
 TLI .F                60:   TOP LOG INTERVAL
 CS  .IN            8.625:   CASING SIZE
 CBD .F                40:   CASING BOTTOM DRILLER
 BS  .IN            7.875:   BIT SIZE
 BSD .F               600:   BIT SIZE AT DEPTH
 DFT .                KCL:   DRILLING FLUID TYPE
 DFD .                8.7:   DRILLING FLUID DENSITY
 DFV .                 34:   DRILLING FLUID VISCOSITY
 DFPH.                  9:   DRILLING FLUID PH
 DFL .                 10:   DRILLING FLUID LOSS
 MSS .            MUD PIT:   MUD SAMPLE SOURCE
 RMS .OHMM            .24:   RESISTIVITY MUD SAMPLE
 MST .F                65:   MUD SAMPLE TEMPERATURE
 RMF .OHMM            .45:   RESISTIVITY MUD FILTRATE SAMPLE
 MFST.F                65:   MUD FILTRATE SAMPLE TEMPERATURE
 RMC .OHMM             .4:   RESISTIVITY MUD CAKE
 MCST.F                65:   MUD CAKE SAMPLE TEMPERATURE
 MFSS.               MEAS:   MUD FILTRATE SAMPLE SOURCE
 TCS .HRS               3:   TIME CURCULATED STOPPED
 LUN .               2958:   LOGGING UNIT NUMBER
 LUL .               CASP:   LOGGING UNIT LOCATION
 ENGI.             MILLER:   RECORDING ENGINEER
 WITN.           DINSMORE:   WITNESSED BY
 CLNT.            A2DTECH:   CLIENT CODE
 ORIG.       2", 5" PRINT:   ORIGIN OF DATA
 UWI .       490251071500:   UNIQUE WELL ID
 DICO. A2D Technologies, Inc.:   DIGITIZING COMPANY
~OTHER INFORMATION
~A   DEPT      SPR         SN        ILD       RHOB       CORR       DPHI        GRD         CALD 
# ...
  566.0000   -15.2842     8.1391     8.2059     2.5107     0.0469     0.1142   129.5921     7.7711
  566.5000   -15.3391     8.1812     7.9782     2.4969     0.0462     0.1194   129.6088     7.7703
  567.0000   -15.3953     8.2520     7.9111     2.4832     0.0454     0.1112   128.5516     7.7695
  567.5000   -15.4453     8.3233     8.0948     2.4817     0.0446     0.1017   127.4845     7.7687
  568.0000   -15.7888     8.5355     8.2197     2.5013     0.0439     0.0921   125.7545     7.7679
  568.5000   -16.0669     8.8993     8.3464     2.5154     0.0433     0.0859   123.8406     7.7670
  569.0000   -16.0576     9.3473     8.6587     2.5281     0.0366     0.0863   122.2829     7.7662
  569.5000   -16.0518     9.9883     9.4432     2.5313     0.0291     0.0938   122.9697     7.7654
  570.0000   -16.0449    10.4083    10.0907     2.5257     0.0292     0.0943   124.2911     7.7646
  570.5000   -16.0382    10.5769    10.5214     2.5195     0.0322     0.0907   125.6140     7.7638
  571.0000   -16.0315    10.7483    10.5710     2.5192     0.0353     0.0838   125.8493     7.7629
  571.5000   -16.0248    10.9227    10.6209     2.5290     0.0375     0.0767   126.0341     7.7621
  572.0000   -16.0181    11.0108    10.6711     2.5389     0.0384     0.0696   128.0610     7.7613
  572.5000   -16.0114    11.0108    10.7214     2.5489     0.0335     0.0694   130.7670     7.7605
  573.0000   -16.0047    11.0105    10.7720     2.5586     0.0287     0.0716   131.7052     7.7597
  573.5000   -15.9980    11.0105    10.8229     2.5536     0.0238     0.0744   132.0320     7.7588
  574.0000   -15.9913    11.0105    10.8740     2.5477     0.0190     0.0783   131.3631     7.7580
  574.5000   -15.9846    11.0105    10.9062     2.5418     0.0167     0.0822   129.6043     7.7572
  575.0000   -15.9780    11.0106    10.8600     2.5361     0.0160     0.0843   129.0655     7.7564
  575.5000   -15.9712    11.0104    10.8217     2.5331     0.0155     0.0860   129.0096     7.7555
  576.0000   -15.9646    10.9985    10.7835     2.5303     0.0149     0.0876   129.0245     7.7547
  576.5000   -15.9579    10.9559    10.7454     2.5284     0.0143     0.0893   128.4731     7.7539
  577.0000   -15.9512    10.9141    10.7076     2.5305     0.0137     0.0910   127.8552     7.7531
  577.5000   -15.9445    10.8724    10.6698     2.5312     0.0130     0.0926   127.8782     7.7523
  578.0000   -15.9378    10.8308    10.6322     2.5265     0.0168     0.0942   127.9556     7.7514
  578.5000   -15.9311    10.7895    10.5948     2.5210     0.0212     0.0942   128.0002     7.7506
  579.0000   -15.9244    10.7483    10.5577     2.5172     0.0257     0.0941   126.6245     7.7498
  579.5000   -15.9177    10.6961    10.5206     2.5220     0.0248     0.0884   125.1085     7.7490
  580.0000   -15.9110    10.5448    10.3229     2.5267     0.0216     0.0870   123.5945     7.7482
  580.5000   -15.9043    10.3956    10.1118     2.5299     0.0184     0.0893   122.0824     7.7473
  581.0000   -15.8976    10.2485     9.9049     2.5290     0.0152     0.0919   120.5706     7.7465
  581.5000   -15.8909    10.1035     9.7024     2.5231     0.0136     0.0984   119.0652     7.7457
  582.0000   -15.8842     9.9605     9.4563     2.5156     0.0117     0.1065   117.7814     7.7449
  582.5000   -15.8776     9.7390     9.2114     2.5071     0.0099     0.1135   116.9643     7.7441
  583.0000   -15.8702     9.3408     8.9729     2.4986     0.0117     0.1128   117.3733     7.7432
  583.5000   -15.9157     8.9590     8.7405     2.4903     0.0196     0.1110   119.1502     7.7366
  584.0000   -15.9912     8.5927     8.4247     2.4898     0.0275     0.1098   124.5212     7.7027
  584.5000   -16.0674     8.2419     8.0837     2.4954     0.0282     0.1091   130.8294     7.6693
  585.0000   -16.1437     7.9053     7.4870     2.5016     0.0252     0.1089   137.2257     7.6358
  585.5000   -16.2199     7.5814     6.5876     2.5005     0.0257     0.1157   138.6208     7.6057
  586.0000   -16.2961     6.8476     5.7071     2.4674     0.0261     0.1419   136.6534     7.6334
  586.5000   -16.3723     6.0276     4.9443     2.4285     0.0266     0.1682   132.9031     7.6329
  587.0000   -16.4485     5.3059     4.2834     2.3893     0.0272     0.1935   132.0921     7.6172
  587.5000   -16.5247     4.6701     3.7109     2.3500     0.0322     0.2214   130.5618     7.6011
  588.0000   -16.6009     4.1099     3.5763     2.3090     0.0373     0.2466   130.3109     7.5844
  588.5000   -16.6765     3.7487     3.5086     2.2686     0.0413     0.2494   130.7743     7.5709
  589.0000   -16.7505     3.6357     3.4619     2.2634     0.0359     0.2210   131.0179     7.5540
  589.5000   -16.8327     3.5695     3.5348     2.3333     0.0371     0.1875   127.5290     7.7873
  590.0000   -17.2171     4.7961     4.3537     2.4386     0.0371     0.1323   127.8259     7.1697
  590.5000   -18.9659     6.0338     5.3624  -999.2500  -999.2500  -999.2500  -999.2500  -999.2500
  591.0000   -18.0651     7.0857     6.0062  -999.2500  -999.2500  -999.2500  -999.2500  -999.2500
