~VERSION INFORMATION
 VERS.                2.0:   CWLS LOG ASCII STANDARD - VERSION 2.0
 WRAP.                 NO:   ONE LINE PER DEPTH STEP
~WELL INFORMATION
#MNEM.UNIT      DATA TYPE    INFORMATION
#----------   ------------   ------------------------------
 STRT.F            5.0000:   START DEPTH
 STOP.F          610.0000:   STOP DEPTH
 STEP.F            0.5000:   STEP LENGTH
 NULL.          -999.2500:   NO VALUE
 COMP. FENIX & SCISSON INC:   COMPANY
 WELL.        NPR 3 #25-3:   WELL
 FLD .        TEAPOT DOME:   FIELD
 LOC .       S3 T38N R78W:   LOCATION
 CNTY.            NATRONA:   COUNTY
 STAT.            WYOMING:   STATE
 CTRY. UNITED STATES OF AMERICA:   COUNTRY
 SRVC.           BIRDWELL:   SERVICE COMPANY
 DATE.        28-SEP-1978:   LOGDATE
 API .       490251068900:   API NUMBER
~CURVE INFORMATION
#MNEM.UNIT       API CODE    CURVE DESCRIPTION
#----------   ------------   ------------------------------
 DEPT.F                  :   
 SPR .MV     05 010 01 00:   SPONTANEOUS POTENTIAL FROM RES.
 IL  .OHMM   05 120 00 00:   INDUCTION LOG
 SN  .OHMM   05 040 16 00:   SHORT NORMAL 16"
 CALD.IN     45 280 60 00:   CALIPER
 GRD .GAPI   45 310 01 00:   GAMMA RAY FROM DENSITY LOG
 CORR.G/C3   45 356 01 00:   DENSITY CORRECTION
 DEN .G/C3   45 350 01 00:   COMPENSATED BULK DENSTIY
 DPHI.DEC    45 890 12 00:   DENSITY POROSITY SANDSTONE
~PARAMETER INFORMATION
#MNEM.UNIT          VALUE    DESCRIPTION
#----------   ------------   ------------------------------
 PD  .                 GL:   PERMANENT DATUM
 EPD .F              5249:   ELEVATION PERMANENT DATUM
 LMF .                 KB:   LOG MEASURED FROM
 DAPD.F                 4:   FEET ABOVE PERMANENT DATUM
 DMF .                 KB:   DRILLING MEASURED FROM
 EKB .F              5253:   KELLING BUSHING
 EGL .F              5249:   GROUND LEVEL
 DATE.            9-28-78:   RUN DATE
 RUN .                  1:   RUN NUMBER
 DD  .F               616:   DEPTH DRILLER
 DL  .F               613:   DEPTH LOGGER
 BLI .F               607:   BOTTOM LOG INTERVAL
 TLI .F                40:   TOP LOG INTERVAL
 BS  .IN            7.875:   BIT SIZE
 BSD .F               616:   BIT SIZE AT DEPTH
 DFT .                KCL:   DRILLING FLUID TYPE
 DFD .                8.7:   DRILLING FLUID DENSITY
 DFV .                 33:   DRILLING FLUID VISCOSITY
 DFPH.                  9:   DRILLING FLUID PH
 DFL .                  5:   DRILLING FLUID LOSS
 MSS .            MUD PIT:   MUD SAMPLE SOURCE
 RMS .OHMM            .14:   RESISTIVITY MUD SAMPLE
 MST .F                65:   MUD SAMPLE TEMPERATURE
 RMF .OHMM            2.1:   RESISTIVITY MUD FILTRATE SAMPLE
 MFST.F                65:   MUD FILTRATE SAMPLE TEMPERATURE
 RMC .OHMM            .32:   RESISTIVITY MUD CAKE
 MCST.F                65:   MUD CAKE SAMPLE TEMPERATURE
 MFSS.               MEAS:   MUD FILTRATE SAMPLE SOURCE
 TCS .HRS               2:   TIME CURCULATED STOPPED
 LUN .               2958:   LOGGING UNIT NUMBER
 LUL .               CASP:   LOGGING UNIT LOCATION
 ENGI.            ROLLINS:   RECORDING ENGINEER
 WITN.              AMEND:   WITNESSED BY
 CLNT.            A2DTECH:   CLIENT CODE
 ORIG.           5" PRINT:   ORIGIN OF DATA
 UWI .       490251068900:   UNIQUE WELL ID
 DICO. A2D Technologies, Inc.:   DIGITIZING COMPANY
~OTHER INFORMATION
~A    DEPT     SPR         IL         SN         CALD       GRD      CORR        DEN       DPHI   
    5.0000  -999.2500  -999.2500  -999.2500     7.3239    74.4467  -999.2500  -999.2500  -999.2500
    5.5000  -999.2500  -999.2500  -999.2500     7.2636    71.1791  -999.2500  -999.2500  -999.2500
    6.0000  -999.2500  -999.2500  -999.2500     6.4076    65.1026  -999.2500  -999.2500  -999.2500
    6.5000  -999.2500  -999.2500  -999.2500     5.4265    60.1796  -999.2500  -999.2500  -999.2500
    7.0000  -999.2500  -999.2500  -999.2500     5.3596    54.6559  -999.2500  -999.2500  -999.2500
    7.5000  -999.2500  -999.2500  -999.2500     5.5953    66.3844  -999.2500  -999.2500  -999.2500
    8.0000  -999.2500  -999.2500  -999.2500     7.2148    82.4869  -999.2500  -999.2500  -999.2500
    8.5000  -999.2500  -999.2500  -999.2500     8.0031    98.8258  -999.2500  -999.2500  -999.2500
    9.0000  -999.2500  -999.2500  -999.2500     7.9672   113.9101  -999.2500  -999.2500  -999.2500
    9.5000  -999.2500  -999.2500  -999.2500     7.8444   121.0233  -999.2500  -999.2500  -999.2500
   10.0000  -999.2500  -999.2500  -999.2500     7.7166   122.9798  -999.2500  -999.2500  -999.2500
   10.5000  -999.2500  -999.2500  -999.2500     7.5877   123.3446  -999.2500  -999.2500  -999.2500
   11.0000  -999.2500  -999.2500  -999.2500     7.4590   123.3274  -999.2500  -999.2500  -999.2500
   11.5000  -999.2500  -999.2500  -999.2500     7.3303   121.0541  -999.2500  -999.2500  -999.2500
   12.0000  -999.2500  -999.2500  -999.2500     7.2016   115.4681  -999.2500  -999.2500  -999.2500
   12.5000  -999.2500  -999.2500  -999.2500     7.0728   109.8555  -999.2500  -999.2500  -999.2500
   13.0000  -999.2500  -999.2500  -999.2500     6.9441   108.5768  -999.2500  -999.2500  -999.2500
   13.5000  -999.2500  -999.2500  -999.2500     6.8161   108.9404  -999.2500  -999.2500  -999.2500
   14.0000  -999.2500  -999.2500  -999.2500     6.7399   113.7463  -999.2500  -999.2500  -999.2500
   14.5000  -999.2500  -999.2500  -999.2500     6.7421   119.3309  -999.2500  -999.2500  -999.2500
   15.0000  -999.2500  -999.2500  -999.2500     6.6631   121.0903  -999.2500  -999.2500  -999.2500
   15.5000  -999.2500  -999.2500  -999.2500     6.5753   116.7031     0.1170  -999.2500  -999.2500
   16.0000  -999.2500  -999.2500  -999.2500     7.8521   115.9648    -0.0090     2.0695  -999.2500
   16.5000  -999.2500  -999.2500  -999.2500     8.1755   121.5215     0.0047     2.1823  -999.2500
   17.0000  -999.2500  -999.2500  -999.2500     6.9339   129.5308     0.0232     2.2935     0.2203
   17.5000  -999.2500  -999.2500  -999.2500     7.1200   142.1725     0.0226     2.3545     0.2098
   18.0000  -999.2500  -999.2500  -999.2500     7.2417   161.6780     0.0401     2.3542     0.2346
   18.5000  -999.2500  -999.2500  -999.2500     7.3606   162.0047     0.0610     2.3040     0.2256
   19.0000  -999.2500  -999.2500  -999.2500     7.4527   160.7371     0.0759     2.3040     0.2111
   19.5000  -999.2500  -999.2500  -999.2500     7.4764   162.9013     0.0743     2.3302     0.1965
   20.0000  -999.2500  -999.2500  -999.2500     7.5499   165.2909     0.0453     2.3556     0.1826
   20.5000  -999.2500  -999.2500  -999.2500     7.6416   167.0022     0.0241     2.3725     0.1758
   21.0000  -999.2500  -999.2500  -999.2500     7.7071   165.1580     0.0131     2.3849     0.1723
   21.5000  -999.2500  -999.2500  -999.2500     7.7255   162.2936     0.0050     2.3955     0.1698
   22.0000  -999.2500  -999.2500  -999.2500     7.7139   157.9776     0.0094     2.4045     0.1754
   22.5000  -999.2500  -999.2500  -999.2500     7.6999   150.4789     0.0160     2.3879     0.1754
   23.0000  -999.2500  -999.2500  -999.2500     7.6860   143.8563     0.0129     2.3857     0.1658
   23.5000  -999.2500  -999.2500  -999.2500     7.6723   143.8304     0.0038     2.4102     0.1666
   24.0000  -999.2500  -999.2500  -999.2500     7.6465   138.4681     0.0010     2.4105     0.1814
   24.5000  -999.2500  -999.2500  -999.2500     7.6111   131.2711     0.0025     2.3866     0.1762
   25.0000  -999.2500  -999.2500  -999.2500     7.5757   130.3027     0.0043     2.3866     0.1761
   25.5000  -999.2500  -999.2500  -999.2500     7.5409   134.0154     0.0061     2.3895     0.1765
   26.0000  -999.2500  -999.2500  -999.2500     7.4822   137.8785     0.0090     2.3921     0.1841
   26.5000  -999.2500  -999.2500  -999.2500     7.3661   138.4010     0.0174     2.3821     0.1978
   27.0000  -999.2500  -999.2500  -999.2500     7.0676   132.4984     0.0220     2.3479     0.1854
   27.5000  -999.2500  -999.2500  -999.2500     7.8543   132.3470     0.0049     2.3479     0.1944
   28.0000  -999.2500  -999.2500  -999.2500     8.0744   142.7374    -0.0130     2.3774     0.1982
   28.5000  -999.2500  -999.2500  -999.2500     7.4010   143.8529    -0.0129     2.3609     0.1878
   29.0000  -999.2500  -999.2500  -999.2500     7.4353   142.5019    -0.0124     2.3566     0.1743
   29.5000  -999.2500  -999.2500  -999.2500     7.5148   142.1079    -0.0120     2.3784     0.1646
   30.0000  -999.2500  -999.2500  -999.2500     7.5924   147.0356    -0.0115     2.4071     0.1506
   30.5000  -999.2500  -999.2500  -999.2500     7.6295   146.7707    -0.0111     2.4308     0.1716
   31.0000  -999.2500  -999.2500  -999.2500     7.6372   143.4237    -0.0102     2.4267     0.1822
   31.5000  -999.2500  -999.2500  -999.2500     7.6498   140.0470    -0.0091     2.3880     0.1738
   32.0000  -999.2500  -999.2500  -999.2500     7.7448   137.8784    -0.0080     2.3816     0.1624
   32.5000  -999.2500     6.8687  -999.2500     7.8398   138.7584    -0.0068     2.4097     0.1511
   33.0000   -40.2196     6.8604  -999.2500     7.9315   140.8533    -0.0057     2.4308     0.1410
   33.5000   -40.2196     6.8504  -999.2500     7.9475   137.1321    -0.0046     2.4483     0.1494
   34.0000   -40.2196     6.8917  -999.2500     7.9479   136.4510    -0.0035     2.4365     0.1426
   34.5000   -40.2196     6.8371  -999.2500     7.9477   136.8425    -0.0025     2.4476     0.1343
   35.0000   -40.2196     6.8288  -999.2500     7.9477   133.6422    -0.0016     2.4619     0.1354
   35.5000   -40.2196     6.8205  -999.2500     7.9477   131.1122    -0.0007     2.4616     0.1428
   36.0000   -40.2196     6.8122  -999.2500     7.9477   130.3445     0.0003     2.4523     0.1423
   36.5000   -40.2196     6.8039  -999.2500     7.9477   129.7640     0.0003     2.4490     0.1328
   37.0000   -40.2196     6.7957  -999.2500     7.9476   129.7920    -0.0043     2.4624     0.1332
   37.5000   -40.2196     6.7874  -999.2500     7.9726   130.9703    -0.0087     2.4519     0.1455
   38.0000   -40.2196     6.7792  -999.2500     8.0195   135.2505    -0.0132     2.4434     0.1411
   38.5000   -40.2196     6.7709  -999.2500     8.0665   137.3325    -0.0150     2.4446     0.1545
   39.0000   -40.2196     6.7628  -999.2500     8.0520   137.1549    -0.0151     2.4415     0.1544
   39.5000   -40.2196     6.7537  -999.2500     8.0213   137.1270    -0.0155     2.4313     0.1561
   40.0000   -40.2205     6.8578  -999.2500     7.9995   137.4273    -0.0092     2.4261     0.1592
   40.5000   -40.2220     7.0090  -999.2500     7.9839   137.7267     0.0483     2.4219     0.1601
   41.0000   -40.1708     6.9271  -999.2500     7.9668   138.0172     0.1712     2.4199     0.1598
   41.5000   -40.1265     6.8846  -999.2500     7.9085   137.9445     0.3054     2.4508     0.1581
   42.0000   -40.2668     6.8452  -999.2500     7.8476   137.8748     0.2731     2.5233     0.1555
   42.5000   -40.4404     6.8059     1.8858     7.7867   136.0787     0.2057     2.5365     0.1505
   43.0000   -40.6082     6.7667     1.9598     7.7230   133.5872     0.1617     2.4916     0.1494
   43.5000   -40.7760     6.7277     2.0367     7.7065   133.9272     0.1504     2.4251     0.1678
   44.0000   -40.9457     6.6890     2.1397     7.7060   134.3482     0.1161     2.4016     0.1674
   44.5000   -40.9758     6.6505     2.3767     7.7062   134.7639     0.0688     2.4245     0.1446
   45.0000   -40.9051     6.6299     2.5974     7.7062   135.1739     0.0208     2.4423     0.1462
