~VERSION INFORMATION
 VERS.                2.0:   CWLS LOG ASCII STANDARD - VERSION 2.0
 WRAP.                 NO:   ONE LINE PER DEPTH STEP
~WELL INFORMATION
#MNEM.UNIT      DATA TYPE    INFORMATION
#----------   ------------   ------------------------------
 STRT.F          372.0000:   START DEPTH
 STOP.F         1845.0000:   STOP DEPTH
 STEP.F            0.5000:   STEP LENGTH
 NULL.          -999.2500:   NO VALUE
 COMP.             T.H.E.:   COMPANY
 WELL. 63-1-STX-29 #63-29:   WELL
 FLD .             TEAPOT:   FIELD
 LOC .      S29 T39N R78W:   LOCATION
 CNTY.            NATRONA:   COUNTY
 STAT.            WYOMING:   STATE
 CTRY. UNITED STATES OF AMERICA:   COUNTRY
 SRVC.            Unknown:   SERVICE COMPANY
 DATE.        20-MAY-1996:   LOGDATE
 API .       490252279200:   API NUMBER
~CURVE INFORMATION
#MNEM.UNIT       API CODE    CURVE DESCRIPTION
#----------   ------------   ------------------------------
 DEPT.F                  :   
 ROP .MIN/FT 91 810 01 00:   RATE OF DRILLING PENETRATION
 TGAS.UNITS  91 830 01 00:   TOTAL GAS FROM HOTWIRE
~PARAMETER INFORMATION
#MNEM.UNIT          VALUE    DESCRIPTION
#----------   ------------   ------------------------------
 EKB .F              4983:   KELLING BUSHING
 EGL .F              4973:   GROUND LEVEL
 DATE.          5-20-1996:   RUN DATE
 RUN .                  1:   RUN NUMBER
 BLI .F              1845:   BOTTOM LOG INTERVAL
 TLI .F               372:   TOP LOG INTERVAL
 CS  .IN                7:   CASING SIZE
 CBD .F               354:   CASING BOTTOM DRILLER
 ENGI.   C. TOWER/R. HUSK:   RECORDING ENGINEER
 CLNT.            A2DTECH:   CLIENT CODE
 ORIG.           5" PRINT:   ORIGIN OF DATA
 UWI .       490252279200:   UNIQUE WELL ID
 DICO. A2D Technologies, Inc.:   DIGITIZING COMPANY
~OTHER INFORMATION
~A   DEPT        ROP     TGAS   
# ...
 1222.5000     0.8000     0.5598
 1223.0000     0.8105     0.5488
 1223.5000     0.8105     0.5379
 1224.0000     0.8211     0.5270
 1224.5000     0.6735     0.5161
 1225.0000     0.6632     0.5052
 1225.5000     0.6632     0.4942
 1226.0000     0.6737     0.4833
 1226.5000     0.6747     0.4724
 1227.0000     0.7053     0.4615
 1227.5000     0.7120     0.4506
 1228.0000     0.7053     0.4397
 1228.5000     0.7071     0.4287
 1229.0000     0.7158     0.4178
 1229.5000     0.7158     0.4069
 1230.0000     0.7158     0.3960
 1230.5000     0.7158     0.3851
 1231.0000     0.7158     0.3741
 1231.5000     0.7158     0.3632
 1232.0000     0.7158     0.3523
 1232.5000     0.7158     0.3414
 1233.0000     0.7147     0.3305
 1233.5000     0.7053     0.3195
 1234.0000     0.7053     0.3086
 1234.5000     0.7053     0.2977
 1235.0000     0.7053     0.2868
 1235.5000     0.7053     0.2759
 1236.0000     0.7053     0.2649
 1236.5000     0.7158     0.2540
 1237.0000     0.7130     0.2431
 1237.5000     0.7053     0.2322
 1238.0000     0.8105     0.2213
 1238.5000     0.8105     0.2103
 1239.0000     0.8105     0.1994
 1239.5000     0.8105     0.1885
 1240.0000     0.8105     0.1776
 1240.5000     0.8105    -0.0346
 1241.0000     0.6571     0.6075
 1241.5000     0.6632     1.6544
 1242.0000     0.6632     2.6817
 1242.5000     0.6526     3.5954
 1243.0000     0.6526     4.4396
 1243.5000     0.6526     4.7760
 1244.0000     0.6632     4.8761
 1244.5000     0.6632     4.8620
 1245.0000     0.6693     4.4688
 1245.5000     0.7224     4.0532
 1246.0000     0.8105     3.6755
 1246.5000     0.8000     2.9349
 1247.0000     0.8000     2.1741
 1247.5000     0.8000     0.9149
 1248.0000     0.8022     0.2910
 1248.5000     1.0421    -0.1831
 1249.0000     1.0421    -0.3318
 1249.5000     1.0421    -0.3235
 1250.0000     1.0421    -0.3169
 1250.5000     1.0421    -0.3095
 1251.0000     1.0421    -0.5138
 1251.5000     1.0484    -0.5055
 1252.0000     1.0526    -0.4971
 1252.5000     1.0526    -0.5803
 1253.0000     1.0526    -0.6959
 1253.5000     1.0526    -0.8988
 1254.0000     1.0292    -0.8904
 1254.5000     0.6632    -0.8842
 1255.0000     0.6632    -0.6655
 1255.5000     0.6737    -0.6581
 1256.0000     0.6737    -0.6499
 1256.5000     0.6737    -0.6433
 1257.0000     0.6737    -0.6359
 1257.5000     0.6737    -0.6285
 1258.0000     0.6737    -0.6207
 1258.5000     0.8105    -0.6123
 1259.0000     0.8000    -0.5151
 1259.5000     0.8000    -0.3877
 1260.0000     0.8000    -0.3802
 1260.5000     0.8000    -0.1605
 1261.0000     0.8000    -0.1542
 1261.5000     0.8000    -0.1468
 1262.0000     0.8000    -0.1394
 1262.5000     0.8000    -0.1313
 1263.0000     0.8000    -0.1246
 1263.5000     0.8000    -0.1173
 1264.0000     0.8000    -0.1099
 1264.5000     0.8065    -0.1021
 1265.0000     0.8105     0.1176
 1265.5000     0.8105     0.1236
 1266.0000     0.8105     0.1310
 1266.5000     0.8105     0.3497
 1267.0000     0.8154     0.7806
 1267.5000     0.8316     0.8972
 1268.0000     0.8211     1.0056
 1268.5000     1.0526     1.0130
 1269.0000     1.0526     1.0211
 1269.5000     1.0526     1.0278
 1270.0000     1.0517     1.1137
 1270.5000     1.0421     1.2539
 1271.0000     1.0421     1.0504
 1271.5000     1.0421     1.0587
 1272.0000     1.0421     1.0648
 1272.5000     1.0421     1.0722
 1273.0000     1.0421     1.0796
 1273.5000     1.0421     0.8757
 1274.0000     1.0526     0.7708
 1274.5000     0.8526     0.6780
 1275.0000     0.8526     0.4751
 1275.5000     0.8468     0.4834
 1276.0000     0.8595     0.4901
 1276.5000     1.0632     0.4169
 1277.0000     1.0526     0.2930
 1277.5000     1.0526     0.3014
 1278.0000     1.0421     0.5210
 1278.5000     1.0421     0.5271
 1279.0000     1.0421     0.5345
 1279.5000     1.0526     0.7532
 1280.0000     1.0475     0.7615
 1280.5000     1.2658     0.7680
 1281.0000     1.2737     0.7754
 1281.5000     1.2842     0.7827
 1282.0000     1.3007     0.7908
 1282.5000     1.4842     0.9288
 1283.0000     1.4842     1.0162
 1283.5000     1.4842     1.0236
 1284.0000     1.1043     1.0313
 1284.5000     0.8000     1.1681
 1285.0000     0.8000     1.2570
 1285.5000     0.8000     1.2644
 1286.0000     0.8000     1.2718
 1286.5000     0.8000     1.2801
 1287.0000     0.8000     1.1701
 1287.5000     0.8000     1.0814
 1288.0000     0.8000     1.0901
 1288.5000     0.8000     1.0981
 1289.0000     0.8000     1.1049
 1289.5000     0.7988     1.1123
 1290.0000     0.7895     1.0836
 1290.5000     0.7789     0.9158
 1291.0000     0.7745     0.9244
 1291.5000     0.7684     0.9306
 1292.0000     0.7684     0.7257
 1292.5000     1.0421     0.7342
 1293.0000     1.0263     0.7424
 1293.5000     1.0105     0.7489
 1294.0000     1.0110     0.5437
 1294.5000     1.0211     0.5525
 1295.0000     1.0377     0.5604
 1295.5000     1.0421     0.5673
 1296.0000     1.0011     0.4877
 1296.5000     0.7053     0.3700
 1297.0000     0.6947     0.3784
 1297.5000     0.6947     0.3867
 1298.0000     1.0421     0.3930
 1298.5000     1.0316     0.1880
 1299.0000     1.0421    -0.0149
 1299.5000     1.0261    -0.0066
 1300.0000     1.0211     0.0000
 1300.5000     1.0105     0.2172
 1301.0000     1.0000     0.0143
 1301.5000     0.9937     0.0444
 1302.0000     0.9789     0.0592
 1302.5000     0.9789     0.0739
 1303.0000     0.9895     0.0897
 1303.5000     1.0000     0.1064
 1304.0000     0.8606     0.1183
 1304.5000     0.7684     0.1331
 1305.0000     0.7684     0.1483
 1305.5000     0.7579     0.1650
 1306.0000     0.7901     0.1775
 1306.5000     0.9691     0.2449
 1307.0000     0.9692     0.4183
 1307.5000     0.9903     0.4331
 1308.0000     0.9903     0.4479
 1308.5000     0.9798     0.4627
 1309.0000     0.6169     0.4775
 1309.5000     0.6249     0.4935
 1310.0000     0.6329     0.5070
 1310.5000     0.6537     0.5218
 1311.0000     0.6595     0.5055
 1311.5000     0.6644     0.3401
 1312.0000     0.6644     0.5689
 1312.5000     0.6645     0.3697
 1313.0000     0.6645     0.5940
 1313.5000     0.6646     0.6107
 1314.0000     0.6646     0.6275
 1314.5000     0.6647     0.6401
 1315.0000     0.6647     0.4413
 1315.5000     0.6543     0.6697
 1316.0000     0.6673     0.6845
 1316.5000     0.8134     0.6993
 1317.0000     0.8018     0.7141
 1317.5000     0.7913     0.7289
 1318.0000     0.7914     0.7447
 1318.5000     0.8019     0.7584
 1319.0000     0.8020     0.6867
 1319.5000     0.8067     0.5753
 1320.0000     0.8147     0.8033
 1320.5000     0.8232     0.7562
 1321.0000     0.8233     0.8324
 1321.5000     0.8233     0.8472
 1322.0000     0.8234     0.8620
 1322.5000     0.8234     0.8786
 1323.0000     0.8340     0.8915
 1323.5000     0.8341     0.9063
 1324.0000     0.8236     0.9205
 1324.5000     0.8233     0.9023
 1325.0000     0.8132     0.9507
 1325.5000     0.7970     0.9655
 1326.0000     0.9629     0.9803
 1326.5000     1.0034     0.9959
 1327.0000     1.0239     1.0126
 1327.5000     1.0345     1.0246
 1328.0000     1.0381     1.0394
 1328.5000     1.0451     1.0545
 1329.0000     1.0557     1.0712
 1329.5000     1.0768     1.0838
 1330.0000     1.0444     1.0986
 1330.5000     0.6453     1.1134
 1331.0000     0.6559     1.1298
 1331.5000     0.6665     1.1430
 1332.0000     0.6665     1.1577
 1332.5000     0.6666     1.1725
 1333.0000     0.6666     1.1873
 1333.5000     0.6667     1.2021
 1334.0000     0.6667     1.2169
 1334.5000     0.6668     1.2317
 1335.0000     0.6668     1.2470
 1335.5000     0.6564     1.2638
 1336.0000     0.6564     1.2761
 1336.5000     0.6565     1.2908
 1337.0000     0.6565     1.3056
 1337.5000     0.6566     1.3224
 1338.0000     0.6566     1.3352
 1338.5000     0.6989     1.3500
 1339.0000     0.8254     1.3648
 1339.5000     0.8357     1.3810
 1340.0000     0.8415     1.1409
 1340.5000     0.8464     0.5641
 1341.0000     0.8464     0.5789
 1341.5000     0.8465     0.5945
 1342.0000     0.8465     0.3972
 1342.5000     0.8466     0.4120
 1343.0000     0.8466     0.4268
 1343.5000     0.8467     0.4418
