~VERSION INFORMATION
 VERS.                2.0:   CWLS LOG ASCII STANDARD - VERSION 2.0
 WRAP.                 NO:   ONE LINE PER DEPTH STEP
~WELL INFORMATION
#MNEM.UNIT      DATA TYPE    INFORMATION
#----------   ------------   ------------------------------
 STRT.F         1378.5000:   START DEPTH
 STOP.F         2344.0000:   STOP DEPTH
 STEP.F            0.5000:   STEP LENGTH
 NULL.          -999.2500:   NO VALUE
 COMP. BROWN JOHN E&C INC:   COMPANY
 WELL. NAVAL PETROLEUM RESERVE 3 STX- #26-10:   WELL
 FLD .             TEAPOT:   FIELD
 LOC .      S10 T38N R78W:   LOCATION
 CNTY.            NATRONA:   COUNTY
 STAT.            WYOMING:   STATE
 CTRY. UNITED STATES OF AMERICA:   COUNTRY
 SRVC.            Unknown:   SERVICE COMPANY
 DATE.        22-MAY-1991:   LOGDATE
 API .       490251107400:   API NUMBER
~CURVE INFORMATION
#MNEM.UNIT       API CODE    CURVE DESCRIPTION
#----------   ------------   ------------------------------
 DEPT.F                  :   
 ROP .MIN/FT 91 810 01 00:   RATE OF DRILLING PENETRATION
 TGAS.UNITS  91 830 01 00:   TOTAL GAS FROM HOTWIRE
~PARAMETER INFORMATION
#MNEM.UNIT          VALUE    DESCRIPTION
#----------   ------------   ------------------------------
 EKB .F              5231:   KELLING BUSHING
 EGL .F              5221:   GROUND LEVEL
 DATE.            5-22-91:   RUN DATE
 DD  .F              2343:   DEPTH DRILLER
 BLI .F              2343:   BOTTOM LOG INTERVAL
 TLI .F              1378:   TOP LOG INTERVAL
 CS  .IN            8.625:   CASING SIZE
 CBD .F               709:   CASING BOTTOM DRILLER
 TCS .HRS            0030:   TIME CURCULATED STOPPED
 TLAB.HRS            0415:   TIME LOGGER AT BOTTOM
 ENGI.              TOWER:   RECORDING ENGINEER
 WITN.               HUSK:   WITNESSED BY
 CLNT.            A2DTECH:   CLIENT CODE
 ORIG.           5" PRINT:   ORIGIN OF DATA
 UWI .       490251107400:   UNIQUE WELL ID
 DICO. A2D Technologies, Inc.:   DIGITIZING COMPANY
~OTHER INFORMATION
~A  DEPT         ROP       TGAS 
# ...
 1986.0000     0.4768    17.5469
 1986.5000     0.4758    17.5187
 1987.0000     0.4749    17.4905
 1987.5000     0.4739    17.4623
 1988.0000     0.4729    17.4341
 1988.5000     0.4720    17.4058
 1989.0000     0.4710    17.3776
 1989.5000     0.4699    17.3494
 1990.0000     0.3831    17.3212
 1990.5000     0.3721    17.2930
 1991.0000     0.3725    17.2648
 1991.5000     0.3728    17.2365
 1992.0000     0.3732    17.2083
 1992.5000     0.3736    17.1801
 1993.0000     0.3740    17.1519
 1993.5000     0.3743    17.1237
 1994.0000     0.3747    17.0954
 1994.5000     0.3751    17.0672
 1995.0000     0.3755    17.0390
 1995.5000     0.3759    17.0108
 1996.0000     0.3762    16.9826
 1996.5000     0.3766    16.9544
 1997.0000     0.3770    16.9261
 1997.5000     0.3774    16.8979
 1998.0000     0.3778    16.8697
 1998.5000     0.3781    16.8415
 1999.0000     0.3785    16.8133
 1999.5000     0.3790    16.7851
 2000.0000     0.3923    16.7568
 2000.5000     0.4111    16.7599
 2001.0000     0.4649    16.7729
 2001.5000     0.4864    16.7859
 2002.0000     0.4861    16.7989
 2002.5000     0.4805    16.8119
 2003.0000     0.4718    16.8249
 2003.5000     0.4591    16.8379
 2004.0000     0.3879    16.8509
 2004.5000     0.3865    16.8639
 2005.0000     0.3850    16.8769
 2005.5000     0.3834    16.8899
 2006.0000     0.3819    16.9029
 2006.5000     0.3803    16.9159
 2007.0000     0.3788    16.9289
 2007.5000     0.3772    16.9419
 2008.0000     0.4063    16.9549
 2008.5000     0.4464    16.9679
 2009.0000     0.4959    16.9809
 2009.5000     0.5499    16.9939
 2010.0000     0.6039    17.0069
 2010.5000     0.6472    17.0199
 2011.0000     0.6483    17.0329
 2011.5000     0.6494    17.0459
 2012.0000     0.6505    17.0589
 2012.5000     0.6516    17.0719
 2013.0000     0.6527    17.0849
 2013.5000     0.6538    17.0979
 2014.0000     0.6549    17.1109
 2014.5000     0.6561    17.1239
 2015.0000     0.6491    17.1369
 2015.5000     0.6088    17.1499
 2016.0000     0.5685    17.1629
 2016.5000     0.5282    17.1759
 2017.0000     0.5391    17.1889
 2017.5000     0.5726    17.2020
 2018.0000     0.6061    17.2150
 2018.5000     0.6396    17.2280
 2019.0000     0.6731    17.2410
 2019.5000     0.7066    17.2540
 2020.0000     0.7401    17.2670
 2020.5000     0.7329    17.2800
 2021.0000     0.6996    17.2930
 2021.5000     0.6662    17.3060
 2022.0000     0.6329    17.3190
 2022.5000     0.6110    17.3320
 2023.0000     0.6080    17.3450
 2023.5000     0.6051    17.3580
 2024.0000     0.6021    17.3710
 2024.5000     0.6298    17.3840
 2025.0000     0.6829    17.3970
 2025.5000     0.7057    17.4100
 2026.0000     0.6995    17.4230
 2026.5000     0.6396    17.4360
 2027.0000     0.5587    17.4490
 2027.5000     0.4778    17.4620
 2028.0000     0.3969    17.4750
 2028.5000     0.3589    17.4880
 2029.0000     0.3537    17.5010
 2029.5000     0.3485    17.5140
 2030.0000     0.3432    17.5270
 2030.5000     0.3550    17.5400
 2031.0000     0.4009    17.5530
 2031.5000     0.4468    17.5660
 2032.0000     0.4927    17.5806
 2032.5000     0.5341    17.5919
 2033.0000     0.5340    17.6471
 2033.5000     0.5339    17.9062
 2034.0000     0.5338    18.1653
 2034.5000     0.5337    18.4243
 2035.0000     0.5335    18.9468
 2035.5000     0.5078    19.9591
 2036.0000     0.4909    21.5505
 2036.5000     0.4924    22.2042
 2037.0000     0.4939    23.7246
 2037.5000     0.4954    24.9067
 2038.0000     0.4969    26.7558
 2038.5000     0.4984    28.9903
 2039.0000     0.5002    31.5086
 2039.5000     0.5448    33.5518
 2040.0000     0.5990    36.2592
 2040.5000     0.6532    38.2328
 2041.0000     0.7074    40.5803
 2041.5000     0.7615    43.6021
 2042.0000     0.8150    45.3320
 2042.5000     0.7816    47.4401
 2043.0000     0.6685    49.6530
 2043.5000     0.5554    49.6654
 2044.0000     0.4677    49.6783
 2044.5000     0.4725    49.6980
 2045.0000     0.4774    49.7678
 2045.5000     0.4822    49.8376
 2046.0000     0.4879    49.9074
 2046.5000     0.5619    49.9772
 2047.0000     0.6524    50.0470
 2047.5000     0.7429    50.1168
 2048.0000     0.8024    50.1866
 2048.5000     0.7608    50.2564
 2049.0000     0.7193    50.3262
 2049.5000     0.6778    50.3960
 2050.0000     0.6362    50.4658
 2050.5000     0.5947    50.5356
 2051.0000     0.5531    50.6054
 2051.5000     0.5116    50.6752
 2052.0000     0.4995    50.7435
 2052.5000     0.5025    50.7474
 2053.0000     0.5055    50.7513
 2053.5000     0.5085    50.7552
 2054.0000     0.5115    50.7592
 2054.5000     0.5146    50.7631
 2055.0000     0.5176    50.7670
 2055.5000     0.5510    50.7710
 2056.0000     0.5952    50.7749
 2056.5000     0.6140    50.7788
 2057.0000     0.6112    50.7827
 2057.5000     0.6084    50.7867
 2058.0000     0.6056    50.7906
 2058.5000     0.6028    50.7945
 2059.0000     0.6000    50.7984
 2059.5000     0.5972    50.8024
 2060.0000     0.5944    50.8063
 2060.5000     0.5916    50.8102
 2061.0000     0.5905    50.8142
 2061.5000     0.6208    50.8181
 2062.0000     0.6550    50.8220
 2062.5000     0.6764    50.8259
 2063.0000     0.6762    50.8299
 2063.5000     0.6760    50.8338
 2064.0000     0.6758    50.8377
 2064.5000     0.6755    50.8416
 2065.0000     0.6753    50.8456
 2065.5000     0.6751    50.8495
 2066.0000     0.6632    50.8534
 2066.5000     0.6422    50.8573
 2067.0000     0.6203    50.8613
 2067.5000     0.6128    50.8652
 2068.0000     0.5983    50.8691
 2068.5000     0.5924    50.8731
 2069.0000     0.5870    50.8770
 2069.5000     0.5876    50.8809
 2070.0000     0.5924    50.8848
 2070.5000     0.5972    50.8888
 2071.0000     0.5893    50.8927
 2071.5000     0.5980    50.8966
 2072.0000     0.6073    50.9005
 2072.5000     0.5937    50.9045
 2073.0000     0.5636    50.9084
 2073.5000     0.5418    50.9123
 2074.0000     0.5199    50.9163
 2074.5000     0.4980    50.9202
 2075.0000     0.5145    50.9241
 2075.5000     0.5463    50.9280
 2076.0000     0.5624    50.9320
 2076.5000     0.5729    50.9359
 2077.0000     0.5835    50.9398
 2077.5000     0.5833    50.9437
 2078.0000     0.5831    50.9477
 2078.5000     0.5829    50.9516
 2079.0000     0.5826    50.9555
 2079.5000     0.5825    50.9595
 2080.0000     0.5837    50.9634
 2080.5000     0.5929    50.9673
 2081.0000     0.5891    50.9712
 2081.5000     0.5837    50.9752
 2082.0000     0.6031    50.9791
 2082.5000     0.6158    50.9830
 2083.0000     0.6675    50.9869
 2083.5000     0.6832    50.9909
 2084.0000     0.7104    50.9948
 2084.5000     0.6885    50.9987
 2085.0000     0.6450    51.0027
 2085.5000     0.6015    51.0066
 2086.0000     0.5796    51.0105
 2086.5000     0.5721    51.0144
 2087.0000     0.5576    51.0184
 2087.5000     0.5574    51.0223
 2088.0000     0.5571    51.0262
 2088.5000     0.5569    51.0301
 2089.0000     0.5567    51.0341
 2089.5000     0.5634    51.0380
 2090.0000     0.5749    51.0419
 2090.5000     0.6039    51.0458
 2091.0000     0.6532    51.0498
 2091.5000     0.6772    51.0537
 2092.0000     0.6853    51.0576
 2092.5000     0.6417    51.0616
 2093.0000     0.5874    51.0655
 2093.5000     0.5656    51.0694
 2094.0000     0.5437    51.0733
 2094.5000     0.5326    51.0773
 2095.0000     0.4999    51.0812
 2095.5000     0.4673    51.0851
 2096.0000     0.4461    51.0890
 2096.5000     0.4184    51.0930
 2097.0000     0.3801    51.0969
 2097.5000     0.3690    51.1008
 2098.0000     0.3580    51.1048
 2098.5000     0.3578    51.1087
 2099.0000     0.3576    51.1126
 2099.5000     0.3574    51.1165
 2100.0000     0.3571    51.1205
 2100.5000     0.3424    51.1188
 2101.0000     0.3180    51.1146
 2101.5000     0.2936    51.1103
 2102.0000     0.2820    51.1061
 2102.5000     0.2848    51.1018
 2103.0000     0.2877    51.0975
 2103.5000     0.2905    51.0933
 2104.0000     0.2933    51.0890
 2104.5000     0.2962    51.0848
 2105.0000     0.2990    51.0805
 2105.5000     0.3065    51.0762
 2106.0000     0.3206    51.0720
 2106.5000     0.3348    51.0677
 2107.0000     0.3433    51.0635
