~VERSION INFORMATION
 VERS.                2.0:   CWLS LOG ASCII STANDARD - VERSION 2.0
 WRAP.                 NO:   ONE LINE PER DEPTH STEP
~WELL INFORMATION
#MNEM.UNIT      DATA TYPE    INFORMATION
#----------   ------------   ------------------------------
 STRT.F            7.0000:   START DEPTH
 STOP.F          480.0000:   STOP DEPTH
 STEP.F            0.1000:   STEP LENGTH
 NULL.          -999.2500:   NO VALUE
 COMP.       F D SERV INC:   COMPANY
 WELL.    67-2 SX-3 #67-3:   WELL
 FLD .          N.P.R. #3:   FIELD
 LOC .       S3 T38N R78W:   LOCATION
 CNTY.            NATRONA:   COUNTY
 STAT.            WYOMING:   STATE
 CTRY. UNITED STATES OF AMERICA:   COUNTRY
 SRVC.     Atlas Wireline:   SERVICE COMPANY
 DATE.        12-FEB-1992:   LOGDATE
 API .       490252250400:   API NUMBER
~CURVE INFORMATION
#MNEM.UNIT       API CODE    CURVE DESCRIPTION
#----------   ------------   ------------------------------
 DEPT.F                  :   
 SPR .MV     07 010 01 00:   SPONTANEOUS POTENTIAL
 GRR .GAPI   07 310 01 00:   GAMMA RAY
 RILD.OHMM   07 120 46 00:   INDUCTION LOG DEEP RESISTIVITY
 RILM.OHMM   07 120 44 00:   INDUCTION LOG MEDIUM RESISTIVITY
 RFOC.OHMM   07 220 04 00:   RESISTIVITY FOCUSED LOG
~PARAMETER INFORMATION
#MNEM.UNIT          VALUE    DESCRIPTION
#----------   ------------   ------------------------------
 PD  .                 GL:   PERMANENT DATUM
 EPD .F              5165:   ELEVATION PERMANENT DATUM
 LMF .                 KB:   LOG MEASURED FROM
 DAPD.F                10:   FEET ABOVE PERMANENT DATUM
 DMF .                 KB:   DRILLING MEASURED FROM
 EKB .F              5175:   KELLING BUSHING
 EDF .F              5174:   DRILLING FLOOR
 EGL .F              5165:   GROUND LEVEL
 DATE.        12-FEB-1992:   RUN DATE
 RUN .                  1:   RUN NUMBER
 DD  .F               487:   DEPTH DRILLER
 DL  .F               485:   DEPTH LOGGER
 BLI .F               482:   BOTTOM LOG INTERVAL
 CS  .IN            8.625:   CASING SIZE
 CBD .F               183:   CASING BOTTOM DRILLER
 CBL .F               186:   CASING BOTTOM LOGGER
 BS  .IN            7.875:   BIT SIZE
 BSD .F               487:   BIT SIZE AT DEPTH
 DFT .           CHEM GEL:   DRILLING FLUID TYPE
 DFD .               16.1:   DRILLING FLUID DENSITY
 DFV .                 43:   DRILLING FLUID VISCOSITY
 DFPH.                9.5:   DRILLING FLUID PH
 DFL .               11.8:   DRILLING FLUID LOSS
 MSS .           MUD TANK:   MUD SAMPLE SOURCE
 RMS .OHMM           2.36:   RESISTIVITY MUD SAMPLE
 MST .F                65:   MUD SAMPLE TEMPERATURE
 RMF .OHMM           1.17:   RESISTIVITY MUD FILTRATE SAMPLE
 MFST.F                65:   MUD FILTRATE SAMPLE TEMPERATURE
 RMC .OHMM           5.18:   RESISTIVITY MUD CAKE
 MCST.F                65:   MUD CAKE SAMPLE TEMPERATURE
 MFSS.               MEAS:   MUD FILTRATE SAMPLE SOURCE
 MCSS.               CALC:   MUD CAKE SAMPLE SOURCE
 RMB .OHMM           1.67:   RESISTIVITY MUD AT BHT
 BHT .F                92:   BOTTOM HOLE TEMPERATURE
 TCS .HRS               2:   TIME CURCULATED STOPPED
 MRT .F                92:   MAXIMUM RECORDED TEMPERATURE
 LUN .           HL- 6224:   LOGGING UNIT NUMBER
 LUL .             CASPER:   LOGGING UNIT LOCATION
 ENGI.        VERN RAUTIO:   RECORDING ENGINEER
 WITN.        GARY STRONG:   WITNESSED BY
 CLNT.            A2DTECH:   CLIENT CODE
 ORIG.           5" PRINT:   ORIGIN OF DATA
 UWI .       490252250400:   UNIQUE WELL ID
 DICO. A2D Technologies, Inc.:   DIGITIZING COMPANY
~OTHER INFORMATION
~A    DEPT     SPR        GRR       RILD       RILM       RFOC   
# ...
  275.4000   -43.3122    60.6761    18.5511    18.0445    18.1411
  275.5000   -43.3108    59.2546    18.7286    18.1557    18.5209
  275.6000   -43.3093    58.2805    18.8921    18.3936    18.7999
  275.7000   -43.3078    57.0827    18.9986    18.4829    19.0149
  275.8000   -43.2819    55.8849    19.1068    18.5881    19.2074
  275.9000   -43.1546    54.7251    19.2133    18.6939    19.3172
  276.0000   -42.9170    53.8901    19.4047    18.8002    19.3175
  276.1000   -42.8514    53.6948    19.5665    18.9142    19.4026
  276.2000   -42.7266    53.6024    19.6767    18.9142    19.4532
  276.3000   -42.5147    53.6090    19.7875    18.9901    19.4535
  276.4000   -42.3912    53.6156    19.9185    19.0982    19.4537
  276.5000   -42.2445    53.6231    20.0113    19.1800    19.4540
  276.6000   -42.1444    53.8347    20.1241    19.1818    19.4543
  276.7000   -41.9503    54.2291    20.2375    19.2910    19.3155
  276.8000   -41.7049    54.8054    20.3367    19.3143    18.9680
  276.9000   -41.4738    55.6215    20.3357    19.3143    18.4543
  277.0000   -41.3362    57.2542    20.4384    19.3143    18.0190
  277.1000   -41.1190    57.8926    20.4764    19.3143    17.6354
  277.2000   -40.9533    59.0776    20.5256    19.3143    17.3809
  277.3000   -40.7785    60.5295    20.6182    19.2194    17.1848
  277.4000   -40.5333    62.0493    20.6172    19.1106    17.0165
  277.5000   -40.2777    64.1836    20.6163    19.0466    16.9203
  277.6000   -40.1594    65.4848    20.7013    19.0466    16.8069
  277.7000   -39.9473    66.6229    20.8180    19.0466    16.8850
  277.8000   -39.7624    67.3971    20.9035    19.0466    17.1534
  277.9000   -39.6390    67.9244    20.9067    19.0466    17.5113
  278.0000   -39.5196    68.7142    21.0479    19.1000    17.8257
  278.1000   -39.5177    69.1621    21.0472    19.2086    18.2749
  278.2000   -39.4188    69.3265    21.1145    19.3215    18.6556
  278.3000   -39.4343    69.1272    21.1928    19.5857    19.0109
  278.4000   -39.5135    68.6081    21.2045    19.6753    19.2881
  278.5000   -39.5251    67.8475    21.3393    19.7873    19.4839
  278.6000   -39.6605    66.9499    21.4443    19.8609    19.5958
  278.7000   -39.6591    65.6592    21.4870    19.8609    19.8188
  278.8000   -39.6577    64.4366    21.5359    19.8609    19.8716
  278.9000   -39.6562    63.5286    21.6358    19.9611    19.8718
  279.0000   -39.6546    62.7829    21.6347    20.0000    19.8024
  279.1000   -39.6531    61.8657    21.7496    20.0000    19.5696
  279.2000   -39.6516    60.9088    21.7844    20.0000    19.1919
  279.3000   -39.6502    60.2907    21.7835    20.0000    19.0991
  279.4000   -39.7079    60.1643    21.7826    20.0000    19.0590
  279.5000   -39.7973    60.4169    21.7817    20.0000    19.1467
  279.6000   -39.7958    60.8951    21.9060    20.0579    19.3463
  279.7000   -39.7943    61.3835    21.9323    20.1400    19.4627
  279.8000   -39.7928    61.8719    21.9314    20.1457    19.6736
  279.9000   -39.7913    62.3602    21.9697    20.2811    19.8174
  280.0000   -39.7898    62.8486    22.0832    20.3757    19.9305
  280.1000   -39.7883    63.0961    22.0821    20.4917    20.0443
  280.2000   -39.7866    63.3435    22.0813    20.6083    20.1628
  280.3000   -39.7853    63.5910    22.0803    20.7255    20.4379
  280.4000   -39.7838    63.7105    22.0794    20.8551    20.6272
  280.5000   -39.7823    63.4713    22.0975    20.9622    20.7254
  280.6000   -39.7808    62.9961    22.2321    21.1624    20.7257
  280.7000   -39.7792    62.3340    22.2312    21.3499    20.7260
  280.8000   -39.8923    61.4900    22.2303    21.4976    20.7263
  280.9000   -39.9264    60.4642    22.2867    21.7467    20.7266
  281.0000   -39.9829    59.2364    22.3841    21.7467    20.7269
  281.1000   -40.0735    57.3159    22.3831    21.8401    20.6234
  281.2000   -40.0721    56.1631    22.3822    21.8990    20.4154
  281.3000   -40.1941    55.6050    22.3813    21.9358    20.2987
  281.4000   -40.2192    55.4447    22.3803    22.0523    20.1854
  281.5000   -40.2847    55.4663    22.3794    22.0523    19.9851
  281.6000   -40.4052    55.7589    22.3784    22.0523    19.7597
  281.7000   -40.5256    56.1581    22.3773    22.1285    19.4699
  281.8000   -40.6634    56.6465    22.4817    22.2067    19.0485
  281.9000   -40.7664    57.1348    22.5323    22.2254    18.8017
  282.0000   -40.8108    57.6232    22.5313    22.3622    18.5320
  282.1000   -40.8571    58.1906    22.5469    22.3622    18.4130
  282.2000   -40.9776    58.3980    22.6871    22.4499    18.4966
  282.3000   -41.1065    58.7884    22.6863    22.5188    18.7262
  282.4000   -41.2184    59.1928    22.6854    22.5188    19.0670
  282.5000   -41.4239    59.4403    22.7401    22.5188    19.3763
  282.6000   -41.6094    59.7227    22.8425    22.6470    19.7098
  282.7000   -41.7585    59.9352    22.8413    22.6765    20.1050
  282.8000   -42.0007    60.1827    22.8404    22.6765    20.5668
  282.9000   -42.2432    60.3412    22.9346    22.6765    21.0310
  283.0000   -42.6737    60.3179    22.9983    22.6765    21.3190
  283.1000   -43.1599    60.0554    22.9974    22.6765    21.5153
  283.2000   -43.6085    59.8493    23.0012    22.6765    21.8334
  283.3000   -43.9821    59.4621    23.1563    22.6765    22.1643
  283.4000   -44.5433    58.9869    23.1555    22.6765    22.4176
  283.5000   -44.7483    58.5119    23.1545    22.6765    22.7012
  283.6000   -44.9158    57.9893    23.1536    22.6765    22.9336
  283.7000   -45.0362    57.5614    23.1665    22.6765    23.1960
  283.8000   -45.1566    57.0862    23.3136    22.6765    23.4026
  283.9000   -45.2867    56.6111    23.3127    22.6765    23.5361
  284.0000   -45.3974    56.1360    23.3118    22.6765    23.6727
  284.1000   -45.5179    55.6233    23.3108    22.6744    23.8057
  284.2000   -45.6383    54.9637    23.3331    22.5461    23.7369
  284.3000   -45.7587    54.2476    23.4720    22.5188    23.5325
  284.4000   -45.8799    54.1553    23.4711    22.5188    23.2276
  284.5000   -45.8784    54.9293    23.4701    22.5188    22.8255
  284.6000   -45.9698    55.9560    23.4691    22.5188    22.2348
  284.7000   -46.0902    56.6429    23.4682    22.5188    21.8134
  284.8000   -46.1742    57.2042    23.4672    22.4082    21.3240
  284.9000   -46.1727    57.9104    23.4661    22.3622    20.8450
  285.0000   -46.1709    58.8304    23.4651    22.3622    20.3396
  285.1000   -46.1697    59.5871    23.4642    22.3622    19.6136
  285.2000   -46.1682    60.2891    23.4214    22.3622    19.4067
  285.3000   -46.1667    60.4995    23.2991    22.2420    19.4993
  285.4000   -46.1824    60.5061    23.2980    22.2067    19.7224
  285.5000   -46.3137    60.5127    23.2972    22.2067    19.9479
  285.6000   -46.4232    60.5194    23.2962    22.1738    20.1758
  285.7000   -46.5437    59.8153    23.2446    22.0483    20.4068
  285.8000   -46.6641    59.4551    23.1323    21.8990    20.7348
  285.9000   -46.7845    58.9829    23.1312    21.8990    21.0226
  286.0000   -46.9069    58.3268    23.1303    21.8279    21.2630
  286.1000   -47.1453    57.8506    23.0396    21.7467    21.5060
  286.2000   -47.2958    57.1346    22.9676    21.7326    21.7794
  286.3000   -47.4163    56.7844    22.9377    21.5955    21.8900
  286.4000   -47.5367    56.4262    22.8059    21.5955    22.0982
  286.5000   -47.6502    55.8210    22.8050    21.5955    22.2406
  286.6000   -47.6484    54.8761    22.7066    21.5955    22.2671
  286.7000   -47.7478    54.4010    22.5775    21.5715    22.3968
  286.8000   -47.7958    54.4895    22.4491    21.4453    22.2731
  286.9000   -47.7943    54.7370    22.3213    21.4453    22.2418
  287.0000   -47.7928    55.1245    22.1725    21.4453    22.1107
  287.1000   -47.7911    55.8317    22.1718    21.4453    21.8977
  287.2000   -47.7898    56.1285    22.0965    21.4453    21.7571
  287.3000   -47.7883    56.7124    22.0157    21.4453    21.3318
  287.4000   -47.7868    57.4416    21.9986    21.4453    20.9300
  287.5000   -47.7853    58.1710    21.8607    21.4453    20.5309
