~VERSION INFORMATION
 VERS.                2.0:   CWLS LOG ASCII STANDARD - VERSION 2.0
 WRAP.                 NO:   ONE LINE PER DEPTH STEP
~WELL INFORMATION
#MNEM.UNIT      DATA TYPE    INFORMATION
#----------   ------------   ------------------------------
 STRT.F          695.0000:   START DEPTH
 STOP.F         1588.0000:   STOP DEPTH
 STEP.F            0.5000:   STEP LENGTH
 NULL.          -999.2500:   NO VALUE
 COMP. FENIX & SCISSON INC:   COMPANY
 WELL. 13 SHX 10 STX #13-10:   WELL
 FLD .             TEAPOT:   FIELD
 LOC .      S10 T38N R78W:   LOCATION
 CNTY.            NATRONA:   COUNTY
 STAT.            WYOMING:   STATE
 CTRY. UNITED STATES OF AMERICA:   COUNTRY
 SRVC.            Unknown:   SERVICE COMPANY
 DATE.        22-JUL-1979:   LOGDATE
 API .       490251078700:   API NUMBER
~CURVE INFORMATION
#MNEM.UNIT       API CODE    CURVE DESCRIPTION
#----------   ------------   ------------------------------
 DEPT.F                  :   
 CORR.G/C3   45 356 01 00:   DENSITY CORRECTION
 RHOB.G/C3   45 350 01 00:   BULK DENSITY
 CALD.IN     45 280 60 00:   CALIPER
 GRD .GAPI   45 310 01 00:   GAMMA RAY FROM DENSITY LOG
 DPHI.DEC    45 890 12 00:   DENSITY POROSITY SANDSTONE
~PARAMETER INFORMATION
#MNEM.UNIT          VALUE    DESCRIPTION
#----------   ------------   ------------------------------
 PD  .                 GL:   PERMANENT DATUM
 EPD .F              5306:   ELEVATION PERMANENT DATUM
 LMF .                 DF:   LOG MEASURED FROM
 DAPD.F                 9:   FEET ABOVE PERMANENT DATUM
 DMF .                 KB:   DRILLING MEASURED FROM
 EKB .F              5316:   KELLING BUSHING
 EDF .F              5315:   DRILLING FLOOR
 EGL .F              5306:   GROUND LEVEL
 DATE.            7-22-79:   RUN DATE
 RUN .                  1:   RUN NUMBER
 DD  .F              1595:   DEPTH DRILLER
 DL  .F              1588:   DEPTH LOGGER
 BLI .F              1588:   BOTTOM LOG INTERVAL
 TLI .F               700:   TOP LOG INTERVAL
 CS  .IN            9.625:   CASING SIZE
 CBD .F               950:   CASING BOTTOM DRILLER
 CBL .F               950:   CASING BOTTOM LOGGER
 BS  .IN             8.75:   BIT SIZE
 BSD .F              1595:   BIT SIZE AT DEPTH
 DFT .                OIL:   DRILLING FLUID TYPE
 TCS .HRS               2:   TIME CURCULATED STOPPED
 LUN .               2959:   LOGGING UNIT NUMBER
 LUL .             CASPER:   LOGGING UNIT LOCATION
 ENGI.            ROLLINS:   RECORDING ENGINEER
 WITN.           DINSMORE:   WITNESSED BY
 CLNT.            A2DTECH:   CLIENT CODE
 ORIG.     1", 2.5" PRINT:   ORIGIN OF DATA
 UWI .       490251078700:   UNIQUE WELL ID
 DICO. A2D Technologies, Inc.:   DIGITIZING COMPANY
~OTHER INFORMATION
~A   DEPT     CORR       RHOB       CALD         GRD      DPHI   
# ...
 1488.0000     0.0069     2.5148     7.9314   122.3215     0.0207
 1488.5000     0.0100     2.5178     7.9314   118.0898     0.0182
 1489.0000     0.0175     2.5280     7.9314   114.1684     0.0156
 1489.5000     0.0252     2.5324     7.9314   115.6217     0.0132
 1490.0000     0.0249     2.5238     7.9314   119.9480     0.0187
 1490.5000     0.0203     2.5160     7.9314   121.2606     0.0239
 1491.0000     0.0157     2.5082     7.9314   124.2731     0.0292
 1491.5000     0.0118     2.5002     7.9314   128.8671     0.0367
 1492.0000     0.0078     2.4932     7.9314   127.0452     0.0350
 1492.5000     0.0158     2.5002     7.9314   122.0806     0.0298
 1493.0000     0.0247     2.5133     7.9314   119.5005     0.0247
 1493.5000     0.0349     2.5188     7.9314   118.1302     0.0205
 1494.0000     0.0381     2.5222     7.9314   121.4784     0.0189
 1494.5000     0.0322     2.5168     7.9314   125.6806     0.0221
 1495.0000     0.0272     2.5114     7.9314   121.3117     0.0253
 1495.5000     0.0221     2.5059     7.9314   126.1544     0.0286
 1496.0000     0.0168     2.5005     7.9314   131.6689     0.0318
 1496.5000     0.0117     2.4951     7.9314   137.3220     0.0350
 1497.0000     0.0066     2.4890     7.9314   133.7250     0.0382
 1497.5000     0.0012     2.4852     7.9314   128.2990     0.0391
 1498.0000    -0.0009     2.4842     7.9314   135.2817     0.0391
 1498.5000     0.0000     2.4844     7.9314   134.4375     0.0365
 1499.0000     0.0007     2.4927     7.9314   129.0874     0.0341
 1499.5000     0.0013     2.4999     7.9314   129.9025     0.0327
 1500.0000     0.0020     2.4967     7.9314   131.2696     0.0341
 1500.5000     0.0026     2.4943     7.9314   132.6662     0.0356
 1501.0000     0.0033     2.4925     7.9314   128.7149     0.0367
 1501.5000     0.0040     2.4903     7.9314   128.8081     0.0347
 1502.0000     0.0047     2.5013     7.9314   130.3815     0.0318
 1502.5000     0.0053     2.4984     7.9314   131.8781     0.0336
 1503.0000     0.0060     2.4948     7.9314   131.9774     0.0357
 1503.5000     0.0067     2.4900     7.9314   132.0902     0.0377
 1504.0000     0.0074     2.4898     7.9314   132.7344     0.0347
 1504.5000     0.0083     2.5012     7.9314   133.8295     0.0298
 1505.0000     0.0092     2.5136     7.9314   134.3646     0.0245
 1505.5000     0.0103     2.5120     7.9314   132.0800     0.0229
 1506.0000     0.0113     2.5087     7.9314   129.3743     0.0263
 1506.5000     0.0149     2.5045     7.9314   127.0528     0.0275
 1507.0000     0.0186     2.5119     7.9314   125.3496     0.0219
 1507.5000     0.0223     2.5213     7.9314   126.3205     0.0163
 1508.0000     0.0265     2.5336     7.9314   127.9487     0.0132
 1508.5000     0.0244     2.5289     7.9315   129.5430     0.0165
 1509.0000     0.0188     2.5188     7.9315   130.6390     0.0215
 1509.5000     0.0137     2.5087     7.9325   130.6291     0.0270
 1510.0000     0.0086     2.5111     7.9340   128.0592     0.0262
 1510.5000     0.0077     2.5135     7.9355   123.6947     0.0234
 1511.0000     0.0089     2.5158     7.9369   125.1131     0.0213
 1511.5000     0.0100     2.5083     7.9384   127.0517     0.0251
 1512.0000     0.0110     2.5069     7.9398   124.2750     0.0278
 1512.5000     0.0121     2.5090     7.9412   119.0793     0.0254
 1513.0000     0.0132     2.5109     7.9427   120.1021     0.0233
 1513.5000     0.0143     2.5128     7.9441   123.8458     0.0213
 1514.0000     0.0154     2.5146     7.9456   125.3794     0.0245
 1514.5000     0.0163     2.5157     7.9470   128.9355     0.0226
 1515.0000     0.0176     2.5176     7.9485   128.7799     0.0203
 1515.5000     0.0187     2.5235     7.9499   127.3599     0.0180
 1516.0000     0.0153     2.5245     7.9514   125.9299     0.0176
 1516.5000     0.0036     2.5163     7.9528   125.3419     0.0213
 1517.0000     0.0083     2.5122     7.9543   126.5350     0.0229
 1517.5000     0.0126     2.5170     7.9557   126.5617     0.0203
 1518.0000     0.0147     2.5216     7.9572   120.5437     0.0226
 1518.5000     0.0119     2.5122     7.9586   122.8484     0.0263
 1519.0000     0.0099     2.5085     7.9601   129.1747     0.0290
 1519.5000     0.0074     2.5061     7.9615   127.5707     0.0300
 1520.0000     0.0118     2.5041     7.9630   120.2151     0.0310
 1520.5000     0.0173     2.5041     7.9644   124.2400     0.0310
 1521.0000     0.0229     2.5041     7.9659   126.5575     0.0310
 1521.5000     0.0291     2.5016     7.9673   126.8585     0.0310
 1522.0000     0.0292     2.4927     7.9689   120.3049     0.0362
 1522.5000     0.0237     2.4834     7.9702   121.7310     0.0448
 1523.0000     0.0187     2.4815     7.9716   127.8017     0.0431
 1523.5000     0.0130     2.4865     7.9681   130.9843     0.0382
 1524.0000     0.0155     2.4909     7.9643   130.0983     0.0402
 1524.5000     0.0253     2.4905     7.9602   126.2564     0.0409
 1525.0000     0.0347     2.4905     7.9563   129.6081     0.0368
 1525.5000     0.0407     2.4917     7.9523   129.8176     0.0373
 1526.0000     0.0429     2.4898     7.9483   126.5181     0.0384
 1526.5000     0.0358     2.4879     7.9444   127.7266     0.0396
 1527.0000     0.0126     2.4859     7.9404   129.5233     0.0408
 1527.5000     0.0114     2.4839     7.9365   129.5387     0.0410
 1528.0000     0.0109     2.4820     7.9325   127.0882     0.0412
 1528.5000     0.0112     2.4831     7.9314   122.0654     0.0415
 1529.0000     0.0113     2.4841     7.9314   121.6653     0.0390
 1529.5000     0.0111     2.4940     7.9314   127.2796     0.0359
 1530.0000     0.0187     2.5117     7.9313   128.5573     0.0251
 1530.5000     0.0279     2.5259     7.9314   129.8148     0.0173
 1531.0000     0.0271     2.5195     7.9311   129.2451     0.0262
 1531.5000     0.0210     2.4955     7.9314   127.0582     0.0339
 1532.0000     0.0157     2.4901     7.9312   124.0229     0.0388
 1532.5000     0.0176     2.4868     7.9298   124.3710     0.0374
 1533.0000     0.0262     2.4954     7.9509   126.2039     0.0298
 1533.5000     0.0437     2.5133     8.0163   129.2777     0.0223
 1534.0000     0.0608     2.5314     8.0798   128.1624     0.0124
 1534.5000     0.0692     2.5339     8.1441   124.2194     0.0148
 1535.0000     0.0594     2.5260     8.2089   123.1443     0.0182
 1535.5000     0.0502     2.5174     8.2728   125.0176     0.0216
 1536.0000     0.0404     2.5108     8.3342   128.3775     0.0245
 1536.5000     0.0311     2.5163     8.3703   129.4538     0.0238
 1537.0000     0.0236     2.5187     8.4049   129.1624     0.0217
 1537.5000     0.0255     2.5223     8.4403   128.8547     0.0197
 1538.0000     0.0361     2.5281     8.4724   130.0304     0.0145
 1538.5000     0.0766     2.5396     8.5314   130.7101     0.0094
 1539.0000     0.1153     2.5579     8.5350   128.8241     0.0026
 1539.5000     0.1491     2.5521     8.5427   121.3822     0.0139
 1540.0000     0.1337     2.5076     8.4855   114.7558     0.0387
 1540.5000     0.0978     2.4607     8.3843   111.2391     0.0634
 1541.0000     0.0580     2.4296     8.2891   112.7916     0.0711
 1541.5000     0.0440     2.4337     8.1943   113.9865     0.0716
 1542.0000     0.0301     2.4359     8.0972   115.6077     0.0638
 1542.5000     0.0200     2.4556     8.0123   112.4610     0.0456
 1543.0000     0.0245     2.4907     7.9637   109.5212     0.0269
 1543.5000     0.0290     2.5090     7.9160   107.8337     0.0307
 1544.0000     0.0286     2.4974     7.8883   118.7360     0.0368
 1544.5000     0.0193     2.4872     7.8912   124.2522     0.0410
 1545.0000     0.0140     2.4853     7.8909   120.2405     0.0386
 1545.5000     0.0129     2.4913     7.8908   119.6954     0.0362
 1546.0000     0.0113     2.5020     7.8901   125.6473     0.0340
 1546.5000     0.0137     2.5108     7.9005   123.4097     0.0223
 1547.0000     0.0198     2.5274     7.9183   117.9238     0.0114
 1547.5000     0.0341     2.5509     7.9348   114.1583     0.0025
 1548.0000     0.0508     2.5668     7.9511   117.3072    -0.0037
 1548.5000     0.0617     2.5568     7.9678   120.4756    -0.0002
