~VERSION INFORMATION
 VERS.                2.0:   CWLS LOG ASCII STANDARD - VERSION 2.0
 WRAP.                 NO:   ONE LINE PER DEPTH STEP
~WELL INFORMATION
#MNEM.UNIT      DATA TYPE    INFORMATION
#----------   ------------   ------------------------------
 STRT.F           10.0000:   START DEPTH
 STOP.F          833.5000:   STOP DEPTH
 STEP.F            0.5000:   STEP LENGTH
 NULL.          -999.2500:   NO VALUE
 COMP. FENIX & SCISSON INC:   COMPANY
 WELL.       NPR 3 #46-11:   WELL
 FLD .             TEAPOT:   FIELD
 LOC .      S11 T38N R78W:   LOCATION
 CNTY.            NATRONA:   COUNTY
 STAT.            WYOMING:   STATE
 CTRY. UNITED STATES OF AMERICA:   COUNTRY
 SRVC.           BIRDWELL:   SERVICE COMPANY
 DATE.        17-DEC-1978:   LOGDATE
 API .       490251075600:   API NUMBER
~CURVE INFORMATION
#MNEM.UNIT       API CODE    CURVE DESCRIPTION
#----------   ------------   ------------------------------
 DEPT.F                  :   
 GRD .GAPI   45 310 01 00:   GAMMA RAY FROM DENSITY LOG
 CALD.IN     45 280 60 00:   CALIPER
 CORR.G/C3   45 356 01 00:   DENSITY CORRECTION
 DPHI.DEC    45 890 12 00:   DENSITY POROSITY SANDSTONE
 RHOB.G/C3   45 350 01 00:   BULK DENSITY
 SPR .MV     05 010 01 00:   SPONTANEOUS POTENTIAL FROM RES.
 SN  .OHMM   05 040 16 00:   SHORT NORMAL 16"
 IL  .OHMM   05 120 00 00:   INDUCTION LOG
~PARAMETER INFORMATION
#MNEM.UNIT          VALUE    DESCRIPTION
#----------   ------------   ------------------------------
 PD  .                 GL:   PERMANENT DATUM
 EPD .F              5193:   ELEVATION PERMANENT DATUM
 LMF .                 KB:   LOG MEASURED FROM
 DAPD.F                 4:   FEET ABOVE PERMANENT DATUM
 DMF .                 KB:   DRILLING MEASURED FROM
 EKB .F              5197:   KELLING BUSHING
 EGL .F              5193:   GROUND LEVEL
 DATE.           12-17-78:   RUN DATE
 RUN .                  1:   RUN NUMBER
 DD  .F               845:   DEPTH DRILLER
 DL  .F               834:   DEPTH LOGGER
 BLI .F               827:   BOTTOM LOG INTERVAL
 TLI .F                60:   TOP LOG INTERVAL
 CS  .IN            8.625:   CASING SIZE
 CBD .F                40:   CASING BOTTOM DRILLER
 CBL .F                42:   CASING BOTTOM LOGGER
 BS  .IN            7.875:   BIT SIZE
 BSD .F               845:   BIT SIZE AT DEPTH
 DFT .                KCL:   DRILLING FLUID TYPE
 DFD .                8.8:   DRILLING FLUID DENSITY
 DFV .                 36:   DRILLING FLUID VISCOSITY
 DFPH.               10.5:   DRILLING FLUID PH
 MSS .          FLOW LINE:   MUD SAMPLE SOURCE
 RMS .OHMM            .34:   RESISTIVITY MUD SAMPLE
 MST .F                62:   MUD SAMPLE TEMPERATURE
 RMF .OHMM            .26:   RESISTIVITY MUD FILTRATE SAMPLE
 MFST.F                66:   MUD FILTRATE SAMPLE TEMPERATURE
 RMC .OHMM            .42:   RESISTIVITY MUD CAKE
 MCST.F                68:   MUD CAKE SAMPLE TEMPERATURE
 MFSS.           MEASURED:   MUD FILTRATE SAMPLE SOURCE
 MCSS.           MEASURED:   MUD CAKE SAMPLE SOURCE
 RMB .OHMM           .288:   RESISTIVITY MUD AT BHT
 BHT .F                73:   BOTTOM HOLE TEMPERATURE
 TCS .HRS               4:   TIME CURCULATED STOPPED
 MRT .F                73:   MAXIMUM RECORDED TEMPERATURE
 LUN .               3006:   LOGGING UNIT NUMBER
 LUL .             CASPER:   LOGGING UNIT LOCATION
 ENGI.         B. ROLLINS:   RECORDING ENGINEER
 WITN.         RICHARDSON:   WITNESSED BY
 CLNT.            A2DTECH:   CLIENT CODE
 ORIG.           5" PRINT:   ORIGIN OF DATA
 UWI .       490251075600:   UNIQUE WELL ID
 DICO. A2D Technologies, Inc.:   DIGITIZING COMPANY
~OTHER INFORMATION
~A   DEPT      GRD       CALD       CORR       DPHI       RHOB        SPR         SN         IL   
# ...
  698.5000    77.6160     8.1280     0.0260     0.1450     2.4250   -16.4720    11.8580    12.4790
  699.0000    77.3870     8.1080     0.0210     0.1450     2.4270   -16.5010    11.8530    12.4830
  699.5000    77.2280     8.0910     0.0160     0.1470     2.4280   -16.5300    11.8470    12.4870
  700.0000    77.3190     8.1070     0.0150     0.1470     2.4280   -16.5590    11.8410    12.4910
  700.5000    78.1540     8.1230     0.0140     0.1460     2.4280   -16.5880    11.8350    12.4940
  701.0000    78.9650     8.1380     0.0130     0.1450     2.4280   -16.6170    11.8290    12.4980
  701.5000    79.7700     8.1360     0.0120     0.1450     2.4280   -16.6460    11.8230    12.5020
  702.0000    80.4930     8.0820     0.0060     0.1460     2.4280   -16.6750    11.8170    12.5060
  702.5000    80.5660     8.0290     0.0010     0.1460     2.4280   -16.7040    11.8110    12.5100
  703.0000    80.6240     7.9770    -0.0040     0.1430     2.4310   -16.7330    11.8050    12.5140
  703.5000    80.6750     7.9330    -0.0060     0.1400     2.4340   -16.7620    11.7990    12.5180
  704.0000    81.1830     7.9850    -0.0070     0.1370     2.4360   -16.7910    11.7930    12.5220
  704.5000    81.8640     8.0350    -0.0080     0.1350     2.4390   -16.8200    11.7880    12.5260
  705.0000    82.5550     8.0850    -0.0090     0.1360     2.4400   -16.8490    11.7820    12.5300
  705.5000    83.2370     8.1340    -0.0090     0.1390     2.4400   -16.8780    11.7760    12.5340
  706.0000    81.4990     8.1630    -0.0100     0.1470     2.4330   -16.9080    11.7700    12.5380
  706.5000    79.5100     8.1340    -0.0090     0.1490     2.4260   -16.9360    11.7640    12.5420
  707.0000    77.7270     8.1070    -0.0090     0.1480     2.4220   -16.9660    11.7580    12.5460
  707.5000    78.2580     8.0800    -0.0080     0.1460     2.4230   -16.9950    11.7520    12.5490
  708.0000    79.4180     8.0530    -0.0070     0.1440     2.4250   -17.0230    11.7460    12.5530
  708.5000    79.1030     8.0260    -0.0070     0.1420     2.4280   -17.0560    11.7400    12.5570
  709.0000    78.2940     7.9960    -0.0060     0.1400     2.4310   -17.0490    11.7370    12.5610
  709.5000    77.6980     8.0450    -0.0050     0.1370     2.4340   -16.9970    11.7380    12.5650
  710.0000    78.4710     8.1210    -0.0050     0.1390     2.4340   -16.9490    11.7370    12.5690
  710.5000    80.0290     8.1880    -0.0040     0.1410     2.4330   -16.9010    11.7370    12.5730
  711.0000    80.1670     8.1630    -0.0030     0.1420     2.4310   -16.8520    11.7370    12.5770
  711.5000    80.2290     8.1370    -0.0030     0.1410     2.4300   -16.8030    11.7370    12.5810
  712.0000    80.2760     8.1100    -0.0020     0.1330     2.4380   -16.7540    11.7370    12.5850
  712.5000    80.6070     8.1580    -0.0010     0.1260     2.4510   -16.7060    11.7370    12.5890
  713.0000    83.2800     8.2260    -0.0010     0.1190     2.4640   -16.6570    11.7370    12.5930
  713.5000    84.7660     8.2100     0.0000     0.1230     2.4660   -16.6090    11.7370    12.5970
  714.0000    84.1370     8.1880     0.0010     0.1270     2.4650   -16.5600    11.7370    12.6010
  714.5000    85.8290     8.1660     0.0010     0.1280     2.4540   -16.5120    11.7370    12.6040
  715.0000    87.7630     8.1570     0.0020     0.1280     2.4480   -16.4630    11.7370    12.6080
  715.5000    89.5620     8.1840     0.0070     0.1300     2.4490   -16.4140    11.7370    12.6120
  716.0000    88.7950     8.2100     0.0140     0.1340     2.4500   -16.3660    11.7370    12.6160
  716.5000    87.7980     8.2360     0.0210     0.1370     2.4450   -16.3170    11.7370    12.6200
  717.0000    86.7980     8.2640     0.0280     0.1410     2.4400   -16.2640    11.7370    12.6240
  717.5000    85.7930     8.2390     0.0280     0.1420     2.4350   -16.1710    11.7370    12.6280
  718.0000    84.7540     8.1970     0.0280     0.1430     2.4310   -16.0690    11.7370    12.6320
  718.5000    84.7160     8.1530     0.0280     0.1430     2.4290   -15.9660    11.7370    12.6360
  719.0000    85.0850     8.2100     0.0280     0.1410     2.4300   -15.8640    11.7370    12.6390
  719.5000    85.4270     8.2760     0.0260     0.1350     2.4340   -15.7620    11.7370    12.6450
  720.0000    85.2890     8.3420     0.0250     0.1290     2.4410   -15.6600    11.7370    12.6480
  720.5000    83.7100     8.3720     0.0230     0.1250     2.4480   -15.5570    11.7380    12.6900
  721.0000    82.1870     8.2970     0.0210     0.1250     2.4550   -15.4550    11.7370    12.7300
  721.5000    81.0810     8.2260     0.0170     0.1250     2.4560   -15.3530    11.7380    12.7710
  722.0000    81.0770     8.1920     0.0120     0.1250     2.4550   -15.2510    11.7410    12.8130
  722.5000    82.4260     8.1960     0.0070     0.1270     2.4540   -15.1490    11.8000    12.8540
  723.0000    84.2790     8.1990     0.0020     0.1300     2.4530   -15.0460    11.8590    12.8950
  723.5000    86.1770     8.2020    -0.0020     0.1290     2.4520   -14.9450    11.9190    12.9370
  724.0000    87.5580     8.2060    -0.0020     0.1240     2.4550   -14.8410    11.9790    12.9780
  724.5000    88.7040     8.2090    -0.0020     0.1200     2.4590   -14.7370    12.0390    13.0190
  725.0000    89.1380     8.1400    -0.0020     0.1250     2.4610   -14.6940    12.0990    13.0600
  725.5000    89.4880     8.0610    -0.0020     0.1310     2.4540   -14.8500    12.1590    13.1010
  726.0000    89.4040     8.0500    -0.0020     0.1310     2.4460   -15.0030    12.2190    13.1830
  726.5000    89.3150     8.0500    -0.0010     0.1300     2.4460   -15.1620    12.2790    13.3280
  727.0000    89.2230     8.0500     0.0010     0.1350     2.4460   -15.3200    12.3390    13.4720
  727.5000    89.1330     8.0500     0.0020     0.1440     2.4440   -15.4760    12.3990    13.6170
  728.0000    88.5360     8.0050     0.0040     0.1530     2.4350   -15.6330    12.5740    13.7610
  728.5000    87.4400     7.9510     0.0020     0.1630     2.4250   -15.7970    12.7810    13.8810
  729.0000    84.9060     8.0290    -0.0030     0.1720     2.4060   -15.8700    12.9880    14.5350
  729.5000    82.0990     8.1440    -0.0050     0.1810     2.3820   -15.8630    13.1950    15.0920
  730.0000    81.4140     8.1310    -0.0010     0.1900     2.3590   -15.8640    13.4020    15.6490
  730.5000    80.8020     8.0920     0.0030     0.1780     2.3560   -15.8640    13.6090    16.2070
  731.0000    79.4660     8.0520     0.0060     0.1670     2.3660   -15.8630    13.8160    16.7640
  731.5000    77.4060     8.0120     0.0050     0.1550     2.3780   -15.8630    14.0230    17.3220
  732.0000    75.3470     8.0010     0.0030     0.1470     2.3970   -15.8630    14.2300    17.6870
  732.5000    73.1980     7.9910     0.0020     0.1640     2.4130   -15.8640    14.4080    17.5430
  733.0000    71.7600     7.9810     0.0010     0.1820     2.3890   -15.8600    14.2770    17.2780
  733.5000    70.7530     7.9710     0.0000     0.1980     2.3630   -15.8640    14.1610    17.0120
  734.0000    71.3970     7.9610     0.0020     0.1950     2.3400   -15.8750    14.0460    16.7470
  734.5000    73.2560     7.9510     0.0030     0.1920     2.3430   -16.0550    13.9300    16.4820
  735.0000    75.0670     7.9410     0.0040     0.1890     2.3460   -16.2330    13.8150    16.2170
  735.5000    76.8700     7.9310     0.0060     0.1890     2.3480   -16.4210    13.6990    15.9510
  736.0000    78.4320     7.9210     0.0070     0.1940     2.3420   -16.5780    13.5840    15.6860
  736.5000    77.5900     7.9110     0.0080     0.1980     2.3400   -16.9460    13.4690    15.4210
  737.0000    76.7220     7.9010     0.0100     0.1980     2.3400   -17.4580    13.3530    15.2080
  737.5000    76.5930     7.8910     0.0100     0.1960     2.3420   -17.6460    13.2380    15.1120
  738.0000    76.6630     7.8920     0.0100     0.1950     2.3430   -17.8240    13.1220    15.0160
  738.5000    74.3990     7.8950     0.0110     0.1930     2.3450   -17.9990    13.0070    14.9210
