~VERSION INFORMATION
 VERS.                2.0:   CWLS LOG ASCII STANDARD - VERSION 2.0
 WRAP.                 NO:   ONE LINE PER DEPTH STEP
~WELL INFORMATION
#MNEM.UNIT      DATA TYPE    INFORMATION
#----------   ------------   ------------------------------
 STRT.F           41.0000:   START DEPTH
 STOP.F          468.0000:   STOP DEPTH
 STEP.F            0.1000:   STEP LENGTH
 NULL.          -999.2500:   NO VALUE
 COMP.       F D SERV INC:   COMPANY
 WELL. NAVAL PETROLEUM RESERVE 3 SX-1 #53-1-10:   WELL
 FLD .             TEAPOT:   FIELD
 LOC .      S10 T38N R78W:   LOCATION
 CNTY.            NATRONA:   COUNTY
 STAT.            WYOMING:   STATE
 CTRY. UNITED STATES OF AMERICA:   COUNTRY
 SRVC.     Atlas Wireline:   SERVICE COMPANY
 DATE.        22-DEC-1992:   LOGDATE
 API .       490252256900:   API NUMBER
~CURVE INFORMATION
#MNEM.UNIT       API CODE    CURVE DESCRIPTION
#----------   ------------   ------------------------------
 DEPT.F                  :   
 GRR .GAPI   07 310 01 00:   GAMMA RAY
 RILD.OHMM   07 120 46 00:   INDUCTION LOG DEEP RESISTIVITY
 RILM.OHMM   07 120 44 00:   RESITIVITY LONG MEDIUM
~PARAMETER INFORMATION
#MNEM.UNIT          VALUE    DESCRIPTION
#----------   ------------   ------------------------------
 PD  .                 GL:   PERMANENT DATUM
 EPD .F              5185:   ELEVATION PERMANENT DATUM
 LMF .                 KB:   LOG MEASURED FROM
 DAPD.F                10:   FEET ABOVE PERMANENT DATUM
 DMF .                 KB:   DRILLING MEASURED FROM
 EKB .F              5195:   KELLING BUSHING
 EDF .F              5194:   DRILLING FLOOR
 EGL .F              5185:   GROUND LEVEL
 DATE.        22-DEC-1992:   RUN DATE
 RUN .                  1:   RUN NUMBER
 DD  .F               475:   DEPTH DRILLER
 DL  .F               472:   DEPTH LOGGER
 BLI .F               470:   BOTTOM LOG INTERVAL
 CS  .IN            8.625:   CASING SIZE
 CBL .F                80:   CASING BOTTOM LOGGER
 BS  .IN            7.875:   BIT SIZE
 BSD .F               475:   BIT SIZE AT DEPTH
 DFT .        AIR DRILLED:   DRILLING FLUID TYPE
 LUN .            HL 6321:   LOGGING UNIT NUMBER
 LUL .       RCK, SPRINGS:   LOGGING UNIT LOCATION
 ENGI.      JOHN THOMPSON:   RECORDING ENGINEER
 WITN.          G. STRONG:   WITNESSED BY
 CLNT.            A2DTECH:   CLIENT CODE
 ORIG.           5" PRINT:   ORIGIN OF DATA
 UWI .       490252256900:   UNIQUE WELL ID
 DICO. A2D Technologies, Inc.:   DIGITIZING COMPANY
~OTHER INFORMATION
~A   DEPT      GRR       RILD       RILM   
# ...
  441.4000   147.3525     8.4685     9.1259
  441.5000   147.5985     8.4191     9.1268
  441.6000   147.6003     8.4199     9.1201
  441.7000   147.6015     8.4207     9.0653
  441.8000   147.6030     8.3966     9.0662
  441.9000   147.6985     8.3639     9.0670
  442.0000   147.9091     8.3647     9.0679
  442.1000   147.9107     8.3657     9.0688
  442.2000   148.1485     8.3253     9.0672
  442.3000   148.3995     8.2787     9.0078
  442.4000   148.5212     8.2522     9.0085
  442.5000   148.5985     8.2435     9.0094
  442.6000   148.8495     8.1965     9.0103
  442.7000   149.1320     8.1514     9.0112
  442.8000   149.5697     8.1058     9.0121
  442.9000   149.9056     8.0604     8.9641
  443.0000   150.1566     8.0152     8.9513
  443.1000   150.4075     7.9703     8.9260
  443.2000   150.6586     7.9206     8.8909
  443.3000   150.9594     7.8813     8.8881
  443.4000   151.3607     7.8372     8.8311
  443.5000   151.8612     7.8132     8.7889
  443.6000   152.2687     7.8039     8.7397
  443.7000   152.5196     7.7605     8.7011
  443.8000   152.7849     7.7612     8.6772
  443.9000   152.7864     7.7272     8.6526
  444.0000   152.4242     7.7089     8.6535
  444.1000   151.9267     7.7096     8.6171
  444.2000   151.4292     7.7104     8.5689
  444.3000   150.9318     7.7112     8.5286
  444.4000   150.3699     7.7119     8.5052
  444.5000   150.1541     7.6823     8.4788
  444.6000   150.0697     7.6598     8.4372
  444.7000   149.9611     7.6606     8.4216
  444.8000   149.8263     7.6613     8.4014
  444.9000   150.0832     7.6622     8.3648
  445.0000   150.8332     7.6628     8.3656
  445.1000   151.3843     7.6377     8.3188
  445.2000   151.7394     7.6111     8.2723
  445.3000   151.9904     7.6052     8.2523
  445.4000   152.2030     7.5598     8.2531
  445.5000   152.2046     7.5605     8.2482
  445.6000   151.9717     7.5612     8.1976
  445.7000   151.5430     7.5619     8.1983
  445.8000   151.1727     7.5627     8.1991
  445.9000   150.8510     7.5610     8.1999
  446.0000   150.3737     7.5118     8.2007
  446.1000   150.0926     7.5124     8.2015
  446.2000   149.6617     7.5131     8.2024
  446.3000   149.1641     7.5310     8.2031
  446.4000   148.7757     7.5671     8.2039
  446.5000   148.5833     7.5679     8.2047
  446.6000   148.5849     7.5686     8.2123
  446.7000   148.5864     7.5693     8.2637
  446.8000   148.5879     7.5701     8.2644
  446.9000   148.5894     7.5708     8.2987
  447.0000   148.5909     7.5715     8.3238
  447.1000   148.6298     7.5724     8.3374
  447.2000   148.8971     7.5730     8.3859
  447.3000   148.8985     7.5738     8.4431
  447.4000   148.9000     7.5929     8.4839
  447.5000   148.9015     7.6282     8.5333
  447.6000   148.9030     7.6290     8.5830
  447.7000   148.9622     7.6297     8.6329
  447.8000   149.8154     7.6639     8.6856
  447.9000   150.8923     7.7085     8.6864
  448.0000   152.1412     7.7390     8.7237
  448.1000   153.3903     7.7492     8.7745
  448.2000   154.5303     7.8492     8.8256
  448.3000   155.2793     7.8898     8.8769
  448.4000   155.7798     7.9358     8.9362
  448.5000   156.0834     7.9820     8.9806
  448.6000   156.1909     8.0390     9.0329
  448.7000   156.2823     8.1317     9.0855
  448.8000   156.4970     8.1791     9.1384
  448.9000   156.4986     8.2268     9.1929
  449.0000   156.5000     8.2748     9.2452
  449.1000   156.8592     8.3230     9.2990
  449.2000   157.2343     8.3777     9.3820
  449.3000   157.4853     8.4835     9.4906
  449.4000   157.7545     8.5731     9.6004
  449.5000   158.3260     8.6725     9.7252
  449.6000   158.5414     8.7730     9.7750
  449.7000   158.7924     8.8618     9.9066
  449.8000   159.0434     8.9151    10.0278
  449.9000   159.2944     9.0378    10.1118
  450.0000   159.5454     9.0807    10.2871
  450.1000  -999.2500     9.1336    10.3470
  450.2000  -999.2500     9.1868    10.4073
  450.3000  -999.2500     9.2403    10.4344
  450.4000  -999.2500     9.2976    10.4558
  450.5000  -999.2500     9.3483    10.5093
  450.6000  -999.2500     9.4028    10.5104
  450.7000  -999.2500     9.4576    10.5114
  450.8000  -999.2500     9.4977    10.5124
  450.9000  -999.2500     9.4986    10.5134
  451.0000  -999.2500     9.4997    10.5144
  451.1000  -999.2500     9.5461    10.5155
  451.2000  -999.2500     9.5678    10.5167
  451.3000  -999.2500     9.5470    10.5175
  451.4000  -999.2500     9.5031    10.5185
  451.5000  -999.2500     9.5042    10.5196
  451.6000  -999.2500     9.5051    10.5206
  451.7000  -999.2500     9.5060    10.5217
  451.8000  -999.2500     9.5069    10.5226
  451.9000  -999.2500     9.5079    10.5237
  452.0000  -999.2500     9.5088    10.5247
  452.1000  -999.2500     9.5098    10.5257
  452.2000  -999.2500     9.5106    10.5267
  452.3000  -999.2500     9.5116    10.5279
  452.4000  -999.2500     9.5125    10.5288
  452.5000  -999.2500     9.5134    10.5298
  452.6000  -999.2500     9.5144    10.5308
  452.7000  -999.2500     9.5153    10.5319
  452.8000  -999.2500     9.5162    10.5329
  452.9000  -999.2500     9.5171    10.5339
  453.0000  -999.2500     9.5181    10.5349
  453.1000  -999.2500     9.5248    10.5360
  453.2000  -999.2500     9.5866    10.5370
  453.3000  -999.2500     9.5874    10.5380
  453.4000  -999.2500     9.5884    10.5392
  453.5000  -999.2500     9.5893    10.5401
  453.6000  -999.2500     9.5902    10.5794
  453.7000  -999.2500     9.5912    10.6158
  453.8000  -999.2500     9.5921    10.6168
  453.9000  -999.2500     9.5930    10.6179
  454.0000  -999.2500     9.5940    10.6189
  454.1000  -999.2500     9.5758    10.6199
  454.2000  -999.2500     9.5291    10.6210
  454.3000  -999.2500     9.5302    10.6220
  454.4000  -999.2500     9.5311    10.6230
  454.5000  -999.2500     9.5320    10.6242
  454.6000  -999.2500     9.5329    10.6251
  454.7000  -999.2500     9.5339    10.6261
  454.8000  -999.2500     9.5348    10.6272
  454.9000  -999.2500     9.5359    10.6282
  455.0000  -999.2500     9.5367    10.6292
  455.1000  -999.2500     9.5376    10.6303
  455.2000  -999.2500     9.5385    10.6313
  455.3000  -999.2500     9.5394    10.6324
  455.4000  -999.2500     9.5404    10.6334
  455.5000  -999.2500     9.5413    10.6344
  455.6000  -999.2500     9.5422    10.6356
  455.7000  -999.2500     9.5432    10.6365
  455.8000  -999.2500     9.5441    10.6375
  455.9000  -999.2500     9.5450    10.6386
  456.0000  -999.2500     9.5461    10.6248
  456.1000  -999.2500     9.5469    10.5668
  456.2000  -999.2500     9.5478    10.5681
  456.3000  -999.2500     9.5488    10.5447
  456.4000  -999.2500     9.5497    10.5157
  456.5000  -999.2500     9.5507    10.4976
  456.6000  -999.2500     9.4994    10.4986
  456.7000  -999.2500     9.4462    10.4997
  456.8000  -999.2500     9.3933    10.4453
  456.9000  -999.2500     9.3567    10.4288
  457.0000  -999.2500     9.3576    10.4299
  457.1000  -999.2500     9.3587    10.4309
  457.2000  -999.2500     9.3595    10.4319
  457.3000  -999.2500     9.3604    10.4331
  457.4000  -999.2500     9.3613    10.4339
  457.5000  -999.2500     9.3622    10.4349
  457.6000  -999.2500     9.3631    10.4360
  457.7000  -999.2500     9.3640    10.4370
  457.8000  -999.2500     9.3242    10.4381
  457.9000  -999.2500     6.2506    10.4959
  458.0000  -999.2500  -999.2500    10.5130
  458.1000  -999.2500  -999.2500    10.5140
  458.2000  -999.2500  -999.2500    10.5150
  458.3000  -999.2500  -999.2500    10.5160
  458.4000  -999.2500  -999.2500    10.5172
  458.5000  -999.2500  -999.2500    10.5181
  458.6000  -999.2500  -999.2500    10.5191
  458.7000  -999.2500  -999.2500    10.5201
  458.8000  -999.2500  -999.2500    10.5212
  458.9000  -999.2500  -999.2500    10.5222
  459.0000  -999.2500  -999.2500    10.5232
  459.1000  -999.2500  -999.2500    10.5242
  459.2000  -999.2500  -999.2500    10.5253
  459.3000  -999.2500  -999.2500    10.5073
  459.4000  -999.2500  -999.2500    10.4542
  459.5000  -999.2500  -999.2500    10.4554
