~VERSION INFORMATION
 VERS.                2.0:   CWLS LOG ASCII STANDARD - VERSION 2.0
 WRAP.                 NO:   ONE LINE PER DEPTH STEP
~WELL INFORMATION
#MNEM.UNIT      DATA TYPE    INFORMATION
#----------   ------------   ------------------------------
 STRT.F            9.0000:   START DEPTH
 STOP.F          512.0000:   STOP DEPTH
 STEP.F            0.5000:   STEP LENGTH
 NULL.          -999.2500:   NO VALUE
 COMP. LAWRENCE-ALLISON &AS:   COMPANY
 WELL. NPR 3 #61-21SX10UP2:   WELL
 FLD .             TEAPOT:   FIELD
 LOC .      S10 T38N R78W:   LOCATION
 CNTY.            NATRONA:   COUNTY
 STAT.            WYOMING:   STATE
 CTRY. UNITED STATES OF AMERICA:   COUNTRY
 SRVC.      Dresser Atlas:   SERVICE COMPANY
 DATE.        13-DEC-1984:   LOGDATE
 API .       490251100500:   API NUMBER
~CURVE INFORMATION
#MNEM.UNIT       API CODE    CURVE DESCRIPTION
#----------   ------------   ------------------------------
 DEPT.F                  :   
 PORD.DEC    45 890 12 00:   POROSITY DENSITY SANDSTONE
 CNCF.DEC    42 890 03 00:   NEUTRON POROSITY SANDSTONE
 GRD .GAPI   45 310 01 00:   GAMMA RAY FROM DENSITY LOG
 CALD.IN     45 280 60 00:   CALIPER FROM DENSITY LOG
 CORR.G/C3   45 356 01 00:   DENSITY CORRECTION
 DEN .G/C3   45 350 01 00:   COMPENSATED BULK DENSTIY
 AC  .US/F   60 520 00 00:   ACCOUSTIC
 RILD.OHMM   07 120 46 00:   INDUCTION LOG DEEP RESISTIVITY
 RILM.OHMM   07 120 44 00:   INDUCTION LOG MEDIUM RESISTIVITY
 RFOC.OHMM   07 220 04 00:   RESISTIVITY FOCUSED LOG
 SPR .MV     11 010 01 00:   SPONTANEOUS POTENTIAL FROM RES.
 RS  .OHMM   11 220 09 00:   RESISTIVITY SHALLOW
 RD  .OHMM   11 220 10 00:   RESISTIVITY DEEP
~PARAMETER INFORMATION
#MNEM.UNIT          VALUE    DESCRIPTION
#----------   ------------   ------------------------------
 PD  .                 GL:   PERMANENT DATUM
 EPD .F              5157:   ELEVATION PERMANENT DATUM
 LMF .                 GL:   LOG MEASURED FROM
 DMF .                 GL:   DRILLING MEASURED FROM
 EGL .F              5157:   GROUND LEVEL
 DATE.         12-13-1984:   RUN DATE
 RUN .                  1:   RUN NUMBER
 DD  .F               514:   DEPTH DRILLER
 DL  .F               513:   DEPTH LOGGER
 BLI .F               512:   BOTTOM LOG INTERVAL
 TLI .F                20:   TOP LOG INTERVAL
 CS  .IN            8.625:   CASING SIZE
 CBD .F                20:   CASING BOTTOM DRILLER
 CBL .F                20:   CASING BOTTOM LOGGER
 BS  .IN            7.875:   BIT SIZE
 BSD .F               514:   BIT SIZE AT DEPTH
 DFT .          KCL WATER:   DRILLING FLUID TYPE
 MSS .           FLOWLINE:   MUD SAMPLE SOURCE
 RMS .OHMM            .17:   RESISTIVITY MUD SAMPLE
 MST .F                95:   MUD SAMPLE TEMPERATURE
 RMF .OHMM            .08:   RESISTIVITY MUD FILTRATE SAMPLE
 MFST.F                95:   MUD FILTRATE SAMPLE TEMPERATURE
 RMC .OHMM            .14:   RESISTIVITY MUD CAKE
 MCST.F                95:   MUD CAKE SAMPLE TEMPERATURE
 MFSS.               CALC:   MUD FILTRATE SAMPLE SOURCE
 MCSS.               CALC:   MUD CAKE SAMPLE SOURCE
 TCS .HRS              10:   TIME CURCULATED STOPPED
 MRT .F               100:   MAXIMUM RECORDED TEMPERATURE
 LUN .               6270:   LOGGING UNIT NUMBER
 LUL .                 FM:   LOGGING UNIT LOCATION
 ENGI.            LEBSOCK:   RECORDING ENGINEER
 WITN.        GREG GROOMS:   WITNESSED BY
 CLNT.            A2DTECH:   CLIENT CODE
 ORIG.           5" PRINT:   ORIGIN OF DATA
 UWI .       490251100500:   UNIQUE WELL ID
 DICO. A2D Technologies, Inc.:   DIGITIZING COMPANY
~OTHER INFORMATION
~A    DEPT    PORD       CNCF        GRD       CALD       CORR        DEN          AC      RILD       RILM       RFOC        SPR         RS         RD   
# ...
  217.0000     0.1145     0.2971   109.1325     7.7143     0.0230     2.4894   106.5950     7.4619     6.9586     7.9848   -72.7214     8.9073    12.4996
  217.5000     0.1172     0.2898   109.7440     7.7142     0.0229     2.4856   106.2229     7.7228     7.4053     8.0377   -72.5782     8.8419    12.4961
  218.0000     0.1178     0.2842   110.1807     7.7140     0.0259     2.4834   105.9262     7.8266     7.7113     8.0889   -72.1397     8.8382    12.5801
  218.5000     0.1148     0.2836   110.0301     7.7139     0.0289     2.4872   105.5541     7.6597     7.6944     8.0850   -71.8489     8.8444    12.7542
  219.0000     0.1133     0.2836   109.7078     7.7137     0.0258     2.4902   105.1820     7.4973     7.5250     8.0811   -71.5580     8.9031    12.8400
  219.5000     0.1136     0.2858   108.2711     7.7136     0.0182     2.4894   104.8853     7.0384     7.1073     8.1336   -71.4148     9.0759    12.7463
  220.0000     0.1148     0.3063   102.9518     7.7134     0.0183     2.4872   104.5887     6.4711     6.5676     8.3012   -71.4243     9.1353    12.0509
  220.5000     0.1172     0.3260   101.8976     7.7133     0.0260     2.4819   106.4277     5.9083     5.9294     8.4723   -71.1330     8.4594    11.3143
  221.0000     0.1257     0.3287   106.2651     7.7131     0.0347     2.4683   109.5403     5.5854     5.6838     8.1785   -70.8421     7.6198    10.2584
  221.5000     0.1446     0.3329   113.3434     7.7130     0.0299     2.4358   111.7592     5.4291     5.4484     6.6801   -70.6732     6.8161     8.5541
  222.0000     0.1661     0.3345   116.9578     7.7430     0.0220     2.3882   113.5153     5.3511     5.0441     5.0190   -70.2604     6.0971     7.6483
  222.5000     0.1709     0.3171   116.5060     7.7428     0.0089     2.3958   112.3885     5.3855     4.9475     4.7453   -70.1195     5.8460     7.9731
  223.0000     0.1533     0.2955   113.4940     7.7729    -0.0002     2.4237   109.5271     5.4960     5.1367     5.3013   -70.1559     6.1772     8.7277
  223.5000     0.1381     0.2831   111.8373     7.7727    -0.0033     2.4502   107.5701     5.7671     5.5495     6.1757   -70.2879     6.8048     9.7559
  224.0000     0.1311     0.2705   111.6867     7.7575     0.0027     2.4622   106.4432     6.2223     5.9752     6.7574   -70.2969     7.6538    11.0584
  224.5000     0.1239     0.2581   111.8373     7.7573     0.0087     2.4690   105.1655     6.8549     6.3660     7.1908   -69.9805     8.3151    12.0208
  225.0000     0.1184     0.2509   111.2349     7.7421     0.0132     2.4819   103.8122     7.3960     6.7748     7.5990   -69.7148     8.7255    12.6190
  225.5000     0.1107     0.2476   109.2771     7.7419     0.0192     2.4940   102.8363     7.8149     7.2516     7.9746   -69.4239     9.1561    13.0634
  226.0000     0.1089     0.2494   107.0181     7.7418     0.0237     2.4985   102.2378     8.1435     7.6103     8.4861   -69.2830     9.5415    13.8095
  226.5000     0.1120     0.2615   106.7169     7.7416     0.0100     2.4955   101.9411     8.4270     7.8667     8.7215   -69.1421     9.8743    14.2958
  227.0000     0.1135     0.2639   107.3193     7.7415     0.0009     2.4917   101.6445     8.7205     8.0191     8.9635   -69.1514    10.0779    14.4927
  227.5000     0.1129     0.2587   108.2229     7.7413     0.0039     2.4932   101.5729     8.8379     8.0150     9.0858   -69.3328    10.2145    14.4886
  228.0000     0.1108     0.2576   108.3735     7.7412     0.0310     2.4985   101.5027     9.0192     7.9555     9.2087   -69.6412    10.3541    14.5861
  228.5000     0.1072     0.2632   105.2108     7.7561     0.0446     2.5045   101.5092     9.2042     7.9516     9.2677   -69.4779    10.4218    14.6841
  229.0000     0.1048     0.2748   101.2952     7.7560     0.0385     2.5045   101.5145     9.3280     7.8926     9.2630   -69.3370    10.4901    14.8863
  229.5000     0.1066     0.2754   102.0482     7.7709     0.0279     2.4977   101.4429     9.4535     7.8340     9.2585   -69.3463    10.5577    14.8822
  230.0000     0.1133     0.2761   104.3072     7.7707     0.0143     2.4909   101.3727     9.4482     7.7212     9.1898   -69.3553    10.6279    14.8780
  230.5000     0.1151     0.2845   105.8133     7.7706     0.0097     2.4902   101.2283     9.5089     7.5579     9.1853   -69.3643    10.6224    14.8739
  231.0000     0.1127     0.2888   106.1355     7.7704     0.0051     2.4924   101.0071     9.5700     7.4498     9.1809   -69.5232    10.6930    14.8697
  231.5000     0.1109     0.2888   104.3072     7.7703    -0.0010     2.4977   100.7105     9.5613     7.7638     9.1764   -69.5322    10.7630    14.8656
  232.0000     0.1085     0.2861   104.2952     7.7701    -0.0101     2.5030   100.4138     9.4930     8.2045     9.2362   -69.5412    10.8335    14.9655
  232.5000     0.1058     0.2818   106.4157     7.7851     0.0020     2.5060   100.1172     9.4220     8.3164     9.2316   -69.5502    10.9044    15.0661
  233.0000     0.1049     0.2800   109.1265     7.7849     0.0125     2.5030   100.1979     9.3515     8.0831     9.1631   -69.5592    10.8988    15.0619
  233.5000     0.1071     0.2810   111.6912     7.7999     0.0230     2.4985   100.5805     9.3462     7.6949     9.0320   -69.5680    10.8189    14.9530
  234.0000     0.1092     0.2864   112.2892     7.7997     0.0320     2.5015   100.8876     9.3412     7.5848     8.9633   -69.2488    10.5915    14.8311
  234.5000     0.1077     0.2852   111.0738     7.7969     0.0395     2.5060   101.0438     9.4668     7.6341     8.8339   -68.9383    10.2973    14.5181
  235.0000     0.1044     0.2786   111.0843     7.7843     0.0425     2.5083   100.9736     9.6052     7.7914     8.7103   -68.6277    10.1511    14.1129
  235.5000     0.1047     0.2722   111.2545     7.7691     0.0334     2.5030   100.1386     9.8033     8.0075     8.7670   -68.2404    10.0778    14.1255
  236.0000     0.1069     0.2617   110.4157     7.7538     0.0213     2.5000    98.8507     9.7843     8.4033     8.8921   -67.6502    10.4282    14.4193
  236.5000     0.1061     0.2557   103.4187     7.7537     0.0182     2.5114    97.5630     9.7111     9.0677     9.2764   -66.9233    10.8671    14.8233
  237.0000     0.0990     0.2554    99.7892     7.7686     0.0257     2.5204    96.5117     9.4393     9.9218     9.8056   -66.3326    11.1684    15.4528
  237.5000     0.0960     0.2619    99.9398     7.7685     0.0362     2.5195    95.7546     8.8001    10.2695    10.4375   -65.8796    11.4781    16.1090
  238.0000     0.0954     0.2670   101.4458     7.7683     0.0300     2.5134    95.0428     7.9791     9.3752    10.9564   -65.6010    11.7975    16.1045
  238.5000     0.1018     0.2730   104.3072     7.7682     0.0087     2.5066    97.9172     7.1347     7.5517    11.3084   -65.1602    12.1246    15.3326
  239.0000     0.1090     0.2856   110.9337     7.7680    -0.0094     2.4894   101.9979     6.6980     5.9987    10.9162   -64.8586    11.6240    13.0556
  239.5000     0.1193     0.3099   117.8614     7.7679    -0.0168     2.4434   107.2862     6.6478     5.6710     9.4928   -64.5682     9.8363     9.8733
  240.0000     0.1463     0.3493   125.0904     7.7677     0.0083     2.3497   111.2160     6.6442     5.8690     4.9660   -63.9879     7.5528     7.5717
  240.5000     0.1859     0.3373   122.0783     7.7676     0.0148     2.3421   110.3910     6.7335     6.2455     4.4101   -63.6877     6.0460     7.2597
  241.0000     0.2040     0.3004   115.4518     7.7825     0.0085     2.3807   104.5095     6.8717     6.7392     4.8586   -63.2384     5.8780     7.6204
  241.5000     0.1756     0.2920   107.3193     7.7823     0.0057     2.4335    97.7223     7.2106     7.1715     6.1531   -62.3573     6.3859     8.9445
  242.0000     0.1408     0.2533    96.9277     7.7822     0.0298     2.4955    95.3124     7.7797     7.8470     7.9019   -61.6092     8.1385    13.3096
  242.5000     0.1037     0.2431    95.4217     7.7971     0.0524     2.5211    94.6371     8.6306     8.8902    10.9552   -60.7196    11.1176    15.8416
