~VERSION INFORMATION
 VERS.                2.0:   CWLS LOG ASCII STANDARD - VERSION 2.0
 WRAP.                 NO:   ONE LINE PER DEPTH STEP
~WELL INFORMATION
#MNEM.UNIT      DATA TYPE    INFORMATION
#----------   ------------   ------------------------------
 STRT.F           34.0000:   START DEPTH
 STOP.F          555.0000:   STOP DEPTH
 STEP.F            0.5000:   STEP LENGTH
 NULL.          -999.2500:   NO VALUE
 COMP. FENIX & SCISSON-U.S. NAVY:   COMPANY
 WELL.    NPR #3 #17-S-11:   WELL
 FLD .             TEAPOT:   FIELD
 LOC .      S11 T38N R78W:   LOCATION
 CNTY.            NATRONA:   COUNTY
 STAT.            WYOMING:   STATE
 CTRY. UNITED STATES OF AMERICA:   COUNTRY
 SRVC.       Schlumberger:   SERVICE COMPANY
 DATE.        20-FEB-1977:   LOGDATE
 API .       490251028100:   API NUMBER
~CURVE INFORMATION
#MNEM.UNIT       API CODE    CURVE DESCRIPTION
#----------   ------------   ------------------------------
 DEPT.F                  :   
 SPR .MV     07 010 01 00:   SPONTANEOUS POTENTIAL
 ILD .OHMM   07 120 46 00:   INDUCTION LOG DEEP
 ILM .OHMM   07 120 44 00:   INDUCTION LOG MEDIUM
 LL8 .OHMM   07 220 08 00:   LATEROLOG-8 RES.
 CALD.IN     45 280 60 00:   CALIPER FROM DENSITY LOG
 GRD .GAPI   45 310 01 00:   GAMMA RAY FROM DENSITY LOG
 CORR.G/C3   45 356 01 00:   DENSITY CORRECTION
 RHOB.G/C3   45 350 01 00:   BULK DENSITY
 DPHI.DEC    45 890 12 00:   DENSITY POROSITY SANDSTONE
~PARAMETER INFORMATION
#MNEM.UNIT          VALUE    DESCRIPTION
#----------   ------------   ------------------------------
 PD  .                 GL:   PERMANENT DATUM
 EPD .F              5204:   ELEVATION PERMANENT DATUM
 LMF .                 GL:   LOG MEASURED FROM
 DMF .                 GL:   DRILLING MEASURED FROM
 EKB .F              5209:   KELLING BUSHING
 EGL .F              5204:   GROUND LEVEL
 DATE.        20-FEB-1977:   RUN DATE
 RUN .                  1:   RUN NUMBER
 DD  .F               556:   DEPTH DRILLER
 DL  .F               556:   DEPTH LOGGER
 BLI .F               555:   BOTTOM LOG INTERVAL
 TLI .F                42:   TOP LOG INTERVAL
 CS  .IN            8.625:   CASING SIZE
 CBD .F                42:   CASING BOTTOM DRILLER
 CBL .F                42:   CASING BOTTOM LOGGER
 BS  .IN            7.875:   BIT SIZE
 BSD .F               556:   BIT SIZE AT DEPTH
 DFT .            KCL MUD:   DRILLING FLUID TYPE
 DFD .                8.8:   DRILLING FLUID DENSITY
 DFV .                 33:   DRILLING FLUID VISCOSITY
 DFPH.                8.0:   DRILLING FLUID PH
 DFL .                7.6:   DRILLING FLUID LOSS
 MSS .           FLOWLINE:   MUD SAMPLE SOURCE
 RMS .OHMM            .44:   RESISTIVITY MUD SAMPLE
 MST .F                66:   MUD SAMPLE TEMPERATURE
 RMF .OHMM            .41:   RESISTIVITY MUD FILTRATE SAMPLE
 MFST.F                66:   MUD FILTRATE SAMPLE TEMPERATURE
 MFSS.               MEAS:   MUD FILTRATE SAMPLE SOURCE
 TCS .HRS               3:   TIME CURCULATED STOPPED
 LUN .               7680:   LOGGING UNIT NUMBER
 LUL .               CSPR:   LOGGING UNIT LOCATION
 ENGI.             TAYLOR:   RECORDING ENGINEER
 WITN.               JAPP:   WITNESSED BY
 CLNT.            A2DTECH:   CLIENT CODE
 ORIG.           5" PRINT:   ORIGIN OF DATA
 UWI .       490251028100:   UNIQUE WELL ID
 DICO. A2D Technologies, Inc.:   DIGITIZING COMPANY
~OTHER INFORMATION
~A   DEPT      SPR        ILD        ILM        LL8       CALD        GRD       CORR       RHOB       DPHI   
# ...
  472.0000   -39.9151    12.7721    10.4798    13.5072     8.1478    81.2490     0.0273     2.4776     0.1094
  472.5000   -39.7721    13.4184    10.8468    14.0756     8.1481    81.6971     0.0137     2.4520     0.1208
  473.0000   -39.4771    14.4101    11.9486    14.5668     8.1485    81.6916     0.0107     2.4456     0.1223
  473.5000   -39.3341    15.8166    13.4681    15.3911     8.1489    81.4609     0.0099     2.4453     0.1287
  474.0000   -39.0391    17.5432    15.2639    16.3749     8.1492    81.0040     0.0203     2.4196     0.1310
  474.5000   -38.8961    19.5934    17.0597    19.1924     8.1496    80.3208     0.0315     2.4315     0.1239
  475.0000   -38.7531    21.2855    18.8555    30.9186     8.1500    78.2802     0.0420     2.4484     0.1226
  475.5000   -38.6100    23.4461    20.6514    44.4094     8.1503    73.0721     0.0509     2.4182     0.1337
  476.0000   -38.3150    27.2972    23.2006    47.1158     8.1507    67.6378     0.0606     2.4273     0.1241
  476.5000   -38.0223    29.6545    25.5574    45.4993     8.1511    63.5610     0.0681     2.4544     0.1183
  477.0000   -37.8770    31.5530    27.7663    42.1555     8.1515    60.6034     0.0500     2.4122     0.1301
  477.5000   -37.5843    34.0412    29.7512    35.6997     8.1518    56.6742     0.0228     2.3776     0.1484
  478.0000   -37.4412    35.9706    32.3226    31.9520     8.1522    53.5919     0.0247     2.4191     0.1228
  478.5000   -37.2979    36.2107    32.8019    38.2348     8.1526    55.8499     0.0304     2.4123     0.1183
  479.0000   -37.1550    35.9093    31.4267    49.3687     8.1522    57.8816     0.0685     2.3580     0.1532
  479.5000   -37.1642    34.4762    30.1415    59.8988     8.1517    61.0446     0.0745     2.3309     0.1866
  480.0000   -37.0211    30.6389    28.6700    37.4193     8.1513    63.3027     0.0474     2.3279     0.1923
  480.5000   -37.0517    28.1881    26.7058    33.9576     8.1508    63.7518     0.0527     2.3347     0.1687
  481.0000   -37.1910    26.2950    24.3021    33.2514     8.1504    61.0313     0.0174     2.3830     0.1361
  481.5000   -37.0502    25.5696    23.1474    32.5330     8.1499    59.4432     0.0016     2.4547     0.1133
  482.0000   -37.0592    25.0371    22.3551    27.6963     8.1495    59.8913     0.0113     2.4788     0.1098
  482.5000   -37.0681    24.0116    21.7399    26.9983     8.1489    61.0181     0.0284     2.4292     0.1486
  483.0000   -37.0771    23.1881    21.2886    26.8050     8.1485    60.7753     0.0411     2.3703     0.1742
  483.5000   -37.2380    22.3929    20.8466    26.9837     8.1633    59.8778     0.0501     2.2987     0.2082
  484.0000   -37.2470    21.9265    20.5557    27.1654     8.1627    60.3249     0.0523     2.3205     0.2022
  484.5000   -37.2559    21.6065    20.1289    27.3465     8.1623    61.9042     0.0117     2.3040     0.2118
  485.0000   -37.1129    21.3157    19.8480    26.2262     8.1618    63.9360     0.0171     2.3078     0.2004
  485.5000   -36.9699    21.0156    19.5710    25.3281     8.1614    65.0628     0.0221     2.3282     0.1883
  486.0000   -36.6749    20.8649    19.4320    24.6305     8.1609    65.7371     0.0326     2.3455     0.1814
  486.5000   -36.6839    20.7153    19.2913    23.9521     8.1605    65.5064     0.0288     2.3463     0.1874
  487.0000   -36.6928    20.7097    19.1568    23.4540     8.1601    65.2768     0.0257     2.3471     0.1862
  487.5000   -36.5498    20.7041    19.1528    23.2861     8.1596    67.5338     0.0317     2.3509     0.1815
  488.0000   -36.2570    20.6984    19.0160    22.8017     8.1592    67.7557     0.0339     2.3569     0.1785
  488.5000   -35.9620    20.4082    18.8809    22.4823     8.1587    67.0709     0.0248     2.3645     0.1720
  489.0000   -35.9710    20.2619    18.7468    22.1663     8.1582    66.5732     0.0450     2.3781     0.1575
  489.5000   -35.8257    20.1166    18.4851    22.1602     8.1577    65.7059     0.0390     2.3856     0.1614
  490.0000   -35.5307    19.9723    18.4814    21.8500     8.1573    64.7956     0.0384     2.3887     0.1587
  490.5000   -35.3877    19.8176    18.4776    21.5440     8.1568    64.5649     0.0523     2.3885     0.1575
  491.0000   -35.2447    19.5508    18.3463    21.3898     8.1564    65.4654     0.0493     2.3752     0.1641
  491.5000   -35.1017    19.4095    18.3426    21.3840     8.1559    67.2710     0.0409     2.3609     0.1791
  492.0000   -34.9605    19.2704    18.2123    21.2309     8.1555    70.4340     0.0394     2.3654     0.1692
  492.5000   -34.8176    19.1322    18.0829    21.0789     8.1550    72.0144     0.0409     2.3745     0.1658
  493.0000   -34.6748    18.9950    17.9545    21.0731     8.1546    70.4251     0.0453     2.3715     0.1667
  493.5000   -34.6839    18.7286    17.8269    20.9223     8.1542    69.5157     0.0490     2.3625     0.1749
  494.0000   -34.6930    18.4660    17.5635    21.0675     8.1537    68.3801     0.0265     2.3504     0.1833
  494.5000   -34.7039    18.3336    16.9756    21.2021     8.1533    68.1494     0.0189     2.3497     0.1856
  495.0000   -34.5587    18.0765    16.7387    21.1949     8.1527    68.8537     0.0241     2.3565     0.1772
  495.5000   -34.4157    17.9469    16.5051    21.3376     8.1523    68.3657     0.0308     2.3678     0.1643
  496.0000   -34.4268    17.9421    16.2747    20.7485     8.1518    67.2300     0.0503     2.3807     0.1591
  496.5000   -34.4358    17.8133    16.0476    20.1770     8.1514    68.1305     0.0292     2.3686     0.1570
  497.0000   -34.4448    17.8084    15.9336    19.6213     8.1509    67.8999     0.0179     2.3475     0.1850
  497.5000   -34.4537    17.5577    15.8204    19.2132     8.1657    67.4430     0.0096     2.3453     0.1895
  498.0000   -34.4627    17.3115    15.7080    18.6840     8.1652    67.6648     0.0242     2.3514     0.1790
  498.5000   -34.4716    16.8339    15.3819    18.4224     8.1799    69.0178     0.0335     2.4000     0.1657
  499.0000   -34.6325    16.2566    14.7529    18.2905     8.1946    71.0496     0.0305     2.4072     0.1377
  499.5000   -34.7935    15.8082    14.4466    18.1596     8.2092    73.5338     0.0491     2.4246     0.1319
  500.0000   -34.8024    15.5515    14.2450    18.1547     8.2088    74.6606     0.0459     2.4190     0.1345
  500.5000   -34.8085    15.3306    14.3107    17.1777     8.2092    73.7931     0.0393     2.3779     0.1488
  501.0000   -34.8146    15.2621    14.2406    16.2532     8.2097    73.5294     0.0505     2.3944     0.1614
  501.5000   -34.8218    15.2600    14.1405    16.0300     8.2101    73.0769     0.0385     2.3952     0.1681
  502.0000   -34.9798    15.2579    13.9441    16.1412     8.2106    72.8507     0.0452     2.4065     0.1653
  502.5000   -34.8323    15.2558    13.8460    16.1412     8.2110    74.0083     0.0549     2.4307     0.1325
  503.0000   -34.8397    15.2533    13.8441    16.1577     8.2115    75.5656     0.0406     2.4374     0.1256
  503.5000   -34.8457    15.2513    13.9389    16.1412     8.2120    76.4706     0.0158     2.4111     0.1586
  504.0000   -34.8516    15.2492    13.9365    15.9196     8.2124    77.8281     0.0240     2.3937     0.1569
  504.5000   -34.7041    15.2471    13.9347    15.8099     8.2129    78.5068     0.0210     2.3975     0.1536
  505.0000   -34.5581    15.1399    13.8366    15.7009     8.2133    76.6968     0.0300     2.4020     0.1590
  505.5000   -34.5656    14.9296    13.7392    15.5927     8.2138    73.7557     0.0216     2.3968     0.1548
  506.0000   -34.4195    14.7223    13.7370    15.5927     8.2142    70.3620     0.0103     2.3938     0.1484
  506.5000   -34.4255    14.5178    13.7351    15.5927     8.2147    70.1357     0.0178     2.3968     0.1439
  507.0000   -34.4316    14.4156    13.7333    15.7009     8.2151    70.3620     0.0207     2.4036     0.1541
  507.5000   -34.4377    14.3076    13.7314    15.7009     8.2156    70.8145     0.0289     2.4081     0.1559
  508.0000   -34.2915    14.1153    13.6348    15.7009     8.2160    70.8145     0.0304     2.4134     0.1378
