~VERSION INFORMATION
 VERS.                2.0:   CWLS LOG ASCII STANDARD - VERSION 2.0
 WRAP.                 NO:   ONE LINE PER DEPTH STEP
~WELL INFORMATION
#MNEM.UNIT      DATA TYPE    INFORMATION
#----------   ------------   ------------------------------
 STRT.F           20.0000:   START DEPTH
 STOP.F          698.0000:   STOP DEPTH
 STEP.F            0.5000:   STEP LENGTH
 NULL.          -999.2500:   NO VALUE
 COMP. FENIX & SCISSON INC:   COMPANY
 WELL.    52 SX 34 #52-34:   WELL
 FLD .             TEAPOT:   FIELD
 LOC .      S34 T39N R78W:   LOCATION
 CNTY.            NATRONA:   COUNTY
 STAT.            WYOMING:   STATE
 CTRY. UNITED STATES OF AMERICA:   COUNTRY
 SRVC.            Unknown:   SERVICE COMPANY
 DATE.        26-JAN-1979:   LOGDATE
 API .       490251077100:   API NUMBER
~CURVE INFORMATION
#MNEM.UNIT       API CODE    CURVE DESCRIPTION
#----------   ------------   ------------------------------
 DEPT.F                  :   
 SPR .MV     05 010 01 00:   SPONTANEOUS POTENTIAL FROM RES.
 CALD.IN     45 280 60 00:   CALIPER
 GRD .GAPI   45 310 01 00:   GAMMA RAY FROM DENSITY LOG
 CORR.G/C3   45 356 01 00:   DENSITY CORRECTION
 RHOB.G/C3   45 350 01 00:   BULK DENSITY
 ILD .OHMM   05 120 46 00:   INDUCTION LOG DEEP
 SN  .OHMM   05 040 16 00:   SHORT NORMAL 16"
 DPHI.DEC    45 890 12 00:   DENSITY POROSITY SANDSTONE
~PARAMETER INFORMATION
#MNEM.UNIT          VALUE    DESCRIPTION
#----------   ------------   ------------------------------
 PD  .                 GL:   PERMANENT DATUM
 EPD .F              5072:   ELEVATION PERMANENT DATUM
 LMF .                 KB:   LOG MEASURED FROM
 DAPD.F                 4:   FEET ABOVE PERMANENT DATUM
 DMF .                 KB:   DRILLING MEASURED FROM
 EKB .F              5076:   KELLING BUSHING
 EGL .F              5072:   GROUND LEVEL
 DATE.            1-26-79:   RUN DATE
 RUN .                  1:   RUN NUMBER
 DD  .F               688:   DEPTH DRILLER
 DL  .F               698:   DEPTH LOGGER
 BLI .F               691:   BOTTOM LOG INTERVAL
 TLI .F                30:   TOP LOG INTERVAL
 CS  .IN            8.625:   CASING SIZE
 CBD .F                40:   CASING BOTTOM DRILLER
 CBL .F                20:   CASING BOTTOM LOGGER
 BS  .IN            7.875:   BIT SIZE
 BSD .F               688:   BIT SIZE AT DEPTH
 DFT .                KCL:   DRILLING FLUID TYPE
 DFD .                8.9:   DRILLING FLUID DENSITY
 DFV .                 39:   DRILLING FLUID VISCOSITY
 DFPH.                 10:   DRILLING FLUID PH
 DFL .                 10:   DRILLING FLUID LOSS
 MSS .           FLOWLINE:   MUD SAMPLE SOURCE
 RMS .OHMM             .3:   RESISTIVITY MUD SAMPLE
 MST .F                60:   MUD SAMPLE TEMPERATURE
 RMF .OHMM            .22:   RESISTIVITY MUD FILTRATE SAMPLE
 MFST.F                66:   MUD FILTRATE SAMPLE TEMPERATURE
 MFSS.           MEASURED:   MUD FILTRATE SAMPLE SOURCE
 MCSS.           MEASURED:   MUD CAKE SAMPLE SOURCE
 RMB .OHMM            .25:   RESISTIVITY MUD AT BHT
 BHT .F                70:   BOTTOM HOLE TEMPERATURE
 TCS .HRS               7:   TIME CURCULATED STOPPED
 MRT .F                70:   MAXIMUM RECORDED TEMPERATURE
 LUN .               3006:   LOGGING UNIT NUMBER
 LUL .             CASPER:   LOGGING UNIT LOCATION
 ENGI.            ROLLINS:   RECORDING ENGINEER
 WITN.              AMEND:   WITNESSED BY
 CLNT.            A2DTECH:   CLIENT CODE
 ORIG.       2", 5" PRINT:   ORIGIN OF DATA
 UWI .       490251077100:   UNIQUE WELL ID
 DICO. A2D Technologies, Inc.:   DIGITIZING COMPANY
~OTHER INFORMATION
~A   DEPT      SPR         CALD       GRD      CORR       RHOB        ILD         SN       DPHI   
# ...
  141.5000   -51.3576     8.2115    98.2552     0.0133     2.4427     6.2301     6.6885     0.1433
  142.0000   -51.3576     8.2115    99.0394     0.0118     2.4362     6.2301     6.7191     0.1463
  142.5000   -51.3576     8.2115    99.6985     0.0099     2.4300     6.2294     6.7498     0.1441
  143.0000   -51.3576     8.2115    99.4610     0.0106     2.4349     6.2879     6.7807     0.1397
  143.5000   -51.3576     8.2115    99.2008     0.0125     2.4433     6.4034     6.8117     0.1381
  144.0000   -51.3576     8.2115    98.9374     0.0143     2.4489     6.5209     6.8500     0.1375
  144.5000   -51.3576     8.2115    98.3124     0.0162     2.4486     6.6104     6.9078     0.1373
  145.0000   -51.3576     8.2115    97.6328     0.0169     2.4483     6.6639     6.9661     0.1370
  145.5000   -51.3576     8.2130    96.7334     0.0144     2.4481     6.7177     7.0250     0.1368
  146.0000   -51.3576     8.2165    94.9403     0.0121     2.4478     6.7721     7.0843     0.1374
  146.5000   -51.3576     8.2200    95.8381     0.0098     2.4478     6.8268     7.1441     0.1375
  147.0000   -51.3576     8.2233    97.4700     0.0076     2.4480     6.8821     7.2044     0.1368
  147.5000   -51.3576     8.2269    97.0617     0.0075     2.4501     6.9378     7.2653     0.1359
  148.0000   -51.3576     8.2325    94.3507     0.0075     2.4514     6.9759     7.3063     0.1365
  148.5000   -51.3576     8.1466    92.2063     0.0075     2.4484     7.0003     7.3319     0.1392
  149.0000   -51.3576     8.0552    93.7982     0.0075     2.4461     7.0248     7.3576     0.1385
  149.5000   -51.3576     8.1289    98.0288     0.0077     2.4480     7.0494     7.3833     0.1365
  150.0000   -51.3576     8.2204   101.0706     0.0084     2.4499     7.0741     7.4092     0.1360
  150.5000   -51.3576     8.2117   101.4365     0.0091     2.4509     7.0989     7.4352     0.1375
  151.0000   -51.3576     8.1311   102.8369     0.0122     2.4508     7.1238     7.4612     0.1390
  151.5000   -51.3576     8.0766   104.4071     0.0179     2.4458     7.1553     7.4939     0.1405
  152.0000   -51.3576     8.2315   104.4212     0.0235     2.4401     7.1440     7.4707     0.1427
  152.5000   -51.3576     8.2890    98.0405     0.0292     2.4344     7.1215     7.4286     0.1448
  153.0000   -51.3576     8.2643    92.2553     0.0307     2.4309     7.0990     7.3866     0.1440
  153.5000   -51.3576     8.2375    90.3610     0.0293     2.4337     7.0766     7.3553     0.1420
  154.0000   -51.3575     8.2491    94.9918     0.0217     2.4413     7.0543     7.3430     0.1378
  154.5000   -51.3627     8.2627    95.3610     0.0136     2.4490     7.0321     7.3307     0.1323
  155.0000   -51.3698     8.2323    94.6995     0.0161     2.4566     7.0099     7.3184     0.1301
  155.5000   -51.3769     8.2109    93.7679     0.0189     2.4621     6.9878     7.3062     0.1336
  156.0000   -51.3840     8.2115    95.7441     0.0214     2.4605     6.9658     7.2939     0.1396
  156.5000   -51.3911     8.2113    96.0344     0.0211     2.4467     6.9621     7.2919     0.1392
  157.0000   -51.3982     8.2115    93.1182     0.0207     2.4462     6.9621     7.2920     0.1364
  157.5000   -51.4053     8.2300    90.5749     0.0204     2.4510     6.9647     7.2947     0.1337
  158.0000   -51.4123     8.1200    92.6541     0.0200     2.4559     6.9693     7.2995     0.1311
  158.5000   -51.4194     8.0952    96.0283     0.0196     2.4578     6.9739     7.3042     0.1308
  159.0000   -51.4265     8.1581    95.7855     0.0193     2.4590     6.9784     7.3090     0.1302
  159.5000   -51.4336     8.2281    94.7371     0.0189     2.4601     6.9830     7.3138     0.1299
  160.0000   -51.4407     8.2317    94.7971     0.0186     2.4599     6.9876     7.3186     0.1318
  160.5000   -51.4478     8.2313    97.9121     0.0182     2.4567     6.9922     7.3234     0.1335
  161.0000   -51.4549     8.2312    96.5911     0.0179     2.4540     6.9968     7.3282     0.1328
  161.5000   -51.4620     8.2312    93.1295     0.0175     2.4547     7.0014     7.3330     0.1313
  162.0000   -51.4691     8.2312    92.4151     0.0171     2.4554     7.0060     7.3379     0.1311
  162.5000   -51.4762     8.2312    94.2621     0.0168     2.4561     7.0106     7.3427     0.1315
  163.0000   -51.4833     8.2312    95.7978     0.0164     2.4570     7.0152     7.3475     0.1306
  163.5000   -51.4903     8.2312    94.6831     0.0161     2.4615     7.0198     7.3523     0.1267
  164.0000   -51.4974     8.2312    94.6725     0.0157     2.4660     7.0244     7.3571     0.1263
  164.5000   -51.5045     8.2312    97.6349     0.0165     2.4679     7.0414     7.3597     0.1263
  165.0000   -51.5116     8.2312    98.0243     0.0193     2.4681     7.0723     7.3597     0.1271
  165.5000   -51.5187     8.2312    99.1856     0.0220     2.4616     7.1033     7.3597     0.1323
  166.0000   -51.5258     8.2312    99.5547     0.0248     2.4532     7.1345     7.3597     0.1331
  166.5000   -51.5329     8.2312    99.6464     0.0275     2.4536     7.1658     7.3597     0.1335
  167.0000   -51.5400     8.2306    99.0472     0.0295     2.4545     7.1973     7.3598     0.1331
  167.5000   -51.5471     8.2278    97.4986     0.0295     2.4595     7.2247     7.3597     0.1290
  168.0000   -51.5544     8.2250    95.9889     0.0295     2.4661     7.1642     7.3211     0.1263
  168.5000   -51.5562     8.2222    95.9263     0.0295     2.4700     7.0996     7.2798     0.1265
  169.0000   -51.5563     8.2194    99.1976     0.0274     2.4671     7.0357     7.2387     0.1267
  169.5000   -51.5563     8.2166   101.1313     0.0250     2.4639     6.9723     7.1979     0.1281
  170.0000   -51.5563     8.2137   104.1756     0.0225     2.4619     6.9094     7.1573     0.1299
  170.5000   -51.5563     8.2109   105.1826     0.0200     2.4610     6.8471     7.1169     0.1311
  171.0000   -51.5563     8.2081   103.5228     0.0206     2.4552     6.7852     7.0767     0.1328
  171.5000   -51.5563     8.2053   103.2871     0.0219     2.4534     6.7243     7.0268     0.1346
  172.0000   -51.5563     8.2025   101.5369     0.0233     2.4524     6.7006     7.0311     0.1364
  172.5000   -51.5563     8.1997    97.6539     0.0247     2.4504     6.6894     7.0367     0.1382
  173.0000   -51.5563     8.1969    97.8626     0.0250     2.4448     6.6782     7.0425     0.1388
  173.5000   -51.5563     8.1941    98.8045     0.0239     2.4440     6.6670     7.0481     0.1366
  174.0000   -51.5563     8.1922    99.7265     0.0229     2.4535     6.6558     7.0538     0.1335
  174.5000   -51.5563     8.1955   100.6128     0.0218     2.4527     6.6447     7.0595     0.1320
  175.0000   -51.5563     8.1989   100.5209     0.0208     2.4565     6.6335     7.0652     0.1287
  175.5000   -51.5563     8.2022    97.5280     0.0197     2.4638     6.6224     7.0710     0.1296
  176.0000   -51.5563     8.2055   101.1577     0.0204     2.4604     6.6113     7.0766     0.1312
  176.5000   -51.5563     8.2089   101.2291     0.0228     2.4560     6.6002     7.0824     0.1327
  177.0000   -51.5563     8.2151   103.6104     0.0316     2.4541     6.5892     7.0878     0.1331
  177.5000   -51.5563     8.2323   105.3501     0.0396     2.4544     6.5859     7.1068     0.1323
  178.0000   -51.5563     8.2495   103.3718     0.0322     2.4550     6.5859     7.1579     0.1298
  178.5000   -51.5563     8.2674   102.2202     0.0218     2.4625     6.5859     7.2094     0.1271
  179.0000   -51.5564     8.2537   100.4558     0.0114     2.4838     6.7567     7.2612     0.1131
  179.5000   -51.5560     8.2316    95.9347     0.0055     2.5130     6.8891     7.3133     0.1006
  180.0000   -51.5448     8.2082    91.5792     0.0055     2.5131     7.0240     7.3658     0.1101
  180.5000   -51.5331     8.1760    87.2127     0.0087     2.4988     7.1616     7.4186     0.1214
  181.0000   -51.5216     8.1423    84.8779     0.0139     2.4767     7.2288     7.4718     0.1292
  181.5000   -51.5100     8.1327    89.1548     0.0192     2.4615     7.2410     7.4991     0.1318
