~VERSION INFORMATION
 VERS.                2.0:   CWLS LOG ASCII STANDARD - VERSION 2.0
 WRAP.                 NO:   ONE LINE PER DEPTH STEP
~WELL INFORMATION
#MNEM.UNIT      DATA TYPE    INFORMATION
#----------   ------------   ------------------------------
 STRT.F            6.0000:   START DEPTH
 STOP.F          522.0000:   STOP DEPTH
 STEP.F            0.5000:   STEP LENGTH
 NULL.          -999.2500:   NO VALUE
 COMP.       F D SERV INC:   COMPANY
 WELL.    88-7 SX-3 #88-3:   WELL
 FLD .             TEAPOT:   FIELD
 LOC .       S3 T38N R78W:   LOCATION
 CNTY.            NATRONA:   COUNTY
 STAT.            WYOMING:   STATE
 CTRY. UNITED STATES OF AMERICA:   COUNTRY
 SRVC.      Western Atlas:   SERVICE COMPANY
 DATE.        30-NOV-1992:   LOGDATE
 API .       490252254100:   API NUMBER
~CURVE INFORMATION
#MNEM.UNIT       API CODE    CURVE DESCRIPTION
#----------   ------------   ------------------------------
 DEPT.F                  :   
 GRR .GAPI   07 310 01 00:   GAMMA RAY
 RILD.OHMM   07 120 46 00:   INDUCTION LOG DEEP RESISTIVITY
 RILM.OHMM   07 120 44 00:   INDUCTION LOG MEDIUM RESISTIVITY
 C13 .IN     45 280 13 00:   CALIPER 13
 ZCOR.G/C3   45 356 01 00:   DENSITY CORRECTION
 ZDEN.G/C3   45 350 01 00:   BULK DENSITY
 PORZ.DEC    45 890 00 00:   DENSITY POROSITY
 NPHI.DEC    42 890 03 00:   NEUTRON POROSITY SANDSTONE
~PARAMETER INFORMATION
#MNEM.UNIT          VALUE    DESCRIPTION
#----------   ------------   ------------------------------
 PD  .                 GL:   PERMANENT DATUM
 EPD .F              5155:   ELEVATION PERMANENT DATUM
 LMF .                 KB:   LOG MEASURED FROM
 DAPD.F                10:   FEET ABOVE PERMANENT DATUM
 DMF .                 KB:   DRILLING MEASURED FROM
 EKB .F              5165:   KELLING BUSHING
 EDF .F              5164:   DRILLING FLOOR
 EGL .F              5155:   GROUND LEVEL
 DATE.        30-NOV-1992:   RUN DATE
 RUN .                  1:   RUN NUMBER
 DD  .F               525:   DEPTH DRILLER
 DL  .F               525:   DEPTH LOGGER
 BLI .F               516:   BOTTOM LOG INTERVAL
 TLI .F                 6:   TOP LOG INTERVAL
 CS  .IN            8.625:   CASING SIZE
 CBD .F                95:   CASING BOTTOM DRILLER
 CBL .F                98:   CASING BOTTOM LOGGER
 BS  .IN            7.875:   BIT SIZE
 BSD .F               525:   BIT SIZE AT DEPTH
 DFT .           AIR FOAM:   DRILLING FLUID TYPE
 MRT .F                68:   MAXIMUM RECORDED TEMPERATURE
 LUN .           HL- 6774:   LOGGING UNIT NUMBER
 LUL .             CASPER:   LOGGING UNIT LOCATION
 ENGI.             RAUTIO:   RECORDING ENGINEER
 WITN.          BOB SYLER:   WITNESSED BY
 CLNT.            A2DTECH:   CLIENT CODE
 ORIG.           5" PRINT:   ORIGIN OF DATA
 UWI .       490252254100:   UNIQUE WELL ID
 DICO. A2D Technologies, Inc.:   DIGITIZING COMPANY
~OTHER INFORMATION
~A    DEPT     GRR       RILD       RILM        C13       ZCOR       ZDEN       PORZ       NPHI   
# ...
  492.0000   115.9918    12.2546    12.1177     7.9909     0.0185     2.4962     0.0936     0.2675
  492.5000  -999.2500    12.1652    12.1143     7.9886     0.0142     2.4886     0.0976     0.2653
  493.0000  -999.2500    12.1610    12.0268     7.9864     0.0141     2.4863     0.0976     0.2633
  493.5000  -999.2500    12.1568    12.0235     7.9841     0.0215     2.4886     0.0959     0.2646
  494.0000  -999.2500    12.1517    11.9367     7.9814     0.0260     2.4976     0.0903     0.2658
  494.5000  -999.2500    12.0631    11.8505     7.9034     0.0244     2.5052     0.0858     0.2670
  495.0000  -999.2500    11.9751    11.8473     7.9011     0.0258     2.5082     0.0840     0.2695
  495.5000  -999.2500    11.8877    11.7617     7.8989     0.0302     2.5119     0.0831     0.2719
  496.0000  -999.2500    11.8010    11.6768     7.8967     0.0317     2.5081     0.0858     0.2780
  496.5000  -999.2500    11.6335    11.6736     7.8944     0.0180     2.5051     0.0867     0.2792
  497.0000  -999.2500    11.4683    11.5088     7.8922     0.0134     2.5043     0.0871     0.2808
  497.5000  -999.2500    11.2269    11.3436     7.8900     0.0133     2.5050     0.0868     0.2829
  498.0000  -999.2500    10.9906    11.1083     7.8877     0.0132     2.5092     0.0853     0.2839
  498.5000  -999.2500    10.8345    10.8753     7.8855     0.0161     2.5217     0.0777     0.2854
  499.0000  -999.2500    10.6065    10.6467     7.8833     0.0190     2.5330     0.0716     0.2881
  499.5000  -999.2500    10.3832    10.4964     7.8810     0.0250     2.5329     0.0701     0.2915
  500.0000  -999.2500    10.2358    10.3164     7.8788     0.0234     2.5269     0.0774     0.2915
  500.5000  -999.2500     9.8831     9.9904     7.8765     0.0187     2.5177     0.0786     0.2915
  501.0000  -999.2500     9.8711     9.8486     7.8742     0.0126     2.5163     0.0804     0.2897
  501.5000  -999.2500     9.7424     9.7089     7.9336     0.0105     2.5148     0.0817     0.2892
  502.0000  -999.2500     9.6058     9.5712     7.9311     0.0004     2.5087     0.0853     0.2934
  502.5000  -999.2500     9.5373     9.5014     7.9291     0.0003     2.4905     0.0932     0.2989
  503.0000  -999.2500     9.4694     9.3666     7.9271     0.0002     2.4860     0.0995     0.3016
  503.5000  -999.2500     9.4020     9.2983     7.9408    -0.0059     2.4868     0.1002     0.3021
  504.0000  -999.2500     9.3350     9.2305     7.9383    -0.0075     2.4913     0.0975     0.3024
  504.5000  -999.2500     9.3334     9.2266     7.9363    -0.0061     2.5117     0.0905     0.3024
  505.0000  -999.2500     9.3318     9.2234     7.9343    -0.0062     2.5155     0.0813  -999.2500
  505.5000  -999.2500     9.2653     9.1562     7.9323    -0.0063     2.5140     0.0820  -999.2500
  506.0000  -999.2500     9.2637     9.2179     7.9303    -0.0034     2.5163     0.0813  -999.2500
  506.5000  -999.2500     9.2621     9.1499     7.9283    -0.0004     2.5261     0.0759  -999.2500
  507.0000  -999.2500     9.2573     9.1468     7.9259     0.0025     2.5291     0.0738  -999.2500
  507.5000  -999.2500     9.1943     9.1436     7.9239     0.0100     2.5284     0.0735  -999.2500
  508.0000  -999.2500     9.0654     9.0770     7.9219     0.0159     2.5261     0.0783  -999.2500
  508.5000  -999.2500     9.0638     9.0108     7.9199     0.0052     2.5216     0.0786  -999.2500
  509.0000  -999.2500     8.9992     9.0077     7.9179    -0.0009     2.5201     0.0786  -999.2500
  509.5000  -999.2500     8.9351     8.9421     7.9159    -0.0010     2.5193     0.0783  -999.2500
  510.0000  -999.2500     8.8098     8.8769     7.9139     0.0037     2.5203     0.0785  -999.2500
  510.5000  -999.2500     8.6862     8.7510     7.9119     0.0170     2.5211     0.0785  -999.2500
  511.0000  -999.2500     8.5644     8.6268     7.9099     0.0190     2.5203     0.0791  -999.2500
  511.5000  -999.2500     8.3821     8.5039     7.9080     0.0217     2.5180     0.0818  -999.2500
  512.0000  -999.2500     8.2104     8.3216     7.9060     0.0234     2.5097     0.0867  -999.2500
  512.5000  -999.2500     8.1516     8.1432     7.9040     0.0234     2.5058     0.0888  -999.2500
  513.0000  -999.2500     8.0938     8.0805     7.9020     0.0234     2.5035     0.0884  -999.2500
  513.5000  -999.2500  -999.2500     8.0313     7.9151     0.0219     2.5035     0.0830  -999.2500
  514.0000  -999.2500  -999.2500     7.9728     7.9283     0.0219     2.5095     0.0815  -999.2500
  514.5000  -999.2500  -999.2500     7.9147     7.8788     0.0234     2.5163     0.0833  -999.2500
  515.0000  -999.2500  -999.2500     7.8570     7.8788     0.0234     2.5155     0.0897  -999.2500
  515.5000  -999.2500  -999.2500     7.8543     7.8788     0.0234     2.5085     0.1036  -999.2500
  516.0000  -999.2500  -999.2500     7.8519     7.8333     0.0281     2.4911     0.1188  -999.2500
  516.5000  -999.2500  -999.2500  -999.2500     7.8182     0.0354     2.4671     0.1242  -999.2500
  517.0000  -999.2500  -999.2500  -999.2500     7.8182     0.0475     2.4452     0.1227  -999.2500
  517.5000  -999.2500  -999.2500  -999.2500     7.8182     0.0596     2.4519     0.1127  -999.2500
  518.0000  -999.2500  -999.2500  -999.2500     7.8636     0.0400     2.4722     0.0909  -999.2500
  518.5000  -999.2500  -999.2500  -999.2500     7.8788     0.0294     2.5001     0.0782  -999.2500
  519.0000  -999.2500  -999.2500  -999.2500     7.8788     0.0234     2.5234     0.0742  -999.2500
  519.5000  -999.2500  -999.2500  -999.2500     7.8788     0.0234     2.5332     0.0724  -999.2500
  520.0000  -999.2500  -999.2500  -999.2500     7.8788     0.0264     2.5324     0.0748  -999.2500
  520.5000  -999.2500  -999.2500  -999.2500     7.8788     0.0266     2.5294     0.0745  -999.2500
  521.0000  -999.2500  -999.2500  -999.2500     7.8788     0.0113     2.5293     0.0742  -999.2500
  521.5000  -999.2500  -999.2500  -999.2500     7.8788     0.0083     2.5285     0.0756  -999.2500
  522.0000  -999.2500  -999.2500  -999.2500     7.8636     0.0161     2.5270     0.0767  -999.2500
