~VERSION INFORMATION
 VERS.                2.0:   CWLS LOG ASCII STANDARD - VERSION 2.0
 WRAP.                 NO:   ONE LINE PER DEPTH STEP
~WELL INFORMATION
#MNEM.UNIT      DATA TYPE    INFORMATION
#----------   ------------   ------------------------------
 STRT.F            0.0000:   START DEPTH
 STOP.F          551.0000:   STOP DEPTH
 STEP.F            0.1000:   STEP LENGTH
 NULL.          -999.2500:   NO VALUE
 COMP.       F D SERV INC:   COMPANY
 WELL.    62-2 SX-3 #62-3:   WELL
 FLD .          N.P.R. #3:   FIELD
 LOC .       S3 T38N R78W:   LOCATION
 CNTY.            NATRONA:   COUNTY
 STAT.            WYOMING:   STATE
 CTRY. UNITED STATES OF AMERICA:   COUNTRY
 SRVC.     Atlas Wireline:   SERVICE COMPANY
 DATE.        17-APR-1992:   LOGDATE
 API .       490252250700:   API NUMBER
~CURVE INFORMATION
#MNEM.UNIT       API CODE    CURVE DESCRIPTION
#----------   ------------   ------------------------------
 DEPT.F                  :   
 GRR .GAPI   07 310 01 00:   GAMMA RAY
 RILD.OHMM   07 120 46 00:   INDUCTION LOG DEEP RESISTIVITY
 RILM.OHMM   07 120 44 00:   INDUCTION LOG MEDIUM RESISTIVITY
~PARAMETER INFORMATION
#MNEM.UNIT          VALUE    DESCRIPTION
#----------   ------------   ------------------------------
 PD  .                 GL:   PERMANENT DATUM
 EPD .F              5130:   ELEVATION PERMANENT DATUM
 LMF .                 KB:   LOG MEASURED FROM
 DAPD.F                 5:   FEET ABOVE PERMANENT DATUM
 DMF .                 KB:   DRILLING MEASURED FROM
 EKB .F              5135:   KELLING BUSHING
 EDF .F              5134:   DRILLING FLOOR
 EGL .F              5130:   GROUND LEVEL
 DATE.        17-APR-1992:   RUN DATE
 RUN .                  1:   RUN NUMBER
 DD  .F               560:   DEPTH DRILLER
 DL  .F               560:   DEPTH LOGGER
 BLI .F               558:   BOTTOM LOG INTERVAL
 CS  .IN            8.625:   CASING SIZE
 CBD .F                47:   CASING BOTTOM DRILLER
 CBL .F                50:   CASING BOTTOM LOGGER
 BS  .IN            7.875:   BIT SIZE
 BSD .F               560:   BIT SIZE AT DEPTH
 DFT .                AIR:   DRILLING FLUID TYPE
 TCS .HRS               2:   TIME CURCULATED STOPPED
 MRT .F                83:   MAXIMUM RECORDED TEMPERATURE
 LUN .           HL- 6274:   LOGGING UNIT NUMBER
 LUL .             CASPER:   LOGGING UNIT LOCATION
 ENGI.            LEBSOCK:   RECORDING ENGINEER
 WITN.        GARY STRONG:   WITNESSED BY
 CLNT.            A2DTECH:   CLIENT CODE
 ORIG.           5" PRINT:   ORIGIN OF DATA
 UWI .       490252250700:   UNIQUE WELL ID
 DICO. A2D Technologies, Inc.:   DIGITIZING COMPANY
~OTHER INFORMATION
~A    DEPT      GRR      RILD       RILM   
# ...
  200.2000   132.0534     9.0236     8.6684
  200.3000   132.0952     9.0299     8.6794
  200.4000   132.1371     9.0362     8.6904
  200.5000   132.1790     9.0425     8.7013
  200.6000   132.2208     9.0488     8.7094
  200.7000   132.1334     9.0551     8.7097
  200.8000   131.8899     9.0614     8.7102
  200.9000   131.6460     9.0677     8.7105
  201.0000   130.6646     9.0730     8.7108
  201.1000   129.4920     9.0733     8.7111
  201.2000   127.9947     9.0737     8.7115
  201.3000   126.4277     9.0741     8.7119
  201.4000   125.1769     9.0745     8.6674
  201.5000   123.4951     9.0609     8.6520
  201.6000   122.4370     9.0119     8.6523
  201.7000   121.3635     9.0124     8.6527
  201.8000   120.3805     9.0127     8.6531
  201.9000   119.3978     9.0130     8.6534
  202.0000   118.3663     9.0134     8.6538
  202.1000   117.9005     9.0138     8.6541
  202.2000   117.5887     9.0142     8.6545
  202.3000   117.5897     9.0146     8.6548
  202.4000   118.0375     9.0150     8.6553
  202.5000   119.0269     9.0153     8.6556
  202.6000   120.2003     9.0157     8.6560
  202.7000   121.4057     9.0161     8.6365
  202.8000   122.5988     9.0164     8.5963
  202.9000   123.5877     9.0168     8.5968
  203.0000   124.5447     9.0172     8.5971
  203.1000   125.3588     9.0176     8.5975
  203.2000   126.0296     9.0179     8.5979
  203.3000   126.6057     9.0184     8.5982
  203.4000   126.9911     9.0187     8.5967
  203.5000   127.2406     9.0191     8.5391
  203.6000   127.4917     9.0195     8.5394
  203.7000   127.7396     9.0199     8.5398
  203.8000   127.9890     9.0203     8.5401
  203.9000   128.1059     9.0206     8.5405
  204.0000   128.1856     9.0210     8.5409
  204.1000   128.4146     9.0214     8.4975
  204.2000   128.4180     9.0218     8.4821
  204.3000   128.4206     9.0221     8.4824
  204.4000   128.2687     9.0226     8.4828
  204.5000   128.1240     8.9813     8.4831
  204.6000   128.1271     8.9603     8.4835
  204.7000   128.1303     8.9607     8.4471
  204.8000   127.8998     8.9611     8.4251
  204.9000   127.4793     8.9615     8.4255
  205.0000   127.1105     8.9619     8.4258
  205.1000   126.7373     8.9622     8.4262
  205.2000   126.0183     8.9399     8.4265
  205.3000   125.7283     8.9005     8.3969
  205.4000   125.3320     8.9008     8.3685
  205.5000   124.8422     8.9012     8.3689
  205.6000   124.3524     8.9016     8.3693
  205.7000   123.8623     8.8749     8.3248
  205.8000   123.3225     8.8402     8.3117
  205.9000   122.8824     8.8406     8.3121
  206.0000   122.5577     8.8410     8.3124
  206.1000   122.4236     8.8413     8.3111
  206.2000   122.4267     8.8103     8.2552
  206.3000   122.4297     8.7804     8.2555
  206.4000   122.4327     8.7723     8.2559
  206.5000   122.6234     8.7200     8.2562
  206.6000   123.0044     8.6736     8.2565
  206.7000   123.3494     8.6598     8.2569
  206.8000   123.3720     8.6362     8.2573
  206.9000   123.6585     8.6002     8.2263
  207.0000   123.8709     8.5989     8.2004
  207.1000   124.1204     8.5410     8.2008
  207.2000   124.3700     8.5413     8.2011
  207.3000   124.5779     8.5136     8.2015
  207.4000   124.5811     8.4764     8.2018
  207.5000   124.5839     8.4595     8.2022
  207.6000   124.5870     8.4426     8.1884
  207.7000   124.5900     8.4257     8.1457
  207.8000   124.5931     8.4089     8.1461
  207.9000   124.5961     8.3920     8.1071
  208.0000   124.5997     8.3751     8.0615
  208.1000   124.4040     8.3582     8.0340
  208.2000   124.1605     8.3413     8.0268
  208.3000   123.8311     8.3244     7.9788
  208.4000   123.3412     8.3096     7.9791
  208.5000   122.7991     8.3100     7.9472
  208.6000   122.3613     8.3104     7.9024
  208.7000   122.0355     8.2792     7.8693
  208.8000   121.6838     8.2531     7.8683
  208.9000   121.2460     8.2436     7.8152
  209.0000   120.9985     8.1962     7.7799
  209.1000   120.5166     8.1965     7.7614
  209.2000   120.2130     8.1969     7.7465
  209.3000   119.8392     8.1726     7.7028
  209.4000   119.4235     8.1404     7.6547
  209.5000   119.1618     8.1407     7.6163
  209.6000   118.5965     8.1412     7.5733
  209.7000   118.5990     8.1023     7.5493
  209.8000   118.6021     8.0566     7.5318
  209.9000   118.6052     8.0111     7.4452
  210.0000   118.6082     7.9658     7.4040
  210.1000   118.6114     7.9180     7.3623
  210.2000   118.8451     7.8344     7.3208
  210.3000   119.0946     7.7459     7.2796
  210.4000   119.3440     7.6793     7.2356
  210.5000   119.6562     7.6141     7.1413
  210.6000   120.1456     7.4873     7.1416
  210.7000   120.3952     7.4451     7.0920
  210.8000   120.8415     7.3363     7.0120
  210.9000   121.1967     7.2355     6.9393
  211.0000   121.5311     7.1537     6.8975
  211.1000   121.9984     7.0728     6.7889
  211.2000   122.2757     6.9841     6.6477
  211.3000   122.7165     6.9491     6.5158
  211.4000   123.0495     6.9098     6.3966
  211.5000   123.1921     6.8708     6.2534
  211.6000   123.1951     6.8321     6.1479
  211.7000   123.1982     6.7927     6.0715
  211.8000   122.9600     6.7552     6.0224
  211.9000   122.5313     6.7170     6.0001
  212.0000   122.1705     6.6991     6.0003
  212.1000   121.7810     6.6994     6.0006
  212.2000   121.0613     6.6996     6.0312
  212.3000   120.4937     6.7000     6.0432
  212.4000   120.0814     6.7002     6.0434
  212.5000   119.7428     6.7005     6.0508
  212.6000   119.4994     6.7008     6.0863
  212.7000   119.2945     6.6950     6.1205
  212.8000   119.6008     6.6546     6.1295
  212.9000   119.8332     6.6549     6.1481
  213.0000   120.0827     6.6552     6.1731
  213.1000   120.3322     6.6554     6.1757
  213.2000   120.6432     6.6557     6.2169
  213.3000   121.1441     6.6560     6.2171
  213.4000   121.8870     6.6562     6.2391
  213.5000   122.8250     6.6566     6.2750
  213.6000   123.6744     6.6568     6.3111
  213.7000   124.5005     6.6571     6.3499
  213.8000   125.4619     6.6574     6.3839
  213.9000   126.2908     6.6577     6.3950
  214.0000   126.9469     6.6579     6.4126
  214.1000   127.3660     6.6582     6.4495
  214.2000   127.5098     6.6585     6.4873
  214.3000   127.4138     6.6664     6.5619
  214.4000   126.9108     6.7058     6.6074
  214.5000   126.1938     6.7061     6.6454
  214.6000   125.6412     6.7064     6.6836
  214.7000   125.0234     6.7266     6.7220
  214.8000   124.3588     6.7653     6.7652
  214.9000   123.8844     6.8043     6.7655
  215.0000   123.6011     6.8499     6.7911
  215.1000   123.6036     6.8829     6.8301
  215.2000   123.9068     6.9226     6.8694
  215.3000   124.4027     6.9777     6.9100
  215.4000   124.9368     7.0517     6.9487
  215.5000   125.7340     7.0953     6.9886
  215.6000   126.1935     7.1332     7.0289
  215.7000   126.8616     7.1743     7.0693
  215.8000   127.4879     7.2352     7.1098
  215.9000   127.9841     7.3082     7.1575
  216.0000   128.4839     7.3502     7.1578
  216.1000   129.2267     7.3926     7.1829
  216.2000   129.5802     7.4688     7.2086
  216.3000   129.8298     7.5064     7.2151
  216.4000   130.0793     7.5355     7.2598
  216.5000   130.3287     7.6221     7.2984
  216.6000   130.6085     7.7205     7.3404
  216.7000   130.8278     7.7208     7.3629
  216.8000   130.9168     7.7499     7.3734
  216.9000   130.9198     7.7945     7.4157
  217.0000   130.8258     7.8395     7.4584
  217.1000   130.3208     7.8860     7.5013
  217.2000   129.8463     7.8863     7.5444
  217.3000   129.3562     7.9201     7.5734
  217.4000   128.7396     7.9657     7.5783
  217.5000   127.9328     7.9985     7.6272
  217.6000   126.9494     8.0015     7.6275
  217.7000   125.8008     8.0554     7.6278
  217.8000   124.7788     8.0557     7.6465
  217.9000   123.6982     8.0560     7.6820
  218.0000   122.9008     8.0737     7.6823
  218.1000   122.3740     8.1132     7.6826
  218.2000   121.5797     8.1136     7.6829
  218.3000   121.3553     8.1139     7.6833
