~VERSION INFORMATION
 VERS.                2.0:   CWLS LOG ASCII STANDARD - VERSION 2.0
 WRAP.                 NO:   ONE LINE PER DEPTH STEP
~WELL INFORMATION
#MNEM.UNIT      DATA TYPE    INFORMATION
#----------   ------------   ------------------------------
 STRT.F           44.0000:   START DEPTH
 STOP.F          510.0000:   STOP DEPTH
 STEP.F            0.5000:   STEP LENGTH
 NULL.          -999.2500:   NO VALUE
 COMP. FENIX & SCISSON INC:   COMPANY
 WELL. NPR-3 76-SX-3 #76-3:   WELL
 FLD . TEAPOT DOME NPR #3:   FIELD
 LOC .       S3 T38N R78W:   LOCATION
 CNTY.            NATRONA:   COUNTY
 STAT.            WYOMING:   STATE
 CTRY. UNITED STATES OF AMERICA:   COUNTRY
 SRVC.            Unknown:   SERVICE COMPANY
 DATE.        13-OCT-1978:   LOGDATE
 API .       490251072300:   API NUMBER
~CURVE INFORMATION
#MNEM.UNIT       API CODE    CURVE DESCRIPTION
#----------   ------------   ------------------------------
 DEPT.F                  :   
 CALD.IN     45 280 60 00:   CALIPER
 RHOB.G/C3   45 350 01 00:   BULK DENSITY
 CORR.G/C3   45 356 01 00:   DENSITY CORRECTION
 SPR .MV     05 010 01 00:   SPONTANEOUS POTENTIAL FROM RES.
 SN  .OHMM   05 040 16 00:   SHORT NORMAL 16"
 ILD .OHMM   05 120 46 00:   INDUCTION LOG DEEP
 DPHI.DEC    45 890 12 00:   DENSITY POROSITY SANDSTONE
~PARAMETER INFORMATION
#MNEM.UNIT          VALUE    DESCRIPTION
#----------   ------------   ------------------------------
 PD  .                 GL:   PERMANENT DATUM
 EPD .F              5151:   ELEVATION PERMANENT DATUM
 LMF .                 KB:   LOG MEASURED FROM
 DAPD.F                 4:   FEET ABOVE PERMANENT DATUM
 DMF .                 KB:   DRILLING MEASURED FROM
 EKB .F              5155:   KELLING BUSHING
 EGL .F              5151:   GROUND LEVEL
 DATE.         10-13-1978:   RUN DATE
 RUN .                  1:   RUN NUMBER
 DD  .F               515:   DEPTH DRILLER
 DL  .F               517:   DEPTH LOGGER
 BLI .F               511:   BOTTOM LOG INTERVAL
 TLI .F                50:   TOP LOG INTERVAL
 CS  .IN            8.625:   CASING SIZE
 CBD .F                40:   CASING BOTTOM DRILLER
 BS  .IN            7.875:   BIT SIZE
 BSD .F               515:   BIT SIZE AT DEPTH
 DFT .                KCL:   DRILLING FLUID TYPE
 MSS .            MUD PIT:   MUD SAMPLE SOURCE
 RMS .OHMM             .2:   RESISTIVITY MUD SAMPLE
 MST .F                54:   MUD SAMPLE TEMPERATURE
 RMF .OHMM            .19:   RESISTIVITY MUD FILTRATE SAMPLE
 MFST.F                63:   MUD FILTRATE SAMPLE TEMPERATURE
 RMC .OHMM            .26:   RESISTIVITY MUD CAKE
 MCST.F                64:   MUD CAKE SAMPLE TEMPERATURE
 MFSS.               MEAS:   MUD FILTRATE SAMPLE SOURCE
 MCSS.               MEAS:   MUD CAKE SAMPLE SOURCE
 TCS .HRS               2:   TIME CURCULATED STOPPED
 LUN .               3006:   LOGGING UNIT NUMBER
 LUL .               CASP:   LOGGING UNIT LOCATION
 ENGI.             MILLER:   RECORDING ENGINEER
 WITN.           DINSMORE:   WITNESSED BY
 CLNT.            A2DTECH:   CLIENT CODE
 ORIG.           5" PRINT:   ORIGIN OF DATA
 UWI .       490251072300:   UNIQUE WELL ID
 DICO. A2D Technologies, Inc.:   DIGITIZING COMPANY
~OTHER INFORMATION
~A   DEPT     CALD       RHOB        CORR       SPR         SN        ILD         DPHI 
# ...
  362.5000     7.8188     2.4576     0.0764    -7.4405    11.4274    14.8165     0.1334
  363.0000     7.7969     2.4475     0.0698    -7.4404    11.3701    14.6209     0.1442
  363.5000     7.7932     2.4342     0.0660    -7.4401    11.3131    14.4278     0.1533
  364.0000     7.7932     2.4246     0.0629    -7.4371    11.2563    14.1589     0.1585
  364.5000     7.7936     2.4175     0.0638    -7.5776    11.1999    14.1713     0.1598
  365.0000     7.8137     2.4164     0.0647    -7.7525    11.1437    14.1926     0.1538
  365.5000     7.8592     2.4230     0.0713    -7.9283    11.1437    14.2139     0.1456
  366.0000     7.9042     2.4337     0.0789    -8.1037    11.1437    14.2353     0.1373
  366.5000     7.9499     2.4444     0.0821    -8.2790    11.1437    14.2566     0.1326
  367.0000     7.9714     2.4525     0.0850    -8.4545    11.1437    14.2780     0.1383
  367.5000     7.9296     2.4478     0.0862    -8.6304    11.1437    14.2899     0.1414
  368.0000     7.8823     2.4437     0.0874    -8.8060    11.1437    13.9197     0.1383
  368.5000     7.8351     2.4488     0.0886    -8.8297    11.1437    13.6679     0.1313
  369.0000     7.8276     2.4603     0.0878    -8.8297    11.1437    13.4208     0.1237
  369.5000     7.8211     2.4717     0.0854    -8.8304    11.1437    13.1793     0.1171
  370.0000     7.8143     2.4836     0.0794    -8.8844    11.1437    13.1013     0.1138
  370.5000     7.8075     2.4866     0.0731    -8.9962    11.1437    13.0434     0.1197
  371.0000     7.8007     2.4797     0.0667    -9.1080    11.1437    12.9858     0.1242
  371.5000     7.7939     2.4705     0.0604    -9.2210    11.1437    12.9284     0.1287
  372.0000     7.7871     2.4642     0.0549    -9.2320    11.1437    12.8712     0.1323
  372.5000     7.7803     2.4578     0.0556    -9.2381    11.1437    12.8143     0.1300
  373.0000     7.7736     2.4592     0.0562    -9.2447    11.1437    12.7577     0.1267
  373.5000     7.7667     2.4643     0.0568    -9.2515    11.1437    12.7013     0.1215
  374.0000     7.7600     2.4719     0.0573    -9.2582    11.1437    12.6774     0.1163
  374.5000     7.7532     2.4803     0.0579    -9.2650    11.1437    12.6962     0.1110
  375.0000     7.7464     2.4886     0.0585    -9.2718    11.1437    12.7100     0.1058
  375.5000     7.7396     2.4971     0.0589    -9.2785    11.1437    12.7238     0.1062
  376.0000     7.7289     2.4974     0.0572    -9.2853    11.1437    12.7375     0.1161
  376.5000     7.6912     2.4864     0.0554    -9.2921    11.1437    12.7513     0.1230
  377.0000     7.6773     2.4754     0.0536    -9.2989    11.1437    12.7651     0.1263
  377.5000     7.6826     2.4667     0.0533    -9.3056    11.1437    12.7788     0.1295
  378.0000     7.6883     2.4594     0.0538    -9.3124    11.1437    12.7939     0.1327
  378.5000     7.6932     2.4544     0.0542    -9.3192    11.1437    12.7800     0.1350
  379.0000     7.6765     2.4564     0.0547    -9.3259    11.1437    12.7627     0.1300
  379.5000     7.6586     2.4592     0.0549    -9.3327    11.1437    12.7454     0.1266
  380.0000     7.6409     2.4621     0.0543    -9.3395    11.1437    12.7283     0.1305
  380.5000     7.6231     2.4607     0.0537    -9.3462    11.1437    12.7111     0.1366
  381.0000     7.6052     2.4553     0.0531    -9.3530    11.1437    12.6940     0.1350
  381.5000     7.5877     2.4515     0.0525    -9.3598    11.1437    12.6769     0.1312
  382.0000     7.5805     2.4546     0.0520    -9.3666    11.1437    12.6598     0.1259
  382.5000     7.6092     2.4641     0.0514    -9.3733    11.1437    12.6427     0.1205
  383.0000     7.6368     2.4757     0.0508    -9.3801    11.1437    12.6257     0.1151
  383.5000     7.6646     2.4873     0.0504    -9.3869    11.1438    12.6087     0.1140
  384.0000     7.6920     2.4877     0.0499    -9.3936    11.1447    12.5917     0.1142
  384.5000     7.6281     2.4866     0.0494    -9.4004    11.1364    12.5749     0.1112
  385.0000     7.6281     2.4889     0.0489    -9.4075    11.2607    12.5622     0.1082
  385.5000     7.6888     2.4950     0.0485    -9.4143    11.3113    12.6690     0.1058
  386.0000     7.7506     2.4984     0.0480    -9.4180    11.3564    12.7608     0.1091
  386.5000     7.8107     2.4934     0.0475    -9.2558    11.4024    12.9190     0.1139
  387.0000     7.8011     2.4864     0.0470    -8.8524    11.4486    13.1209     0.1207
  387.5000     7.7754     2.4726     0.0466    -8.4547    11.7110    13.3089     0.1235
  388.0000     7.7295     2.4672     0.0461    -8.2333    12.0214    13.4471     0.1255
  388.5000     7.6926     2.4611     0.0457    -8.2212    12.3401    13.7740     0.1423
  389.0000     7.6842     2.4493     0.0450    -7.6211    12.8419    14.4416     0.1613
  389.5000     7.6745     2.4230     0.0552    -6.4654    13.4817    15.6125     0.1754
  390.0000     7.7113     2.3976     0.0697    -6.3745    14.2277    17.6320     0.1814
  390.5000     7.7531     2.3813     0.0810    -5.0465    15.0150    20.3582     0.1732
  391.0000     7.7179     2.3908     0.0816    -3.7331    15.8458    23.5058     0.1634
  391.5000     7.6955     2.4001     0.0737    -3.6672    16.5478    27.1401     0.1747
  392.0000     7.7376     2.3967     0.0636    -3.6834    17.1171    30.1120     0.1903
  392.5000     7.7783     2.3681     0.0546    -3.6933    17.5422    30.8857     0.2059
  393.0000     7.8151     2.3397     0.0619    -3.7011    17.6775    31.5522     0.2190
  393.5000     7.7673     2.3214     0.0712    -3.7088    17.8084    31.0702     0.2095
  394.0000     7.7049     2.3307     0.0839    -3.7166    17.9411    30.2219     0.1971
  394.5000     7.6424     2.3508     0.1026    -3.7244    18.0750    28.9518     0.1846
  395.0000     7.5798     2.3678     0.1212    -3.7321    18.1564    27.7351     0.1893
  395.5000     7.5170     2.3638     0.1398    -3.7399    18.0623    27.5743     0.1930
  396.0000     7.4567     2.3638     0.1621    -3.7476    17.9954    27.3143     0.1797
  396.5000     7.4679     2.3723     0.1867    -3.7554    17.9284    26.5626     0.1428
  397.0000     7.4845     2.4238     0.2113    -3.7632    17.8627    25.8315     0.1018
  397.5000     7.5008     2.4764     0.2105    -3.7709    17.7552    25.2947     0.0794
  398.0000     7.5170     2.5285     0.2005    -3.7787    17.6020    25.6262     0.0989
  398.5000     7.5332     2.5365     0.1973    -3.7865    17.4489    25.9460     0.1219
  399.0000     7.5498     2.4928     0.2079    -3.7942    17.2972    26.4705     0.1430
  399.5000     7.5466     2.4597     0.2212    -3.8020    17.1470    25.7606     0.1374
  400.0000     7.5353     2.4444     0.2387    -3.8098    16.9981    24.9925     0.1255
  400.5000     7.5237     2.4562     0.2716    -3.8175    16.8624    24.5733     0.1000
  401.0000     7.5122     2.4778     0.3036    -3.8253    16.8397    24.4694     0.0747
  401.5000     7.5005     2.5117     0.3206    -3.8330    16.8149    24.3798     0.0489
  402.0000     7.5186     2.5462     0.3245    -3.8408    16.7905    25.7650     0.0315
  402.5000     7.5635     2.5806     0.3236    -3.8486    16.7661    25.6450     0.0494
  403.0000     7.6083     2.6108     0.3107    -3.8563    16.7416    25.4862     0.0845
  403.5000     7.6536     2.5745     0.2599    -3.8640    16.7173    25.3283     0.1140
  404.0000     7.6757     2.5094     0.2052    -3.8744    16.5473    25.0367     0.1426
  404.5000     7.6824     2.4433     0.1943    -3.9095    16.3402    24.6042     0.1580
  405.0000     7.6887     2.4188     0.1971    -3.9445    16.1357    24.6929     0.1663
  405.5000     7.6914     2.4075     0.2145    -3.9794    15.9337    24.8286     0.1583
  406.0000     7.6744     2.4138     0.2477    -4.0143    15.7342    23.7602     0.1450
  406.5000     7.6571     2.4239     0.2854    -4.0491    15.5373    22.8568     0.1313
  407.0000     7.6619     2.4442     0.3086    -4.0840    15.3428    22.8576     0.1177
  407.5000     7.6718     2.4644     0.3048    -4.1189    15.1870    21.2004     0.1066
