~VERSION INFORMATION
 VERS.                2.0:   CWLS LOG ASCII STANDARD - VERSION 2.0
 WRAP.                 NO:   ONE LINE PER DEPTH STEP
~WELL INFORMATION
#MNEM.UNIT      DATA TYPE    INFORMATION
#----------   ------------   ------------------------------
 STRT.F          458.0000:   START DEPTH
 STOP.F         2155.0000:   STOP DEPTH
 STEP.F            0.5000:   STEP LENGTH
 NULL.          -999.2500:   NO VALUE
 COMP.   FLUOR DANIEL INC:   COMPANY
 WELL. NAVAL PETROLEUM RESERVE 3 SHX- 1 #33-29:   WELL
 FLD .             TEAPOT:   FIELD
 LOC .      S29 T39N R78W:   LOCATION
 CNTY.            NATRONA:   COUNTY
 STAT.            WYOMING:   STATE
 CTRY. UNITED STATES OF AMERICA:   COUNTRY
 SRVC.            Unknown:   SERVICE COMPANY
 DATE.        29-JUN-1995:   LOGDATE
 API .       490252272500:   API NUMBER
~CURVE INFORMATION
#MNEM.UNIT       API CODE    CURVE DESCRIPTION
#----------   ------------   ------------------------------
 DEPT.F                  :   
 C1  .VF     91 831 01 00:   METHANE
 C2  .VF     91 832 01 00:   ETHANE
 C3  .VF     91 833 01 00:   PROPANE
 C4  .VF     91 834 01 00:   BUTANE
 ROP .FT/HR  91 810 01 00:   RAT OF DRILLING PENETRATION
 TGAS.TC/CC  91 830 01 00:   TOTAL GAS UNIT
~PARAMETER INFORMATION
#MNEM.UNIT          VALUE    DESCRIPTION
#----------   ------------   ------------------------------
 EKB .F              5020:   KELLING BUSHING
 EGL .F              5010:   GROUND LEVEL
 DATE.        29-JUN-1995:   RUN DATE
 RUN .                  1:   RUN NUMBER
 BLI .F              2155:   BOTTOM LOG INTERVAL
 TLI .F               460:   TOP LOG INTERVAL
 ENGI.     C.TOWER/R.HUSK:   RECORDING ENGINEER
 CLNT.            A2DTECH:   CLIENT CODE
 ORIG.           5" PRINT:   ORIGIN OF DATA
 UWI .       490252272500:   UNIQUE WELL ID
 DICO. A2D Technologies, Inc.:   DIGITIZING COMPANY
~OTHER INFORMATION
~A   DEPT       C1         C2         C3         C4          ROP       TGAS 
# ...
 1342.0000     2.8334     0.4926     0.0000     0.0000     0.5065    18.1883
 1342.5000     2.8206     0.4853     0.0000     0.0000     0.5061    18.1695
 1343.0000     2.8078     0.4779     0.0000     0.0000     0.5056    19.0931
 1343.5000     2.7949     0.5641     0.0000     0.0000     0.5051    19.0701
 1344.0000     2.5946     0.5568     0.0000     0.0000     0.5988    19.0518
 1344.5000     2.3943     0.5495     0.0000     0.0000     0.6549    17.1506
 1345.0000     2.3813     0.5421     0.0000     0.0000     0.6544    16.1908
 1345.5000     2.3681     0.5495     0.0000     0.0000     0.6540    16.1724
 1346.0000     2.3526     0.6210     0.0000     0.0000     0.6440    16.1541
 1346.5000     2.3398     0.6119     0.0000     0.0000     0.6341    16.1357
 1347.0000     2.3270     0.6056     0.0000     0.0000     0.6337    16.1172
 1347.5000     2.3156     0.5973     0.0000     0.0000     0.6332    16.0983
 1348.0000     2.3025     0.4965     0.0000     0.0000     0.6233    16.0761
 1348.5000     2.2885     0.4897     0.0000     0.0000     0.6134    15.1163
 1349.0000     2.2757     0.3884     0.0000     0.0000     0.6130    15.0979
 1349.5000     2.3481     0.3389     0.0000     0.0000     0.6116    14.1382
 1350.0000     2.4375     0.2804     0.0000     0.0000     0.6025    13.1784
 1350.5000     2.4244     0.2729     0.0000     0.0000     0.5927    14.1060
 1351.0000     2.4086     0.2639     0.0000     0.0000     0.6016    14.0831
 1351.5000     2.5865     0.2566     0.0000     0.0000     0.6012    15.0063
 1352.0000     2.5705     0.2511     0.0000     0.0000     0.6007    14.9874
 1352.5000     2.7452     0.3364     0.0000     0.0000     0.6097    14.9649
 1353.0000     2.9198     0.3290     0.0000     0.0000     0.6092    15.8925
 1353.5000     2.9070     0.3209     0.0000     0.0000     0.6088    15.8696
 1354.0000     2.8942     0.4088     0.0000     0.0000     0.6177    15.8512
 1354.5000     2.8814     0.4935     0.0000     0.0000     0.6172    15.8329
 1355.0000     2.8685     0.4860     0.0000     0.0000     0.6167    15.8145
 1355.5000     2.8556     0.4785     0.0000     0.0000     0.6258    15.7962
 1356.0000     2.7331     0.4710     0.0000     0.0000     0.7570    16.7192
 1356.5000     2.5031     0.4621     0.0000     0.0000     0.7566    16.7008
 1357.0000     2.4921     0.4548     0.0000     0.0000     0.7467    15.7406
 1357.5000     2.2954     0.5042     0.0000     0.0000     0.7462    16.6642
 1358.0000     2.2875     0.5005     0.0000     0.0000     0.7457    17.5872
 1358.5000     2.2770     0.4969     0.0000     0.0000     0.7452    18.5103
 1359.0000     2.2679     0.4932     0.0000     0.0000     0.7543    19.4334
 1359.5000     2.0712     0.4896     0.0000     0.0000     0.6596    19.4104
 1360.0000     2.0625     0.4859     0.0000     0.0000     0.6404    19.3921
 1360.5000     2.0531     0.4820     0.0000     0.0000     0.6442    19.3737
 1361.0000     2.0437     0.5720     0.0000     0.0000     0.6474    19.3554
 1361.5000     2.0344     0.5682     0.0000     0.0000     0.6392    19.3368
 1362.0000     2.0100     0.6582     0.0000     0.0000     0.6388    19.3180
 1362.5000     1.8281     0.6537     0.0000     0.0000     0.6385    19.2957
 1363.0000     2.0047     0.6505     0.0000     0.0000     0.6381    19.2774
 1363.5000     1.8094     0.5529     0.0000     0.0000     0.6378    19.2590
 1364.0000     1.8000     0.5493     0.0000     0.0000     0.6375    19.2407
 1364.5000     1.7897     0.5456     0.0000     0.0000     0.6371    18.2809
 1365.0000     1.9681     0.5420     0.0000     0.0000     0.6368    18.2625
 1365.5000     1.9594     0.5383     0.0000     0.0000     0.6364    18.2442
 1366.0000     1.9497     0.5346     0.0000     0.0000     0.6361    18.2258
 1366.5000     1.9406     0.5308     0.0000     0.0000     0.6357    18.2071
 1367.0000     1.9312     0.6199     0.0000     0.0000     0.6353    17.2431
 1367.5000     1.9219     0.6163     0.0000     0.0000     0.6350    18.1708
 1368.0000     1.9108     0.6131     0.0000     0.0000     0.6346    18.1478
 1368.5000     2.0891     0.6090     0.0000     0.0000     0.6343    18.1295
 1369.0000     2.0799     0.6056     0.0000     0.0000     0.6339    18.1111
 1369.5000     2.0708     0.6017     0.0000     0.0000     0.6336    18.0941
 1370.0000     2.0616     0.5981     0.0000     0.0000     0.6332    18.0744
 1370.5000     2.2422     0.5944     0.0000     0.0000     0.6329    18.0560
 1371.0000     2.2307     0.5907     0.0000     0.0000     0.6325    18.0377
 1371.5000     2.2216     0.5869     0.0000     0.0000     0.6322    18.9603
 1372.0000     2.2124     0.5832     0.0000     0.0000     0.5847    18.9378
 1372.5000     2.2031     0.5794     0.0000     0.0000     0.5749    18.9195
 1373.0000     2.1938     0.5757     0.0000     0.0000     0.5746    19.8471
 1373.5000     2.3701     0.5715     0.0000     0.0000     0.5742    20.7656
 1374.0000     2.3609     0.5682     0.0000     0.0000     0.5645    20.7472
 1374.5000     2.5416     0.5817     0.0000     0.0000     0.5641    20.7289
 1375.0000     2.5301     0.6542     0.0000     0.0000     0.5544    21.6527
 1375.5000     2.5209     0.7439     0.0000     0.0000     0.5540    21.6336
 1376.0000     2.5118     0.7402     0.0000     0.0000     0.5537    22.5567
 1376.5000     2.3151     0.7364     0.0000     0.0000     0.5533    22.5377
 1377.0000     2.1184     0.8264     0.0000     0.0000     0.5530    22.5154
 1377.5000     2.1093     0.8224     0.0000     0.0000     0.5525    22.4970
 1378.0000     2.1001     0.8182     0.0000     0.0000     0.5522    22.4812
 1378.5000     2.2784     0.9084     0.0000     0.0000     0.5424    22.4603
 1379.0000     2.2670     0.8763     0.0000     0.0000     0.5421    22.4420
 1379.5000     2.2593     0.8072     0.0000     0.0000     0.5417    22.4236
 1380.0000     2.4375     0.7101     0.0000     0.0000     0.5414    21.4638
 1380.5000     2.4281     0.7064     0.0000     0.0000     0.5411    21.4455
 1381.0000     2.4178     0.7028     0.0000     0.0000     0.5407    22.3685
 1381.5000     2.4086     0.6991     0.0000     0.0000     0.5498    21.4080
 1382.0000     2.4000     0.6019     0.0000     0.0000     0.6348    18.5616
 1382.5000     2.3906     0.5975     0.0000     0.0000     0.6621    18.5432
 1383.0000     2.3811     0.5938     0.0000     0.0000     0.6617    17.5834
 1383.5000     2.3719     0.4967     0.0000     0.0000     0.6613    18.5111
 1384.0000     2.3625     0.4931     0.0000     0.0000     0.6515    18.4881
 1384.5000     2.3531     0.4894     0.0000     0.0000     0.6512    18.4698
 1385.0000     2.4516     0.4858     0.0000     0.0000     0.6509    17.5100
 1385.5000     2.5219     0.4821     0.0000     0.0000     0.6599    18.4331
 1386.0000     2.5113     0.5720     0.0000     0.0000     0.7820    18.3142
 1386.5000     2.5031     0.5682     0.0000     0.0000     0.7816    16.5089
 1387.0000     2.4930     0.5645     0.0000     0.0000     0.7813    15.5492
 1387.5000     2.4838     0.5900     0.0000     0.0000     0.7806    14.5894
 1388.0000     2.4746     0.6505     0.0000     0.0000     0.7712    14.5710
 1388.5000     2.4655     0.5896     0.0000     0.0000     0.7708    14.5527
 1389.0000     2.2688     0.5491     0.0000     0.0000     0.7704    14.5343
 1389.5000     2.2594     0.5455     0.0000     0.0000     0.7795    14.5160
 1390.0000     2.3531     0.5415     0.0000     0.0000     0.7886    14.4979
 1390.5000     2.4281     0.5383     0.0000     0.0000     0.9860    14.4791
 1391.0000     2.4173     0.5796     0.0000     0.0000     0.9856    14.4603
 1391.5000     2.4082     0.6243     0.0000     0.0000     0.9853    15.4974
 1392.0000     2.3990     0.6206     0.0000     0.0000     0.9849    17.2485
 1392.5000     2.3898     0.6168     0.0000     0.0000     0.8339    18.1669
 1393.0000     2.3807     0.6131     0.0000     0.0000     0.7865    18.1486
 1393.5000     2.3719     0.6093     0.0000     0.0000     0.7861    18.1302
