~VERSION INFORMATION
 VERS.                2.0:   CWLS LOG ASCII STANDARD - VERSION 2.0
 WRAP.                 NO:   ONE LINE PER DEPTH STEP
~WELL INFORMATION
#MNEM.UNIT      DATA TYPE    INFORMATION
#----------   ------------   ------------------------------
 STRT.F            4.0000:   START DEPTH
 STOP.F          584.0000:   STOP DEPTH
 STEP.F            0.1000:   STEP LENGTH
 NULL.          -999.2500:   NO VALUE
 COMP.       F D SERV INC:   COMPANY
 WELL. N P R 3 SX-3 #62-3:   WELL
 FLD .             TEAPOT:   FIELD
 LOC .       S3 T38N R78W:   LOCATION
 CNTY.            NATRONA:   COUNTY
 STAT.            WYOMING:   STATE
 CTRY. UNITED STATES OF AMERICA:   COUNTRY
 SRVC.     Atlas Wireline:   SERVICE COMPANY
 DATE.        17-APR-1992:   LOGDATE
 API .       490252251600:   API NUMBER
~CURVE INFORMATION
#MNEM.UNIT       API CODE    CURVE DESCRIPTION
#----------   ------------   ------------------------------
 DEPT.F                  :   
 GRR .GAPI   07 310 01 00:   GAMMA RAY
 RILD.OHMM   07 120 46 00:   INDUCTION LOG DEEP RESISTIVITY
 RILM.OHMM   07 120 44 00:   INDUCTION LOG MEDIUM RESISTIVITY
~PARAMETER INFORMATION
#MNEM.UNIT          VALUE    DESCRIPTION
#----------   ------------   ------------------------------
 PD  .                 GL:   PERMANENT DATUM
 EPD .F              5135:   ELEVATION PERMANENT DATUM
 LMF .                 KB:   LOG MEASURED FROM
 DAPD.F                 5:   FEET ABOVE PERMANENT DATUM
 DMF .                 KB:   DRILLING MEASURED FROM
 EKB .F              5140:   KELLING BUSHING
 EDF .F              5139:   DRILLING FLOOR
 EGL .F              5135:   GROUND LEVEL
 DATE.        17-APR-1992:   RUN DATE
 RUN .                  1:   RUN NUMBER
 DD  .F               589:   DEPTH DRILLER
 DL  .F               590:   DEPTH LOGGER
 BLI .F               584:   BOTTOM LOG INTERVAL
 TLI .F                48:   TOP LOG INTERVAL
 CS  .IN            8.625:   CASING SIZE
 CBD .F                48:   CASING BOTTOM DRILLER
 CBL .F                48:   CASING BOTTOM LOGGER
 BS  .IN            7.875:   BIT SIZE
 BSD .F               589:   BIT SIZE AT DEPTH
 DFT .                AIR:   DRILLING FLUID TYPE
 TCS .HRS               2:   TIME CURCULATED STOPPED
 MRT .F                85:   MAXIMUM RECORDED TEMPERATURE
 LUN .            HL-6274:   LOGGING UNIT NUMBER
 LUL .             CASPER:   LOGGING UNIT LOCATION
 ENGI.             RAUTIO:   RECORDING ENGINEER
 WITN.        GARY STRONG:   WITNESSED BY
 CLNT.            A2DTECH:   CLIENT CODE
 ORIG.           5" PRINT:   ORIGIN OF DATA
 UWI .       490252251600:   UNIQUE WELL ID
 DICO. A2D Technologies, Inc.:   DIGITIZING COMPANY
~OTHER INFORMATION
~A    DEPT      GRR      RILD       RILM   
# ...
  349.8000   147.2654     6.7282     6.5902
  349.9000   147.5107     6.8188     6.7207
  350.0000   147.5542     6.8499     6.9139
  350.1000   147.3064     6.9354     6.9281
  350.2000   147.0475     7.0240     6.9423
  350.3000   145.9812     7.0693     6.9565
  350.4000   144.8637     7.1553     7.0485
  350.5000   143.7461     7.1924     7.1484
  350.6000   142.6285     7.2916     7.2420
  350.7000   141.5008     7.3753     7.3662
  350.8000   140.0908     7.4392     7.5127
  350.9000   137.7381     7.5628     7.5484
  351.0000   136.1256     7.6126     7.5909
  351.1000   135.3431     7.6837     7.6510
  351.2000   134.7976     7.7709     7.7304
  351.3000   134.0393     7.8420     7.7761
  351.4000   133.3101     7.9099     7.7754
  351.5000   132.9431     8.0477     7.8070
  351.6000   132.4275     8.0467     7.8509
  351.7000   131.8422     8.0456     7.8951
  351.8000   131.5458     8.0842     7.9396
  351.9000   130.7110     8.1001     7.9918
  352.0000   130.4935     8.1180     7.9911
  352.1000   130.0826     8.1550     7.9904
  352.2000   129.6951     8.1538     7.9896
  352.3000   129.4472     8.1528     7.9888
  352.4000   129.1982     8.1518     7.9880
  352.5000   128.4577     8.1746     7.9872
  352.6000   128.0983     8.2069     7.9864
  352.7000   127.9879     8.2058     8.0081
  352.8000   127.8223     8.2046     8.0532
  352.9000   127.3546     8.2038     8.0985
  353.0000   127.0802     8.2315     8.1523
  353.1000   126.8589     8.2592     8.1516
  353.2000   126.6109     8.2581     8.1787
  353.3000   126.2510     8.2571     8.2072
  353.4000   125.8699     8.3005     8.2064
  353.5000   125.8672     8.3129     8.2055
  353.6000   125.6193     8.3352     8.2048
  353.7000   125.5673     8.3691     8.2040
  353.8000   125.7085     8.3661     8.2032
  353.9000   126.0428     8.3086     8.2024
  354.0000   126.5384     8.2691     8.2016
  354.1000   127.0802     8.2488     8.2006
  354.2000   127.7553     8.2306     8.2000
  354.3000   128.4991     8.1893     8.1992
  354.4000   129.1271     8.1882     8.1984
  354.5000   129.6838     8.1873     8.1976
  354.6000   130.4149     8.1863     8.1967
  354.7000   130.7110     8.2072     8.2390
  354.8000   131.1103     8.2416     8.2526
  354.9000   131.4612     8.2406     8.2740
  355.0000   131.7091     8.2395     8.3089
  355.1000   131.9213     8.3138     8.3081
  355.2000   131.9213     8.3807     8.3559
  355.3000   132.1502     8.4276     8.3647
  355.4000   132.3981     8.4807     8.3639
  355.5000   132.5265     8.5868     8.3630
  355.6000   132.5912     8.6300     8.3622
  355.7000   132.8290     8.6783     8.3613
  355.8000   132.8290     8.7045     8.3606
  355.9000   133.0324     8.7034     8.3597
  356.0000   133.4290     8.7023     8.3589
  356.1000   133.8308     8.7012     8.3581
  356.2000   134.0787     8.7001     8.3573
  356.3000   134.3419     8.6990     8.3565
  356.4000   134.8068     8.6818     8.3557
  356.5000   135.1249     8.6363     8.3548
  356.6000   135.3728     8.6350     8.3540
  356.7000   135.6891     8.6341     8.3532
  356.8000   136.1712     8.6330     8.3523
  356.9000   136.4599     8.6109     8.3516
  357.0000   136.6670     8.5708     8.3190
  357.1000   136.9148     8.5696     8.2918
  357.2000   137.2602     8.5686     8.2910
  357.3000   137.6702     8.5307     8.2902
  357.4000   137.6702     8.5067     8.2423
  357.5000   137.9064     8.4909     8.1946
  357.6000   138.3359     8.4454     8.1727
  357.7000   138.7048     8.4442     8.1719
  357.8000   138.9527     8.4433     8.1711
  357.9000   139.1831     8.4422     8.1703
  358.0000   139.1831     8.4412     8.1696
  358.1000   139.1831     8.4313     8.1688
  358.2000   139.1831     8.3802     8.1679
  358.3000   139.0816     8.3792     8.1671
  358.4000   138.7400     8.3781     8.1663
  358.5000   137.9728     8.3771     8.1656
  358.6000   137.7327     8.3760     8.1648
  358.7000   137.1142     8.3780     8.1640
  358.8000   136.6319     8.4325     8.1631
  358.9000   136.3081     8.4316     8.1623
  359.0000   135.8335     8.4305     8.1615
  359.1000   135.5522     8.4295     8.2014
  359.2000   135.3377     8.4284     8.2172
  359.3000   135.2496     8.4273     8.2363
  359.4000   135.1445     8.4263     8.2827
  359.5000   134.9471     8.4944     8.3304
  359.6000   134.9471     8.5667     8.3762
  359.7000   135.1907     8.6147     8.3872
  359.8000   135.2496     8.6608     8.4373
  359.9000   135.2496     8.6595     8.5184
  360.0000   135.3292     8.7398     8.5663
  360.1000   135.5522     8.8091     8.6214
  360.2000   135.5522     8.8398     8.6207
  360.3000   135.3340     8.8387     8.6512
  360.4000   134.5954     8.8375     8.6795
  360.5000   133.2770     8.8830     8.6786
  360.6000   131.4870     8.8974     8.6777
  360.7000   129.5008     8.8963     8.6769
  360.8000   128.2632     8.8951     8.6761
  360.9000   127.2168     8.8940     8.6752
  361.0000   126.3633     8.8928     8.6744
  361.1000   125.7864     8.8918     8.6770
  361.2000   125.4809     8.8906     8.7334
  361.3000   124.6596     8.8895     8.7326
  361.4000   124.2157     8.8884     8.7008
  361.5000   123.7199     8.8872     8.6505
  361.6000   123.3367     8.8862     8.5918
  361.7000   123.0308     8.8510     8.4886
  361.8000   122.5384     8.7772     8.1285
  361.9000   122.2903     8.6545     7.9591
  362.0000   122.2390     8.4577     7.8906
  362.1000   122.2390     8.0358     7.8199
  362.2000   122.2390     7.8704     7.6911
  362.3000   122.3039     7.7800     7.6392
  362.4000   122.8442     7.6907     7.4595
  362.5000   123.0698     7.5937     7.2739
  362.6000   123.1467     7.4004     7.1244
  362.7000   123.1467     7.1818     6.9832
  362.8000   123.2084     6.9905     6.7331
  362.9000   123.4493     6.8155     6.5546
  363.0000   123.4493     6.6301     6.3955
  363.1000   123.4493     6.4762     6.3208
  363.2000   123.7403     6.3679     6.3105
  363.3000   124.1452     6.2326     6.2706
  363.4000   124.3932     6.0912     6.1447
  363.5000   124.6596     5.9941     5.9193
  363.6000   125.3479     5.9905     5.3527
  363.7000   126.0915     5.9507     4.8778
  363.8000   126.7151     5.9501     4.8773
  363.9000   127.4073     5.9493     4.8769
  364.0000   128.6464     5.9486     4.8764
  364.1000   130.1059     5.9479     4.8760
  364.2000   131.3294     5.9471     4.8755
  364.3000   133.2651     5.9463     4.8750
  364.4000   135.4021     5.9456     4.8755
  364.5000   137.4643     5.9448     4.9081
  364.6000   140.0908     5.9441     4.9077
  364.7000   141.9560     5.9434     4.9573
  364.8000   144.1172     5.9425     5.0212
  364.9000   146.2245     5.9419     5.0577
  365.0000   148.1389     5.9411     5.1517
  365.1000   149.8306     5.9536     5.2609
  365.2000   150.9834     5.9814     5.3820
  365.3000   151.8141     5.9805     5.4908
  365.4000   152.3465     5.9797     5.5770
  365.5000   152.4962     5.9790     5.6420
  365.6000   152.4526     5.9782     5.7981
  365.7000   152.1936     5.9775     5.9603
  365.8000   151.2463     5.9796     6.1676
  365.9000   149.8906     6.0600     6.3684
  366.0000   148.0206     6.1162     6.5467
  366.1000   145.6430     6.1647     6.7114
  366.2000   142.9352     6.2124     6.8162
  366.3000   140.0908     6.2776     6.8791
  366.4000   137.9769     6.3156     6.9547
  366.5000   135.4977     6.4491     7.0838
  366.6000   133.2227     6.5973     7.2457
  366.7000   131.2873     6.7305     7.3705
  366.8000   129.5008     6.8554     7.4972
  366.9000   128.2975     7.0116     7.6013
  367.0000   126.6867     7.1320     7.6727
  367.1000   125.2138     7.3212     7.7212
  367.2000   123.8976     7.5073     7.8183
  367.3000   122.4761     7.6642     7.8578
  367.4000   121.6339     7.7898     8.0569
  367.5000   121.2037     7.8873     8.3368
  367.6000   120.8683     8.0503     8.6031
  367.7000   120.7262     8.3325     8.8007
  367.8000   120.6751     8.6254     9.0036
  367.9000   120.4236     8.8618     9.0883
