~VERSION INFORMATION
 VERS.                2.0:   CWLS LOG ASCII STANDARD - VERSION 2.0
 WRAP.                 NO:   ONE LINE PER DEPTH STEP
~WELL INFORMATION
#MNEM.UNIT      DATA TYPE    INFORMATION
#----------   ------------   ------------------------------
 STRT.F           19.0000:   START DEPTH
 STOP.F         1200.0000:   STOP DEPTH
 STEP.F            0.5000:   STEP LENGTH
 NULL.          -999.2500:   NO VALUE
 COMP.       INTEX OIL CO:   COMPANY
 WELL.     NPR 3 #73 S-14:   WELL
 FLD .             TEAPOT:   FIELD
 LOC .      S14 T38N R78W:   LOCATION
 CNTY.            NATRONA:   COUNTY
 STAT.            WYOMING:   STATE
 CTRY. UNITED STATES OF AMERICA:   COUNTRY
 SRVC.       Schlumberger:   SERVICE COMPANY
 DATE.        24-AUG-1966:   LOGDATE
 API .       490250970900:   API NUMBER
~CURVE INFORMATION
#MNEM.UNIT       API CODE    CURVE DESCRIPTION
#----------   ------------   ------------------------------
 DEPT.F                  :   
 SPR .MV     05 010 01 00:   SPONTANEOUS POTENTIAL FROM RES.
 ILD .OHMM   05 120 46 00:   INDUCTION LOG DEEP
 ASN .OHMM   05 041 16 00:   AMPLIFIED SHORT NORMAL 16"
 CILD.MMHO   05 110 46 00:   CONDUCTIVITY INDUCTION LOG DEEP
 CALD.IN     45 280 60 00:   CALIPER
 GRD .GAPI   45 310 01 00:   GAMMA RAY FROM DENSITY LOG
 CORR.G/C3   45 356 01 00:   DENSITY CORRECTION
 RHOB.G/C3   45 350 01 00:   BULK DENSITY
 DPHI.DEC    45 890 12 00:   DENSITY POROSITY SANDSTONE
~PARAMETER INFORMATION
#MNEM.UNIT          VALUE    DESCRIPTION
#----------   ------------   ------------------------------
 PD  .                 GL:   PERMANENT DATUM
 EPD .F              5274:   ELEVATION PERMANENT DATUM
 LMF .                 KB:   LOG MEASURED FROM
 DAPD.F                 5:   FEET ABOVE PERMANENT DATUM
 DMF .                 KB:   DRILLING MEASURED FROM
 EKB .F              5279:   KELLING BUSHING
 EGL .F              5274:   GROUND LEVEL
 DATE.            8-24-66:   RUN DATE
 RUN .                  1:   RUN NUMBER
 DD  .F              1200:   DEPTH DRILLER
 DL  .F              1200:   DEPTH LOGGER
 BLI .F              1199:   BOTTOM LOG INTERVAL
 TLI .F                86:   TOP LOG INTERVAL
 CS  .IN            8.625:   CASING SIZE
 CBD .F                10:   CASING BOTTOM DRILLER
 BS  .IN             6.75:   BIT SIZE
 BSD .F              1200:   BIT SIZE AT DEPTH
 DFT .                GEL:   DRILLING FLUID TYPE
 DFD .               10.1:   DRILLING FLUID DENSITY
 DFV .                 60:   DRILLING FLUID VISCOSITY
 MSS .          FLOW LINE:   MUD SAMPLE SOURCE
 RMS .OHMM            1.8:   RESISTIVITY MUD SAMPLE
 MST .F                67:   MUD SAMPLE TEMPERATURE
 RMF .OHMM            1.4:   RESISTIVITY MUD FILTRATE SAMPLE
 MFST.F                77:   MUD FILTRATE SAMPLE TEMPERATURE
 MFSS.                  M:   MUD FILTRATE SAMPLE SOURCE
 RMB .OHMM            1.1:   RESISTIVITY MUD AT BHT
 BHT .F               112:   BOTTOM HOLE TEMPERATURE
 TCS .HRS               1:   TIME CURCULATED STOPPED
 MRT .F               112:   MAXIMUM RECORDED TEMPERATURE
 LUN .               4507:   LOGGING UNIT NUMBER
 LUL .               CSPR:   LOGGING UNIT LOCATION
 ENGI.            MANGOLD:   RECORDING ENGINEER
 WITN.                MAY:   WITNESSED BY
 CLNT.            A2DTECH:   CLIENT CODE
 ORIG.           5" PRINT:   ORIGIN OF DATA
 UWI .       490250970900:   UNIQUE WELL ID
 DICO. A2D Technologies, Inc.:   DIGITIZING COMPANY
~OTHER INFORMATION
~A   DEPT      SPR        ILD        ASN       CILD       CALD         GRD        CORR     RHOB       DPHI   
# ...
  201.5000   -57.3470     7.2400     7.1490   127.6690     7.2970    94.7670     0.0580     2.4990     0.1140
  202.0000   -57.3340     7.2810     7.0680   126.3740     7.2980    95.4570     0.0530     2.4960     0.1110
  202.5000   -57.4420     7.3230     7.3380   127.7700     7.2990    93.8270     0.0370     2.4800     0.1090
  203.0000   -57.5860     7.3240     7.7410   129.2070     7.3000    90.8240     0.0330     2.4650     0.1100
  203.5000   -57.6910     7.2910     7.9780   130.6440     7.3000    88.1760     0.0300     2.4510     0.1170
  204.0000   -57.8450     7.2580     8.0410   132.0820     7.3010    85.3260     0.0260     2.4340     0.1230
  204.5000   -57.9170     7.2240     8.0090   133.5190     7.3020    86.3130     0.0260     2.4390     0.1280
  205.0000   -57.7810     7.1910     7.8640   134.9560     7.3020    88.9120     0.0340     2.4590     0.1260
  205.5000   -57.6120     7.1580     7.6400   136.3930     7.3030    91.3060     0.0430     2.4700     0.1240
  206.0000   -57.4900     7.1240     7.4270   137.8300     7.3040    91.2580     0.0460     2.4600     0.1210
  206.5000   -57.3420     7.0920     7.2020   139.2680     7.3040    89.9610     0.0310     2.4490     0.1250
  207.0000   -57.1980     7.0570     7.2060   140.7050     7.3050    88.9960     0.0260     2.4470     0.1320
  207.5000   -57.2440     7.0440     7.4250   141.3590     7.3060    90.0310     0.0440     2.4600     0.1250
  208.0000   -57.4740     7.0730     7.5310   139.2750     7.3060    91.0920     0.0390     2.4730     0.1180
  208.5000   -57.7030     7.1020     7.4930   137.3290     7.3070    92.2510     0.0230     2.4850     0.1110
  209.0000   -57.9570     7.1290     7.3930   135.3830     7.3080    90.9900     0.0270     2.4970     0.1070
  209.5000   -58.1170     7.1600     7.2350   133.4370     7.3080    88.9790     0.0350     2.4910     0.1090
  210.0000   -58.0070     7.1820     7.0880   131.4920     7.3090    86.3000     0.0480     2.4790     0.1130
  210.5000   -57.8560     7.2200     7.2450   129.3710     7.3100    85.4670     0.0440     2.4670     0.1160
  211.0000   -57.7560     7.2360     7.6830   131.2890     7.3100    86.5060     0.0290     2.4560     0.1190
  211.5000   -57.6260     7.1710     7.9020   133.3970     7.3110    87.1610     0.0200     2.4440     0.1230
  212.0000   -57.5040     7.0800     7.7290   135.5040     7.3120    88.2690     0.0270     2.4340     0.1260
  212.5000   -57.3900     7.0030     7.4670   137.6120     7.3130    90.9650     0.0350     2.4390     0.1250
  213.0000   -57.3390     6.9260     7.3720   139.7200     7.3130    93.9770     0.0430     2.4640     0.1220
  213.5000   -57.3680     6.8340     7.3520   142.3580     7.3140    94.5680     0.0500     2.4850     0.1190
  214.0000   -57.3950     6.7530     7.1920   142.6900     7.3140    90.5800     0.0580     2.5090     0.1160
  214.5000   -57.4180     6.7150     6.9470   143.1340     7.3110    89.5580     0.0590     2.5000     0.1150
  215.0000   -57.4470     6.6710     6.8350   143.5770     7.3060    90.9330     0.0480     2.4750     0.1160
  215.5000   -57.4700     6.6000     6.8900   144.0210     7.3020    92.0870     0.0500     2.4670     0.1180
  216.0000   -57.4960     6.5430     6.9930   144.4650     7.2980    93.2790     0.0610     2.4900     0.1170
  216.5000   -57.5220     6.4880     7.0620   144.9090     7.2940    94.3580     0.0650     2.5030     0.1160
  217.0000   -57.5460     6.4130     7.0100   145.3530     7.2890    93.2870     0.0370     2.4910     0.1150
  217.5000   -57.5730     6.3570     6.8300   145.7960     7.2850    91.9340     0.0410     2.4790     0.1140
  218.0000   -57.5990     6.3770     6.7100   146.3540     7.2810    93.1320     0.0470     2.4700     0.1140
  218.5000   -57.6230     6.4770     6.7660   148.2960     7.2760    93.7540     0.0560     2.4670     0.1190
  219.0000   -57.6510     6.5310     6.8710   150.9050     7.2750    94.9340     0.0530     2.4630     0.1250
  219.5000   -57.6740     6.4240     6.8670   153.5150     7.2780    93.7940     0.0290     2.4570     0.1300
  220.0000   -57.7020     6.2600     6.7400   156.1250     7.2790    90.6290     0.0090     2.4390     0.1360
  220.5000   -57.7320     6.1160     6.5940   158.7350     7.2820    88.6480     0.0110     2.4210     0.1410
  221.0000   -57.7020     5.9610     6.4670   161.3440     7.2830    88.6070     0.0170     2.4080     0.1460
  221.5000   -57.6120     5.8140     6.3280   163.9540     7.2850    91.5750     0.0230     2.4080     0.1480
  222.0000   -57.5200     5.6570     6.2180   166.5640     7.2870    95.5860     0.0280     2.4190     0.1380
  222.5000   -57.4310     5.5480     6.0860   169.1740     7.2890    95.6300     0.0400     2.4410     0.1260
  223.0000   -57.3400     5.5580     5.9490   172.3280     7.2910    94.3410     0.0600     2.4640     0.1150
  223.5000   -57.2480     5.5860     5.9450   173.3270     7.2930    91.8060     0.0500     2.4740     0.1150
  224.0000   -57.1600     5.5970     5.9980   172.1970     7.2950    89.3570     0.0410     2.4680     0.1170
  224.5000   -57.1060     5.6170     6.0480   169.1400     7.2970    88.7390     0.0560     2.4630     0.1180
  225.0000   -57.0740     5.6350     6.0800   166.0840     7.2990    91.9250     0.0480     2.4650     0.1200
  225.5000   -57.0420     5.7070     6.1280   163.0270     7.3010    94.4770     0.0380     2.4880     0.1180
  226.0000   -57.0090     5.8320     6.2020   159.9710     7.3030    97.6820     0.0400     2.4850     0.1100
  226.5000   -56.9770     5.9560     6.2580   156.9150     7.3050    98.5880     0.0440     2.4790     0.1120
  227.0000   -56.9450     6.0790     6.3930   153.8580     7.3070    93.8390     0.0390     2.4730     0.1170
  227.5000   -56.9110     6.2050     6.3910   150.8020     7.3090    88.2380     0.0280     2.4670     0.1190
  228.0000   -56.8800     6.3280     6.5670   147.7450     7.3110    86.2280     0.0320     2.4610     0.1180
  228.5000   -56.8480     6.4530     7.0180   144.3560     7.3130    87.6690     0.0390     2.4600     0.1160
  229.0000   -56.8120     6.5770     7.1250   143.6510     7.3150    88.2150     0.0320     2.4690     0.1150
  229.5000   -56.7870     6.6790     7.0150   142.8610     7.3170    89.6010     0.0260     2.4740     0.1130
  230.0000   -56.7420     6.7550     7.0310   142.0700     7.3190    91.0300     0.0190     2.4680     0.1270
  230.5000   -56.7340     6.8300     7.0070   141.2800     7.3210    90.7200     0.0240     2.4610     0.1250
  231.0000   -56.8290     6.9070     6.9520   140.4900     7.3230    89.9980     0.0390     2.4560     0.1210
  231.5000   -56.9240     6.9790     6.9660   139.6990     7.3250    89.7240     0.0220     2.4680     0.1170
  232.0000   -57.0020     7.0600     7.1120   138.9090     7.3270    92.5470     0.0300     2.4840     0.1140
  232.5000   -57.0890     7.1410     7.2990   138.3620     7.3300    95.0650     0.0500     2.5020     0.1100
  233.0000   -57.0710     7.2070     7.3950   134.6850     7.3310    94.0410     0.0420     2.5110     0.1090
  233.5000   -56.9570     7.2700     7.4650   131.8750     7.3340    91.7740     0.0160     2.4940     0.1130
  234.0000   -56.8450     7.3450     7.5050   129.0640     7.3290    92.3310     0.0200     2.4790     0.1160
  234.5000   -56.7320     7.4140     7.5670   126.3740     7.3120    93.7230     0.0310     2.4630     0.1190
  235.0000   -56.6190     7.4780     7.7350   126.3740     7.2950    93.4480     0.0440     2.4490     0.1230
  235.5000   -56.5070     7.5510     7.9070   127.3730     7.2790    90.8970     0.0580     2.5090     0.1170
  236.0000   -56.3930     7.5320     8.0430   131.1000     7.2600    90.1810     0.0450     2.5070     0.1110
  236.5000   -56.3710     7.3650     8.0590   135.1530     7.2600    92.7960     0.0310     2.4940     0.1050
  237.0000   -56.4800     7.1830     7.8640   139.2070     7.2730    95.2210     0.0360     2.4820     0.1120
  237.5000   -56.6050     7.0440     7.5930   143.2610     7.2840    98.0840     0.0300     2.4720     0.1180
