~VERSION INFORMATION
 VERS.                2.0:   CWLS LOG ASCII STANDARD - VERSION 2.0
 WRAP.                 NO:   ONE LINE PER DEPTH STEP
~WELL INFORMATION
#MNEM.UNIT      DATA TYPE    INFORMATION
#----------   ------------   ------------------------------
 STRT.F           33.5000:   START DEPTH
 STOP.F          692.0000:   STOP DEPTH
 STEP.F            0.5000:   STEP LENGTH
 NULL.          -999.2500:   NO VALUE
 COMP. FENIX & SCISSON INC:   COMPANY
 WELL.       NPR-3 #65-34:   WELL
 FLD .  TEAPOT DOME NPR-3:   FIELD
 LOC .      S34 T39N R78W:   LOCATION
 CNTY.            NATRONA:   COUNTY
 STAT.            WYOMING:   STATE
 CTRY. UNITED STATES OF AMERICA:   COUNTRY
 SRVC.           BIRDWELL:   SERVICE COMPANY
 DATE.        14-AUG-1978:   LOGDATE
 API .       490251070400:   API NUMBER
~CURVE INFORMATION
#MNEM.UNIT       API CODE    CURVE DESCRIPTION
#----------   ------------   ------------------------------
 DEPT.F                  :   
 CALD.IN     45 280 60 00:   CALIPER
 GRD .GAPI   45 310 01 00:   GAMMA RAY FROM DENSITY LOG
 RHOB.G/C3   45 350 01 00:   BULK DENSITY
 CORR.G/C3   45 356 01 00:   DENSITY CORRECTION
 DPHI.DEC    45 890 12 00:   DENSITY POROSITY SANDSTONE
 SPR .MV     05 010 01 00:   SPONTANEOUS POTENTIAL
 SN  .OHMM   05 040 16 00:   SHORT NORMAL 16'
 ILD .OHMM   05 120 46 00:   INDUCTION LOG DEEP RESISTIVITY
~PARAMETER INFORMATION
#MNEM.UNIT          VALUE    DESCRIPTION
#----------   ------------   ------------------------------
 PD  .                 GL:   PERMANENT DATUM
 EPD .F              5083:   ELEVATION PERMANENT DATUM
 LMF .                 KB:   LOG MEASURED FROM
 DAPD.F                 4:   FEET ABOVE PERMANENT DATUM
 DMF .                 KB:   DRILLING MEASURED FROM
 EKB .F              5087:   KELLING BUSHING
 EGL .F              5083:   GROUND LEVEL
 DATE.            8-14-78:   RUN DATE
 RUN .                  1:   RUN NUMBER
 DD  .F               675:   DEPTH DRILLER
 DL  .F               682:   DEPTH LOGGER
 BLI .F               676:   BOTTOM LOG INTERVAL
 TLI .F                50:   TOP LOG INTERVAL
 CS  .IN            8.625:   CASING SIZE
 CBD .F                40:   CASING BOTTOM DRILLER
 BS  .IN            7.875:   BIT SIZE
 BSD .F               675:   BIT SIZE AT DEPTH
 DFT .                KCL:   DRILLING FLUID TYPE
 DFD .                8.7:   DRILLING FLUID DENSITY
 DFV .                 31:   DRILLING FLUID VISCOSITY
 DFPH.                  9:   DRILLING FLUID PH
 TCS .HRS               2:   TIME CURCULATED STOPPED
 LUN .               3006:   LOGGING UNIT NUMBER
 LUL .               CASP:   LOGGING UNIT LOCATION
 ENGI.             MILLER:   RECORDING ENGINEER
 WITN.           MCGINLEY:   WITNESSED BY
 CLNT.            A2DTECH:   CLIENT CODE
 ORIG.           5" PRINT:   ORIGIN OF DATA
 UWI .       490251070400:   UNIQUE WELL ID
 DICO. A2D Technologies, Inc.:   DIGITIZING COMPANY
~OTHER INFORMATION
~A   DEPT     CALD         GRD      RHOB       CORR       DPHI        SPR         SN        ILD   
# ...
  114.5000     7.6130    82.8461     2.2017     0.0859     0.2886   -29.5220     2.3963     2.5101
  115.0000     7.6416    83.0081     2.1911     0.0698     0.2946   -29.1040     2.2703     2.3585
  115.5000     7.6595    80.9151     2.1893     0.0715     0.2851   -28.6774     2.2971     2.3340
  116.0000     7.6768    78.2112     2.2522     0.0759     0.2141   -28.2531     2.3484     2.4192
  116.5000     7.6937    75.5701     2.3328     0.0656     0.1989   -27.8287     2.4206     2.5181
  117.0000     7.7112    74.4070     2.3428     0.0429     0.1972   -27.3959     2.5112     2.6210
  117.5000     7.7272    74.5471     2.3472     0.0355     0.1992   -27.3192     2.6312     2.7356
  118.0000     7.7769    73.4799     2.3462     0.0376     0.2016   -27.3653     2.7481     2.8841
  118.5000     7.8766    71.9174     2.3451     0.0400     0.2013   -27.4139     2.8701     3.0770
  119.0000     7.9710    71.6006     2.3439     0.0423     0.2014   -27.4613     2.9975     3.3271
  119.5000     8.1167    73.8364     2.3428     0.0446     0.2032   -27.5086     3.1306     3.6669
  120.0000     8.3049    77.2460     2.3418     0.0469     0.2030   -27.5559     3.2069     3.6546
  120.5000     8.4725    79.9801     2.3414     0.0576     0.2015   -27.6031     3.2527     3.6334
  121.0000     8.4949    79.5346     2.3409     0.0737     0.2021   -27.6504     3.2440     3.5550
  121.5000     8.4898    78.3394     2.3405     0.0891     0.2041   -27.6985     3.2354     3.4786
  122.0000     8.4779    76.7365     2.3400     0.1174     0.2052   -27.7603     3.2270     3.4041
  122.5000     8.4661    75.6095     2.3433     0.1467     0.1999   -27.8384     3.1775     3.3314
  123.0000     8.4414    76.4356     2.3508     0.1756     0.1948   -27.9162     3.0922     3.2603
  123.5000     8.3228    77.7628     2.3538     0.1907     0.1944   -27.9942     3.0092     3.1903
  124.0000     8.2029    79.9347     2.3473     0.1706     0.2105   -28.0723     2.8906     3.0678
  124.5000     8.0834    82.8043     2.3049     0.1371     0.2435   -28.1508     2.7683     2.9179
  125.0000     7.9639    85.6806     2.2614     0.1091     0.2616   -28.2294     2.6511     2.7754
  125.5000     7.8444    86.9751     2.2411     0.0871     0.2810   -28.3248     2.5389     2.6312
  126.0000     7.7248    86.5239     2.1993     0.0655     0.2810   -27.6205     2.4896     2.5594
  126.5000     7.6090    86.0632     2.1552     0.0543     0.2629   -26.6694     2.5263     2.5594
  127.0000     7.5721    85.7243     2.1532     0.0729     0.2410   -25.7121     2.5918     2.6223
  127.5000     7.5724    85.3972     2.2276     0.1198     0.2204   -24.7549     2.6562     2.7240
  128.0000     7.5858    84.1293     2.3274     0.0992     0.1811   -23.8994     2.7577     2.8394
  128.5000     8.3889    80.7293     2.3589     0.0656     0.1774   -23.9493     2.8752     2.9608
  129.0000     7.6014    77.3614     2.3860     0.0587     0.1755   -24.0112     3.0153     3.1399
  129.5000     7.6956    76.1030     2.3940     0.0597     0.1685   -24.0697     3.1639     3.3851
  130.0000     7.8199    77.9712     2.3979     0.0610     0.1685   -24.1275     3.3852     3.8138
  130.5000     7.9623    79.8150     2.4007     0.0634     0.1685   -24.1855     3.6248     4.2950
  131.0000     8.1052    81.1959     2.4007     0.0707     0.1685   -24.2436     3.8814     4.6782
  131.5000     8.2479    80.2447     2.4012     0.0778     0.1631   -24.2956     4.0644     4.7908
  132.0000     8.3824    78.2735     2.4055     0.1012     0.1558   -24.2503     4.2440     4.7908
  132.5000     8.4161    76.5102     2.4196     0.1329     0.1443   -24.2016     4.3710     4.9003
  133.0000     8.4142    77.2553     2.4421     0.1655     0.1285   -24.1531     4.4818     5.0168
  133.5000     8.3826    78.1842     2.4615     0.1959     0.1266   -24.1047     4.5954     5.1609
  134.0000     8.3484    78.0826     2.4790     0.2230     0.1059   -24.0564     4.7037     5.3074
  134.5000     8.3131    76.7983     2.4971     0.2420     0.0998   -24.0080     4.7474     5.4580
  135.0000     8.2296    75.5673     2.5042     0.2307     0.1161   -23.9596     4.7905     5.5054
  135.5000     8.0774    74.9900     2.4846     0.1963     0.1276   -23.9112     4.8124     5.5109
  136.0000     7.9260    75.3250     2.4629     0.1622     0.1482   -23.8628     4.8409     5.5165
  136.5000     7.7738    75.5775     2.4111     0.1281     0.1677   -23.8144     4.8698     5.5221
  137.0000     7.6219    75.4948     2.3902     0.0947     0.1757   -23.7660     4.9074     5.5277
  137.5000     7.4848    75.3501     2.3874     0.0706     0.1773   -23.7176     4.9500     5.5333
  138.0000     7.4300    74.2867     2.3868     0.0594     0.1766   -23.6693     4.9930     5.5389
  138.5000     7.4693    73.6994     2.3886     0.0580     0.1685   -23.6208     5.0364     5.5446
  139.0000     7.5317    75.7960     2.4016     0.0628     0.1604   -23.5720     5.0801     5.5501
  139.5000     7.5934    77.4222     2.4170     0.0677     0.1525   -23.5240     5.1243     5.6061
  140.0000     7.6593    77.5252     2.4277     0.0672     0.1514   -23.5114     5.1598     5.6958
  140.5000     7.8278    79.5982     2.4322     0.0664     0.1505   -23.6273     5.1689     5.7080
  141.0000     7.9946    82.6374     2.4312     0.0658     0.1484   -23.7389     5.1780     5.7080
  141.5000     8.1614    84.0440     2.4319     0.0717     0.1449   -23.8504     5.1872     5.7080
  142.0000     8.3314    85.4157     2.4411     0.0890     0.1365   -23.9622     5.1963     5.7080
  142.5000     8.3815    86.6895     2.4590     0.1310     0.1276   -24.0764     5.2055     5.7080
  143.0000     8.3947    84.0296     2.4767     0.1729     0.1188   -24.0408     5.2147     5.7080
  143.5000     8.3745    81.1373     2.4910     0.2148     0.1099   -23.9774     5.2238     5.7080
  144.0000     8.3432    78.5689     2.4954     0.2562     0.1084   -23.9135     5.2330     5.7080
  144.5000     8.2154    81.7050     2.4972     0.2563     0.1151   -23.8500     5.2423     5.7080
  145.0000     8.0726    86.8582     2.4870     0.2237     0.1355   -23.7866     5.2515     5.7080
  145.5000     7.9296    88.0872     2.4433     0.1843     0.1502   -23.7231     5.2930     5.7077
  146.0000     7.7867    85.0643     2.4261     0.1447     0.1537   -23.6597     5.3436     5.7087
  146.5000     7.6460    79.3994     2.4101     0.1043     0.1712   -23.5962     5.3947     5.7058
  147.0000     7.5472    73.7228     2.3947     0.0650     0.1729   -23.5327     5.4366     5.8177
  147.5000     7.5334    70.0546     2.3927     0.0505     0.1732   -23.4693     5.4776     5.9058
  148.0000     7.5333    70.3187     2.3919     0.0437     0.1736   -23.4058     5.5190     5.9952
  148.5000     7.5477    72.2799     2.4008     0.0430     0.1605   -23.3424     5.5653     6.0445
  149.0000     7.5997    72.2123     2.4137     0.0424     0.1569   -23.2789     5.6320     6.0750
  149.5000     7.7178    71.7971     2.4168     0.0421     0.1602   -23.2152     5.7080     6.1056
  150.0000     7.8727    72.0875     2.4178     0.0461     0.1535   -23.1496     5.6555     6.1363
  150.5000     8.0293    73.1486     2.4187     0.0500     0.1576   -23.0919     5.5993     6.1672
  151.0000     8.1851    73.7659     2.4170     0.0543     0.1597   -23.4282     5.5659     6.1983
  151.5000     8.3069    73.1810     2.4203     0.0677     0.1529   -23.7987     5.5327     6.2295
  152.0000     8.3413    71.2079     2.4228     0.0939     0.1521   -24.1698     5.4997     6.2593
  152.5000     8.3774    71.7470     2.4205     0.1305     0.1489   -24.3981     5.4669     6.1857
  153.0000     8.4137    71.3877     2.4266     0.1673     0.1490   -24.5583     5.3360     6.1165
  153.5000     8.4152    71.0296     2.4291     0.2032     0.1495   -24.8482     5.1102     6.0480
  154.0000     8.3960    73.5728     2.4258     0.2196     0.1563   -25.8933     4.9169     5.4133
  154.5000     8.3365    76.0556     2.4147     0.2264     0.1785   -26.7963     4.7246     4.7067
