~VERSION INFORMATION
 VERS.                2.0:   CWLS LOG ASCII STANDARD - VERSION 2.0
 WRAP.                 NO:   ONE LINE PER DEPTH STEP
~WELL INFORMATION
#MNEM.UNIT      DATA TYPE    INFORMATION
#----------   ------------   ------------------------------
 STRT.F          390.0000:   START DEPTH
 STOP.F         2628.0000:   STOP DEPTH
 STEP.F            0.5000:   STEP LENGTH
 NULL.          -999.2500:   NO VALUE
 COMP. FENIX & SCISSON INC:   COMPANY
 WELL.    25 SHX 11 #3-11:   WELL
 FLD .             TEAPOT:   FIELD
 LOC .      S11 T38N R78W:   LOCATION
 CNTY.            NATRONA:   COUNTY
 STAT.            WYOMING:   STATE
 CTRY. UNITED STATES OF AMERICA:   COUNTRY
 SRVC.              Welex:   SERVICE COMPANY
 DATE.        15-MAY-1980:   LOGDATE
 API .       490251081900:   API NUMBER
~CURVE INFORMATION
#MNEM.UNIT       API CODE    CURVE DESCRIPTION
#----------   ------------   ------------------------------
 DEPT.F                  :   
 CALD.IN     45 280 60 00:   CALIPER
 GRD .GAPI   45 310 01 00:   GAMMA RAY FROM DENSITY LOG
 RHOB.G/C3   45 350 01 00:   BULK DENSITY
 DPHI.DEC    45 890 12 00:   DENSITY POROSITY SANDSTONE
 CORR.G/C3   45 356 01 00:   DENSITY CORRECTION
~PARAMETER INFORMATION
#MNEM.UNIT          VALUE    DESCRIPTION
#----------   ------------   ------------------------------
 PD  .                 GL:   PERMANENT DATUM
 EPD .F              5163:   ELEVATION PERMANENT DATUM
 LMF .                 KB:   LOG MEASURED FROM
 DAPD.F                10:   FEET ABOVE PERMANENT DATUM
 DMF .                 KB:   DRILLING MEASURED FROM
 EKB .F              5173:   KELLING BUSHING
 EGL .F              5163:   GROUND LEVEL
 DATE.            5-15-80:   RUN DATE
 RUN .                  1:   RUN NUMBER
 DD  .F              2625:   DEPTH DRILLER
 DL  .F              2630:   DEPTH LOGGER
 BLI .F              2628:   BOTTOM LOG INTERVAL
 TLI .F               400:   TOP LOG INTERVAL
 CS  .IN            9.625:   CASING SIZE
 CBD .F               645:   CASING BOTTOM DRILLER
 BS  .IN             8.75:   BIT SIZE
 BSD .F              2625:   BIT SIZE AT DEPTH
 DFT .        AIR DRILLED:   DRILLING FLUID TYPE
 TCS .HRS               2:   TIME CURCULATED STOPPED
 MRT .F               116:   MAXIMUM RECORDED TEMPERATURE
 ENGI.            BENTSEN:   RECORDING ENGINEER
 WITN.           DINSMORE:   WITNESSED BY
 CLNT.            A2DTECH:   CLIENT CODE
 ORIG.           5" PRINT:   ORIGIN OF DATA
 UWI .       490251081900:   UNIQUE WELL ID
 DICO. A2D Technologies, Inc.:   DIGITIZING COMPANY
~OTHER INFORMATION
~A   DEPT     CALD         GRD      RHOB       DPHI       CORR   
# ...
 2342.0000     8.8145   102.1915     2.4205     0.0841     0.0257
 2342.5000     8.7608   103.4181     2.4193     0.0784     0.0206
 2343.0000     8.8050   104.1810     2.4127     0.0865     0.0137
 2343.5000     8.8047   105.1346     2.4234     0.0799     0.0229
 2344.0000     8.8205   105.3013     2.4367     0.0712     0.0354
 2344.5000     8.8575   104.0139     2.4505     0.0625     0.0353
 2345.0000     8.8508   102.7335     2.4570     0.0603     0.0413
 2345.5000     8.8397   101.4515     2.4318     0.0684     0.0212
 2346.0000     8.8239   100.1696     2.4334     0.0732     0.0215
 2346.5000     8.7840    99.0891     2.4456     0.0642     0.0304
 2347.0000     8.7913    99.9839     2.4596     0.0555     0.0392
 2347.5000     8.8229   101.0090     2.4703     0.0506     0.0455
 2348.0000     8.8544   102.0334     2.4676     0.0546     0.0359
 2348.5000     8.8587   103.0832     2.4755     0.0460     0.0426
 2349.0000     8.8587   103.6117     2.4798     0.0418     0.0518
 2349.5000     8.8590   103.2773     2.4741     0.0481     0.0466
 2350.0000     8.8562   101.4680     2.4669     0.0532     0.0399
 2350.5000     8.8103    99.7297     2.4543     0.0573     0.0437
 2351.0000     8.7651    97.9826     2.4671     0.0529     0.0514
 2351.5000     8.7197    96.1942     2.4502     0.0654     0.0326
 2352.0000     8.7431    96.0910     2.4283     0.0740     0.0220
 2352.5000     8.7512    96.0759     2.4158     0.0813     0.0161
 2353.0000     8.7013    96.4333     2.4177     0.0853     0.0066
 2353.5000     8.6668    97.2969     2.4346     0.0732     0.0219
 2354.0000     8.7684    98.2995     2.4515     0.0605     0.0398
 2354.5000     8.8008    99.2439     2.4622     0.0533     0.0517
 2355.0000     8.8189    98.8154     2.4513     0.0628     0.0243
 2355.5000     8.7959    98.3795     2.4416     0.0659     0.0139
 2356.0000     8.7719    97.9725     2.4348     0.0709     0.0133
 2356.5000     8.7478    97.6150     2.4286     0.0776    -0.0008
 2357.0000     8.7224    97.9654     2.4277     0.0771     0.0042
 2357.5000     8.7374    99.0749     2.4365     0.0723     0.0118
 2358.0000     8.7649   100.1710     2.4281     0.0700     0.0128
 2358.5000     8.7727   101.2676     2.4164     0.0838     0.0057
 2359.0000     8.7347   102.3509     2.4235     0.0803     0.0149
 2359.5000     8.7178   103.1019     2.4311     0.0750     0.0234
 2360.0000     8.7374   103.1141     2.4289     0.0774     0.0199
 2360.5000     8.7599   101.7576     2.4310     0.0747     0.0207
 2361.0000     8.7934    99.9564     2.4292     0.0743     0.0194
 2361.5000     8.7899    99.1079     2.4263     0.0796     0.0135
 2362.0000     8.7421    98.8618     2.4331     0.0708     0.0190
 2362.5000     8.7868    97.5823     2.4399     0.0712     0.0215
 2363.0000     8.8115    95.9013     2.4413     0.0674     0.0242
 2363.5000     8.7772    93.6396     2.4368     0.0708     0.0275
 2364.0000     8.7937    91.1862     2.4412     0.0692     0.0333
 2364.5000     8.8107    89.0702     2.4471     0.0635     0.0434
 2365.0000     8.8275    88.7629     2.4531     0.0605     0.0535
 2365.5000     8.8385    88.2929     2.4610     0.0557     0.0635
 2366.0000     8.8384    88.6734     2.4688     0.0506     0.0703
 2366.5000     8.8384    89.2784     2.4502     0.0600     0.0513
 2367.0000     8.8385    89.8897     2.4249     0.0753     0.0226
 2367.5000     8.8379    90.5151     2.4377     0.0792     0.0293
 2368.0000     8.8158    90.6297     2.4434     0.0671     0.0375
 2368.5000     8.7926    91.1392     2.4139     0.0779     0.0208
 2369.0000     8.7775    92.2470     2.4013     0.0913     0.0073
 2369.5000     8.7780    94.5895     2.4105     0.0885     0.0099
 2370.0000     8.7267    96.9264     2.4038     0.0929     0.0164
 2370.5000     8.6561    99.2605     2.3950     0.0985     0.0176
 2371.0000     8.7106   101.5994     2.3972     0.0974     0.0176
 2371.5000     8.7659   103.9255     2.3901     0.1000     0.0215
 2372.0000     8.7992   105.8801     2.3804     0.1045     0.0194
 2372.5000     8.7952   104.7661     2.3820     0.1055     0.0189
 2373.0000     8.7926   103.0004     2.3875     0.1030     0.0263
 2373.5000     8.7898   101.6307     2.3831     0.1043     0.0292
 2374.0000     8.7871   102.2271     2.3793     0.1054     0.0153
 2374.5000     8.7843   102.7611     2.3870     0.1063     0.0117
 2375.0000     8.7816   102.5263     2.4115     0.0863     0.0286
 2375.5000     8.7790   101.8975     2.4356     0.0697     0.0457
 2376.0000     8.7654   102.2525     2.4500     0.0638     0.0578
 2376.5000     8.7453   103.2128     2.4430     0.0659     0.0553
 2377.0000     8.7252   103.6773     2.4418     0.0690     0.0532
 2377.5000     8.7308   102.5215     2.4346     0.0725     0.0514
 2378.0000     8.7648   101.3492     2.4276     0.0772     0.0427
 2378.5000     8.7785   100.4685     2.4205     0.0819     0.0311
 2379.0000     8.8072   100.0254     2.4167     0.0837     0.0200
 2379.5000     8.8184    99.5746     2.4239     0.0812     0.0173
 2380.0000     8.8032    99.1460     2.4391     0.0749     0.0287
 2380.5000     8.7846    99.3033     2.4478     0.0682     0.0414
 2381.0000     8.7781    99.5095     2.4448     0.0636     0.0425
 2381.5000     8.7829    99.7179     2.4591     0.0575     0.0530
 2382.0000     8.7881    99.5745     2.4404     0.0704     0.0391
 2382.5000     8.7934    98.6490     2.4481     0.0646     0.0277
 2383.0000     8.7965    96.7556     2.4596     0.0579     0.0346
 2383.5000     8.7609    94.8894     2.4522     0.0599     0.0324
 2384.0000     8.7247    93.1835     2.4467     0.0623     0.0266
 2384.5000     8.6960    91.4983     2.4459     0.0649     0.0256
 2385.0000     8.7207    91.7795     2.4385     0.0699     0.0217
 2385.5000     8.7571    90.2732     2.4309     0.0752     0.0127
 2386.0000     8.7779    88.7349     2.4402     0.0756     0.0135
 2386.5000     8.7781    88.5218     2.4555     0.0624     0.0322
 2387.0000     8.7792    88.7696     2.4656     0.0522     0.0456
 2387.5000     8.7631    88.8431     2.4479     0.0643     0.0325
 2388.0000     8.7858    86.9745     2.4303     0.0752     0.0202
 2388.5000     8.7974    85.7907     2.4142     0.0792    -0.0008
 2389.0000     8.7848    83.8364     2.4156     0.0873     0.0088
 2389.5000     8.7828    80.9514     2.4298     0.0742     0.0216
 2390.0000     8.8061    78.8431     2.4444     0.0657     0.0343
 2390.5000     8.8187    79.0389     2.4608     0.0572     0.0471
 2391.0000     8.8037    77.7815     2.4667     0.0526     0.0544
 2391.5000     8.7868    76.5370     2.4523     0.0640     0.0362
 2392.0000     8.7699    76.6536     2.4421     0.0663     0.0272
 2392.5000     8.7573    77.3069     2.4490     0.0607     0.0291
 2393.0000     8.7603    76.7635     2.4369     0.0691     0.0258
 2393.5000     8.7727    76.0054     2.4295     0.0752     0.0175
 2394.0000     8.7847    75.2431     2.4411     0.0752     0.0120
 2394.5000     8.7963    74.5615     2.4463     0.0664     0.0242
 2395.0000     8.8097    75.0759     2.4373     0.0700     0.0206
 2395.5000     8.8187    76.2051     2.4272     0.0775     0.0107
 2396.0000     8.8003    77.3215     2.4179     0.0845     0.0077
 2396.5000     8.7803    78.4637     2.4082     0.0909    -0.0047
 2397.0000     8.7860    78.3629     2.3772     0.1046    -0.0191
 2397.5000     8.8028    78.4153     2.3732     0.1107    -0.0239
 2398.0000     8.8187    79.1051     2.3791     0.1095    -0.0123
 2398.5000     8.7849    79.0890     2.3909     0.0998    -0.0012
 2399.0000     8.7384    79.8450     2.4025     0.0917     0.0100
 2399.5000     8.6897    81.6471     2.4064     0.0925     0.0156
 2400.0000     8.7178    83.3571     2.4099     0.0845     0.0161
 2400.5000     8.7749    84.5823     2.4160     0.0845     0.0224
 2401.0000     8.7782    84.5769     2.4221     0.0803     0.0317
 2401.5000     8.7779    85.7101     2.4280     0.0828     0.0377
 2402.0000     8.7778    89.0325     2.4173     0.0776     0.0335
 2402.5000     8.7778    92.3243     2.4364     0.0732     0.0418
