~VERSION INFORMATION
 VERS.                2.0:   CWLS LOG ASCII STANDARD - VERSION 2.0
 WRAP.                 NO:   ONE LINE PER DEPTH STEP
~WELL INFORMATION
#MNEM.UNIT      DATA TYPE    INFORMATION
#----------   ------------   ------------------------------
 STRT.F            0.0000:   START DEPTH
 STOP.F          550.0000:   STOP DEPTH
 STEP.F            0.1000:   STEP LENGTH
 NULL.          -999.2500:   NO VALUE
 COMP.       F D SERV INC:   COMPANY
 WELL. NAVAL PETROLEUM RESERVE 3 SX-3 #77-4-3:   WELL
 FLD .          N.P.R. #3:   FIELD
 LOC .       S3 T38N R78W:   LOCATION
 CNTY.            NATRONA:   COUNTY
 STAT.            WYOMING:   STATE
 CTRY. UNITED STATES OF AMERICA:   COUNTRY
 SRVC.      Western Atlas:   SERVICE COMPANY
 DATE.        28-OCT-1992:   LOGDATE
 API .       490252255100:   API NUMBER
~CURVE INFORMATION
#MNEM.UNIT       API CODE    CURVE DESCRIPTION
#----------   ------------   ------------------------------
 DEPT.F                  :   
 GRR .GAPI   07 310 01 00:   GAMMA RAY FROM RESISTIVITY
 RILD.OHMM   07 120 46 00:   DEEP INDUCTION RESISTIVITY
 RILM.OHMM   07 120 44 00:   INDUCTION LOG MEDIUM RESISTIVITY
~PARAMETER INFORMATION
#MNEM.UNIT          VALUE    DESCRIPTION
#----------   ------------   ------------------------------
 PD  .                 GL:   PERMANENT DATUM
 EPD .F              5160:   ELEVATION PERMANENT DATUM
 LMF .                 KB:   LOG MEASURED FROM
 DAPD.F                10:   FEET ABOVE PERMANENT DATUM
 DMF .                 KB:   DRILLING MEASURED FROM
 EKB .F              5170:   KELLING BUSHING
 EDF .F              5169:   DRILLING FLOOR
 EGL .F              5160:   GROUND LEVEL
 DATE.        28-OCT-1992:   RUN DATE
 RUN .                  1:   RUN NUMBER
 DD  .F               555:   DEPTH DRILLER
 DL  .F               558:   DEPTH LOGGER
 BLI .F               550:   BOTTOM LOG INTERVAL
 CS  .IN            8.625:   CASING SIZE
 CBD .F                54:   CASING BOTTOM DRILLER
 CBL .F                54:   CASING BOTTOM LOGGER
 BS  .IN            7.875:   BIT SIZE
 BSD .F               555:   BIT SIZE AT DEPTH
 DFT .           AIR FOAM:   DRILLING FLUID TYPE
 TCS .HRS               1:   TIME CURCULATED STOPPED
 MRT .F                65:   MAXIMUM RECORDED TEMPERATURE
 LUN .            HL-6274:   LOGGING UNIT NUMBER
 LUL .             CASPER:   LOGGING UNIT LOCATION
 ENGI.             RAUTIO:   RECORDING ENGINEER
 WITN.     BRUCE ANDERSON:   WITNESSED BY
 CLNT.            A2DTECH:   CLIENT CODE
 ORIG.           5" PRINT:   ORIGIN OF DATA
 UWI .       490252255100:   UNIQUE WELL ID
 DICO. A2D Technologies, Inc.:   DIGITIZING COMPANY
~OTHER INFORMATION
~A    DEPT      GRR      RILD       RILM   
# ...
  145.6000   120.7928    12.1881    11.7950
  145.7000   120.7942    12.1475    11.7956
  145.8000   120.5929    12.1039    11.7461
  145.9000   120.3448    12.0928    11.7151
  146.0000   120.0967    12.0202    11.6941
  146.1000   119.8486    12.0203    11.6350
  146.2000   119.5916    12.0205    11.6358
  146.3000   119.1118    11.9841    11.6364
  146.4000   118.8020    11.9374    11.6371
  146.5000   118.2840    11.9375    11.6054
  146.6000   117.4550    11.9377    11.5576
  146.7000   116.5176    11.8764    11.5540
  146.8000   115.9735    11.8084    11.4788
  146.9000   115.5227    11.7408    11.4794
  147.0000   115.3716    11.6914    11.4800
  147.1000   115.4932    11.6879    11.4520
  147.2000   115.8115    11.6106    11.3868
  147.3000   116.3263    11.6108    11.3231
  147.4000   117.1893    11.6109    11.3239
  147.5000   117.8248    11.6111    11.2720
  147.6000   118.2566    11.6112    11.2465
  147.7000   118.5071    11.6114    11.2471
  147.8000   118.7577    11.5448    11.2477
  147.9000   119.0079    11.5311    11.2484
  148.0000   119.0091    11.5313    11.2490
  148.1000   119.0103    11.5314    11.2496
  148.2000   119.0115    11.5316    11.2502
  148.3000   118.9212    11.5318    11.2509
  148.4000   118.6344    11.4691    11.2515
  148.5000   118.1088    11.4520    11.2522
  148.6000   117.4042    11.4522    11.2527
  148.7000   116.6574    11.4523    11.2534
  148.8000   116.1700    11.4525    11.2540
  148.9000   115.9218    11.4527    11.2546
  149.0000   115.6737    11.4528    11.2500
  149.1000   115.3971    11.4530    11.1779
  149.2000   115.3982    11.4531    11.1784
  149.3000   115.5674    11.4533    11.1366
  149.4000   115.7027    11.4534    11.1021
  149.5000   115.7039    11.4536    11.0873
  149.6000   115.6955    11.4538    11.0243
  149.7000   115.4044    11.4539    10.9505
  149.8000   115.1992    11.4541    10.9510
  149.9000   114.9511    11.4542    10.9516
  150.0000   114.7029    11.4544    10.9522
  150.1000   114.4711    11.4546    10.9529
  150.2000   114.3075    11.4194    10.9535
  150.3000   114.1440    11.3749    11.0707
  150.4000   113.9804    11.3304    11.1899
  150.5000   114.1874    11.2859    11.3090
  150.6000   114.6885    11.2413    11.3879
  150.7000   115.2229    11.2552    11.4183
  150.8000   116.0316    11.3205    11.4181
  150.9000   116.9538    11.3792    11.4180
  151.0000   117.7764    11.3797    11.4178
  151.1000   118.5269    11.4388    11.4177
  151.2000   119.2057    11.4602    11.4175
  151.3000   119.7068    11.4606    11.4173
  151.4000   120.2759    11.4611    11.4172
  151.5000   120.2779    11.4616    11.4141
  151.6000   120.2804    11.4621    11.3376
  151.7000   120.2828    11.4625    11.3375
  151.8000   120.2280    11.4630    11.3373
  151.9000   119.9766    11.4635    11.3372
  152.0000   119.3842    11.4640    11.3370
  152.1000   118.7831    11.4645    11.3369
  152.2000   118.0375    11.4649    11.3367
  152.3000   117.1964    11.4654    11.3366
  152.4000   116.1160    11.4659    11.3364
  152.5000   114.5620    11.4664    11.3362
  152.6000   113.3680    11.4669    11.3361
  152.7000   112.4966    11.4674    11.3359
  152.8000   111.8848    11.4075    11.3957
  152.9000   111.3886    11.3887    11.4148
  153.0000   110.9204    11.4215    11.4146
  153.1000   110.6492    11.4693    11.4145
  153.2000   110.6514    11.4742    11.4143
  153.3000   110.6538    11.5505    11.4141
  153.4000   110.7754    11.5509    11.4140
  153.5000   111.0272    11.5514    11.4138
  153.6000   111.2653    11.5805    11.4137
  153.7000   111.2681    11.6477    11.4135
  153.8000   111.4804    11.7149    11.4137
  153.9000   111.7321    11.7154    11.4793
  154.0000   111.9839    11.7159    11.4928
  154.1000   112.1317    11.6775    11.4926
  154.2000   111.8840    11.6355    11.4925
  154.3000   111.8864    11.6360    11.4923
  154.4000   111.6931    11.6365    11.4921
  154.5000   111.5891    11.5742    11.4920
  154.6000   111.5013    11.5567    11.4918
  154.7000   111.2169    11.5230    11.4577
  154.8000   110.6902    11.4774    11.3919
  154.9000   110.2243    11.4719    11.3265
  155.0000   110.2719    11.3987    11.2537
  155.1000   110.5237    11.3418    11.2535
  155.2000   110.8511    11.2773    11.2534
  155.3000   111.3522    11.2424    11.2532
  155.4000   111.9133    11.2273    11.2375
  155.5000   112.5740    11.1652    11.1748
  155.6000   113.3245    11.1658    11.1746
  155.7000   114.1889    11.1140    11.1745
  155.8000   115.0663    11.0891    11.1358
  155.9000   115.5674    11.0896    11.0967
  156.0000   116.1575    11.0787    11.0852
  156.1000   116.7746    11.0135    11.0194
  156.2000   117.5251    10.9531    10.9584
  156.3000   118.2755    10.9380    10.9426
  156.4000   119.0260    10.9384    10.9425
  156.5000   119.7946    10.9184    10.9218
  156.6000   120.0403    10.8633    10.8591
  156.7000   120.2920    10.8639    10.7907
  156.8000   120.5438    10.8643    10.7906
  156.9000   120.7956    10.8218    10.7904
  157.0000   121.0151    10.7898    10.7608
  157.1000   121.0177    10.7662    10.7153
  157.2000   121.0199    10.6759    10.7151
  157.3000   121.0224    10.5856    10.7150
  157.4000   121.0248    10.4952    10.6634
  157.5000   121.0272    10.4049    10.6404
  157.6000   121.0119    10.3146    10.6402
  157.7000   120.7302    10.2436    10.6278
  157.8000   120.7323    10.1625    10.5661
  157.9000   120.5732    10.0673    10.5062
  158.0000   120.3263    10.0679    10.4925
  158.1000   120.0794    10.0683    10.4585
  158.2000   119.8324    10.0687    10.3985
  158.3000   119.5364    10.0691    10.3470
  158.4000   119.3386    10.0695    10.3468
  158.5000   119.0916    10.0768    10.3467
  158.6000   118.9390    10.1408    10.3043
  158.7000   118.9414    10.1412    10.2746
  158.8000   118.9439    10.1821    10.2576
  158.9000   118.7082    10.2129    10.2031
  159.0000   118.8318    10.2134    10.2029
  159.1000   118.9511    10.2138    10.2028
  159.2000   119.0332    10.2143    10.2026
  159.3000   119.2580    10.2147    10.2025
  159.4000   119.2607    10.1783    10.2024
  159.5000   119.0393    10.1446    10.2022
  159.6000   118.9631    10.1332    10.2021
  159.7000   118.9656    10.0750    10.2019
  159.8000   118.9027    10.0754    10.2018
  159.9000   118.6558    10.0758    10.1798
  160.0000   118.3690    10.0763    10.1307
  160.1000   118.1619    10.0563    10.1306
  160.2000   117.9150    10.0071    10.1304
  160.3000   117.6681    10.0076    10.1303
  160.4000   117.4719    10.0080    10.0998
  160.5000   117.4743    10.0084    10.0597
  160.6000   117.4767    10.0088    10.0539
  160.7000   117.4791    10.0092     9.9897
  160.8000   117.4816    10.0096     9.9389
  160.9000   117.4840    10.0101     9.9201
  161.0000   117.4864    10.0105     9.9200
  161.1000   117.4890    10.0109     9.8917
  161.2000   117.4912     9.9861     9.7805
  161.3000   117.3136     9.9422     9.7145
  161.4000   117.0667     9.9426     9.6687
  161.5000   116.8943     9.9431     9.6808
  161.6000   116.8749     9.9435     9.7141
  161.7000   116.5973     9.9103     9.7243
  161.8000   116.3811     9.8753     9.7817
  161.9000   115.8031     9.8757     9.7816
  162.0000   115.2830     9.8761     9.7389
  162.1000   115.0360     9.8227     9.7134
  162.2000   114.7963     9.8083     9.7133
  162.3000   114.7992     9.8088     9.7132
  162.4000   115.2089     9.8092     9.7130
  162.5000   116.4653     9.8096     9.6624
  162.6000   117.8199     9.8100     9.6454
  162.7000   118.5249     9.8104     9.6452
  162.8000   119.0406     9.8108     9.6451
  162.9000   119.7692     9.8112     9.6450
  163.0000   120.1410     9.8116     9.6448
  163.1000   120.6659     9.8120     9.6447
  163.2000   121.1650     9.8125     9.6446
  163.3000   121.1674     9.8129     9.6444
  163.4000   121.1700     9.8133     9.6443
  163.5000   120.7170     9.8137     9.6442
  163.6000   120.2207     9.8141     9.6440
  163.7000   119.7245     9.8145     9.6439
