~VERSION INFORMATION
 VERS.                2.0:   CWLS LOG ASCII STANDARD - VERSION 2.0
 WRAP.                 NO:   ONE LINE PER DEPTH STEP
~WELL INFORMATION
#MNEM.UNIT      DATA TYPE    INFORMATION
#----------   ------------   ------------------------------
 STRT.F          276.0000:   START DEPTH
 STOP.F         2768.0000:   STOP DEPTH
 STEP.F            0.5000:   STEP LENGTH
 NULL.          -999.2500:   NO VALUE
 COMP.       TESORD PETRO:   COMPANY
 WELL. AX-20 NPR #3 #83-20:   WELL
 FLD .            WILDCAT:   FIELD
 LOC .      S20 T39N R78W:   LOCATION
 CNTY.            NATRONA:   COUNTY
 STAT.            WYOMING:   STATE
 CTRY. UNITED STATES OF AMERICA:   COUNTRY
 SRVC.       Schlumberger:   SERVICE COMPANY
 DATE.        20-JUL-1971:   LOGDATE
 API .       490251022000:   API NUMBER
~CURVE INFORMATION
#MNEM.UNIT       API CODE    CURVE DESCRIPTION
#----------   ------------   ------------------------------
 DEPT.F                  :   
 SPR .MV     05 010 01 00:   SPONTANEOUS POTENTIAL FROM RES.
 ASN .OHMM   05 041 16 00:   AMPLIFIED SHORT NORMAL 16"
 ILD .OHMM   05 120 46 00:   INDUCTION LOG DEEP
 CALD.IN     45 280 60 00:   CALIPER FROM DENSITY
 CORR.G/C3   45 356 01 00:   DENSITY CORRECTION
 DPHI.DEC    45 890 12 00:   DENSITY POROSITY SANDSTONE
 GRD .GAPI   45 310 01 00:   GAMMA RAY FROM DENSITY LOG
 RHOB.G/C3   45 350 01 00:   BULK DENSITY
 CILD.MMHO   05 110 46 00:   CONDUCTIVITY INDUCTION LOG DEEP
~PARAMETER INFORMATION
#MNEM.UNIT          VALUE    DESCRIPTION
#----------   ------------   ------------------------------
 PD  .                 GL:   PERMANENT DATUM
 EPD .F              4994:   ELEVATION PERMANENT DATUM
 LMF .                 KB:   LOG MEASURED FROM
 DAPD.F                11:   FEET ABOVE PERMANENT DATUM
 DMF .                 KB:   DRILLING MEASURED FROM
 EKB .F              5005:   KELLING BUSHING
 EGL .F              4994:   GROUND LEVEL
 DATE.        20-JUL-1971:   RUN DATE
 RUN .                  1:   RUN NUMBER
 DD  .F              2770:   DEPTH DRILLER
 DL  .F              2769:   DEPTH LOGGER
 BLI .F              2768:   BOTTOM LOG INTERVAL
 TLI .F               276:   TOP LOG INTERVAL
 CS  .IN            10.75:   CASING SIZE
 CBD .F               274:   CASING BOTTOM DRILLER
 CBL .F               276:   CASING BOTTOM LOGGER
 BS  .IN                9:   BIT SIZE
 BSD .F              2770:   BIT SIZE AT DEPTH
 DFT .      FRESH GEL MUD:   DRILLING FLUID TYPE
 DFD .                 10:   DRILLING FLUID DENSITY
 DFV .                 82:   DRILLING FLUID VISCOSITY
 DFPH.                  8:   DRILLING FLUID PH
 DFL .                4.8:   DRILLING FLUID LOSS
 MSS .           FLOWLINE:   MUD SAMPLE SOURCE
 RMS .OHMM            1.8:   RESISTIVITY MUD SAMPLE
 MST .F                73:   MUD SAMPLE TEMPERATURE
 RMF .OHMM            1.4:   RESISTIVITY MUD FILTRATE SAMPLE
 MFST.F                73:   MUD FILTRATE SAMPLE TEMPERATURE
 MFSS.               MEAS:   MUD FILTRATE SAMPLE SOURCE
 RMB .OHMM           1.15:   RESISTIVITY MUD AT BHT
 BHT .F               116:   BOTTOM HOLE TEMPERATURE
 TCS .HRS               2:   TIME CURCULATED STOPPED
 MRT .F               116:   MAXIMUM RECORDED TEMPERATURE
 LUN .               7037:   LOGGING UNIT NUMBER
 LUL .               CSPR:   LOGGING UNIT LOCATION
 ENGI.             JENSEN:   RECORDING ENGINEER
 WITN.                MAY:   WITNESSED BY
 CLNT.            A2DTECH:   CLIENT CODE
 ORIG.     1", 2.5" PRINT:   ORIGIN OF DATA
 UWI .       490251022000:   UNIQUE WELL ID
 DICO. A2D Technologies, Inc.:   DIGITIZING COMPANY
~OTHER INFORMATION
~A   DEPT      SPR          ASN        ILD     CALD       CORR       DPHI        GRD       RHOB       CILD   
# ...
 2612.0000   -24.8452     4.5603     3.7798     9.1163     0.0553     0.0770   151.6285     2.4991  -999.2500
 2612.5000   -24.8512     5.1580     3.8380     9.0559     0.0627     0.0582   144.4577     2.5478  -999.2500
 2613.0000   -25.1548     5.4761     4.1324     9.0253     0.0412     0.0616   138.6302     2.5539  -999.2500
 2613.5000   -25.1607     5.6377     4.2780     9.0246     0.0208     0.0857   132.3549     2.4940  -999.2500
 2614.0000   -25.1667     5.7869     4.4236     9.0835     0.0304     0.0919   124.2886     2.5014  -999.2500
 2614.5000   -25.1726     5.9658     4.5692     9.1127     0.0282     0.0895   121.9993     2.5313  -999.2500
 2615.0000   -25.3374     6.1448     4.8636     9.1418     0.0369     0.0631   122.1494     2.5552  -999.2500
 2615.5000   -25.4821     6.3238     5.0092     9.1709     0.0584     0.0563   118.0000     2.5641  -999.2500
 2616.0000   -25.7857     6.4896     5.1547     9.1701     0.0529     0.0743   113.5158     2.5297  -999.2500
 2616.5000   -25.9564     6.6386     5.3832     9.1694     0.0238     0.0827   114.4046     2.5117  -999.2500
 2617.0000   -26.2618     6.7742     5.5283     9.1687     0.0197     0.0819   114.4655     2.5101  -999.2500
 2617.5000   -26.2302     6.8604     5.6733     9.1679     0.0213     0.0786   111.7048     2.5236  -999.2500
 2618.0000   -25.9364     6.9797     5.8184     9.1970     0.0236     0.0707   106.7728     2.5281  -999.2500
 2618.5000   -25.8155     7.0853     5.9635     9.1995     0.0153     0.0797   109.4527     2.5056  -999.2500
 2619.0000   -25.8214     7.2045     6.1086     9.2254     0.0145     0.0876   107.6551     2.5074  -999.2500
 2619.5000   -25.6507     7.2938     6.2537     9.2246     0.0198     0.0793   104.0663     2.5183  -999.2500
 2620.0000   -25.5357     7.3851     6.3988     9.2239     0.0294     0.0673   103.1642     2.5330  -999.2500
 2620.5000   -25.2440     7.3846     6.6139     9.2231     0.0383     0.0631   111.7092     2.5424  -999.2500
 2621.0000   -25.2511     7.3842     6.7595     9.2224     0.0428     0.0685   115.3289     2.5521  -999.2500
 2621.5000   -25.2571     7.4278     6.9050     9.2216     0.0204     0.0865   119.3644     2.5533  -999.2500
 2622.0000   -25.2630     7.5898     7.1280     9.2209     0.0024     0.0895   121.0481     2.5006  -999.2500
 2622.5000   -25.2689     7.8585     7.2731     9.2202    -0.0081     0.0884   118.0197     2.4815  -999.2500
 2623.0000   -25.5725     8.0674     7.4182     9.2194     0.0188     0.0830   111.8772     2.4984  -999.2500
 2623.5000   -25.5784     8.1727     7.4903     9.2186    -0.0066     0.0746   110.2819     2.5258  -999.2500
 2624.0000   -25.2857     8.1875     7.1885     9.2048     0.0023     0.0627   107.4102     2.5398  -999.2500
 2624.5000   -25.2927     7.8897     6.8128     9.1873     0.0157     0.0591   104.4478     2.5483  -999.2500
 2625.0000   -25.2986     7.3657     6.3616     9.1716     0.0276     0.0585   106.1194     2.5556  -999.2500
 2625.5000   -25.0069     7.0662     5.9853     9.1858     0.0336     0.0502   108.8328     2.5717  -999.2500
 2626.0000   -25.0129     6.5869     5.5348     9.2149     0.0455     0.0496   111.6813     2.5450  -999.2500
 2626.5000   -25.0188     6.1834     5.1569     9.2142     0.0454     0.0640   114.7076     2.5448  -999.2500
 2627.0000   -25.0247     5.7798     4.7822     9.2431     0.0533     0.0556   116.6598     2.5621  -999.2500
 2627.5000   -24.7321     5.5864     4.3316     9.2424     0.0663     0.0649   118.7363     2.5394  -999.2500
 2628.0000   -25.0366     5.2859     3.9523     9.2417     0.0274     0.0910   116.9373     2.5025  -999.2500
 2628.5000   -25.0425     4.9697     3.5791     9.2409     0.0308     0.0858   119.0346     2.5185  -999.2500
 2629.0000   -25.0485     4.3996     3.1990     9.1507     0.0453     0.0832   123.5061     2.5394  -999.2500
 2629.5000   -25.0544     3.9366     2.7478     9.0902     0.0557     0.0946   133.4485     2.5259  -999.2500
 2630.0000   -25.0603     3.4318     2.5248     9.0298     0.0449     0.1150   150.4920     2.4556  -999.2500
 2630.5000   -25.0662     3.2701     2.4516     9.0290     0.0437     0.1334   182.1314     2.3928  -999.2500
 2631.0000   -25.0722     3.1961     2.5967     9.0283     0.0514     0.1550   192.2179     2.3494  -999.2500
 2631.5000   -25.3757     3.3715     2.9715     9.0276     0.0704     0.1420   189.2425     2.3598  -999.2500
 2632.0000   -25.3817     4.6211     3.3471     9.0865     0.0765     0.1069   170.8871     2.4943  -999.2500
 2632.5000   -25.3876     6.1425     3.9395     9.1157     0.0669     0.0834   145.0857     2.5496  -999.2500
 2633.0000   -25.3935     7.0413     4.6148     9.1448     0.0617     0.0611   115.9746     2.5586  -999.2500
 2633.5000   -25.3995     7.2536     5.3564     9.2037     0.0542     0.0571    97.5955     2.5585  -999.2500
 2634.0000   -25.4054     7.1898     6.0803     9.2329     0.0392     0.0715    95.8120     2.5391  -999.2500
 2634.5000   -25.4113     7.0698     6.6075     9.2300     0.0210     0.0811    98.5441     2.5121  -999.2500
 2635.0000   -25.1196     6.9328     6.7981     9.2015     0.0164     0.0895    99.8286     2.4927  -999.2500
 2635.5000   -25.1256     6.7658     6.4964     9.2007     0.0103     0.0933    98.3809     2.4926  -999.2500
 2636.0000   -25.1315     6.5475     6.1944     9.2000     0.0344     0.0853    98.7703     2.5187  -999.2500
 2636.5000   -25.1374     6.3255     5.8926     9.1992     0.0627     0.0662   102.8487     2.5436  -999.2500
 2637.0000   -25.1434     6.1460     5.5908     9.2051     0.0567     0.0638   107.4957     2.5510  -999.2500
 2637.5000   -25.1493     5.9664     5.3757     9.2351     0.0791     0.0716   108.4890     2.5501  -999.2500
 2638.0000   -25.1552     5.7868     5.0486     9.2651     0.0671     0.0818   109.9521     2.5311  -999.2500
 2638.5000   -25.1612     5.6073     4.6854     9.3158     0.0507     0.0842   112.3346     2.5055  -999.2500
 2639.0000   -25.1671     5.3083     4.3834     9.3150     0.0357     0.0855   115.9542     2.4861  -999.2500
 2639.5000   -25.1730     5.0691     3.9328     9.3142     0.0208     0.0933   121.3312     2.4708  -999.2500
 2640.0000   -25.1790     4.7403     3.4219     9.2836     0.0193     0.1023   129.4665     2.4677  -999.2500
 2640.5000   -24.8869     4.1727     2.9717     9.2530     0.0207     0.1121   140.8317     2.4597  -999.2500
 2641.0000   -24.8932     3.8439     2.6704     9.2522     0.0267     0.1243   153.4860     2.4501  -999.2500
 2641.5000   -24.8991     3.5748     2.3691     9.2808     0.0371     0.1345   163.3798     2.4298  -999.2500
 2642.0000   -24.9051     3.2460     2.3654     9.3403     0.0505     0.1391   188.1273     2.4018  -999.2500
 2642.5000   -24.9110     3.1843     2.3616     9.3694     0.0793     0.1413   195.6043     2.3661  -999.2500
 2643.0000   -24.9169     3.2749     2.5074     9.3514     0.1042     0.1419   192.9482     2.3574  -999.2500
 2643.5000   -24.9229     3.4536     2.8006     9.2185     0.0638     0.1408   175.2171     2.3394  -999.2500
 2644.0000   -24.9288     4.2292     3.2434     9.1879     0.0050     0.1295   137.1737     2.4262  -999.2500
 2644.5000   -24.9347     5.4825     3.8349     9.1872     0.0008     0.0943   117.5058     2.4701  -999.2500
 2645.0000   -24.9407     6.0791     4.4264     9.2163    -0.0004     0.0857   115.1044     2.5078  -999.2500
 2645.5000   -24.9466     6.3473     4.7203     9.2156     0.0013     0.0835   117.1487     2.5245  -999.2500
 2646.0000   -24.9525     6.5558     5.1630     9.1850     0.0051     0.0836   120.2764     2.5261  -999.2500
 2646.5000   -24.9585     6.6748     5.4569     9.1843     0.0146     0.0837   122.0608     2.5114  -999.2500
 2647.0000   -24.6667     6.6743     5.6020     9.1835     0.0223     0.0822   120.7109     2.4994  -999.2500
 2647.5000   -24.6727     6.6739     5.5983     9.1231     0.0173     0.0786   120.2565     2.4979  -999.2500
 2648.0000   -24.6786     6.6734     5.5946     9.1223     0.0191     0.0793   126.9663     2.5068  -999.2500
