~VERSION INFORMATION
 VERS.                2.0:   CWLS LOG ASCII STANDARD - VERSION 2.0
 WRAP.                 NO:   ONE LINE PER DEPTH STEP
~WELL INFORMATION
#MNEM.UNIT      DATA TYPE    INFORMATION
#----------   ------------   ------------------------------
 STRT.F           20.0000:   START DEPTH
 STOP.F          469.0000:   STOP DEPTH
 STEP.F            0.5000:   STEP LENGTH
 NULL.          -999.2500:   NO VALUE
 COMP. FENIX & SCISSON INC:   COMPANY
 WELL.       SX 3FO #26-3:   WELL
 FLD .             TEAPOT:   FIELD
 LOC .       S3 T38N R78W:   LOCATION
 CNTY.            NATRONA:   COUNTY
 STAT.            WYOMING:   STATE
 CTRY. UNITED STATES OF AMERICA:   COUNTRY
 SRVC.              Welex:   SERVICE COMPANY
 DATE.        02-JUL-1980:   LOGDATE
 API .       490251082500:   API NUMBER
~CURVE INFORMATION
#MNEM.UNIT       API CODE    CURVE DESCRIPTION
#----------   ------------   ------------------------------
 DEPT.F                  :   
 CALD.IN     45 280 60 00:   CALIPER
 GRD .GAPI   45 310 01 00:   GAMMA RAY FROM DENSITY LOG
 CORR.G/C3   45 356 01 00:   DENSITY CORRECTION
 RHOB.G/C3   45 350 01 00:   BULK DENSITY
 DPHI.DEC    45 890 12 00:   DENSITY POROSITY SANDSTONE
~PARAMETER INFORMATION
#MNEM.UNIT          VALUE    DESCRIPTION
#----------   ------------   ------------------------------
 PD  .                 GL:   PERMANENT DATUM
 EPD .F              5163:   ELEVATION PERMANENT DATUM
 LMF .                 KB:   LOG MEASURED FROM
 DAPD.F                 5:   FEET ABOVE PERMANENT DATUM
 DMF .                 KB:   DRILLING MEASURED FROM
 EKB .F              5168:   KELLING BUSHING
 EGL .F              5163:   GROUND LEVEL
 DATE.             7-2-80:   RUN DATE
 RUN .                  1:   RUN NUMBER
 DD  .F               470:   DEPTH DRILLER
 DL  .F               472:   DEPTH LOGGER
 BLI .F               470:   BOTTOM LOG INTERVAL
 TLI .F                20:   TOP LOG INTERVAL
 CS  .IN                7:   CASING SIZE
 CBD .F                43:   CASING BOTTOM DRILLER
 BS  .IN             6.25:   BIT SIZE
 BSD .F               470:   BIT SIZE AT DEPTH
 DFT .        AIR DRILLED:   DRILLING FLUID TYPE
 BHT .F                76:   BOTTOM HOLE TEMPERATURE
 TCS .HRS             1.5:   TIME CURCULATED STOPPED
 MRT .F                76:   MAXIMUM RECORDED TEMPERATURE
 ENGI.        REIN/GLASER:   RECORDING ENGINEER
 WITN.            RHOADES:   WITNESSED BY
 CLNT.            A2DTECH:   CLIENT CODE
 ORIG.           5" PRINT:   ORIGIN OF DATA
 UWI .       490251082500:   UNIQUE WELL ID
 DICO. A2D Technologies, Inc.:   DIGITIZING COMPANY
~OTHER INFORMATION
~A   DEPT     CALD         GRD      CORR       RHOB       DPHI   
# ...
  203.0000     6.2412   113.7723     0.0459     2.4605     0.1390
  203.5000     6.2394   109.3563     0.0515     2.4685     0.1316
  204.0000     6.2377   105.2616     0.0571     2.4737     0.1287
  204.5000     6.2359   106.8688     0.0572     2.4790     0.1249
  205.0000     6.2342   109.5419     0.0565     2.4846     0.1233
  205.5000     6.2324   112.2521     0.0567     2.4917     0.1156
  206.0000     6.2306   112.3232     0.0598     2.4972     0.1180
  206.5000     6.2289   111.1859     0.0573     2.4919     0.1187
  207.0000     6.2271   110.0552     0.0507     2.4869     0.1207
  207.5000     6.2254   109.3101     0.0447     2.4831     0.1219
  208.0000     6.2236   111.4811     0.0443     2.4926     0.1201
  208.5000     6.2218   113.3342     0.0541     2.5029     0.1144
  209.0000     6.2297   115.2725     0.0525     2.5014     0.1148
  209.5000     6.2450   115.1934     0.0497     2.4923     0.1179
  210.0000     6.2602   112.9930     0.0345     2.4833     0.1241
  210.5000     6.2559   110.7990     0.0294     2.4743     0.1283
  211.0000     6.2502   108.6185     0.0249     2.4654     0.1322
  211.5000     6.2446   107.3647     0.0217     2.4650     0.1341
  212.0000     6.2391   109.4145     0.0213     2.4640     0.1345
  212.5000     6.2335   109.8313     0.0208     2.4569     0.1385
  213.0000     6.2280   109.1401     0.0203     2.4517     0.1402
  213.5000     6.2224   109.2688     0.0204     2.4521     0.1400
  214.0000     6.2169   110.5182     0.0216     2.4499     0.1410
  214.5000     6.2113   113.5308     0.0229     2.4469     0.1442
  215.0000     6.2058   117.6286     0.0241     2.4439     0.1463
  215.5000     6.2002   120.4161     0.0253     2.4408     0.1483
  216.0000     6.1947   120.8831     0.0276     2.4434     0.1456
  216.5000     6.1891   121.7051     0.0309     2.4498     0.1420
  217.0000     6.1836   123.8776     0.0342     2.4562     0.1394
  217.5000     6.1780   123.9719     0.0376     2.4623     0.1363
  218.0000     6.1725   119.5456     0.0416     2.4677     0.1324
  218.5000     6.1669   116.4516     0.0373     2.4729     0.1284
  219.0000     6.1614   113.4286     0.0320     2.4781     0.1264
  219.5000     6.1659   110.4194     0.0268     2.4833     0.1240
  220.0000     6.1717   107.8683     0.0239     2.4804     0.1219
  220.5000     6.1777   109.1952     0.0270     2.4782     0.1259
  221.0000     6.1908   111.0193     0.0314     2.4833     0.1230
  221.5000     6.2173   112.8719     0.0337     2.4879     0.1195
  222.0000     6.2434   115.0635     0.0280     2.4856     0.1207
  222.5000     6.2594   118.4999     0.0245     2.4799     0.1248
  223.0000     6.2537   119.5521     0.0257     2.4790     0.1247
  223.5000     6.2483   119.2923     0.0299     2.4837     0.1211
  224.0000     6.2429   118.0665     0.0339     2.4926     0.1171
  224.5000     6.2374   117.5340     0.0306     2.4916     0.1173
  225.0000     6.2320   117.8996     0.0252     2.4886     0.1197
  225.5000     6.2266   118.2758     0.0218     2.4855     0.1211
  226.0000     6.2212   118.3626     0.0254     2.4925     0.1188
  226.5000     6.2158   117.8951     0.0294     2.5046     0.1119
  227.0000     6.2104   117.4782     0.0334     2.5065     0.1084
  227.5000     6.2050   117.4177     0.0374     2.5073     0.1058
  228.0000     6.1996   119.6429     0.0411     2.5193     0.1032
  228.5000     6.1941   121.0786     0.0444     2.5206     0.1006
  229.0000     6.1887   120.1033     0.0478     2.5210     0.1000
  229.5000     6.1831   118.9494     0.0511     2.5210     0.1007
  230.0000     6.1933   117.7982     0.0538     2.5173     0.1033
  230.5000     6.2121   117.2657     0.0527     2.5094     0.1065
  231.0000     6.2312   119.4606     0.0494     2.5017     0.1098
  231.5000     6.2502   119.7618     0.0431     2.4948     0.1130
  232.0000     6.2691   119.0091     0.0365     2.4850     0.1183
  232.5000     6.2808   118.8458     0.0296     2.4736     0.1244
  233.0000     6.2718   119.8455     0.0272     2.4681     0.1302
  233.5000     6.2626   121.0842     0.0260     2.4629     0.1327
  234.0000     6.2533   123.8264     0.0250     2.4580     0.1349
  234.5000     6.2440   126.8878     0.0239     2.4570     0.1367
  235.0000     6.2348   128.1489     0.0227     2.4561     0.1376
  235.5000     6.2255   129.4636     0.0216     2.4551     0.1381
  236.0000     6.2212   130.9009     0.0206     2.4541     0.1385
  236.5000     6.2211   130.5195     0.0219     2.4568     0.1383
  237.0000     6.2211   128.9576     0.0308     2.4650     0.1343
  237.5000     6.2211   126.7510     0.0395     2.4753     0.1266
  238.0000     6.2211   123.8427     0.0457     2.4825     0.1227
  238.5000     6.2211   120.9692     0.0384     2.4688     0.1291
  239.0000     6.2211   118.7877     0.0363     2.4727     0.1295
  239.5000     6.2211   117.9770     0.0381     2.4783     0.1259
  240.0000     6.2211   117.1073     0.0399     2.4840     0.1221
  240.5000     6.2211   114.7105     0.0417     2.4896     0.1187
  241.0000     6.2211   110.3317     0.0367     2.4928     0.1183
  241.5000     6.2211   106.2362     0.0303     2.4922     0.1189
  242.0000     6.2211   107.5408     0.0241     2.4885     0.1195
  242.5000     6.2211   109.7010     0.0208     2.4842     0.1228
  243.0000     6.2211   110.3015     0.0178     2.4799     0.1259
  243.5000     6.2211   107.9792     0.0146     2.4756     0.1279
  244.0000     6.2211   107.6409     0.0140     2.4720     0.1291
  244.5000     6.2211   109.7003     0.0152     2.4730     0.1284
  245.0000     6.2206   107.3429     0.0185     2.4741     0.1275
  245.5000     6.2177   108.7830     0.0218     2.4752     0.1283
  246.0000     6.2148   110.7141     0.0252     2.4760     0.1288
  246.5000     6.2120   112.8653     0.0259     2.4717     0.1285
  247.0000     6.2091   113.3965     0.0245     2.4671     0.1315
  247.5000     6.2062   113.6094     0.0230     2.4651     0.1322
  248.0000     6.2034   116.0894     0.0223     2.4667     0.1315
  248.5000     6.2005   119.0876     0.0287     2.4721     0.1286
  249.0000     6.1976   119.2473     0.0356     2.4775     0.1255
  249.5000     6.1947   117.8511     0.0360     2.4829     0.1224
  250.0000     6.1919   116.1405     0.0360     2.4883     0.1193
  250.5000     6.1890   114.4318     0.0321     2.4940     0.1177
  251.0000     6.1861   112.6218     0.0237     2.4877     0.1221
  251.5000     6.1832   109.9568     0.0145     2.4785     0.1247
  252.0000     6.1757   106.2751     0.0198     2.4834     0.1220
  252.5000     6.1681   104.1944     0.0264     2.4942     0.1166
  253.0000     6.1922   102.4777     0.0330     2.5047     0.1113
  253.5000     6.2158   103.8808     0.0397     2.5121     0.1056
  254.0000     6.2399   106.8379     0.0377     2.5087     0.1052
  254.5000     6.2366   105.9691     0.0345     2.5027     0.1132
  255.0000     6.2300   104.5450     0.0313     2.4964     0.1142
  255.5000     6.2235   103.1145     0.0280     2.4913     0.1163
  256.0000     6.2171   101.6462     0.0248     2.4863     0.1192
  256.5000     6.2107   103.1226     0.0214     2.4812     0.1227
  257.0000     6.2042   104.5967     0.0181     2.4760     0.1263
  257.5000     6.1978   104.3002     0.0147     2.4771     0.1269
  258.0000     6.1913   104.2292     0.0157     2.4797     0.1253
  258.5000     6.1849   107.3502     0.0243     2.4818     0.1238
  259.0000     6.1785   109.3360     0.0232     2.4802     0.1230
  259.5000     6.1720   109.3227     0.0195     2.4844     0.1224
  260.0000     6.1658   111.4563     0.0241     2.4872     0.1219
  260.5000     6.1681   115.0934     0.0251     2.4820     0.1228
  261.0000     6.1891   116.3875     0.0242     2.4812     0.1235
  261.5000     6.2097   117.0611     0.0232     2.4822     0.1232
  262.0000     6.2304   116.7589     0.0221     2.4831     0.1234
  262.5000     6.2509   114.8330     0.0220     2.4800     0.1239
  263.0000     6.2718   112.8731     0.0218     2.4821     0.1245
  263.5000     6.2756   110.9144     0.0179     2.4747     0.1273
