~VERSION INFORMATION
 VERS.                2.0:   CWLS LOG ASCII STANDARD - VERSION 2.0
 WRAP.                 NO:   ONE LINE PER DEPTH STEP
~WELL INFORMATION
#MNEM.UNIT      DATA TYPE    INFORMATION
#----------   ------------   ------------------------------
 STRT.F           28.0000:   START DEPTH
 STOP.F          856.0000:   STOP DEPTH
 STEP.F            0.5000:   STEP LENGTH
 NULL.          -999.2500:   NO VALUE
 COMP. FENIX & SCISSON INC:   COMPANY
 WELL. NPR 3  76 SX #76-27:   WELL
 FLD .             TEAPOT:   FIELD
 LOC .      S27 T39N R78W:   LOCATION
 CNTY.            NATRONA:   COUNTY
 STAT.            WYOMING:   STATE
 CTRY. UNITED STATES OF AMERICA:   COUNTRY
 SRVC.            Unknown:   SERVICE COMPANY
 DATE.        06-SEP-1978:   LOGDATE
 API .       490251069600:   API NUMBER
~CURVE INFORMATION
#MNEM.UNIT       API CODE    CURVE DESCRIPTION
#----------   ------------   ------------------------------
 DEPT.F                  :   
 SPR .MV     05 010 01 00:   SPONTANEOUS POTENTIAL FROM RES.
 SN  .OHMM   05 040 16 00:   SHORT NORMAL 16"
 ILD .OHMM   05 120 46 00:   INDUCTION LOG DEEP
 NPHI.DEC    42 890 03 00:   NEUTRON POROSITY SANDSTONE
 GRD .GAPI   45 310 01 00:   GAMMA RAY FROM DENSITY LOG
 CALD.IN     45 280 60 00:   CALIPER
 RHOB.G/C3   45 350 01 00:   BULK DENSITY
 DPHI.DEC    45 890 12 00:   DENSITY POROSITY SANDSTONE
 CORR.G/C3   45 356 01 00:   DENSITY CORRECTION
~PARAMETER INFORMATION
#MNEM.UNIT          VALUE    DESCRIPTION
#----------   ------------   ------------------------------
 PD  .                 GL:   PERMANENT DATUM
 EPD .F              5062:   ELEVATION PERMANENT DATUM
 LMF .                 KB:   LOG MEASURED FROM
 DAPD.F                 4:   FEET ABOVE PERMANENT DATUM
 DMF .                 KB:   DRILLING MEASURED FROM
 EKB .F              5066:   KELLING BUSHING
 EGL .F              5062:   GROUND LEVEL
 DATE.             9-6-78:   RUN DATE
 RUN .                  1:   RUN NUMBER
 DD  .F               865:   DEPTH DRILLER
 DL  .F               857:   DEPTH LOGGER
 BLI .F               851:   BOTTOM LOG INTERVAL
 TLI .F                40:   TOP LOG INTERVAL
 CS  .IN            8.625:   CASING SIZE
 CBD .F                43:   CASING BOTTOM DRILLER
 CBL .F                43:   CASING BOTTOM LOGGER
 BS  .IN            7.875:   BIT SIZE
 BSD .F               865:   BIT SIZE AT DEPTH
 DFT .                KCL:   DRILLING FLUID TYPE
 DFD .                8.4:   DRILLING FLUID DENSITY
 DFV .                 40:   DRILLING FLUID VISCOSITY
 DFPH.                  9:   DRILLING FLUID PH
 DFL .                  6:   DRILLING FLUID LOSS
 MSS .           FLOWLINE:   MUD SAMPLE SOURCE
 RMS .OHMM            .14:   RESISTIVITY MUD SAMPLE
 MST .F                84:   MUD SAMPLE TEMPERATURE
 RMF .OHMM             .1:   RESISTIVITY MUD FILTRATE SAMPLE
 MFST.F                94:   MUD FILTRATE SAMPLE TEMPERATURE
 RMC .OHMM            .18:   RESISTIVITY MUD CAKE
 MCST.F                92:   MUD CAKE SAMPLE TEMPERATURE
 MFSS.               MEAS:   MUD FILTRATE SAMPLE SOURCE
 MCSS.               MEAS:   MUD CAKE SAMPLE SOURCE
 RMB .OHMM           .145:   RESISTIVITY MUD AT BHT
 BHT .F                82:   BOTTOM HOLE TEMPERATURE
 TCS .HRS               3:   TIME CURCULATED STOPPED
 MRT .F                82:   MAXIMUM RECORDED TEMPERATURE
 LUN .               2958:   LOGGING UNIT NUMBER
 LUL .               CASP:   LOGGING UNIT LOCATION
 ENGI.           REYNOLDS:   RECORDING ENGINEER
 WITN.           MCGINLEY:   WITNESSED BY
 CLNT.            A2DTECH:   CLIENT CODE
 ORIG.           5" PRINT:   ORIGIN OF DATA
 UWI .       490251069600:   UNIQUE WELL ID
 DICO. A2D Technologies, Inc.:   DIGITIZING COMPANY
~OTHER INFORMATION
~A   DEPT      SPR         SN        ILD       NPHI         GRD      CALD       RHOB       DPHI       CORR   
# ...
  247.0000   -83.6413     6.9884     5.7241  -999.2500    81.7915     7.4790     2.4423     0.1475     0.0090
  247.5000   -83.6950     6.9119     5.5851  -999.2500    81.7973     7.4960     2.4404     0.1479     0.0090
  248.0000   -83.6959     6.8362     5.4495  -999.2500    81.0534     7.5130     2.4386     0.1503     0.0090
  248.5000   -83.6957     6.7614     5.3173  -999.2500    81.3141     7.5300     2.4347     0.1555     0.0090
  249.0000   -83.6956     6.6873     5.1882  -999.2500    82.0542     7.5470     2.4309     0.1572     0.0089
  249.5000   -83.6956     6.6196     5.0747  -999.2500    82.1372     7.5641     2.4271     0.1552     0.0088
  250.0000   -83.6956     6.5580     5.0747  -999.2500    82.3979     7.5808     2.4285     0.1498     0.0119
  250.5000   -83.6956     6.5633     5.1215  -999.2500    84.8711     7.5974     2.4315     0.1444     0.0149
  251.0000   -83.6956     6.5603     5.1695  -999.2500    86.3032     7.6139     2.4376     0.1389     0.0179
  251.5000   -83.6956     6.5602     5.2381  -999.2500    86.0655     7.6305     2.4436     0.1345     0.0209
  252.0000   -83.6956     6.5609     5.3129  -999.2500    83.6161     7.6471     2.4497     0.1359     0.0175
  252.5000   -83.6956     6.6423     5.3486  -999.2500    80.9075     7.6637     2.4556     0.1376     0.0148
  253.0000   -83.6956     6.7065     5.3982  -999.2500    81.7685     7.6801     2.4583     0.1394     0.0124
  253.5000   -83.6956     6.7713     5.4482  -999.2500    82.4971     7.6914     2.4539     0.1411     0.0094
  254.0000   -83.6956     6.8367     5.5767  -999.2500    80.5473     7.6912     2.4496     0.1429     0.0089
  254.5000   -83.6956     6.9027     5.7696  -999.2500    78.6050     7.6912     2.4484     0.1444     0.0089
  255.0000   -83.6956     6.9961     5.9691  -999.2500    76.8218     7.6913     2.4504     0.1453     0.0090
  255.5000   -83.6956     7.1103     6.1755  -999.2500    76.7041     7.6824     2.4503     0.1462     0.0090
  256.0000   -83.6956     7.1256     6.2668  -999.2500    78.3479     7.6668     2.4440     0.1470     0.0090
  256.5000   -83.6953     7.1125     6.2175  -999.2500    80.9236     7.6512     2.4458     0.1476     0.0090
  257.0000   -83.6952     7.0890     6.1817  -999.2500    83.5134     7.6355     2.4439     0.1472     0.0090
  257.5000   -83.6983     7.0634     6.1208  -999.2500    86.0278     7.6199     2.4416     0.1388     0.0090
  258.0000   -83.8716     6.9961     5.9536  -999.2500    85.4595     7.6042     2.4421     0.1193     0.0090
  258.5000   -84.3310     6.9378     5.7911  -999.2500    84.2727     7.5886     2.4629     0.0997     0.0090
  259.0000   -84.7862     6.8654     5.6008  -999.2500    81.3932     7.5730     2.4844     0.0803     0.0090
  259.5000   -85.2417     6.7939     5.2991  -999.2500    76.6842     7.5573     2.5058     0.0795     0.0088
  260.0000   -85.7009     6.7210     5.0284  -999.2500    71.6494     7.5417     2.5273     0.0874     0.0086
  260.5000   -85.9040     6.6241     4.9825  -999.2500    66.5628     7.5261     2.5489     0.0989     0.0083
  261.0000   -85.9648     6.5901     5.1111  -999.2500    64.8126     7.5104     2.5532     0.1119     0.0081
  261.5000   -86.0232     6.5609     5.3091  -999.2500    69.0176     7.4948     2.5380     0.1300     0.0079
  262.0000   -86.0814     6.6824     5.5147  -999.2500    74.2034     7.4792     2.5070     0.1418     0.0077
  262.5000   -86.1399     6.9251     5.7175  -999.2500    79.4191     7.4850     2.4764     0.1457     0.0075
  263.0000   -86.1982     7.2151     5.7427  -999.2500    80.3015     7.4933     2.4563     0.1496     0.0073
  263.5000   -86.2548     7.2576     5.7669  -999.2500    81.0467     7.4964     2.4476     0.1535     0.0070
  264.0000   -86.3451     7.2576     5.8234  -999.2500    84.1513     7.5009     2.4406     0.1575     0.0102
  264.5000   -86.4383     7.1735     5.8955  -999.2500    84.8064     7.5052     2.4336     0.1572     0.0150
  265.0000   -86.5316     6.9984     5.9312  -999.2500    84.1907     7.5112     2.4265     0.1548     0.0199
  265.5000   -86.6249     6.8275     5.6950  -999.2500    84.6007     7.5426     2.4285     0.1524     0.0247
  266.0000   -86.7178     6.6608     5.4382  -999.2500    85.3163     7.5438     2.4317     0.1500     0.0296
  266.5000   -86.8112     6.4982     5.1929  -999.2500    84.1790     7.5342     2.4348     0.1488     0.0344
  267.0000   -86.8564     6.3246     4.9565  -999.2500    82.5421     7.4922     2.4380     0.1484     0.0368
  267.5000   -86.8553     6.2668     4.8026  -999.2500    83.0130     7.4107     2.4408     0.1463     0.0354
  268.0000   -86.8624     6.2668     4.7841  -999.2500    82.8147     7.3291     2.4407     0.1380     0.0333
  268.5000   -87.3153     6.2668     4.7683  -999.2500    82.1059     7.2477     2.4418     0.1353     0.0312
  269.0000   -87.8223     6.2668     4.7522  -999.2500    81.8821     7.1753     2.4510     0.1425     0.0291
  269.5000   -87.9053     6.2668     4.7360  -999.2500    78.9801     7.2079     2.4605     0.1519     0.0270
  270.0000   -87.9628     6.2668     4.7157  -999.2500    80.4817     7.2855     2.4510     0.1613     0.0291
  270.5000   -88.0223     6.2668     4.7220  -999.2500    82.3142     7.3627     2.4330     0.1687     0.0352
  271.0000   -88.0826     6.2668     4.7305  -999.2500    83.4415     7.4131     2.4147     0.1520     0.0411
  271.5000   -88.1429     6.2668     4.7391  -999.2500    82.7195     7.3979     2.4074     0.1520     0.0359
  272.0000   -88.2022     6.2668     4.7477  -999.2500    82.1441     7.3837     2.4289     0.1408     0.0298
  272.5000   -88.2187     6.2668     4.7563  -999.2500    84.9322     7.3694     2.4352     0.1435     0.0236
  273.0000   -88.1533     6.2668     4.7649  -999.2500    89.2323     7.3554     2.4412     0.1464     0.0175
  273.5000   -88.0893     6.2668     4.7735  -999.2500    89.8550     7.3550     2.4519     0.1480     0.0164
  274.0000   -88.0249     6.2668     4.7822  -999.2500    87.9940     7.3624     2.4482     0.1480     0.0196
  274.5000   -87.9595     6.2670     4.7909  -999.2500    86.0839     7.3701     2.4421     0.1453     0.0209
  275.0000   -87.8967     6.2668     4.7997  -999.2500    85.2039     7.3778     2.4423     0.1477     0.0210
  275.5000   -87.9418     6.2668     4.8029  -999.2500    86.0070     7.3851     2.4435     0.1496     0.0197
  276.0000   -88.4838     6.1529     4.7590  -999.2500    86.7874     7.3915     2.4405     0.1491     0.0182
  276.5000   -89.0145     6.0927     4.7274  -999.2500    87.3749     7.4122     2.4375     0.1488     0.0167
  277.0000   -89.4760     6.0338     4.6653  -999.2500    87.8482     7.4427     2.4361     0.1502     0.0152
  277.5000   -89.6708     5.9755     4.5876  -999.2500    88.3057     7.4582     2.4370     0.1544     0.0149
  278.0000   -89.8693     5.9177     4.4025  -999.2500    88.6026     7.4734     2.4374     0.1556     0.0148
  278.5000   -90.0674     5.8604     4.2299  -999.2500    86.1713     7.4883     2.4307     0.1515     0.0171
  279.0000   -90.2246     5.8038     4.0719  -999.2500    82.6379     7.5033     2.4284     0.1470     0.0193
  279.5000   -90.2394     5.7477     4.0800  -999.2500    82.2169     7.5183     2.4364     0.1458     0.0251
  280.0000   -90.2566     5.7175     4.0926  -999.2500    84.0191     7.5333     2.4442     0.1440     0.0310
  280.5000   -90.2740     5.7285     4.1052  -999.2500    85.7026     7.5483     2.4462     0.1371     0.0370
  281.0000   -90.2915     5.7361     4.1179  -999.2500    84.6582     7.5633     2.4452     0.1276     0.0382
  281.5000   -90.3089     5.7436     4.1305  -999.2500    85.3902     7.5783     2.4536     0.1181     0.0373
  282.0000   -90.3263     5.7512     4.1433  -999.2500    85.8673     7.5933     2.4725     0.1086     0.0355
  282.5000   -90.3438     5.7588     4.1560  -999.2500    84.7115     7.6083     2.4913     0.0992     0.0249
  283.0000   -90.3612     5.7664     4.1688  -999.2500    83.1111     7.6233     2.5100     0.0959     0.0130
