~VERSION INFORMATION
 VERS.                2.0:   CWLS LOG ASCII STANDARD - VERSION 2.0
 WRAP.                 NO:   ONE LINE PER DEPTH STEP
~WELL INFORMATION
#MNEM.UNIT      DATA TYPE    INFORMATION
#----------   ------------   ------------------------------
 STRT.F         1160.0000:   START DEPTH
 STOP.F         2086.0000:   STOP DEPTH
 STEP.F            0.5000:   STEP LENGTH
 NULL.          -999.2500:   NO VALUE
 COMP. LAWRENCE/ALLISON INC:   COMPANY
 WELL.      17 STX #27-27:   WELL
 FLD .             TEAPOT:   FIELD
 LOC .      S27 T39N R78W:   LOCATION
 CNTY.            NATRONA:   COUNTY
 STAT.            WYOMING:   STATE
 CTRY. UNITED STATES OF AMERICA:   COUNTRY
 SRVC.            Unknown:   SERVICE COMPANY
 DATE.        09-JUN-1991:   LOGDATE
 API .       490251118200:   API NUMBER
~CURVE INFORMATION
#MNEM.UNIT       API CODE    CURVE DESCRIPTION
#----------   ------------   ------------------------------
 DEPT.F                  :   
 ROP .MIN/FT 91 810 01 00:   RAT OF DRILLING PENETRATION
 TGAS.UNITS  91 830 01 00:   TOTAL GAS UNIT
~PARAMETER INFORMATION
#MNEM.UNIT          VALUE    DESCRIPTION
#----------   ------------   ------------------------------
 EKB .F              5078:   KELLING BUSHING
 EGL .F              5068:   GROUND LEVEL
 DATE.         9-JUN-1991:   RUN DATE
 RUN .                  1:   RUN NUMBER
 BLI .F              2120:   BOTTOM LOG INTERVAL
 TLI .F              1160:   TOP LOG INTERVAL
 CLNT.            A2DTECH:   CLIENT CODE
 ORIG.           5" PRINT:   ORIGIN OF DATA
 UWI .       490251118200:   UNIQUE WELL ID
 DICO. A2D Technologies, Inc.:   DIGITIZING COMPANY
~OTHER INFORMATION
~A  DEPT         ROP      TGAS  
# ...
 1646.0000     0.6538    32.2594
 1646.5000     0.5877    32.2803
 1647.0000     0.5410    32.3013
 1647.5000     0.5024    32.3222
 1648.0000     0.4755    32.3431
 1648.5000     0.4663    32.3640
 1649.0000     0.4666    32.3849
 1649.5000     0.4668    32.4059
 1650.0000     0.4576    32.4268
 1650.5000     0.4201    32.4477
 1651.0000     0.3826    32.4686
 1651.5000     0.3545    32.4895
 1652.0000     0.3547    32.5105
 1652.5000     0.4021    32.5314
 1653.0000     0.4684    32.5523
 1653.5000     0.4970    32.5732
 1654.0000     0.5066    32.5941
 1654.5000     0.5069    32.6151
 1655.0000     0.5071    32.6360
 1655.5000     0.5073    32.6569
 1656.0000     0.5075    32.6778
 1656.5000     0.5172    32.6987
 1657.0000     0.5269    32.7197
 1657.5000     0.5554    32.7406
 1658.0000     0.6033    32.7761
 1658.5000     0.6219    32.8410
 1659.0000     0.5812    32.9059
 1659.5000     0.5172    32.9707
 1660.0000     0.4529    33.0356
 1660.5000     0.4154    33.1005
 1661.0000     0.3967    33.1654
 1661.5000     0.3781    33.2303
 1662.0000     0.3688    33.2952
 1662.5000     0.3596    33.3601
 1663.0000     0.3599    33.4250
 1663.5000     0.3602    33.4899
 1664.0000     0.3604    33.5548
 1664.5000     0.3701    33.6196
 1665.0000     0.3986    33.6845
 1665.5000     0.4460    33.7494
 1666.0000     0.4934    33.8143
 1666.5000     0.5125    33.8792
 1667.0000     0.5222    33.9441
 1667.5000     0.5413    34.0090
 1668.0000     0.5509    34.0739
 1668.5000     0.5512    34.1388
 1669.0000     0.5514    34.2036
 1669.5000     0.5326    34.2685
 1670.0000     0.4745    34.3096
 1670.5000     0.4096    34.3305
 1671.0000     0.3920    34.3515
 1671.5000     0.4017    34.3724
 1672.0000     0.4019    34.3933
 1672.5000     0.4022    34.4142
 1673.0000     0.4024    34.4351
 1673.5000     0.4026    34.4561
 1674.0000     0.4029    34.4770
 1674.5000     0.4408    34.4979
 1675.0000     0.4788    34.5188
 1675.5000     0.4885    34.5397
 1676.0000     0.4887    34.5607
 1676.5000     0.4889    34.5816
 1677.0000     0.4892    34.6025
 1677.5000     0.4894    34.6234
 1678.0000     0.4896    34.6443
 1678.5000     0.4804    34.6653
 1679.0000     0.4901    34.6862
 1679.5000     0.4903    34.7071
 1680.0000     0.4906    34.7280
 1680.5000     0.4814    34.7490
 1681.0000     0.4531    34.7699
 1681.5000     0.4158    34.7908
 1682.0000     0.4066    34.8117
 1682.5000     0.4068    34.8326
 1683.0000     0.4071    34.8536
 1683.5000     0.3979    34.8745
 1684.0000     0.3982    34.8954
 1684.5000     0.3889    34.9163
 1685.0000     0.3797    34.9372
 1685.5000     0.3706    34.9582
 1686.0000     0.3708    34.9791
 1686.5000     0.3805    35.0000
 1687.0000     0.4562    35.0209
 1687.5000     0.5036    35.0418
 1688.0000     0.5227    35.0628
 1688.5000     0.5229    35.0837
 1689.0000     0.5137    35.1046
 1689.5000     0.5139    35.1255
 1690.0000     0.4953    35.1464
 1690.5000     0.4955    35.1674
 1691.0000     0.4863    35.1883
 1691.5000     0.4583    35.2092
 1692.0000     0.4396    35.2301
 1692.5000     0.4114    35.2510
 1693.0000     0.3929    35.2720
 1693.5000     0.3932    35.2929
 1694.0000     0.3934    35.3138
 1694.5000     0.4031    35.3347
 1695.0000     0.4128    35.3556
 1695.5000     0.4130    35.3766
 1696.0000     0.4793    35.3975
 1696.5000     0.5361    35.4184
 1697.0000     0.6118    35.4393
 1697.5000     0.6781    35.4603
 1698.0000     0.6783    35.4812
 1698.5000     0.6220    35.5021
 1699.0000     0.5750    35.5230
 1699.5000     0.5187    35.5439
 1700.0000     0.4905    35.4833
 1700.5000     0.4907    35.1727
 1701.0000     0.5003    34.8622
 1701.5000     0.5004    34.5517
 1702.0000     0.5195    34.2411
 1702.5000     0.5290    33.9306
 1703.0000     0.5480    33.6200
 1703.5000     0.5670    33.3095
 1704.0000     0.5672    32.9989
 1704.5000     0.5579    32.6884
 1705.0000     0.5391    32.3778
 1705.5000     0.5204    32.0673
 1706.0000     0.4923    31.7567
 1706.5000     0.4641    31.6527
 1707.0000     0.4454    31.6736
 1707.5000     0.4172    31.6946
 1708.0000     0.4079    31.7155
 1708.5000     0.3887    31.7364
 1709.0000     0.3789    31.7573
 1709.5000     0.3800    31.7782
 1710.0000     0.3802    31.7992
 1710.5000     0.3804    31.8201
 1711.0000     0.3805    31.8410
 1711.5000     0.3806    31.8619
 1712.0000     0.3808    31.8828
 1712.5000     0.4186    31.9038
 1713.0000     0.4943    31.9247
 1713.5000     0.4944    31.9484
 1714.0000     0.5040    28.8309
 1714.5000     0.5041    27.8003
 1715.0000     0.5231    27.8260
 1715.5000     0.5327    26.7954
 1716.0000     0.5800    25.7751
 1716.5000     0.6280    24.7490
 1717.0000     0.6670    23.7238
 1717.5000     0.6936    23.9958
 1718.0000     0.6655    24.5271
 1718.5000     0.6279    25.0585
 1719.0000     0.5903    25.5899
 1719.5000     0.5621    26.1213
 1720.0000     0.5339    26.6527
 1720.5000     0.5341    27.1841
 1721.0000     0.5343    27.7154
 1721.5000     0.5250    28.2468
 1722.0000     0.5062    28.7782
 1722.5000     0.4676    29.1841
 1723.0000     0.4007    29.2050
 1723.5000     0.3463    29.2259
 1724.0000     0.3559    29.2469
 1724.5000     0.3843    29.2678
 1725.0000     0.3844    29.2887
 1725.5000     0.3940    29.3096
 1726.0000     0.3942    29.3333
 1726.5000     0.4038    25.1646
 1727.0000     0.4039    24.1392
 1727.5000     0.4135    24.1649
 1728.0000     0.4230    25.2315
 1728.5000     0.4986    25.2521
 1729.0000     0.5177    25.6507
 1729.5000     0.5083    26.2089
 1730.0000     0.5085    26.7672
 1730.5000     0.5086    27.3254
 1731.0000     0.5088    27.8837
 1731.5000     0.5089    28.4419
 1732.0000     0.5468    29.0002
 1732.5000     0.5849    29.6042
 1733.0000     0.6515    29.3794
 1733.5000     0.6485    29.1344
 1734.0000     0.5851    28.8895
 1734.5000     0.5475    28.6445
 1735.0000     0.5288    28.3996
 1735.5000     0.5006    28.1546
 1736.0000     0.4725    27.9097
 1736.5000     0.4631    27.6647
 1737.0000     0.4633    27.4198
 1737.5000     0.4635    27.1749
 1738.0000     0.4636    26.9299
 1738.5000     0.4637    26.6850
 1739.0000     0.4639    26.4400
 1739.5000     0.4640    26.1951
 1740.0000     0.5019    25.9501
 1740.5000     0.5775    25.7494
 1741.0000     0.5871    25.8267
 1741.5000     0.5872    25.8923
 1742.0000     0.5874    25.9578
 1742.5000     0.5875    26.0234
 1743.0000     0.5782    26.0889
 1743.5000     0.6161    26.1544
 1744.0000     0.7389    26.2200
 1744.5000     0.7484    26.2855
 1745.0000     0.7014    26.3511
 1745.5000     0.6638    26.4166
 1746.0000     0.6262    26.4821
 1746.5000     0.5886    26.5477
 1747.0000     0.5699    26.6132
 1747.5000     0.5606    26.6788
 1748.0000     0.5702    26.7443
 1748.5000     0.5798    26.8098
 1749.0000     0.5799    26.8754
 1749.5000     0.6595    26.9409
 1750.0000     0.7704    27.0065
 1750.5000     0.8445    27.0720
 1751.0000     0.8918    27.1376
 1751.5000     0.9580    27.2031
 1752.0000     0.8732    27.2686
 1752.5000     0.7696    27.4461
 1753.0000     0.6942    27.6634
 1753.5000     0.6661    27.8806
 1754.0000     0.6757    28.0979
 1754.5000     0.6758    28.3151
 1755.0000     0.6948    28.5324
 1755.5000     0.6950    28.7496
 1756.0000     0.6951    28.9669
 1756.5000     0.6952    29.1841
 1757.0000     0.6954    29.4014
 1757.5000     0.6955    29.6186
 1758.0000     0.6957    29.8359
 1758.5000     0.6958    30.0531
 1759.0000     0.6960    30.2704
 1759.5000     0.6866    30.4876
 1760.0000     0.6679    30.7049
 1760.5000     0.6586    30.8772
 1761.0000     0.6022    31.0348
 1761.5000     0.5834    31.1925
 1762.0000     0.5741    31.3501
 1762.5000     0.5649    31.5078
 1763.0000     0.5650    31.6654
 1763.5000     0.5557    31.8231
 1764.0000     0.5370    31.9807
 1764.5000     0.5088    32.1384
 1765.0000     0.4616    32.2960
 1765.5000     0.4336    32.4537
 1766.0000     0.4728    32.6113
 1766.5000     0.5283    32.7690
 1767.0000     0.5473    32.9266
