~VERSION INFORMATION
 VERS.                2.0:   CWLS LOG ASCII STANDARD - VERSION 2.0
 WRAP.                 NO:   ONE LINE PER DEPTH STEP
~WELL INFORMATION
#MNEM.UNIT      DATA TYPE    INFORMATION
#----------   ------------   ------------------------------
 STRT.F            0.0000:   START DEPTH
 STOP.F          663.0000:   STOP DEPTH
 STEP.F            0.1000:   STEP LENGTH
 NULL.          -999.2500:   NO VALUE
 COMP.   FLUOR DANIEL INC:   COMPANY
 WELL.     62-6 X 3 #62-3:   WELL
 FLD .             TEAPOT:   FIELD
 LOC .       S3 T38N R78W:   LOCATION
 CNTY.            NATRONA:   COUNTY
 STAT.            WYOMING:   STATE
 CTRY. UNITED STATES OF AMERICA:   COUNTRY
 SRVC.      Western Atlas:   SERVICE COMPANY
 DATE.        11-APR-1995:   LOGDATE
 API .       490252270400:   API NUMBER
~CURVE INFORMATION
#MNEM.UNIT       API CODE    CURVE DESCRIPTION
#----------   ------------   ------------------------------
 DEPT.F                  :   
 GRR .GAPI   07 310 01 00:   GAMMA RAY
 RILD.OHMM   07 120 46 00:   INDUCTION LOG DEEP RESISTIVITY
 RILM.OHMM   07 120 44 00:   INDUCTION LOG MEDIUM RESISTIVITY
~PARAMETER INFORMATION
#MNEM.UNIT          VALUE    DESCRIPTION
#----------   ------------   ------------------------------
 PD  .                 GL:   PERMANENT DATUM
 EPD .F              5157:   ELEVATION PERMANENT DATUM
 LMF .                 KB:   LOG MEASURED FROM
 DAPD.F                10:   FEET ABOVE PERMANENT DATUM
 DMF .                 KB:   DRILLING MEASURED FROM
 EKB .F              5167:   KELLING BUSHING
 EDF .F              5166:   DRILLING FLOOR
 EGL .F              5157:   GROUND LEVEL
 DATE.        11-APR-1995:   RUN DATE
 RUN .                  1:   RUN NUMBER
 DD  .F               671:   DEPTH DRILLER
 DL  .F               671:   DEPTH LOGGER
 BLI .F               663:   BOTTOM LOG INTERVAL
 TLI .F                95:   TOP LOG INTERVAL
 CS  .IN            9.625:   CASING SIZE
 CBD .F                95:   CASING BOTTOM DRILLER
 CBL .F                95:   CASING BOTTOM LOGGER
 BS  .IN             8.75:   BIT SIZE
 BSD .F               671:   BIT SIZE AT DEPTH
 DFT .                AIR:   DRILLING FLUID TYPE
 MRT .F                90:   MAXIMUM RECORDED TEMPERATURE
 LUN .            HL 6530:   LOGGING UNIT NUMBER
 LUL .             CASPER:   LOGGING UNIT LOCATION
 ENGI.      PAT RASMUSSEN:   RECORDING ENGINEER
 WITN.        GARY STRONG:   WITNESSED BY
 CLNT.            A2DTECH:   CLIENT CODE
 ORIG.           5" PRINT:   ORIGIN OF DATA
 UWI .       490252270400:   UNIQUE WELL ID
 DICO. A2D Technologies, Inc.:   DIGITIZING COMPANY
~OTHER INFORMATION
~A    DEPT      GRR      RILD       RILM   
# ...
  127.4000   128.2349     8.2382     8.5734
  127.5000   128.2379     8.2384     8.5738
  127.6000   128.2410     8.2468     8.5743
  127.7000   128.2441     8.2965     8.5748
  127.8000   128.0000     8.2967     8.5867
  127.9000   127.9488     8.2969     8.6359
  128.0000   127.9518     8.2971     8.6364
  128.1000   128.1898     8.2974     8.6368
  128.2000   128.6346     8.2976     8.6750
  128.3000   128.9267     8.3064     8.6983
  128.4000   129.4700     8.3560     8.7194
  128.5000   129.4729     8.3563     8.7723
  128.6000   129.6787     8.3565     8.8255
  128.7000   129.7801     8.3906     8.8845
  128.8000   129.7831     8.4154     8.8849
  128.9000   129.8594     8.4329     8.8854
  129.0000   130.1205     8.4837     8.9162
  129.1000   130.3947     8.5341     8.9921
  129.2000   130.3976     8.5343     9.0750
  129.3000   130.4006     8.5345     9.0794
  129.4000   130.4036     8.5697     9.1397
  129.5000   130.4066     8.5946     9.1402
  129.6000   130.4096     8.5949     9.1813
  129.7000   130.4418     8.6047     9.2690
  129.8000   130.7170     8.6554     9.3352
  129.9000   130.9639     8.6557     9.3494
  130.0000   131.0241     8.7002     9.4017
  130.1000   131.0271     8.7526     9.4023
  130.2000   131.1446     8.7777     9.4543
  130.3000   131.4769     8.7968     9.5545
  130.4000   131.9679     8.8395     9.6029
  130.5000   132.2442     8.8398     9.6274
  130.6000   132.9758     8.8401     9.6712
  130.7000   133.3534     8.8859     9.6718
  130.8000   133.9277     8.9394     9.6724
  130.9000   134.5914     8.9932     9.7263
  131.0000   135.1104     9.0474     9.7853
  131.1000   135.5753     9.0909     9.8100
  131.2000   135.5785     9.0912     9.8355
  131.3000   135.5813     9.0915     9.8798
  131.4000   135.3855     9.1390     9.8858
  131.5000   134.9749     9.2329     9.9502
  131.6000   134.6868     9.2841     9.9507
  131.7000   134.6205     9.3051     9.9968
  131.8000   134.3655     9.3495    10.0574
  131.9000   134.0936     9.3520    10.1184
  132.0000   133.6145     9.4153    10.1798
  132.1000   133.4970     9.4650    10.2354
  132.2000   133.3454     9.5220    10.2361
  132.3000   133.2018     9.5793    10.2940
  132.4000   133.2048     9.6151    10.4044
  132.5000   133.1827     9.6277    10.4545
  132.6000   132.9098     9.6828    10.4825
  132.7000   132.4328     9.6831    10.5289
  132.8000   132.3132     9.7346    10.5429
  132.9000   132.1627     9.7932    10.6782
  133.0000   131.6868     9.8196    10.7391
  133.1000   131.0502     9.8426    10.8043
  133.2000   130.7470     9.8888    10.8301
  133.3000   129.9189     9.8891    10.8596
  133.4000   129.2048     9.8894    10.9255
  133.5000   128.6295     9.8896    10.9917
  133.6000   127.9639     9.9328    11.0619
  133.7000   127.2823     9.9926    11.0625
  133.8000   126.7224    10.0528    11.1151
  133.9000   126.1624    10.0995    11.1413
  134.0000   125.6024    10.1035    11.1721
  134.1000   125.1231    10.1706    11.2398
  134.2000   125.1266    10.1709    11.3080
  134.3000   124.8289    10.1712    11.3797
  134.4000   124.8313    10.1714    11.3803
  134.5000   124.5030    10.1961    11.4349
  134.6000   124.1124    10.2431    11.4613
  134.7000   123.8574    10.2476    11.4620
  134.8000   123.6381    10.3152    11.4626
  134.9000   123.6416    10.3714    11.4720
  135.0000   123.0428    10.3878    11.5442
  135.1000   123.0452    10.3881    11.5449
  135.2000   122.8835    10.4138    11.5455
  135.3000   122.7500    10.4613    11.5461
  135.4000   122.7530    10.4616    11.5468
  135.5000   122.7209    10.4619    11.5442
  135.6000   122.4579    10.4622    11.5339
  135.7000   122.1602    10.4624    11.5237
  135.8000   121.7490    10.4991    11.5134
  135.9000   121.5632    10.5623    11.5032
  136.0000   121.3253    10.6100    11.4930
  136.1000   120.8896    10.6156    11.4827
  136.2000   120.6345    10.6848    11.4716
  136.3000   120.3706    10.6850    11.4722
  136.4000   120.6225    10.6853    11.4729
  136.5000   120.6777    10.6856    11.5140
  136.6000   120.6807    10.6859    11.5545
  136.7000   120.6837    10.7026    11.5552
  136.8000   120.6868    10.7612    11.5558
  136.9000   120.6566    10.7615    11.5565
  137.0000   120.3917    10.7618    11.5571
  137.1000   120.3946    10.7621    11.5578
  137.2000   120.3976    10.7624    11.5174
  137.3000   120.2389    10.7627    11.4786
  137.4000   120.1024    10.7462    11.4793
  137.5000   119.9549    10.6886    11.4799
  137.6000   119.4739    10.6889    11.4806
  137.7000   119.2080    10.6892    11.4173
  137.8000   118.9639    10.6895    11.4019
  137.9000   118.7088    10.6898    11.3211
  138.0000   118.7751    10.6901    11.2451
  138.1000   119.0361    10.6732    11.2276
  138.2000   119.2972    10.6165    11.1680
  138.3000   119.6205    10.6168    11.1687
  138.4000   120.4339    10.5578    11.1067
  138.5000   120.9287    10.5438    11.0922
  138.6000   121.4478    10.5059    11.0928
  138.7000   121.8072    10.4712    11.0642
  138.8000   122.0683    10.4715    10.9987
  138.9000   122.3293    10.4718    10.9407
  139.0000   122.5599    10.4721    10.9415
  139.1000   122.2622    10.4134    10.8803
  139.2000   122.0201    10.4000    10.8665
  139.3000   121.7651    10.4003    10.8671
  139.4000   121.6687    10.4006    10.8677
  139.5000   121.6717    10.4009    10.8683
  139.6000   121.7470    10.4012    10.8613
  139.7000   122.0372    10.4015    10.7939
  139.8000   122.5845    10.4017    10.7945
  139.9000   122.8313    10.4020    10.7951
  140.0000   122.8916    10.4023    10.7957
  140.1000   123.3675    10.3744    10.7963
  140.2000   123.9157    10.3487    10.7969
  140.3000   124.1767    10.4031    10.7895
  140.4000   124.4658    10.3313    10.7230
  140.5000   125.0152    10.3316    10.7236
  140.6000   125.2610    10.3319    10.7242
  140.7000   125.7219    10.3322    10.6845
  140.8000   126.2410    10.3040    10.6508
  140.9000   126.7600    10.2610    10.6513
  141.0000   127.2791    10.2533    10.6435
  141.1000   127.7711    10.1904    10.5784
  141.2000   128.0484    10.1908    10.5791
  141.3000   128.7771    10.1910    10.5796
  141.4000   129.1566    10.1527    10.5802
  141.5000   129.5733    10.0925    10.5808
  141.6000   129.8675    10.0327    10.5814
  141.7000   129.8705     9.9732    10.5820
  141.8000   129.8474     9.9125    10.5826
  141.9000   129.5755     9.9128    10.5096
  142.0000   129.3374     9.9131    10.5101
  142.1000   129.0823     9.8754    10.5107
  142.2000   128.9819     9.8448    10.5113
  142.3000   128.9849     9.8451    10.5118
  142.4000   128.9879     9.8454    10.5124
  142.5000   128.9659     9.8457    10.5130
  142.6000   128.6930     9.8459    10.5137
  142.7000   128.4558     9.8462    10.5142
  142.8000   128.2008     9.8465    10.5148
  142.9000   127.9458     9.8468    10.5154
  143.0000   127.6908     9.8470    10.5160
  143.1000   127.4358     9.8473    10.5165
  143.2000   127.1807     9.8476    10.5171
  143.3000   126.9069     9.8478    10.5178
  143.4000   126.6707     9.8481    10.5183
  143.5000   126.2199     9.8484    10.5189
  143.6000   125.7068     9.8487    10.5195
  143.7000   125.4127     9.8489    10.5201
  143.8000   125.2831     9.8492    10.5207
  143.9000   124.7700     9.8495    10.5212
  144.0000   124.2171     9.8498    10.5219
  144.1000   123.9820     9.8500    10.4703
  144.2000   123.3374     9.8114    10.4498
  144.3000   122.8695     9.7823    10.4504
  144.4000   122.6145     9.7632    10.4510
  144.5000   122.3594     9.7149    10.4515
  144.6000   122.1044     9.7152    10.4521
  144.7000   121.8286     9.7155    10.3801
  144.8000   122.0683     9.7157    10.3805
  144.9000   122.3293     9.7160    10.3811
  145.0000   122.5904     9.7163    10.3817
  145.1000   122.8514     9.7166    10.3823
  145.2000   123.2409     9.7068    10.3829
  145.3000   123.9759     9.6497    10.3834
  145.4000   124.2593     9.6500    10.3119
  145.5000   124.9699     9.6502    10.3123
