~VERSION INFORMATION
 VERS.                2.0:   CWLS LOG ASCII STANDARD - VERSION 2.0
 WRAP.                 NO:   ONE LINE PER DEPTH STEP
~WELL INFORMATION
#MNEM.UNIT      DATA TYPE    INFORMATION
#----------   ------------   ------------------------------
 STRT.F            8.0000:   START DEPTH
 STOP.F          473.0000:   STOP DEPTH
 STEP.F            0.5000:   STEP LENGTH
 NULL.          -999.2500:   NO VALUE
 COMP.   LAWRENCE-ALLISON:   COMPANY
 WELL. NPR 3 #58-55SX3OB1:   WELL
 FLD .             TEAPOT:   FIELD
 LOC .       S3 T38N R78W:   LOCATION
 CNTY.            NATRONA:   COUNTY
 STAT.            WYOMING:   STATE
 CTRY. UNITED STATES OF AMERICA:   COUNTRY
 SRVC.      Dresser Atlas:   SERVICE COMPANY
 DATE.        17-DEC-1984:   LOGDATE
 API .       490251100600:   API NUMBER
~CURVE INFORMATION
#MNEM.UNIT       API CODE    CURVE DESCRIPTION
#----------   ------------   ------------------------------
 DEPT.F                  :   
 AC  .US/F   60 520 00 00:   ACCOUSTIC
 PORD.DEC    45 890 12 00:   POROSITY DENSITY SANDSTONE
 CNC .DEC    42 890 03 00:   NEUTRON POROSITY SANDSTONE
 CALD.IN     45 280 60 00:   CALIPER FROM DENSITY
 GRD .GAPI   45 310 01 00:   GAMMA RAY FROM DENSITY LOG
 CORR.G/C3   45 356 01 00:   DENSITY CORRECTION
 DEN .G/C3   45 350 01 00:   COMPENSATED BULK DENSTIY
~PARAMETER INFORMATION
#MNEM.UNIT          VALUE    DESCRIPTION
#----------   ------------   ------------------------------
 PD  .                 GL:   PERMANENT DATUM
 EPD .F              5194:   ELEVATION PERMANENT DATUM
 LMF .                 GL:   LOG MEASURED FROM
 DMF .                 GL:   DRILLING MEASURED FROM
 EGL .F              5194:   GROUND LEVEL
 DATE.        17-DEC-1984:   RUN DATE
 RUN .                  1:   RUN NUMBER
 DD  .F               480:   DEPTH DRILLER
 DL  .F               475:   DEPTH LOGGER
 BLI .F               473:   BOTTOM LOG INTERVAL
 TLI .F                20:   TOP LOG INTERVAL
 CS  .IN            8.625:   CASING SIZE
 CBD .F                20:   CASING BOTTOM DRILLER
 CBL .F                20:   CASING BOTTOM LOGGER
 BS  .IN             6.25:   BIT SIZE
 BSD .F               480:   BIT SIZE AT DEPTH
 DFT .          KCL WATER:   DRILLING FLUID TYPE
 MSS .           FLOWLINE:   MUD SAMPLE SOURCE
 RMS .OHMM          0.134:   RESISTIVITY MUD SAMPLE
 MST .F                72:   MUD SAMPLE TEMPERATURE
 RMF .OHMM           0.10:   RESISTIVITY MUD FILTRATE SAMPLE
 MFST.F                72:   MUD FILTRATE SAMPLE TEMPERATURE
 RMC .OHMM           0.17:   RESISTIVITY MUD CAKE
 MCST.F                72:   MUD CAKE SAMPLE TEMPERATURE
 MFSS.               CALC:   MUD FILTRATE SAMPLE SOURCE
 MCSS.               CALC:   MUD CAKE SAMPLE SOURCE
 TCS .HRS               2:   TIME CURCULATED STOPPED
 MRT .F               100:   MAXIMUM RECORDED TEMPERATURE
 LUN .               6270:   LOGGING UNIT NUMBER
 ENGI.            LEBSOCK:   RECORDING ENGINEER
 WITN.          DAN LUERS:   WITNESSED BY
 CLNT.            A2DTECH:   CLIENT CODE
 ORIG.           5" PRINT:   ORIGIN OF DATA
 UWI .       490251100600:   UNIQUE WELL ID
 DICO. A2D Technologies, Inc.:   DIGITIZING COMPANY
~OTHER INFORMATION
~A    DEPT      AC       PORD        CNC       CALD        GRD       CORR        DEN   
# ...
  190.0000   112.4888     0.1387     0.3025     6.1796   110.3298     0.0539     2.4462
  190.5000   108.6572     0.1272     0.2875     6.1790   110.9274     0.0463     2.4680
  191.0000   108.5219     0.1306     0.2797     6.1783   111.8253     0.0357     2.4642
  191.5000   109.3503     0.1364     0.2911     6.1777   111.9732     0.0251     2.4536
  192.0000   109.8701     0.1367     0.2975     6.1771   111.3689     0.0190     2.4498
  192.5000   110.6823     0.1337     0.2988     6.1765   111.9665     0.0250     2.4543
  193.0000   110.5957     0.1322     0.2960     6.1911   113.4650     0.0370     2.4619
  193.5000   109.9920     0.1326     0.2937     6.1753   114.5138     0.0490     2.4611
  194.0000   109.3014     0.1326     0.2940     6.1747   112.7082     0.0534     2.4588
  194.5000   108.7151     0.1313     0.3052     6.1741   112.2555     0.0187     2.4580
  195.0000   108.7256     0.1272     0.3233     6.1735   113.7533     0.0127     2.4655
  195.5000   110.6821     0.1251     0.3372     6.1881   115.7022     0.0246     2.4716
  196.0000   112.4028     0.1321     0.3420     6.1873   119.4529     0.0306     2.4557
  196.5000   114.1154     0.1517     0.3469     6.1867   121.4026     0.0079     2.4233
  197.0000   115.2174     0.1671     0.3653     6.1861   119.1466     0.0124     2.4022
  197.5000   115.2849     0.1656     0.3843     6.1855   116.2908     0.0229     2.3977
  198.0000   114.3728     0.1587     0.3687     6.1849   113.2848     0.0334     2.4097
  198.5000   113.3973     0.1545     0.3407     6.1843   111.9304     0.0438     2.4180
  199.0000   112.8706     0.1524     0.3307     6.1837   113.4289     0.0498     2.4240
  199.5000   112.3428     0.1488     0.3274     6.1831   119.2818     0.0407     2.4307
  200.0000   111.9640     0.1465     0.3284     6.1825   121.5318     0.0291     2.4358
  200.5000   111.3582     0.1452     0.3230     6.1802   118.0781     0.0225     2.4426
  201.0000   110.3785     0.1403     0.3172     6.1778   115.9760     0.0284     2.4509
  201.5000   108.7241     0.1346     0.3088     6.1755   115.8258     0.0329     2.4630
  202.0000   107.1446     0.1272     0.3043     6.1731   117.0270     0.0177     2.4721
  202.5000   105.9400     0.1228     0.3031     6.1708   114.3243     0.0101     2.4796
  203.0000   105.1851     0.1193     0.3065     6.1684   111.9219     0.0098     2.4849
  203.5000   104.8051     0.1167     0.3119     6.1671   110.2703     0.0159     2.4865
  204.0000   104.7999     0.1170     0.3174     6.1685   112.6727     0.0384     2.4834
  204.5000   105.0945     0.1215     0.3207     6.1700   113.1231     0.0444     2.4796
  205.0000   105.3891     0.1249     0.3232     6.1715   114.3243     0.0337     2.4750
  205.5000   105.7587     0.1270     0.3201     6.1729   116.7267     0.0276     2.4669
  206.0000   106.3532     0.1280     0.3160     6.1744   120.1842     0.0245     2.4661
  206.5000   107.0976     0.1271     0.3198     6.1759   117.2952     0.0414     2.4699
  207.0000   107.5421     0.1250     0.3230     6.1773   113.9399     0.0547     2.4691
  207.5000   107.9866     0.1280     0.3170     6.1788   109.4394     0.0539     2.4646
  208.0000   108.5811     0.1326     0.3140     6.1802   110.5966     0.0211     2.4593
  208.5000   109.0257     0.1353     0.3215     6.1651   117.3273    -0.0106     2.4525
  209.0000   109.4702     0.1378     0.3240     6.1649   118.2282    -0.0092     2.4473
  209.5000   109.8398     0.1393     0.3095     6.1648   115.8258     0.0013     2.4435
  210.0000   110.1344     0.1405     0.3020     6.1646   114.7748     0.0087     2.4427
  210.5000   110.4290     0.1391     0.3096     6.1645   114.9249     0.0147     2.4465
  211.0000   110.8736     0.1397     0.3120     6.1793   115.5255     0.0191     2.4458
  211.5000   111.3931     0.1445     0.3129     6.1942   116.1261     0.0175     2.4428
  212.0000   112.1375     0.1491     0.3151     6.1940   117.0270     0.0174     2.4315
  212.5000   114.0063     0.1546     0.3314     6.1789   118.8288     0.0143     2.4148
  213.0000   116.3999     0.1655     0.3447     6.1638   120.6306     0.0022     2.3960
  213.5000   118.5686     0.1809     0.3537     6.1636   121.6817    -0.0009     2.3725
  214.0000   119.6141     0.1964     0.3619     6.1635   120.4805    -0.0056     2.3488
  214.5000   116.7590     0.1985     0.3649     6.1783   115.3754    -0.0102     2.3524
  215.0000   113.1556     0.1703     0.3520     6.1781   112.6727    -0.0102     2.3895
  215.5000   110.0019     0.1488     0.3291     6.1780   111.7718    -0.0088     2.4202
  216.0000   107.2231     0.1381     0.3089     6.1778   111.1532     0.0046     2.4489
  216.5000   106.9930     0.1324     0.2978     6.1777   111.3774     0.0362     2.4564
  217.0000   107.3625     0.1327     0.2957     6.1776   114.5885     0.0436     2.4549
  217.5000   107.7321     0.1337     0.3081     6.1774   120.9309     0.0465     2.4549
  218.0000   108.1767     0.1343     0.3150     6.1922   123.3333     0.0480     2.4550
  218.5000   107.8716     0.1337     0.3202     6.1771   122.1321     0.0298     2.4550
  219.0000   107.1917     0.1325     0.3184     6.1919   120.4805     0.0101     2.4580
  219.5000   106.3619     0.1292     0.3160     6.1917   120.3303    -0.0065     2.4671
  220.0000   105.9069     0.1235     0.3157     6.1916   121.5315    -0.0006     2.4761
  220.5000   105.7517     0.1199     0.3164     6.1914   121.8318     0.0131     2.4829
  221.0000   105.7465     0.1175     0.3186     6.1913   118.0781     0.0250     2.4845
  221.5000   105.7413     0.1193     0.3219     6.1912   116.1261     0.0308     2.4777
  222.0000   105.7360     0.1215     0.3208     6.1910   115.5255     0.0292     2.4747
  222.5000   106.1056     0.1224     0.3168     6.1909   117.7778     0.0306     2.4777
  223.0000   106.6251     0.1200     0.3171     6.1907   119.7297     0.0395     2.4800
  223.5000   106.8448     0.1194     0.3138     6.1906   121.9820     0.0635     2.4800
  224.0000   106.3148     0.1198     0.3102     6.1904   122.7487     0.0770     2.4824
  224.5000   105.7099     0.1159     0.3090     6.1903   120.0300     0.0784     2.4925
  225.0000   105.4798     0.1014     0.3087     6.1901   116.7267     0.0346     2.5186
  225.5000   105.7004     0.0869     0.3103     6.1900   116.1261     0.0029     2.5434
  226.0000   106.8286     0.0820     0.3145     6.1898   119.3273    -0.0002     2.5299
  226.5000   108.0187     0.0996     0.3170     6.1921   119.7297    -0.0018     2.4928
  227.0000   108.4573     0.1235     0.3173     6.2045   116.8769    -0.0079     2.4732
  227.5000   107.7724     0.1296     0.3149     6.2043   116.4264    -0.0140     2.4634
  228.0000   107.3103     0.1253     0.3098     6.2042   118.3784     0.0145     2.4732
  228.5000   107.0172     0.1245     0.3056     6.2040   121.5315     0.0069     2.4672
  229.0000   107.0040     0.1318     0.3026     6.2039   122.5826    -0.0083     2.4551
  229.5000   106.9318     0.1379     0.3008     6.2037   120.3303    -0.0159     2.4483
  230.0000   106.9565     0.1349     0.3054     6.2036   114.3243     0.0081     2.4544
  230.5000   108.6695     0.1307     0.3081     6.2034   113.4234     0.0291     2.4619
  231.0000   111.6717     0.1289     0.3021     6.2033   115.5255     0.0456     2.4635
  231.5000   115.5965     0.1452     0.3097     6.2031   118.8288     0.0576     2.4514
  232.0000   117.7561     0.1598     0.3272     6.2180   120.4805     0.0635     2.4333
  232.5000   117.3940     0.1634     0.3393     6.2178   121.2312     0.0468     2.4031
  233.0000   113.4907     0.1595     0.3384     6.2476   122.2823     0.0272     2.4053
  233.5000   110.7868     0.1495     0.3327     6.2475   123.3333    -0.0015     2.4205
  234.0000   110.1069     0.1408     0.3237     6.2473   123.0330    -0.0061     2.4373
  234.5000   110.7014     0.1354     0.3128     6.2472   121.6777     0.0344     2.4495
  235.0000   112.1954     0.1421     0.3249     6.2470   120.3303     0.0343     2.4575
