~VERSION INFORMATION
 VERS.                2.0:   CWLS LOG ASCII STANDARD - VERSION 2.0
 WRAP.                 NO:   ONE LINE PER DEPTH STEP
~WELL INFORMATION
#MNEM.UNIT      DATA TYPE    INFORMATION
#----------   ------------   ------------------------------
 STRT.F            4.0000:   START DEPTH
 STOP.F          572.0000:   STOP DEPTH
 STEP.F            0.5000:   STEP LENGTH
 NULL.          -999.2500:   NO VALUE
 COMP. FENIX & SCISSON INC:   COMPANY
 WELL.       NPR#3 #33-10:   WELL
 FLD .             TEAPOT:   FIELD
 LOC .      S10 T38N R78W:   LOCATION
 CNTY.            NATRONA:   COUNTY
 STAT.            WYOMING:   STATE
 CTRY. UNITED STATES OF AMERICA:   COUNTRY
 SRVC.              Welex:   SERVICE COMPANY
 DATE.        05-MAY-1980:   LOGDATE
 API .       490251080800:   API NUMBER
~CURVE INFORMATION
#MNEM.UNIT       API CODE    CURVE DESCRIPTION
#----------   ------------   ------------------------------
 DEPT.F                  :   
 SGRD.OHMM   07 220 05 00:   SHALLOW GUARD RESISTIVITY
 ILD .OHMM   07 120 46 00:   INDUCTION LOG DEEP RESISTIVITY
 ILM .OHMM   07 120 44 00:   INDUCTION LOG MEDIUM
 SPR .MV     07 010 01 00:   SPONTANEOUS POTENTIAL
 CALD.IN     45 280 60 00:   CALIPER
 GRD .GAPI   45 310 01 00:   GAMMA RAY FROM DENSITY LOG
 RHOB.G/C3   45 350 01 00:   BULK DENSITY
 CORR.G/C3   45 356 01 00:   DENSITY CORRECTION
 DPHI.DEC    45 890 12 00:   DENSITY POROSITY SANDSTONE
~PARAMETER INFORMATION
#MNEM.UNIT          VALUE    DESCRIPTION
#----------   ------------   ------------------------------
 PD  .                 GL:   PERMANENT DATUM
 EPD .F              5228:   ELEVATION PERMANENT DATUM
 LMF .                 KB:   LOG MEASURED FROM
 DAPD.F                 5:   FEET ABOVE PERMANENT DATUM
 DMF .                 KB:   DRILLING MEASURED FROM
 EKB .F              5233:   KELLING BUSHING
 EGL .F              5228:   GROUND LEVEL
 DATE.             5-5-80:   RUN DATE
 RUN .                  1:   RUN NUMBER
 DD  .F               572:   DEPTH DRILLER
 DL  .F               572:   DEPTH LOGGER
 BLI .F               570:   BOTTOM LOG INTERVAL
 TLI .F                30:   TOP LOG INTERVAL
 BS  .IN            7.875:   BIT SIZE
 BSD .F               572:   BIT SIZE AT DEPTH
 DFT .            KCL MUD:   DRILLING FLUID TYPE
 DFD .                8.9:   DRILLING FLUID DENSITY
 DFV .                 36:   DRILLING FLUID VISCOSITY
 DFL .               12.6:   DRILLING FLUID LOSS
 MSS .           FLOWLINE:   MUD SAMPLE SOURCE
 RMS .OHMM           1.08:   RESISTIVITY MUD SAMPLE
 MST .F                60:   MUD SAMPLE TEMPERATURE
 RMF .OHMM            .86:   RESISTIVITY MUD FILTRATE SAMPLE
 MFST.F                60:   MUD FILTRATE SAMPLE TEMPERATURE
 RMC .OHMM           1.29:   RESISTIVITY MUD CAKE
 MCST.F                60:   MUD CAKE SAMPLE TEMPERATURE
 MFSS.           MEASURED:   MUD FILTRATE SAMPLE SOURCE
 MCSS.           MEASURED:   MUD CAKE SAMPLE SOURCE
 TCS .HRS               2:   TIME CURCULATED STOPPED
 MRT .F               100:   MAXIMUM RECORDED TEMPERATURE
 LUN .               1892:   LOGGING UNIT NUMBER
 LUL .             CASPER:   LOGGING UNIT LOCATION
 ENGI.               REIN:   RECORDING ENGINEER
 WITN.              AMEND:   WITNESSED BY
 CLNT.            A2DTECH:   CLIENT CODE
 ORIG.           5" PRINT:   ORIGIN OF DATA
 UWI .       490251080800:   UNIQUE WELL ID
 DICO. A2D Technologies, Inc.:   DIGITIZING COMPANY
~OTHER INFORMATION
~A    DEPT    SGRD        ILD        ILM        SPR       CALD         GRD        RHOB       CORR     DPHI   
# ...
   40.5000     6.6766     4.3732     4.7469   -29.0153     7.9397    92.2118     2.5289     0.0405     0.0952
   41.0000     7.1217     4.3955     4.7469   -29.1541     7.9312    93.4313     2.5114     0.0370     0.0976
   41.5000     6.9274     4.4092     4.7469   -28.6875     7.9266    93.7884     2.5291     0.0205     0.0996
   42.0000     7.2542     4.4093     4.7468   -28.2492     7.9391    94.4577     2.5219     0.0049     0.0990
   42.5000     6.8638     4.4093     4.7467   -28.5279     7.9562    94.6597     2.5126    -0.0023     0.1008
   43.0000     7.0563     4.4431     4.7526   -28.7854     7.9735    93.0607     2.5033    -0.0067     0.1040
   43.5000     6.9274     4.5367     4.7601   -27.5345     7.9909    91.2440     2.4976    -0.0104     0.1068
   44.0000     7.2369     4.6323     4.7677   -26.2479     8.0082    91.1775     2.5145    -0.0060     0.1045
   44.5000     7.3892     4.7300     4.7752   -25.1075     8.0255    92.0498     2.5283    -0.0010     0.1000
   45.0000     7.1211     4.8347     4.7829   -25.8291     8.0428    92.6462     2.5357     0.0040     0.0955
   45.5000     6.9274     4.9226     4.7908   -25.3982     8.0604    92.4321     2.5432     0.0090     0.0909
   46.0000     6.9274     5.0163     4.7592   -24.7059     8.0589    92.2927     2.5524     0.0143     0.0864
   46.5000     7.5029     5.1120     4.7256   -25.8833     8.0350    92.2772     2.5393     0.0091     0.0832
   47.0000     7.8095     5.2095     4.7033   -26.9062     8.0118    91.8720     2.5199    -0.0002     0.1056
   47.5000     7.8095     5.3089     4.7887   -25.7818     7.9885    91.4531     2.5004    -0.0017     0.1040
   48.0000     8.0492     5.4102     4.8541   -23.9753     7.9652    90.2644     2.5261     0.0139     0.1016
   48.5000     8.1805     5.5135     4.9203   -22.6145     7.9420    89.1400     2.5170     0.0270     0.1057
   49.0000     7.8115     5.6187     4.9874   -23.1891     7.9188    88.3574     2.5036     0.0179     0.1028
   49.5000     8.1565     5.7256     5.0555   -22.7697     7.9070    89.8214     2.5091     0.0190     0.1072
   50.0000     8.7242     5.8351     5.1244   -22.5364     7.9176    90.6621     2.5190     0.0429     0.1099
   50.5000     8.7253     5.8681     5.1944   -24.0813     7.9322    91.4176     2.5266     0.0609     0.0969
   51.0000     8.1738     5.8353     5.2652   -24.3798     7.9470    91.5619     2.5191     0.0648     0.0986
   51.5000     8.2941     5.7993     5.3371   -23.7905     7.9619    91.6283     2.5090     0.0669     0.1022
   52.0000     8.3301     5.7609     5.4008   -23.1829     7.9767    91.6927     2.4984     0.0534     0.1058
   52.5000     7.9186     5.6734     5.5277   -22.6384     7.9914    91.7578     2.4931     0.0401     0.1128
   53.0000     7.3892     5.5551     5.6683   -22.6875     8.0062    91.8212     2.5068     0.0456     0.1073
   53.5000     7.4576     5.4702     5.8125   -22.9663     8.0215    91.8929     2.5232     0.0525     0.0988
   54.0000     7.1217     5.4128     5.9604   -23.1929     8.0256    92.5990     2.5171     0.0558     0.1008
   54.5000     7.5332     5.3561     6.0885   -22.5245     8.0257    93.3803     2.5062     0.0491     0.1036
   55.0000     7.1826     5.3000     6.0954   -21.5106     8.0257    93.1486     2.5015     0.0428     0.1040
   55.5000     7.3167     5.2535     6.1045   -21.2495     8.0257    92.7740     2.5132     0.0427     0.1023
   56.0000     7.1824     5.2557     6.1137   -22.5846     8.0257    92.3976     2.5193     0.0459     0.1030
   56.5000     7.5973     5.2685     6.1228   -23.9234     8.0257    91.9890     2.5001     0.0325     0.1093
   57.0000     7.3875     5.2814     6.1320   -25.0770     8.0257    92.8671     2.4993     0.0238     0.1104
   57.5000     7.9127     5.2941     6.1445   -24.7377     8.0257    94.2785     2.5085     0.0369     0.1079
   58.0000     8.2536     5.3247     6.1257   -23.8162     8.0257    94.6300     2.5013     0.0448     0.1212
   58.5000     7.5954     5.3824     6.0929   -22.9086     8.0257    93.7520     2.4885     0.0232     0.1186
   59.0000     7.3892     5.4397     6.0603   -22.0002     8.0257    92.9952     2.4976     0.0211     0.1134
   59.5000     8.1028     5.5013     6.0279   -21.0931     8.0257    92.9737     2.5066     0.0399     0.1082
   60.0000     7.7370     5.5013     5.9958   -20.1853     8.0257    93.5395     2.5154     0.0493     0.1030
   60.5000     7.3164     5.5752     5.9773   -19.1928     8.0257    94.1342     2.5243     0.0460     0.0984
   61.0000     7.5971     5.6664     6.0319   -18.8321     8.0257    94.5888     2.5331     0.0554     0.0944
   61.5000     7.9549     5.7591     6.0768   -18.7604     8.0257    92.2997     2.5419     0.0669     0.0904
   62.0000     7.6860     5.8534     6.1220   -18.6926     8.0257    89.8477     2.5507     0.0792     0.0864
   62.5000     7.5964     5.8933     6.1676   -18.1686     8.0259    89.1521     2.5556     0.0680     0.0841
   63.0000     8.3076     5.9324     6.2136   -16.8933     8.0190    89.4513     2.5500     0.0597     0.0826
   63.5000     8.4851     5.9773     6.2599   -15.7476     8.0113    90.9427     2.5531     0.0804     0.0818
   64.0000     7.9548     5.9356     6.3065   -17.0677     8.0035    92.4035     2.5610     0.1029     0.0830
   64.5000     8.4072     5.8734     6.3534   -18.4621     7.9957    93.8398     2.5527     0.0915     0.0848
   65.0000     8.0560     5.8118     6.4008   -19.6331     7.9879    95.0861     2.5406     0.0685     0.0867
   65.5000     7.9130     5.7509     6.4348   -19.2416     7.9801    94.7710     2.5441     0.0471     0.0891
   66.0000     7.8095     5.7080     6.3690   -15.9606     7.9724    94.4820     2.5471     0.0333     0.0919
   66.5000     7.3214     5.6244     6.2956   -15.0920     7.9663    94.0022     2.5276     0.0203     0.0992
   67.0000     7.8123     5.5488     6.2009   -15.9982     7.9700    92.7800     2.5086     0.0072     0.1084
   67.5000     7.4888     5.4743     6.2010   -16.9086     7.9734    91.5791     2.4899     0.0048     0.1175
   68.0000     7.1834     5.4007     6.3154   -19.6752     7.9769    90.3635     2.4714     0.0109     0.1276
   68.5000     7.1899     5.2975     6.4197   -22.3145     7.9804    90.6364     2.4873    -0.0072     0.1288
   69.0000     6.7350     5.2764     6.5546   -22.1967     7.9838    91.9296     2.5154    -0.0032     0.1137
   69.5000     6.7355     5.2527     6.4291   -22.8048     7.9873    93.2409     2.5436     0.0119     0.1000
   70.0000     7.3892     5.2296     6.2610   -22.3846     7.9907    94.5623     2.5572     0.0153     0.0874
   70.5000     7.2968     5.2053     6.0885   -21.9297     7.9942    95.6021     2.5509    -0.0007     0.0884
   71.0000     7.1217     5.2355     6.0047   -23.4321     7.9977    96.4953     2.5596     0.0066     0.0833
   71.5000     7.1217     5.2761     5.9773   -24.9161     8.0011    95.8174     2.5690     0.0170     0.0764
   72.0000     7.3410     5.3372     5.9225   -26.7755     8.0046    94.5319     2.5743     0.0096     0.0813
   72.5000     7.5359     5.4354     5.9883   -28.5869     8.0048    93.7996     2.5498    -0.0042     0.0910
   73.0000     7.7361     5.5353     6.0028   -30.3943     7.9991    95.0787     2.5305    -0.0186     0.1007
   73.5000     7.9415     5.6371     6.0173   -32.1990     7.9935    96.2536     2.5112    -0.0262     0.1104
   74.0000     8.0285     5.7407     6.0318   -33.8312     7.9878    95.2450     2.4849    -0.0317     0.1192
   74.5000     7.5964     5.8463     6.0463   -33.2634     7.9822    94.0010     2.4900    -0.0282     0.1192
   75.0000     7.9548     5.8862     6.0609   -32.4421     7.9766    92.7438     2.4995    -0.0130     0.1149
   75.5000     7.6668     5.9318     6.0755   -31.7854     7.9710    91.5275     2.5074     0.0019     0.1096
   76.0000     8.0285     5.9774     6.0902   -32.0093     7.9662    91.2921     2.4944     0.0042     0.1149
   76.5000     7.8095     6.0477     6.1049   -33.3201     7.9659    91.1244     2.4817    -0.0071     0.1225
