~VERSION INFORMATION
 VERS.                2.0:   CWLS LOG ASCII STANDARD - VERSION 2.0
 WRAP.                 NO:   ONE LINE PER DEPTH STEP
~WELL INFORMATION
#MNEM.UNIT      DATA TYPE    INFORMATION
#----------   ------------   ------------------------------
 STRT.F            0.0000:   START DEPTH
 STOP.F         2182.0000:   STOP DEPTH
 STEP.F            0.1000:   STEP LENGTH
 NULL.          -999.2500:   NO VALUE
 COMP.       FLUOR DANIEL:   COMPANY
 WELL.   75-1 X 29 #75-29:   WELL
 FLD .             TEAPOT:   FIELD
 LOC .      S29 T39N R78W:   LOCATION
 CNTY.            NATRONA:   COUNTY
 STAT.            WYOMING:   STATE
 CTRY. UNITED STATES OF AMERICA:   COUNTRY
 SRVC.      Western Atlas:   SERVICE COMPANY
 DATE.        10-MAY-1996:   LOGDATE
 API .       490252279100:   API NUMBER
~CURVE INFORMATION
#MNEM.UNIT       API CODE    CURVE DESCRIPTION
#----------   ------------   ------------------------------
 DEPT.F                  :   
 GRR .GAPI   07 310 01 00:   GAMMA RAY
 RFOC.OHMM   07 220 04 00:   RESISTIVITY FOCUSED LOG
 RILD.OHMM   07 120 46 00:   INDUCTION LOG DEEP RESISTIVITY
 RILM.OHMM   07 120 44 00:   INDUCTION LOG MEDIUM RESISTIVITY
~PARAMETER INFORMATION
#MNEM.UNIT          VALUE    DESCRIPTION
#----------   ------------   ------------------------------
 PD  .                 GL:   PERMANENT DATUM
 EPD .F              5031:   ELEVATION PERMANENT DATUM
 LMF .                 KB:   LOG MEASURED FROM
 DAPD.F                10:   FEET ABOVE PERMANENT DATUM
 DMF .                 KB:   DRILLING MEASURED FROM
 EKB .F              5041:   KELLING BUSHING
 EDF .F              5040:   DRILLING FLOOR
 EGL .F              5031:   GROUND LEVEL
 DATE.        10-MAY-1996:   RUN DATE
 RUN .                  1:   RUN NUMBER
 DD  .F              2188:   DEPTH DRILLER
 DL  .F              2184:   DEPTH LOGGER
 BLI .F              2182:   BOTTOM LOG INTERVAL
 TLI .F               400:   TOP LOG INTERVAL
 CS  .IN                7:   CASING SIZE
 CBD .F               400:   CASING BOTTOM DRILLER
 CBL .F               400:   CASING BOTTOM LOGGER
 BS  .IN             6.25:   BIT SIZE
 BSD .F              2188:   BIT SIZE AT DEPTH
 DFT .                AIR:   DRILLING FLUID TYPE
 MRT .F                97:   MAXIMUM RECORDED TEMPERATURE
 LUN .            HL-6530:   LOGGING UNIT NUMBER
 LUL .             CASPER:   LOGGING UNIT LOCATION
 ENGI.           BROWNLOW:   RECORDING ENGINEER
 WITN.             LEBEAU:   WITNESSED BY
 CLNT.            A2DTECH:   CLIENT CODE
 ORIG.           5" PRINT:   ORIGIN OF DATA
 UWI .       490252279100:   UNIQUE WELL ID
 DICO. A2D Technologies, Inc.:   DIGITIZING COMPANY
~OTHER INFORMATION
~A    DEPT      GRR      RFOC       RILD       RILM   
# ...
  978.2000   139.8879  -999.2500     8.9433     9.1908
  978.3000   139.6331  -999.2500     8.9137     9.1905
  978.4000   139.3784  -999.2500     8.9133     9.1901
  978.5000   139.1144  -999.2500     8.9130     9.1897
  978.6000   138.8687  -999.2500     8.9126     9.1893
  978.7000   138.6139  -999.2500     8.8659     9.1890
  978.8000   138.5084  -999.2500     8.8504     9.1596
  978.9000   138.4053  -999.2500     8.8230     9.1247
  979.0000   138.1505  -999.2500     8.7886     9.1243
  979.1000   137.8958  -999.2500     8.7802     9.1240
  979.2000   137.5998  -999.2500     8.7272     9.0605
  979.3000   137.5988  -999.2500     8.7268     9.0602
  979.4000   137.5976  -999.2500     8.6864     9.0598
  979.5000   137.5964  -999.2500     8.6659     9.0361
  979.6000   137.6652  -999.2500     8.6443     8.9965
  979.7000   137.9174  -999.2500     8.6053     8.9962
  979.8000   138.1951  -999.2500     8.6024     8.9957
  979.9000   138.4223  -999.2500     8.5452     8.9954
  980.0000   138.6747  -999.2500     8.5449     8.9578
  980.1000   139.0602  -999.2500     8.5105     8.9325
  980.2000   139.4807  -999.2500     8.4852     8.9322
  980.3000   139.7714  -999.2500     8.4692     8.9317
  980.4000   140.2963  -999.2500     8.4260     8.9314
  980.5000   140.7830  -999.2500     8.4256     8.8801
  980.6000   141.0928  -999.2500     8.3786     8.8690
  980.7000   141.3453  -999.2500     8.3667     8.8369
  980.8000   141.6990  -999.2500     8.3664     8.8070
  980.9000   142.1513  -999.2500     8.3468     8.7940
  981.0000   142.4096  -999.2500     8.3080     8.7455
  981.1000   142.9986  -999.2500     8.3077     8.7450
  981.2000   143.2097  -999.2500     8.3073     8.7447
  981.3000   143.4621  -999.2500     8.2661     8.7088
  981.4000   143.7144  -999.2500     8.2493     8.6836
  981.5000   144.0359  -999.2500     8.2489     8.6665
  981.6000   144.5420  -999.2500     8.2345     8.6155
  981.7000   145.0999  -999.2500     8.1914     8.5630
  981.8000   145.5543  -999.2500     8.1910     8.5627
  981.9000   146.2400  -999.2500     8.1907     8.5232
  982.0000   146.8672  -999.2500     8.1549     8.5028
  982.1000   147.3734  -999.2500     8.1334     8.4818
  982.2000   147.8794  -999.2500     8.1153     8.4434
  982.3000   148.4060  -999.2500     8.0766     8.4406
  982.4000   148.8916  -999.2500     8.0763     8.3843
  982.5000   149.2017  -999.2500     8.0759     8.3415
  982.6000   149.7506  -999.2500     8.0756     8.2925
  982.7000   150.6111  -999.2500     8.0453     8.2679
  982.8000   151.5180  -999.2500     8.0192     8.2522
  982.9000   152.0188  -999.2500     8.0063     8.2102
  983.0000   152.3130  -999.2500     7.9633     8.2098
  983.1000   152.3120  -999.2500     7.9629     8.1638
  983.2000   152.3108  -999.2500     7.9206     8.1524
  983.3000   152.4258  -999.2500     7.9073     8.1242
  983.4000   152.6783  -999.2500     7.8823     8.0955
  983.5000   152.9097  -999.2500     7.8360     8.0847
  983.6000   152.9083  -999.2500     7.7975     8.0389
  983.7000   153.3615  -999.2500     7.7972     8.0385
  983.8000   153.8674  -999.2500     7.7523     8.0382
  983.9000   154.2416  -999.2500     7.7428     8.0379
  984.0000   154.5785  -999.2500     7.7147     8.0146
  984.1000   155.0476  -999.2500     7.6694     7.9817
  984.2000   155.3108  -999.2500     7.6243     7.9814
  984.3000   155.7949  -999.2500     7.5824     7.9810
  984.4000   156.1060  -999.2500     7.5820     7.9369
  984.5000   156.2108  -999.2500     7.5428     7.9252
  984.6000   156.2096  -999.2500     7.4985     7.9249
  984.7000   156.2085  -999.2500     7.4768     7.9065
  984.8000   156.2073  -999.2500     7.4622     7.8695
  984.9000   156.2058  -999.2500     7.4246     7.8692
  985.0000   156.2048  -999.2500     7.4243     7.8688
  985.1000   156.2036  -999.2500     7.3824     7.8299
  985.2000   156.0867  -999.2500     7.3724     7.8139
  985.3000   155.9000  -999.2500     7.3467     7.8135
  985.4000   155.8381  -999.2500     7.3210     7.8132
  985.5000   154.9939  -999.2500     7.3110     7.8130
  985.6000   154.5400  -999.2500     7.2698     7.8126
  985.7000   154.0315  -999.2500     7.2695     7.8123
  985.8000   153.5230  -999.2500     7.2329     7.8119
  985.9000   153.0146  -999.2500     7.2187     7.8116
  986.0000   152.4340  -999.2500     7.2184     7.8113
  986.1000   151.3722  -999.2500     7.2181     7.8109
  986.2000   150.6449  -999.2500     7.2179     7.8106
  986.3000   149.8823  -999.2500     7.2175     7.8103
  986.4000   148.8261  -999.2500     7.1778     7.8100
  986.5000   147.7561  -999.2500     7.1671     7.7802
  986.6000   146.9942  -999.2500     7.1669     7.7554
  986.7000   146.2446  -999.2500     7.1666     7.7551
  986.8000   146.2432  -999.2500     7.1662     7.7548
  986.9000   146.2422  -999.2500     7.1660     7.7544
  987.0000   146.2409  -999.2500     7.1656     7.7541
  987.1000   146.2398  -999.2500     7.1653     7.7538
  987.2000   146.2386  -999.2500     7.1650     7.7535
  987.3000   146.2373  -999.2500     7.1647     7.7532
  987.4000   146.2360  -999.2500     7.1644     7.7528
  987.5000   146.2350  -999.2500     7.1642     7.7525
  987.6000   146.2338  -999.2500     7.1638     7.7521
  987.7000   146.2325  -999.2500     7.1636     7.7518
  987.8000   146.1483  -999.2500     7.1633     7.7515
  987.9000   145.8934  -999.2500     7.1630     7.7512
  988.0000   145.6264  -999.2500     7.1627     7.7509
  988.1000   145.1419  -999.2500     7.1624     7.7506
  988.2000   144.4392  -999.2500     7.1621     7.7502
  988.3000   143.3846  -999.2500     7.1617     7.7499
  988.4000   142.1160  -999.2500     7.1615     7.7496
  988.5000   141.0000  -999.2500     7.1612     7.7493
  988.6000   140.4988  -999.2500     7.1609     7.7651
  988.7000   140.7986  -999.2500     7.1715     7.8026
  988.8000   141.4266  -999.2500     7.2101     7.8022
  988.9000   142.1860  -999.2500     7.2097     7.8018
  989.0000   142.9458  -999.2500     7.2095     7.8015
  989.1000   143.7056  -999.2500     7.2391     7.8012
  989.2000   144.4073  -999.2500     7.2589     7.8009
  989.3000   144.4059  -999.2500     7.2586     7.8006
  989.4000   144.4048  -999.2500     7.2651     7.8003
  989.5000   144.4036  -999.2500     7.3085     7.7999
  989.6000   144.2723  -999.2500     7.3082     7.7996
  989.7000   144.1000  -999.2500     7.3416     7.7993
  989.8000   144.0988  -999.2500     7.3583     7.7989
  989.9000   144.0975  -999.2500     7.3581     7.7986
  990.0000   144.0964  -999.2500     7.3577     7.7983
  990.1000   144.0952  -999.2500     7.3574     7.7980
  990.2000   144.0940  -999.2500     7.3571     7.7977
  990.3000   143.9945  -999.2500     7.3568     7.7973
  990.4000   143.7397  -999.2500     7.3565     7.7970
  990.5000   143.4849  -999.2500     7.3562     7.7967
  990.6000   143.1853  -999.2500     7.3559     7.7963
  990.7000   142.9754  -999.2500     7.3556     7.7961
  990.8000   142.5592  -999.2500     7.3553     7.7957
  990.9000   142.0506  -999.2500     7.3550     7.7954
  991.0000   141.4761  -999.2500     7.3547     7.7951
  991.1000   140.6775  -999.2500     7.3544     7.7947
  991.2000   139.2625  -999.2500     7.3541     7.7944
  991.3000   138.1384  -999.2500     7.3537     7.7941
  991.4000   137.4000  -999.2500     7.3535     7.7938
  991.5000   136.8915  -999.2500     7.3531     7.7935
  991.6000   136.4651  -999.2500     7.3528     7.7931
  991.7000   136.2448  -999.2500     7.3525     7.7928
  991.8000   136.8457  -999.2500     7.3522     7.7925
  991.9000   137.5656  -999.2500     7.3519     7.7921
  992.0000   138.3251  -999.2500     7.3517     7.7918
  992.1000   139.0849  -999.2500     7.3513     7.7915
  992.2000   139.6495  -999.2500     7.3510     7.7912
  992.3000   139.9520  -999.2500     7.3507     7.7909
  992.4000   140.4556  -999.2500     7.3504     7.7905
  992.5000   140.7528  -999.2500     7.3501     7.7902
  992.6000   141.1686  -999.2500     7.3498     7.7899
  992.7000   141.6748  -999.2500     7.3495     7.7895
