~VERSION INFORMATION
 VERS.                2.0:   CWLS LOG ASCII STANDARD - VERSION 2.0
 WRAP.                 NO:   ONE LINE PER DEPTH STEP
~WELL INFORMATION
#MNEM.UNIT      DATA TYPE    INFORMATION
#----------   ------------   ------------------------------
 STRT.F           30.0000:   START DEPTH
 STOP.F          770.5000:   STOP DEPTH
 STEP.F            0.5000:   STEP LENGTH
 NULL.          -999.2500:   NO VALUE
 COMP. FENIX & SCISSON INC:   COMPANY
 WELL. TEAPOT DOME 63 SX 34 #63-34:   WELL
 FLD .             TEAPOT:   FIELD
 LOC .      S34 T39N R78W:   LOCATION
 CNTY.            NATRONA:   COUNTY
 STAT.            WYOMING:   STATE
 CTRY. UNITED STATES OF AMERICA:   COUNTRY
 SRVC.           BIRDWELL:   SERVICE COMPANY
 DATE.        18-AUG-1978:   LOGDATE
 API .       490251070300:   API NUMBER
~CURVE INFORMATION
#MNEM.UNIT       API CODE    CURVE DESCRIPTION
#----------   ------------   ------------------------------
 DEPT.F                  :   
 SPR .MV     05 010 01 00:   SPONTANEOUS POTENTIAL
 SN  .OHMM   05 040 16 00:   SHORT NORMAL 16'
 ILD .OHMM   05 120 46 00:   INDUCTION LOG DEEP RESISTIVITY
 CALD.IN     45 280 60 00:   CALIPER
 GRD .GAPI   45 310 01 00:   GAMMA RAY FROM DENSITY LOG
 RHOB.G/C3   45 350 01 00:   BULK DENSITY
 DPHI.DEC    45 890 12 00:   DENSITY POROSITY SANDSTONE
 CORR.G/C3   45 356 01 00:   DENSITY CORRECTION
~PARAMETER INFORMATION
#MNEM.UNIT          VALUE    DESCRIPTION
#----------   ------------   ------------------------------
 PD  .                 GL:   PERMANENT DATUM
 EPD .F              5063:   ELEVATION PERMANENT DATUM
 LMF .                 KB:   LOG MEASURED FROM
 DAPD.F                 4:   FEET ABOVE PERMANENT DATUM
 DMF .                 KB:   DRILLING MEASURED FROM
 EKB .F              5067:   KELLING BUSHING
 EGL .F              5063:   GROUND LEVEL
 DATE.          8-18-1978:   RUN DATE
 RUN .                  1:   RUN NUMBER
 DD  .F               760:   DEPTH DRILLER
 DL  .F               770:   DEPTH LOGGER
 BLI .F               763:   BOTTOM LOG INTERVAL
 TLI .F                40:   TOP LOG INTERVAL
 CS  .IN            8.625:   CASING SIZE
 CBD .F                40:   CASING BOTTOM DRILLER
 CBL .F                40:   CASING BOTTOM LOGGER
 BS  .IN            7.875:   BIT SIZE
 BSD .F               760:   BIT SIZE AT DEPTH
 DFT .            MUD KCL:   DRILLING FLUID TYPE
 DFL .               10.6:   DRILLING FLUID LOSS
 MSS .          FLOW LINE:   MUD SAMPLE SOURCE
 RMS .OHMM             .2:   RESISTIVITY MUD SAMPLE
 MST .F                56:   MUD SAMPLE TEMPERATURE
 RMF .OHMM             .2:   RESISTIVITY MUD FILTRATE SAMPLE
 MFST.F                64:   MUD FILTRATE SAMPLE TEMPERATURE
 RMC .OHMM            .36:   RESISTIVITY MUD CAKE
 MCST.F                64:   MUD CAKE SAMPLE TEMPERATURE
 MFSS.               MEAS:   MUD FILTRATE SAMPLE SOURCE
 MCSS.               MEAS:   MUD CAKE SAMPLE SOURCE
 TCS .HRS               3:   TIME CURCULATED STOPPED
 MRT .F                72:   MAXIMUM RECORDED TEMPERATURE
 LUN .               3006:   LOGGING UNIT NUMBER
 LUL .               CASP:   LOGGING UNIT LOCATION
 ENGI.           REYNOLDS:   RECORDING ENGINEER
 WITN.              AMEND:   WITNESSED BY
 CLNT.            A2DTECH:   CLIENT CODE
 ORIG.           5" PRINT:   ORIGIN OF DATA
 UWI .       490251070300:   UNIQUE WELL ID
 DICO. A2D Technologies, Inc.:   DIGITIZING COMPANY
~OTHER INFORMATION
~A   DEPT      SPR         SN        ILD       CALD         GRD      RHOB       DPHI       CORR   
# ...
   70.5000   -83.4629     4.2120     3.3333     7.5056    78.7985     2.3243     0.2065     0.0708
   71.0000   -83.4875     4.2111     3.3017     7.3304    79.2507     2.3268     0.1989     0.0913
   71.5000   -83.5122     4.2115     3.2705     7.1863    79.7107     2.3387     0.1916     0.0897
   72.0000   -83.5368     4.2116     3.2396     7.1680    79.8700     2.3510     0.2042     0.0745
   72.5000   -83.5614     4.0706     3.2264     7.1705    78.2065     2.3262     0.2167     0.0596
   73.0000   -83.5861     3.9523     3.1424     7.1679    76.2934     2.2982     0.2293     0.0559
   73.5000   -83.6107     3.8374     2.9884     7.0902    76.0970     2.2739     0.2399     0.0599
   74.0000   -83.6355     3.7371     2.8414     7.0071    77.6710     2.2653     0.2443     0.0655
   74.5000   -83.6623     3.6436     2.7018     6.9243    78.2815     2.2827     0.2324     0.0558
   75.0000   -83.6076     3.5525     2.6332     6.8417    77.3084     2.2895     0.2279     0.0477
   75.5000   -83.5235     3.4636     2.6296     6.7590    76.2094     2.2926     0.2224     0.0456
   76.0000   -83.4388     3.3770     2.6260     6.6730    75.1062     2.2986     0.2330     0.0405
   76.5000   -83.3542     3.2925     2.6223     6.6505    74.0048     2.2708     0.2484     0.0295
   77.0000   -83.2696     3.2102     2.6187     6.7726    72.9137     2.2435     0.2638     0.0266
   77.5000   -83.1850     3.1605     2.6151     6.8788    71.8943     2.2167     0.2792     0.0404
   78.0000   -83.1004     3.1468     2.6108     6.9438    73.1001     2.1962     0.2849     0.0498
   78.5000   -83.0159     3.1332     2.6113     7.0094    76.1449     2.1951     0.2890     0.0562
   79.0000   -82.9313     3.1196     2.5983     7.0754    78.1211     2.1924     0.2876     0.0625
   79.5000   -82.8467     3.1092     2.5786     7.2426    76.7739     2.1900     0.2946     0.0777
   80.0000   -82.7643     2.9764     2.5591     7.4619    74.7287     2.1825     0.2925     0.1026
   80.5000   -82.6934     2.8527     2.5399     7.3224    73.5725     2.1853     0.2905     0.1270
   81.0000   -82.0665     2.7341     2.3519     7.1964    75.7515     2.1897     0.2886     0.1514
   81.5000   -81.3658     2.6204     2.1798     7.0729    77.2812     2.1928     0.2796     0.1756
   82.0000   -81.2344     2.5118     2.0203     6.9506    77.2579     2.2168     0.2709     0.2119
   82.5000   -81.2017     2.4250     1.9278     6.9213    76.9185     2.2692     0.2460     0.1877
   83.0000   -81.1707     2.4251     2.0025     7.4462    75.1291     2.3863     0.2120     0.1295
   83.5000   -81.1386     2.4258     2.0680     6.6724    72.6010     2.3720     0.1859     0.0719
   84.0000   -81.1067     2.4258     2.1356     6.7013    71.8697     2.3441     0.2015     0.0368
   84.5000   -81.0729     2.4258     2.2025     6.7213    73.2114     2.3164     0.2167     0.0344
   85.0000   -81.1461     2.5043     2.2584     6.7280    75.0066     2.2985     0.2231     0.0352
   85.5000   -81.2779     2.6752     2.3182     6.7800    76.8047     2.3003     0.2216     0.0354
   86.0000   -81.4110     2.8578     2.5043     6.8713    78.6383     2.3080     0.2128     0.0326
   86.5000   -81.5442     3.0529     2.7042     6.9629    79.6738     2.3114     0.2158     0.0302
   87.0000   -81.6771     3.2613     2.9201     7.0550    79.6692     2.3079     0.2180     0.0368
   87.5000   -81.8111     3.4839     3.0807     7.1465    79.5173     2.3045     0.2192     0.0437
   88.0000   -81.8635     3.6018     3.0296     7.2305    79.3763     2.3006     0.2222     0.0503
   88.5000   -81.8064     3.5210     2.9839     7.2955    79.5253     2.2869     0.2314     0.0562
   89.0000   -81.7113     3.4598     2.9389     7.3095    79.9672     2.2728     0.2406     0.0658
   89.5000   -81.6155     3.3996     2.8946     7.3102    80.1340     2.2587     0.2499     0.0912
   90.0000   -81.5198     3.3405     2.8508     7.2903    79.3985     2.2493     0.2527     0.1169
   90.5000   -81.4240     3.2855     2.8110     7.1746    78.6839     2.2573     0.2467     0.1427
   91.0000   -81.3284     3.2373     2.7471     7.0625    78.3586     2.2678     0.2406     0.1683
   91.5000   -81.2327     3.1816     2.6752     6.9509    80.0165     2.2732     0.2346     0.1924
   92.0000   -81.1370     3.1268     2.5950     6.8391    81.6855     2.2843     0.2267     0.1935
   92.5000   -81.0413     3.0729     2.4277     6.7287    83.2769     2.3061     0.2173     0.1666
   93.0000   -80.9456     3.0200     2.2705     6.7091    83.9554     2.2758     0.2413     0.1299
   93.5000   -80.8499     2.9680     2.1928     6.7897    83.1535     2.2888     0.2315     0.0930
   94.0000   -80.7542     2.9169     2.2467     6.9199    80.5712     2.3146     0.2037     0.0562
   94.5000   -80.6583     2.8667     2.3421     7.0508    77.9538     2.3406     0.1792     0.0336
   95.0000   -80.5614     2.8102     2.4407     7.1812    76.1255     2.3674     0.1769     0.0475
   95.5000   -80.4668     2.8324     2.5436     7.2519    75.8223     2.3744     0.1752     0.0607
   96.0000   -80.5635     2.8714     2.6627     7.2503    75.5585     2.3760     0.1752     0.0738
   96.5000   -80.6752     2.9605     2.8362     7.2497    75.5038     2.3774     0.1752     0.0963
   97.0000   -80.7865     3.1701     3.0210     7.2168    75.9059     2.3804     0.1655     0.1271
   97.5000   -80.8973     3.4004     3.3114     7.1194    76.6288     2.3855     0.1522     0.1578
   98.0000   -81.0082     3.6595     3.7177     7.0233    77.2742     2.4195     0.1362     0.1886
   98.5000   -81.1191     3.9385     4.2110     6.9271    76.7717     2.4562     0.1178     0.2055
   99.0000   -81.2301     4.2386     4.1640     6.8307    74.3603     2.4928     0.0904     0.1876
   99.5000   -81.3403     4.4261     4.1136     6.7350    71.9060     2.5179     0.1045     0.1363
  100.0000   -81.4443     4.5662     4.0590     6.6394    70.9031     2.4758     0.1324     0.0893
  100.5000   -81.6951     4.7108     4.1238     6.5866    74.0945     2.4375     0.1603     0.0519
  101.0000   -81.9535     4.8599     4.2206     6.5713    77.1290     2.3992     0.1663     0.0363
  101.5000   -82.2127     5.0138     4.3188     6.5698    77.4358     2.3896     0.1696     0.0351
  102.0000   -82.4713     5.2015     4.4192     6.5925    75.0997     2.3833     0.1721     0.0369
  102.5000   -82.7302     5.4092     4.5219     6.6036    73.6512     2.3883     0.1666     0.0388
  103.0000   -82.9996     5.6252     4.6270     6.6332    73.7446     2.3950     0.1622     0.0407
  103.5000   -83.0993     5.8497     4.7346     6.7151    75.0193     2.3994     0.1579     0.0425
  104.0000   -83.1478     6.0857     4.8446     6.7979    76.2737     2.4075     0.1536     0.0443
  104.5000   -83.1949     6.2553     4.9573     6.8798    77.1055     2.4154     0.1513     0.0461
  105.0000   -83.2440     6.2513     5.0623     6.9616    77.8108     2.4184     0.1505     0.0480
  105.5000   -83.3376     6.2525     5.0728     7.0435    79.8564     2.4198     0.1478     0.0538
  106.0000   -83.4817     6.2523     5.0842     7.1254    82.6223     2.4246     0.1428     0.0656
  106.5000   -83.6244     6.2523     5.0954     7.2077    84.7441     2.4308     0.1378     0.0801
  107.0000   -83.7675     6.2523     5.1076     7.2880    83.0000     2.4358     0.1329     0.1001
  107.5000   -83.9107     6.2523     5.1015     7.2923    80.6652     2.4410     0.1289     0.1200
  108.0000   -84.0538     6.2523     5.0946     7.2561    81.4177     2.4521     0.1281     0.1398
  108.5000   -84.1970     6.2523     5.0879     7.2128    82.2036     2.4536     0.1277     0.1596
  109.0000   -84.3401     6.2523     5.0811     7.1050    79.0120     2.4539     0.1269     0.1796
  109.5000   -84.4833     6.2523     5.0743     6.9968    75.5237     2.4552     0.1193     0.1997
  110.0000   -84.6264     6.2523     5.0676     6.8891    74.5529     2.4602     0.1096     0.2054
  110.5000   -84.7695     6.2523     5.0609     6.7814    78.9327     2.4810     0.0958     0.1913
