~VERSION INFORMATION
 VERS.                2.0:   CWLS LOG ASCII STANDARD - VERSION 2.0
 WRAP.                 NO:   ONE LINE PER DEPTH STEP
~WELL INFORMATION
#MNEM.UNIT      DATA TYPE    INFORMATION
#----------   ------------   ------------------------------
 STRT.F           64.0000:   START DEPTH
 STOP.F          532.0000:   STOP DEPTH
 STEP.F            0.5000:   STEP LENGTH
 NULL.          -999.2500:   NO VALUE
 COMP.       F D SERV INC:   COMPANY
 WELL.  81-3 SX 10 #81-10:   WELL
 FLD .             TEAPOT:   FIELD
 LOC .      S10 T38N R78W:   LOCATION
 CNTY.            NATRONA:   COUNTY
 STAT.            WYOMING:   STATE
 CTRY. UNITED STATES OF AMERICA:   COUNTRY
 SRVC.     Atlas Wireline:   SERVICE COMPANY
 DATE.        29-JAN-1993:   LOGDATE
 API .       490252258400:   API NUMBER
~CURVE INFORMATION
#MNEM.UNIT       API CODE    CURVE DESCRIPTION
#----------   ------------   ------------------------------
 DEPT.F                  :   
 C13 .IN     45 280 13 00:   
 ZCOR.G/C3   45 356 01 00:   DENSITY CORRECTION
 ZDEN.G/C3   45 350 01 00:   BULK DENSITY
 GRD .GAPI   45 310 01 00:   GAMMA RAY FROM DENSITY LOG
 PORS.DEC    42 890 00 00:   
 PORZ.DEC    45 890 00 00:   DENSITY POROSITY
 RILD.OHMM   07 120 46 00:   INDUCTION LOG DEEP RESISTIVITY
 RILM.OHMM   07 120 44 00:   INDUCTION LOG MEDIUM RESISTIVITY
~PARAMETER INFORMATION
#MNEM.UNIT          VALUE    DESCRIPTION
#----------   ------------   ------------------------------
 PD  .                 GL:   PERMANENT DATUM
 EPD .F              5161:   ELEVATION PERMANENT DATUM
 LMF .                 KB:   LOG MEASURED FROM
 DAPD.F                10:   FEET ABOVE PERMANENT DATUM
 DMF .                 KB:   DRILLING MEASURED FROM
 EKB .F              5171:   KELLING BUSHING
 EDF .F              5170:   DRILLING FLOOR
 EGL .F              5161:   GROUND LEVEL
 DATE.        29-JAN-1993:   RUN DATE
 RUN .                  1:   RUN NUMBER
 DD  .F               536:   DEPTH DRILLER
 DL  .F               536:   DEPTH LOGGER
 BLI .F               527:   BOTTOM LOG INTERVAL
 TLI .F                96:   TOP LOG INTERVAL
 CS  .IN            8.625:   CASING SIZE
 CBD .F                96:   CASING BOTTOM DRILLER
 CBL .F                96:   CASING BOTTOM LOGGER
 BS  .IN            7.875:   BIT SIZE
 BSD .F               536:   BIT SIZE AT DEPTH
 DFT .                AIR:   DRILLING FLUID TYPE
 MRT .F                65:   MAXIMUM RECORDED TEMPERATURE
 LUN .            HL-6274:   LOGGING UNIT NUMBER
 LUL .             CASPER:   LOGGING UNIT LOCATION
 ENGI.        P.RASMUSSEN:   RECORDING ENGINEER
 WITN.           G.STRONG:   WITNESSED BY
 CLNT.            A2DTECH:   CLIENT CODE
 ORIG.           5" PRINT:   ORIGIN OF DATA
 UWI .       490252258400:   UNIQUE WELL ID
 DICO. A2D Technologies, Inc.:   DIGITIZING COMPANY
~OTHER INFORMATION
~A   DEPT      C13       ZCOR       ZDEN        GRD       PORS       PORZ       RILD       RILM   
# ...
  185.5000     8.3210     0.0052     2.4576   162.2222     0.2871     0.1172     8.1858     8.2647
  186.0000     8.3207     0.0007     2.4539   158.9034     0.2874     0.1152     8.1858     8.2637
  186.5000     8.3204    -0.0082     2.4524   154.9807     0.2871     0.1167     8.1858     8.2052
  187.0000     8.3051    -0.0112     2.4547   151.9631     0.2847     0.1188     8.1858     8.2042
  187.5000     8.2897    -0.0067     2.4630   149.8490     0.2823     0.1167     8.1858     8.2031
  188.0000     8.2895    -0.0037     2.4660   148.9397     0.2829     0.1137     8.1858     8.2020
  188.5000     8.2892    -0.0022     2.4676   148.9328     0.2830     0.1119     8.2427     8.2581
  189.0000     8.2888    -0.0007     2.4676   151.0357     0.2830     0.1110     8.2999     8.2568
  189.5000     8.2886    -0.0007     2.4683   153.7409     0.2818     0.1107     8.2999     8.3151
  190.0000     8.2883    -0.0007     2.4624   156.4447     0.2797     0.1122     8.2999     8.3699
  190.5000     8.2879    -0.0007     2.4586   158.2464     0.2782     0.1137     8.2999     8.4271
  191.0000     8.3027    -0.0007     2.4617   159.1444     0.2782     0.1146     8.3576     8.4257
  191.5000     8.3024    -0.0007     2.4662   158.5350     0.2815     0.1137     8.2999     8.3661
  192.0000     8.3171    -0.0022     2.4693   157.3246     0.2848     0.1107     8.1858     8.2498
  192.5000     8.3018    -0.0067     2.4677   155.5117     0.2869     0.1098     8.0732     8.1351
  193.0000     8.2865    -0.0127     2.4648   154.2751     0.2884     0.1113     7.9621     8.0220
  193.5000     8.2861    -0.0097     2.4625   153.6933     0.2885     0.1125     7.8526     7.9653
  194.0000     8.2859    -0.0037     2.4618   155.4935     0.2885     0.1131     7.8526     7.8546
  194.5000     8.2856    -0.0052     2.4611   156.6928     0.2894     0.1140     7.8526     7.7993
  195.0000     8.2852    -0.0097     2.4611   156.6858     0.2909     0.1143     7.9072     7.7980
  195.5000     8.2849    -0.0052     2.4634   154.8729     0.2918     0.1122     7.9072     7.9609
  196.0000     8.2998     0.0007     2.4686   148.2408     0.2867     0.1095     8.0175     8.0711
  196.5000     8.3144    -0.0007     2.4709   141.3061     0.2805     0.1085     7.6381     7.9586
  197.0000     8.3141    -0.0067     2.4724   139.1921     0.2738     0.1089     7.4294     7.5805
  197.5000     8.2988    -0.0112     2.4695   138.2843     0.2729     0.1101     7.2264     7.2203
  198.0000     8.3065    -0.0143     2.4590   147.5663     0.2822     0.1161     6.9311     6.8678
  198.5000     8.3132    -0.0157     2.4498   156.6438     0.2964     0.1254     6.6502     6.5959
  199.0000     8.3129    -0.0127     2.4350   159.6516     0.3114     0.1329     6.5587     6.4146
  199.5000     8.3126    -0.0052     2.4290   156.3133     0.3156     0.1359     6.4685     6.3254
  200.0000     8.3274    -0.0027     2.4252   154.2169     0.3084     0.1365     6.4239     6.3246
  200.5000     8.3569    -0.0067     2.4313   154.5124     0.3036     0.1329     6.4685     6.4129
  201.0000     8.3564    -0.0127     2.4396   154.2041     0.3003     0.1299     6.6043     6.5933
  201.5000     8.3559    -0.0127     2.4479   154.5011     0.3021     0.1227     6.7429     6.7788
  202.0000     8.3555    -0.0067     2.4524   155.7109     0.3051     0.1185     6.8845     6.9695
  202.5000     8.3401    -0.0007     2.4554   156.8980     0.3051     0.1172     7.0779     7.2154
  203.0000     8.3547    -0.0097     2.4569   156.5897     0.3021     0.1169     7.2767     7.4700
  203.5000     8.3541    -0.0142     2.4585   155.3793     0.3002     0.1166     7.4294     7.6302
  204.0000     8.3387    -0.0037     2.4555   154.7470     0.2970     0.1184     7.6381     7.7874
  204.5000     8.3533    -0.0037     2.4502   155.3665     0.2958     0.1214     7.6912     7.7874
  205.0000     8.3378    -0.0067     2.4480   156.2659     0.2985     0.1223     7.6912     7.7874
  205.5000     8.3373    -0.0114     2.4465   157.1624     0.2983     0.1226     7.6912     7.7849
  206.0000     8.3219    -0.0157     2.4473   158.3976     0.2971     0.1223     7.6381     7.6801
  206.5000     8.3215    -0.0172     2.4511   160.1618     0.2971     0.1205     7.5330     7.6801
  207.0000     8.3209    -0.0157     2.4541   161.6622     0.2980     0.1181     7.4810     7.6270
  207.5000     8.3205    -0.0110     2.4556   160.4517     0.2995     0.1175     7.3781     7.5726
  208.0000     8.3201    -0.0052     2.4557   159.8436     0.3004     0.1175     7.3272     7.4183
  208.5000     8.3197     0.0022     2.4587   164.0534     0.3010     0.1171     7.2698     7.3162
  209.0000     8.3191     0.0026     2.4617   165.5552     0.3019     0.1148     7.0779     7.1655
  209.5000     8.3187    -0.0037     2.4617   161.6324     0.3028     0.1142     6.9323     6.9685
  210.0000     8.3183     0.0037     2.4535   160.1194     0.3031     0.1154     6.6502     6.6854
  210.5000     8.3253     0.0052     2.4407   161.6197     0.3040     0.1211     6.2823     6.3246
  211.0000     8.3325    -0.0037     2.4363   164.0237     0.3055     0.1256     5.9527     5.9008
  211.5000     8.3470    -0.0142     2.4348   166.4277     0.3079     0.1286     5.7104     5.5049
  212.0000     8.3465    -0.0202     2.4228   167.6268     0.3182     0.1298     5.5161     5.1365
  212.5000     8.3461    -0.0082     2.3980   164.3065     0.3275     0.1382     5.4402     5.1010
  213.0000     8.3607     0.0052     2.3838   161.2888     0.3362     0.1502     5.4780     5.2445
  213.5000     8.3451     0.0097     2.3868   157.6507     0.3374     0.1604     5.5544     5.5054
  214.0000     8.3447     0.0052     2.4078   155.2520     0.3245     0.1619     5.7104     6.0248
  214.5000     8.3443    -0.0022     2.4304   154.0415     0.3133     0.1472     5.9139     6.3246
  215.0000     8.3438    -0.0097     2.4485   152.8311     0.3095     0.1282     6.2053     6.5477
  215.5000     8.3433    -0.0157     2.4575   152.8796     0.3095     0.1186     6.3795     6.7788
  216.0000     8.3429    -0.0187     2.4598   158.2400     0.3050     0.1138     6.6502     7.0180
  216.5000     8.3425    -0.0127     2.4628   161.2464     0.3019     0.1141     6.9338     7.2656
  217.0000     8.3420    -0.0037     2.4628   160.9395     0.3011     0.1144     7.2767     7.4183
  217.5000     8.3415     0.0037     2.4644   159.1266     0.3007     0.1135     7.5854     7.5220
  218.0000     8.3261     0.0007     2.4674   160.9268     0.3004     0.1117     7.7446     7.6801
  218.5000     8.3205    -0.0067     2.4682   161.8262     0.2978     0.1104     7.8526     7.7874
  219.0000     8.3102    -0.0142     2.4689   161.2167     0.2960     0.1101     7.9621     7.8416
  219.5000     8.3097    -0.0232     2.4720   160.9096     0.2957     0.1086     8.0175     7.8962
  220.0000     8.3093    -0.0217     2.4735   160.6016     0.2945     0.1071     8.0732     8.0064
  220.5000     8.3089    -0.0157     2.4735   160.2947     0.2912     0.1074     8.1293     8.1183
  221.0000     8.2933    -0.0112     2.4735   160.2890     0.2894     0.1080     8.1858     8.1748
  221.5000     8.2929    -0.0067     2.4728   160.8858     0.2882     0.1083     8.2999     8.2317
  222.0000     8.2775    -0.0022     2.4728   158.4691     0.2900     0.1086     8.2999     8.2352
  222.5000     8.2780     0.0007     2.4743   156.3550     0.2906     0.1083     8.3576     8.3466
  223.0000     8.2916     0.0022     2.4826   155.4457     0.2903     0.1029     8.4157     8.3466
  223.5000     8.2911    -0.0007     2.4864   154.8377     0.2897     0.1002     8.4742     8.3466
  224.0000     8.2907    -0.0037     2.4849   155.4344     0.2901     0.0993     8.4742     8.4047
  224.5000     8.2902    -0.0082     2.4812   156.6322     0.2909     0.1023     8.4742     8.4632
  225.0000     8.2897    -0.0082     2.4842   159.0361     0.2915     0.1038     8.5331     8.4632
  225.5000     8.2893    -0.0022     2.4888   161.4401     0.2918     0.0983     8.5331     8.5221
