~VERSION INFORMATION
 VERS.                2.0:   CWLS LOG ASCII STANDARD - VERSION 2.0
 WRAP.                 NO:   ONE LINE PER DEPTH STEP
~WELL INFORMATION
#MNEM.UNIT      DATA TYPE    INFORMATION
#----------   ------------   ------------------------------
 STRT.F            0.0000:   START DEPTH
 STOP.F          664.0000:   STOP DEPTH
 STEP.F            0.5000:   STEP LENGTH
 NULL.          -999.2500:   NO VALUE
 COMP. Fluor Daniel (NPOSR) Inc:   COMPANY
 WELL.      71-3-X-3 #3-3:   WELL
 FLD .             N.P.R.:   FIELD
 LOC .       S3 T38N R78W:   LOCATION
 CNTY.            NATRONA:   COUNTY
 STAT.            WYOMING:   STATE
 CTRY. UNITED STATES OF AMERICA:   COUNTRY
 SRVC.      Western Atlas:   SERVICE COMPANY
 DATE.        12-APR-1996:   LOGDATE
 API .       490252277200:   API NUMBER
~CURVE INFORMATION
#MNEM.UNIT       API CODE    CURVE DESCRIPTION
#----------   ------------   ------------------------------
 DEPT.F                  :   
 GRR .GAPI   07 310 01 00:   GAMMA RAY FROM RES. LOG.
 RILD.OHMM   07 120 46 00:   INDUCTION LOG DEEP RESISTIVITY
 RILM.OHMM   07 120 44 00:   INDUCTION LOG MEDIUM RESISTIVITY
~PARAMETER INFORMATION
#MNEM.UNIT          VALUE    DESCRIPTION
#----------   ------------   ------------------------------
 PD  .                 GL:   PERMANENT DATUM
 EPD .F              5118:   ELEVATION PERMANENT DATUM
 LMF .                 KB:   LOG MEASURED FROM
 DAPD.F                10:   FEET ABOVE PERMANENT DATUM
 DMF .                 KB:   DRILLING MEASURED FROM
 EKB .F              5128:   KELLING BUSHING
 EDF .F              5127:   DRILLING FLOOR
 EGL .F              5118:   GROUND LEVEL
 DATE.        12-APR-1996:   RUN DATE
 RUN .                  1:   RUN NUMBER
 DD  .F               670:   DEPTH DRILLER
 DL  .F               672:   DEPTH LOGGER
 BLI .F               664:   BOTTOM LOG INTERVAL
 CS  .IN            9.625:   CASING SIZE
 CBD .F                56:   CASING BOTTOM DRILLER
 CBL .F                57:   CASING BOTTOM LOGGER
 BS  .IN             8.75:   BIT SIZE
 BSD .F               670:   BIT SIZE AT DEPTH
 DFT .                AIR:   DRILLING FLUID TYPE
 MRT .F                84:   MAXIMUM RECORDED TEMPERATURE
 LUN .             HL6530:   LOGGING UNIT NUMBER
 LUL .             CASPER:   LOGGING UNIT LOCATION
 ENGI.             RAUTIO:   RECORDING ENGINEER
 WITN.              HARDY:   WITNESSED BY
 CLNT.            A2DTECH:   CLIENT CODE
 ORIG.       2", 5" PRINT:   ORIGIN OF DATA
 UWI .       490252277200:   UNIQUE WELL ID
 DICO. A2D Technologies, Inc.:   DIGITIZING COMPANY
~OTHER INFORMATION
~A    DEPT      GRR      RILD       RILM   
    0.0000    14.7697  -999.2500  -999.2500
    0.5000    10.0774  -999.2500  -999.2500
    1.0000    11.1864  -999.2500  -999.2500
    1.5000    12.8971  -999.2500  -999.2500
    2.0000    19.5192  -999.2500  -999.2500
    2.5000    24.1665  -999.2500  -999.2500
    3.0000    24.0569  -999.2500  -999.2500
    3.5000    19.9657  -999.2500  -999.2500
    4.0000    15.8081  -999.2500  -999.2500
    4.5000    13.7683  -999.2500  -999.2500
    5.0000    15.0684  -999.2500  -999.2500
    5.5000    15.0338  -999.2500  -999.2500
    6.0000    13.1025  -999.2500  -999.2500
    6.5000    12.6517  -999.2500  -999.2500
    7.0000    13.5729  -999.2500  -999.2500
    7.5000    13.3734  -999.2500  -999.2500
    8.0000    12.8324  -999.2500  -999.2500
    8.5000    12.4933  -999.2500  -999.2500
    9.0000    12.3265  -999.2500  -999.2500
    9.5000    12.1815  -999.2500  -999.2500
   10.0000    15.0464  -999.2500  -999.2500
   10.5000    22.6985  -999.2500  -999.2500
   11.0000    31.7506  -999.2500  -999.2500
   11.5000    38.6594  -999.2500  -999.2500
   12.0000    40.1263  -999.2500  -999.2500
   12.5000    40.6785  -999.2500  -999.2500
   13.0000    42.4606  -999.2500  -999.2500
   13.5000    45.9136  -999.2500  -999.2500
   14.0000    49.9226  -999.2500  -999.2500
   14.5000    53.9322  -999.2500  -999.2500
   15.0000    58.0545  -999.2500  -999.2500
   15.5000    58.6044  -999.2500  -999.2500
   16.0000    56.5554  -999.2500  -999.2500
   16.5000    55.1645  -999.2500  -999.2500
   17.0000    56.6894  -999.2500  -999.2500
   17.5000    59.5133  -999.2500  -999.2500
   18.0000    60.8381  -999.2500  -999.2500
   18.5000    60.7246  -999.2500  -999.2500
   19.0000    60.5878  -999.2500  -999.2500
   19.5000    58.0148  -999.2500  -999.2500
   20.0000    52.0064  -999.2500  -999.2500
   20.5000    47.2817  -999.2500  -999.2500
   21.0000    49.3431  -999.2500  -999.2500
   21.5000    56.9882  -999.2500  -999.2500
   22.0000    60.0037  -999.2500  -999.2500
   22.5000    61.5308  -999.2500  -999.2500
   23.0000    62.6868  -999.2500  -999.2500
   23.5000    62.5190  -999.2500  -999.2500
   24.0000    61.9451  -999.2500  -999.2500
   24.5000    61.3498  -999.2500  -999.2500
   25.0000    60.3208  -999.2500  -999.2500
   25.5000    57.3260  -999.2500  -999.2500
   26.0000    55.5473  -999.2500  -999.2500
   26.5000    53.8249  -999.2500  -999.2500
   27.0000    52.1002  -999.2500  -999.2500
   27.5000    50.3484  -999.2500  -999.2500
   28.0000    49.6683  -999.2500  -999.2500
   28.5000    51.7020  -999.2500  -999.2500
   29.0000    55.7585  -999.2500  -999.2500
   29.5000    57.6949  -999.2500  -999.2500
   30.0000    58.9074  -999.2500  -999.2500
   30.5000    60.9169  -999.2500  -999.2500
   31.0000    63.5753  -999.2500  -999.2500
   31.5000    65.2373  -999.2500  -999.2500
   32.0000    65.2784  -999.2500  -999.2500
   32.5000    65.2873  -999.2500  -999.2500
   33.0000    64.0929  -999.2500  -999.2500
   33.5000    62.2810  -999.2500  -999.2500
   34.0000    60.8645  -999.2500  -999.2500
   34.5000    61.7319  -999.2500  -999.2500
   35.0000    64.5076  -999.2500  -999.2500
   35.5000    67.3596  -999.2500  -999.2500
   36.0000    67.6692  -999.2500  -999.2500
   36.5000    67.6821  -999.2500  -999.2500
   37.0000    68.2553  -999.2500  -999.2500
   37.5000    69.3431  -999.2500  -999.2500
   38.0000    69.5759  -999.2500  -999.2500
   38.5000    70.5537  -999.2500  -999.2500
   39.0000    73.8287  -999.2500  -999.2500
   39.5000    78.9602  -999.2500  -999.2500
   40.0000    81.1911  -999.2500  -999.2500
   40.5000    83.9104  -999.2500  -999.2500
   41.0000    84.4448  -999.2500  -999.2500
   41.5000    84.4614  -999.2500  -999.2500
   42.0000    83.3972  -999.2500  -999.2500
   42.5000    80.7899  -999.2500  -999.2500
   43.0000    76.9316  -999.2500  -999.2500
   43.5000    73.7325  -999.2500  -999.2500
   44.0000    73.0129  -999.2500  -999.2500
   44.5000    75.8545  -999.2500  -999.2500
   45.0000    78.8125  -999.2500  -999.2500
   45.5000    81.9173  -999.2500  -999.2500
   46.0000    83.0423  -999.2500  -999.2500
   46.5000    82.8183  -999.2500  -999.2500
   47.0000    81.2124  -999.2500  -999.2500
   47.5000    80.4338  -999.2500  -999.2500
   48.0000    81.4146  -999.2500  -999.2500
   48.5000    82.9890  -999.2500  -999.2500
   49.0000    82.9415  -999.2500  -999.2500
   49.5000    81.5400  -999.2500  -999.2500
   50.0000    80.4177  -999.2500  -999.2500
   50.5000    81.2103  -999.2500  -999.2500
   51.0000    81.0969  -999.2500  -999.2500
   51.5000    79.3959  -999.2500  -999.2500
   52.0000    77.7367  -999.2500  -999.2500
   52.5000    76.8696  -999.2500  -999.2500
   53.0000    76.4749  -999.2500  -999.2500
   53.5000    77.3855  -999.2500  -999.2500
   54.0000    80.2832  -999.2500  -999.2500
   54.5000    82.2783  -999.2500  -999.2500
   55.0000    79.9591  -999.2500  -999.2500
   55.5000    76.6969  -999.2500  -999.2500
   56.0000    79.5716  -999.2500  -999.2500
   56.5000    91.6486  -999.2500  -999.2500
   57.0000   103.9480  -999.2500  -999.2500
   57.5000   116.1762  -999.2500  -999.2500
   58.0000   120.5569  -999.2500     3.2139
   58.5000   122.9697     2.5660     2.7481
   59.0000   124.2567     3.0256     2.7481
   59.5000   126.1333     4.4774     4.6125
   60.0000   128.0590     7.0910     5.5273
   60.5000   130.1965    18.0924     6.7147
   61.0000   129.5401    18.6651     9.4155
   61.5000   127.3087     9.8756    11.5946
   62.0000   124.8434     6.9085    10.2621
   62.5000   123.4737     6.8068     8.7706
   63.0000   121.8000     6.7103     8.3759
   63.5000   120.5248     6.4670     9.6213
   64.0000   119.6568     6.3500    10.4479
   64.5000   118.2602     6.8601     8.9456
   65.0000   116.4196     7.7809     7.9989
   65.5000   117.3492     7.7809     8.2230
   66.0000   120.4433     7.6115     7.9433
   66.5000   122.9517     7.3024     7.5824
   67.0000   123.8356     7.0082     7.2345
   67.5000   125.4316     6.7769     7.0005
   68.0000   127.0464     6.7864     6.9668
   68.5000   126.9549     6.7960     6.9668
   69.0000   123.9951     6.8056     6.9668
   69.5000   121.7642     6.8153     6.9668
   70.0000   120.5511     6.8249     6.9667
   70.5000   120.5687     6.8349     6.9668
   71.0000   121.5705     6.8601     6.9668
   71.5000   124.2603     6.9020     7.0230
   72.0000   124.7033     6.9446     7.0867
   72.5000   121.8987     6.9875     7.1511
   73.0000   119.2268     7.0305     7.2160
   73.5000   119.3928     7.0739     7.2815
   74.0000   119.7478     7.1175     7.3626
   74.5000   119.8654     7.1619     7.2951
   75.0000   119.2607     7.1808     7.3039
   75.5000   119.3919     7.2000     7.3187
   76.0000   119.6761     7.2192     7.3336
   76.5000   119.9818     7.2385     7.3485
   77.0000   120.5145     7.2579     7.3626
   77.5000   122.0708     7.2772     7.4164
   78.0000   122.2915     7.2951     7.4796
   78.5000   121.0502     7.3692     7.5434
   79.0000   119.8023     7.4384     7.6077
   79.5000   118.8772     7.4995     7.6389
   80.0000   120.4731     7.3793     7.5114
   80.5000   122.9488     7.2740     7.4163
   81.0000   123.9021     7.1703     7.3225
   81.5000   123.0647     7.0680     7.2282
   82.0000   121.8538     6.9668     7.0938
   82.5000   121.6008     6.8242     6.9596
   83.0000   122.3281     6.6950     6.8279
   83.5000   124.6875     6.6063     6.6987
   84.0000   126.1602     6.5865     6.6532
   84.5000   126.0734     6.5638     6.7096
   85.0000   125.6399     6.5411     6.8061
   85.5000   125.0472     6.5185     6.9029
   86.0000   121.1372     6.4959     6.7634
   86.5000   115.1435     6.4719     6.5922
   87.0000   112.2664     6.4520     6.5574
   87.5000   115.4444     6.4246     6.4921
   88.0000   119.0974     6.3974     6.4125
   88.5000   122.7746     6.3703     6.4509
   89.0000   125.5449     6.3538     6.5013
   89.5000   126.7673     6.3913     6.5521
   90.0000   125.9738     6.4335     6.5922
   90.5000   124.8914     6.5352     6.5922
