~VERSION INFORMATION
 VERS.                2.0:   CWLS LOG ASCII STANDARD - VERSION 2.0
 WRAP.                 NO:   ONE LINE PER DEPTH STEP
~WELL INFORMATION
#MNEM.UNIT      DATA TYPE    INFORMATION
#----------   ------------   ------------------------------
 STRT.F            0.0000:   START DEPTH
 STOP.F          545.0000:   STOP DEPTH
 STEP.F            0.1000:   STEP LENGTH
 NULL.          -999.2500:   NO VALUE
 COMP.       F D SERV INC:   COMPANY
 WELL. NAVAL PETROLEUM RESERVE 3 SX-3 #88-5-3:   WELL
 FLD .             TEAPOT:   FIELD
 LOC .       S3 T38N R78W:   LOCATION
 CNTY.            NATRONA:   COUNTY
 STAT.            WYOMING:   STATE
 CTRY. UNITED STATES OF AMERICA:   COUNTRY
 SRVC.     Atlas Wireline:   SERVICE COMPANY
 DATE.        14-OCT-1992:   LOGDATE
 API .       490252255700:   API NUMBER
~CURVE INFORMATION
#MNEM.UNIT       API CODE    CURVE DESCRIPTION
#----------   ------------   ------------------------------
 DEPT.F                  :   
 GRR .GAPI   07 310 01 00:   GAMMA RAY
 RILD.OHMM   07 120 46 00:   INDUCTION LOG DEEP RESISTIVITY
 RILM.OHMM   07 120 44 00:   INDUCTION LOG MEDIUM RESISTIVITY
~PARAMETER INFORMATION
#MNEM.UNIT          VALUE    DESCRIPTION
#----------   ------------   ------------------------------
 PD  .                 GL:   PERMANENT DATUM
 EPD .F              5152:   ELEVATION PERMANENT DATUM
 LMF .                 KB:   LOG MEASURED FROM
 DAPD.F                10:   FEET ABOVE PERMANENT DATUM
 DMF .                 KB:   DRILLING MEASURED FROM
 EKB .F              5162:   KELLING BUSHING
 EDF .F              5161:   DRILLING FLOOR
 EGL .F              5152:   GROUND LEVEL
 DATE.        14-OCT-1992:   RUN DATE
 RUN .                  1:   RUN NUMBER
 DD  .F               555:   DEPTH DRILLER
 DL  .F               552:   DEPTH LOGGER
 BLI .F               546:   BOTTOM LOG INTERVAL
 CS  .IN            8.625:   CASING SIZE
 CBD .F                85:   CASING BOTTOM DRILLER
 CBL .F                96:   CASING BOTTOM LOGGER
 BS  .IN            7.875:   BIT SIZE
 BSD .F               555:   BIT SIZE AT DEPTH
 DFT .           AIR FOAM:   DRILLING FLUID TYPE
 BHT .F                72:   BOTTOM HOLE TEMPERATURE
 TCS .HRS               2:   TIME CURCULATED STOPPED
 MRT .F                72:   MAXIMUM RECORDED TEMPERATURE
 LUN .            HL-6274:   LOGGING UNIT NUMBER
 LUL .             CASPER:   LOGGING UNIT LOCATION
 ENGI.             RAUTIO:   RECORDING ENGINEER
 WITN.        GARY STRONG:   WITNESSED BY
 CLNT.            A2DTECH:   CLIENT CODE
 ORIG.           5" PRINT:   ORIGIN OF DATA
 UWI .       490252255700:   UNIQUE WELL ID
 DICO. A2D Technologies, Inc.:   DIGITIZING COMPANY
~OTHER INFORMATION
~A    DEPT      GRR      RILD       RILM   
# ...
  273.0000   149.1752     5.8111     6.4250
  273.1000   149.4109     5.8832     6.5017
  273.2000   149.4102     5.9980     6.5792
  273.3000   149.4096     6.0634     6.6577
  273.4000   149.4090     6.1631     6.7370
  273.5000   149.4084     6.2521     6.8189
  273.6000   149.4078     6.3422     6.8662
  273.7000   149.4072     6.4466     6.9329
  273.8000   149.4066     6.5263     6.9887
  273.9000   149.4059     6.6547     7.0503
  274.0000   149.1732     6.6905     7.1211
  274.1000   148.9155     6.7304     7.1696
  274.2000   148.2205     6.7934     7.2570
  274.3000   146.9869     6.8581     7.3074
  274.4000   145.2662     6.8989     7.3780
  274.5000   142.9841     6.9425     7.4376
  274.6000   140.9933     7.0342     7.4818
  274.7000   140.5331     7.0343     7.5263
  274.8000   140.2050     7.0953     7.5710
  274.9000   139.9473     7.1325     7.6172
  275.0000   139.7898     7.1491     7.6172
  275.1000   139.8461     7.1916     7.6537
  275.2000   140.1025     7.2322     7.6992
  275.3000   140.3885     7.2323     7.7234
  275.4000   140.8429     7.2704     7.7234
  275.5000   142.0932     7.3137     7.7296
  275.6000   143.7756     7.3334     7.7770
  275.7000   145.7697     7.3500     7.7770
  275.8000   148.0286     7.3938     7.8141
  275.9000   150.0395     7.4359     7.8310
  276.0000   151.1951     7.4360     7.8310
  276.1000   151.6447     7.4361     7.8310
  276.2000   152.3400     7.4674     7.8310
  276.3000   152.6949     7.4879     7.8310
  276.4000   152.6943     7.5045     7.8310
  276.5000   152.6417     7.5492     7.8310
  276.6000   152.3751     7.5926     7.8310
  276.7000   151.7915     7.5927     7.8310
  276.8000   151.1232     7.6319     7.8310
  276.9000   149.9925     7.6456     7.8310
  277.0000   148.0259     7.6698     7.8310
  277.1000   145.6408     7.7155     7.8310
  277.2000   143.8319     7.7525     7.8310
  277.3000   143.0729     7.7526     7.8310
  277.4000   142.7783     7.7527     7.8310
  277.5000   142.3373     7.7528     7.8310
  277.6000   142.1766     7.7847     7.8252
  277.7000   142.1760     7.8069     7.7770
  277.8000   142.1754     7.8070     7.7770
  277.9000   142.1748     7.8071     7.7770
  278.0000   142.1822     7.8072     7.7770
  278.1000   142.7741     7.8073     7.7561
  278.2000   142.7736     7.8074     7.7234
  278.3000   143.1221     7.7762     7.7234
  278.4000   143.3730     7.7538     7.7234
  278.5000   143.5486     7.7539     7.7234
  278.6000   144.0172     7.7540     7.7234
  278.7000   144.2737     7.7541     7.7234
  278.8000   144.5717     7.7542     7.7234
  278.9000   144.7866     7.7543     7.7234
  279.0000   145.0430     7.7544     7.7234
  279.1000   145.2995     7.7545     7.7234
  279.2000   145.5560     7.7546     7.7234
  279.3000   145.8548     7.7548     7.7234
  279.4000   146.3700     7.7549     7.7516
  279.5000   146.6696     7.7550     7.7770
  279.6000   146.8821     7.7551     7.7770
  279.7000   147.3083     7.7249     7.7770
  279.8000   147.6953     7.7018     7.7770
  279.9000   147.9518     7.7019     7.7770
  280.0000   148.2482     7.7020     7.7770
  280.1000   148.7682     7.7021     7.7770
  280.2000   149.3681     7.7023     7.7770
  280.3000   149.7888     7.7399     7.7770
  280.4000   150.3023     7.7559     7.7770
  280.5000   150.8158     7.7560     7.7770
  280.6000   151.3294     7.7561     7.7770
  280.7000   151.8428     7.7496     7.7770
  280.8000   152.3676     7.7029     7.7770
  280.9000   152.6672     7.7030     7.7770
  281.0000   152.8749     7.7031     7.7770
  281.1000   153.1313     7.7032     7.7770
  281.2000   153.3878     7.7033     7.7770
  281.3000   153.4873     7.7034     7.7770
  281.4000   153.2296     7.7035     7.7770
  281.5000   152.9639     7.7036     7.7770
  281.6000   152.3626     7.7037     7.7770
  281.7000   152.1564     7.7038     7.7770
  281.8000   151.7362     7.7039     7.7770
  281.9000   151.3407     7.7040     7.7770
  282.0000   151.0070     7.7042     7.7770
  282.1000   150.4924     7.7043     7.7770
  282.2000   149.9567     7.7044     7.7770
  282.3000   149.4628     7.7045     7.7572
  282.4000   148.9482     7.7046     7.7234
  282.5000   148.4335     7.7047     7.7234
  282.6000   147.8018     7.7048     7.7234
  282.7000   147.0300     7.7049     7.7234
  282.8000   146.2888     7.7050     7.7234
  282.9000   145.7483     7.7051     7.7234
  283.0000   145.7478     7.7052     7.7234
  283.1000   145.5461     7.7053     7.7234
  283.2000   145.2885     7.6775     7.7234
  283.3000   145.1453     7.6524     7.7234
  283.4000   145.0734     7.6525     7.6811
  283.5000   144.8158     7.6526     7.6701
  283.6000   144.5429     7.6527     7.6701
  283.7000   144.5423     7.6528     7.6701
  283.8000   144.5417     7.6529     7.6701
  283.9000   144.6965     7.6530     7.6701
  284.0000   144.9529     7.6531     7.6701
  284.1000   145.1405     7.6533     7.6701
  284.2000   145.1913     7.6534     7.6701
  284.3000   145.7399     7.6535     7.6701
  284.4000   146.2182     7.6536     7.6511
  284.5000   146.5355     7.6537     7.6172
  284.6000   147.0979     7.6538     7.6172
  284.7000   147.7588     7.6539     7.6172
  284.8000   148.2723     7.6540     7.6172
  284.9000   148.7626     7.6541     7.6172
  285.0000   149.0390     7.6542     7.6172
  285.1000   149.2755     7.6543     7.6172
  285.2000   149.5320     7.6544     7.6172
  285.3000   149.6378     7.6545     7.6172
  285.4000   149.6373     7.6546     7.6172
  285.5000   149.5726     7.6547     7.6172
  285.6000   149.3149     7.6548     7.6172
  285.7000   149.0348     7.6550     7.6172
  285.8000   148.7996     7.6551     7.6172
  285.9000   148.7333     7.6552     7.6172
  286.0000   148.4364     7.6292     7.6172
  286.1000   148.0267     7.6026     7.6172
  286.2000   147.7690     7.5919     7.6172
  286.3000   147.5297     7.5504     7.6172
  286.4000   147.5291     7.5505     7.6172
  286.5000   147.2963     7.5506     7.6172
  286.6000   147.2276     7.5179     7.6064
  286.7000   147.2270     7.4736     7.5647
  286.8000   147.3289     7.4122     7.5647
  286.9000   147.5854     7.3249     7.5242
  287.0000   147.8741     7.2387     7.4471
  287.1000   148.7261     7.1445     7.3102
  287.2000   149.8746     7.0695     7.1388
  287.3000   151.1593     6.9864     6.9907
  287.4000   152.1573     6.9042     6.9054
  287.5000   152.9279     6.8229     6.7718
  287.6000   153.6416     6.7514     6.7357
  287.7000   154.1824     6.7116     6.6959
  287.8000   155.3285     6.6675     6.6564
  287.9000   155.7828     6.5982     6.6170
  288.0000   156.2963     6.5760     6.5779
  288.1000   156.8098     6.5549     6.5415
  288.2000   157.3233     6.5162     6.5415
  288.3000   157.8914     6.4859     6.5415
  288.4000   158.6507     6.4843     6.5133
  288.5000   159.2281     6.4414     6.4964
  288.6000   159.6777     6.4415     6.4964
  288.7000   160.3731     6.4147     6.4964
  288.8000   161.4206     6.4177     6.4964
  288.9000   162.8956     6.4417     6.4964
  289.0000   164.5905     6.4418     6.4964
  289.1000   165.8401     6.4419     6.4964
  289.2000   166.1308     6.4420     6.5181
  289.3000   166.1303     6.4753     6.5415
  289.4000   166.1297     6.4869     6.5415
  289.5000   166.1291     6.4870     6.5415
  289.6000   166.1285     6.4871     6.5415
  289.7000   166.0783     6.4798     6.5762
  289.8000   165.8206     6.4425     6.5870
  289.9000   165.5260     6.4426     6.6088
  290.0000   165.3053     6.4427     6.6327
  290.1000   165.0477     6.4166     6.6327
  290.2000   164.5226     6.3985     6.6349
  290.3000   163.7508     6.3986     6.6788
  290.4000   163.0262     6.3917     6.6788
  290.5000   162.4995     6.3546     6.6788
  290.6000   161.0173     6.3547     6.6570
  290.7000   159.7098     6.3230     6.6327
  290.8000   158.3415     6.2606     6.6242
  290.9000   156.6616     6.2056     6.5850
  291.0000   154.3402     6.1690     6.5415
  291.1000   151.8708     6.1202     6.5074
