~VERSION INFORMATION
 VERS.                2.0:   CWLS LOG ASCII STANDARD - VERSION 2.0
 WRAP.                 NO:   ONE LINE PER DEPTH STEP
~WELL INFORMATION
#MNEM.UNIT      DATA TYPE    INFORMATION
#----------   ------------   ------------------------------
 STRT.F           10.0000:   START DEPTH
 STOP.F          485.0000:   STOP DEPTH
 STEP.F            0.5000:   STEP LENGTH
 NULL.          -999.2500:   NO VALUE
 COMP. FENIX & SCISSON INC:   COMPANY
 WELL.    56 S 3 SX #56-3:   WELL
 FLD .             TEAPOT:   FIELD
 LOC .       S3 T38N R78W:   LOCATION
 CNTY.            NATRONA:   COUNTY
 STAT.            WYOMING:   STATE
 CTRY. UNITED STATES OF AMERICA:   COUNTRY
 SRVC.            Unknown:   SERVICE COMPANY
 DATE.        09-OCT-1978:   LOGDATE
 API .       490251071900:   API NUMBER
~CURVE INFORMATION
#MNEM.UNIT       API CODE    CURVE DESCRIPTION
#----------   ------------   ------------------------------
 DEPT.F                  :   
 SPR .MV     05 010 01 00:   SPONTANEOUS POTENTIAL FROM RES.
 SN  .OHMM   05 040 16 00:   SHORT NORMAL 16"
 ILD .OHMM   05 120 46 00:   INDUCTION LOG DEEP
 CALD.IN     45 280 60 00:   CALIPER
 GRD .GAPI   45 310 01 00:   GAMMA RAY FROM DENSITY LOG
 CORR.G/C3   45 356 01 00:   DENSITY CORRECTION
 RHOB.G/C3   45 350 01 00:   BULK DENSITY
 DPHI.DEC    45 890 12 00:   DENSITY POROSITY SANDSTONE
~PARAMETER INFORMATION
#MNEM.UNIT          VALUE    DESCRIPTION
#----------   ------------   ------------------------------
 PD  .                 GL:   PERMANENT DATUM
 EPD .F              5188:   ELEVATION PERMANENT DATUM
 LMF .                 KB:   LOG MEASURED FROM
 DAPD.F                 4:   FEET ABOVE PERMANENT DATUM
 DMF .                 KB:   DRILLING MEASURED FROM
 EKB .F              5192:   KELLING BUSHING
 EGL .F              5188:   GROUND LEVEL
 DATE.            10-9-78:   RUN DATE
 RUN .                  1:   RUN NUMBER
 DD  .F               485:   DEPTH DRILLER
 DL  .F               485:   DEPTH LOGGER
 BLI .F               479:   BOTTOM LOG INTERVAL
 TLI .F                32:   TOP LOG INTERVAL
 CS  .IN            8.625:   CASING SIZE
 BS  .IN            7.875:   BIT SIZE
 BSD .F               485:   BIT SIZE AT DEPTH
 DFT .                KCL:   DRILLING FLUID TYPE
 DFD .                8.8:   DRILLING FLUID DENSITY
 DFV .                 41:   DRILLING FLUID VISCOSITY
 DFPH.                  9:   DRILLING FLUID PH
 DFL .                7.6:   DRILLING FLUID LOSS
 MSS .          FLOW LINE:   MUD SAMPLE SOURCE
 RMS .OHMM            .18:   RESISTIVITY MUD SAMPLE
 MST .F                60:   MUD SAMPLE TEMPERATURE
 RMF .OHMM            .16:   RESISTIVITY MUD FILTRATE SAMPLE
 MFST.F                70:   MUD FILTRATE SAMPLE TEMPERATURE
 RMC .OHMM            .26:   RESISTIVITY MUD CAKE
 MCST.F                70:   MUD CAKE SAMPLE TEMPERATURE
 MFSS.               MEAS:   MUD FILTRATE SAMPLE SOURCE
 MCSS.               MEAS:   MUD CAKE SAMPLE SOURCE
 TCS .HRS             1.5:   TIME CURCULATED STOPPED
 LUN .               2958:   LOGGING UNIT NUMBER
 LUL .               CASP:   LOGGING UNIT LOCATION
 ENGI.             MILLER:   RECORDING ENGINEER
 WITN.              AMEND:   WITNESSED BY
 CLNT.            A2DTECH:   CLIENT CODE
 ORIG.           5" PRINT:   ORIGIN OF DATA
 UWI .       490251071900:   UNIQUE WELL ID
 DICO. A2D Technologies, Inc.:   DIGITIZING COMPANY
~OTHER INFORMATION
~A   DEPT      SPR         SN        ILD       CALD         GRD      CORR       RHOB       DPHI   
# ...
  131.5000   -35.0364     8.2005     8.3718     8.2617    99.8537     0.0295     2.4839     0.1160
  132.0000   -35.0461     8.1566     8.3164     8.2617   101.2181     0.0308     2.4817     0.1183
  132.5000   -35.0559     8.1129     8.2614     8.2617   101.5673     0.0319     2.4793     0.1207
  133.0000   -35.0657     8.0740     8.2241     8.2617    99.7440     0.0359     2.4783     0.1207
  133.5000   -35.0756     8.0708     8.2304     8.2617    97.9829     0.0432     2.4832     0.1177
  134.0000   -35.0854     8.0676     8.2393     8.2617    95.8633     0.0507     2.4877     0.1147
  134.5000   -35.0952     8.0644     8.2483     8.2617    96.1374     0.0473     2.4924     0.1119
  135.0000   -35.1050     8.0611     8.2572     8.2617    96.6230     0.0390     2.4972     0.1090
  135.5000   -35.1148     8.0579     8.2661     8.2617    97.1621     0.0309     2.5011     0.1072
  136.0000   -35.1247     8.0547     8.2751     8.2617    99.4913     0.0229     2.4917     0.1138
  136.5000   -35.1345     8.0515     8.2841     8.2617   102.7573     0.0147     2.4752     0.1205
  137.0000   -35.1443     8.0483     8.2930     8.2617   103.7803     0.0092     2.4637     0.1262
  137.5000   -35.1541     8.0450     8.3020     8.2617   103.7998     0.0100     2.4625     0.1291
  138.0000   -35.1639     8.0418     8.3110     8.2617   103.8131     0.0106     2.4621     0.1311
  138.5000   -35.1738     8.0386     8.3200     8.2617   101.5234     0.0115     2.4622     0.1312
  139.0000   -35.1836     8.0354     8.3290     8.2617    99.3932     0.0123     2.4622     0.1313
  139.5000   -35.1934     8.0322     8.3380     8.2617   100.8126     0.0131     2.4622     0.1315
  140.0000   -35.2032     8.0290     8.3471     8.2617   103.6083     0.0139     2.4622     0.1316
  140.5000   -35.2130     8.0258     8.3561     8.2617   106.1900     0.0147     2.4628     0.1318
  141.0000   -35.2182     8.0226     8.3652     8.2617   108.1333     0.0154     2.4664     0.1302
  141.5000   -35.2182     8.0194     8.3742     8.2617   106.8248     0.0162     2.4710     0.1269
  142.0000   -35.2183     8.0162     8.3833     8.2617   105.3095     0.0170     2.4755     0.1236
  142.5000   -35.2183     8.0130     8.3924     8.2617   105.0794     0.0178     2.4806     0.1204
  143.0000   -35.2183     8.0098     8.4015     8.2617   104.8533     0.0186     2.4793     0.1205
  143.5000   -35.2183     8.0067     8.4106     8.2617   104.6674     0.0194     2.4757     0.1230
  144.0000   -35.2183     8.0037     8.4197     8.2617   102.6424     0.0202     2.4778     0.1217
  144.5000   -35.2183     8.0005     8.4289     8.2617   100.8730     0.0208     2.4809     0.1203
  145.0000   -35.2183     7.9619     8.4380     8.2617    98.9553     0.0202     2.4836     0.1189
  145.5000   -35.2183     7.9269     8.4475     8.2617    98.8736     0.0196     2.4860     0.1176
  146.0000   -35.2183     7.8921     8.4533     8.2617    98.8138     0.0189     2.4850     0.1167
  146.5000   -35.2183     7.8575     8.3984     8.2617    99.5522     0.0182     2.4841     0.1167
  147.0000   -35.2183     7.8230     8.3542     8.2617   102.9760     0.0177     2.4794     0.1195
  147.5000   -35.2183     7.7886     8.3102     8.2607   104.9721     0.0170     2.4730     0.1229
  148.0000   -35.2183     7.7544     8.2664     8.2598   103.6646     0.0207     2.4709     0.1255
  148.5000   -35.2183     7.7203     8.2228     8.2589    99.8325     0.0250     2.4740     0.1255
  149.0000   -35.2183     7.6995     8.1795     8.2579    99.6523     0.0287     2.4734     0.1252
  149.5000   -35.2183     7.6831     8.1365     8.2570   100.0483     0.0283     2.4723     0.1249
  150.0000   -35.2183     7.6667     8.0936     8.2560   101.2626     0.0279     2.4739     0.1247
  150.5000   -35.2183     7.6503     8.0510     8.2551   102.3402     0.0274     2.4776     0.1228
  151.0000   -35.2183     7.6340     8.0086     8.2542   102.4305     0.0270     2.4803     0.1204
  151.5000   -35.2183     7.6177     7.9664     8.2532   101.8138     0.0266     2.4812     0.1183
  152.0000   -35.2183     7.6014     7.9244     8.2523   100.4150     0.0261     2.4824     0.1170
  152.5000   -35.2183     7.5852     7.8827     8.2514    99.2477     0.0256     2.4885     0.1159
  153.0000   -35.2183     7.5714     7.8412     8.2504    99.2869     0.0253     2.4957     0.1123
  153.5000   -35.2183     7.4981     7.7999     8.2495    99.4358     0.0250     2.4991     0.1091
  154.0000   -35.2183     7.4211     7.7588     8.2485   101.4083     0.0280     2.5031     0.1072
  154.5000   -35.2183     7.3606     7.7179     8.2476   103.3664     0.0303     2.5013     0.1091
  155.0000   -35.2183     7.3423     7.6772     8.2467   102.7864     0.0325     2.4958     0.1111
  155.5000   -35.2183     7.3241     7.6368     8.2457   102.2762     0.0292     2.4912     0.1130
  156.0000   -35.2183     7.3059     7.5967     8.2448   101.9573     0.0260     2.4879     0.1150
  156.5000   -35.2183     7.2558     7.5373     8.2438   102.0286     0.0224     2.4844     0.1170
  157.0000   -35.2183     7.1828     7.4458     8.2429   102.0531     0.0207     2.4810     0.1190
  157.5000   -35.2183     7.1106     7.3554     8.2420   102.8156     0.0209     2.4773     0.1209
  158.0000   -35.2183     7.0392     7.2661     8.2410   103.3852     0.0209     2.4734     0.1229
  158.5000   -35.2183     6.9684     7.1779     8.2401   103.6402     0.0208     2.4696     0.1248
  159.0000   -35.2183     6.8983     7.1378     8.2392   103.9398     0.0209     2.4671     0.1268
  159.5000   -35.2180     6.8408     7.1059     8.2382   103.3595     0.0209     2.4654     0.1288
  160.0000   -35.2178     6.8275     7.0998     8.2373   102.7009     0.0216     2.4641     0.1302
  160.5000   -35.1661     6.8142     7.1036     8.2364   102.0255     0.0223     2.4643     0.1302
  161.0000   -35.0696     6.8010     7.1102     8.2354   101.4771     0.0229     2.4644     0.1302
  161.5000   -34.7885     6.7811     7.1168     8.2345   104.0194     0.0237     2.4680     0.1268
  162.0000   -34.6247     6.7938     7.1234     8.2335   107.8006     0.0243     2.4722     0.1230
  162.5000   -34.6232     6.8199     7.1301     8.2326   106.5621     0.0244     2.4760     0.1207
  163.0000   -34.6229     6.8460     7.1367     8.2317   101.3299     0.0186     2.4795     0.1201
  163.5000   -34.6230     6.8723     7.1434     8.2307    97.9556     0.0137     2.4724     0.1234
  164.0000   -34.6230     6.8988     7.1501     8.2298    99.0274     0.0084     2.4654     0.1289
  164.5000   -34.6230     6.9253     7.1568     8.2289   101.8898     0.0050     2.4576     0.1350
  165.0000   -34.6230     6.9519     7.1637     8.2279   102.8461     0.0050     2.4537     0.1350
  165.5000   -34.6230     6.9705     7.1654     8.2270   102.6676     0.0097     2.4562     0.1336
  166.0000   -34.6230     6.9258     7.1653     8.2260   100.7965     0.0167     2.4609     0.1295
  166.5000   -34.6230     6.8913     7.1178     8.2251   100.0287     0.0236     2.4714     0.1255
  167.0000   -34.6230     6.8571     7.0633     8.2242    99.9005     0.0294     2.4811     0.1214
  167.5000   -34.6230     6.8230     7.0092     8.2231   101.4666     0.0323     2.4867     0.1173
  168.0000   -34.6230     6.7892     6.9555     8.2229   104.5392     0.0354     2.4866     0.1159
  168.5000   -34.6230     6.7497     6.9022     8.2238   105.6126     0.0368     2.4870     0.1155
  169.0000   -34.6230     6.7087     6.8493     8.2247   105.0216     0.0342     2.4876     0.1151
  169.5000   -34.6230     6.6679     6.7969     8.2255   104.4660     0.0319     2.4881     0.1146
  170.0000   -34.6230     6.6273     6.7448     8.2264   104.3158     0.0295     2.4852     0.1162
  170.5000   -34.6230     6.5764     6.6931     8.2272   106.6552     0.0272     2.4760     0.1214
  171.0000   -34.6229     6.4929     6.6418     8.2281   110.9102     0.0250     2.4671     0.1267
  171.5000   -34.6229     6.4104     6.5910     8.2289   113.3926     0.0249     2.4583     0.1319
