~VERSION INFORMATION
 VERS.                2.0:   CWLS LOG ASCII STANDARD - VERSION 2.0
 WRAP.                 NO:   ONE LINE PER DEPTH STEP
~WELL INFORMATION
#MNEM.UNIT      DATA TYPE    INFORMATION
#----------   ------------   ------------------------------
 STRT.F           12.0000:   START DEPTH
 STOP.F          754.0000:   STOP DEPTH
 STEP.F            0.5000:   STEP LENGTH
 NULL.          -999.2500:   NO VALUE
 COMP. FENIX & SCISSON INC:   COMPANY
 WELL.    62 SX 34 #62-34:   WELL
 FLD .             TEAPOT:   FIELD
 LOC .      S34 T39N R78W:   LOCATION
 CNTY.            NATRONA:   COUNTY
 STAT.            WYOMING:   STATE
 CTRY. UNITED STATES OF AMERICA:   COUNTRY
 SRVC.            Unknown:   SERVICE COMPANY
 DATE.        20-AUG-1978:   LOGDATE
 API .       490251070200:   API NUMBER
~CURVE INFORMATION
#MNEM.UNIT       API CODE    CURVE DESCRIPTION
#----------   ------------   ------------------------------
 DEPT.F                  :   
 SPR .MV     05 010 01 00:   SPONTANEOUS POTENTIAL FROM RES.
 SN  .OHMM   05 040 16 00:   SHORT NORMAL 16"
 ILD .OHMM   05 120 46 00:   INDUCTION LOG DEEP
 GRD .GAPI   45 310 01 00:   GAMMA RAY FROM DENSITY LOG
 CALD.IN     45 280 60 00:   CALIPER
 RHOB.G/C3   45 350 01 00:   BULK DENSITY
 DPHI.DEC    45 890 12 00:   DENSITY POROSITY SANDSTONE
 CORR.G/C3   45 356 01 00:   DENSITY CORRECTION
~PARAMETER INFORMATION
#MNEM.UNIT          VALUE    DESCRIPTION
#----------   ------------   ------------------------------
 PD  .                 GL:   PERMANENT DATUM
 EPD .F              5039:   ELEVATION PERMANENT DATUM
 LMF .                 KB:   LOG MEASURED FROM
 DAPD.F                 4:   FEET ABOVE PERMANENT DATUM
 DMF .                 KB:   DRILLING MEASURED FROM
 EKB .F              5043:   KELLING BUSHING
 EGL .F              5039:   GROUND LEVEL
 DATE.            8-20-78:   RUN DATE
 RUN .                  1:   RUN NUMBER
 DD  .F               750:   DEPTH DRILLER
 DL  .F               755:   DEPTH LOGGER
 BLI .F               749:   BOTTOM LOG INTERVAL
 TLI .F                30:   TOP LOG INTERVAL
 CS  .IN            8.625:   CASING SIZE
 CBD .F                30:   CASING BOTTOM DRILLER
 CBL .F                34:   CASING BOTTOM LOGGER
 BS  .IN            7.875:   BIT SIZE
 BSD .F               750:   BIT SIZE AT DEPTH
 DFT .            KCL MUD:   DRILLING FLUID TYPE
 DFD .                8.6:   DRILLING FLUID DENSITY
 DFV .                 30:   DRILLING FLUID VISCOSITY
 DFPH.                9.5:   DRILLING FLUID PH
 DFL .               10.4:   DRILLING FLUID LOSS
 MSS .          FLOW LINE:   MUD SAMPLE SOURCE
 RMS .OHMM            .28:   RESISTIVITY MUD SAMPLE
 MST .F                76:   MUD SAMPLE TEMPERATURE
 RMF .OHMM            .24:   RESISTIVITY MUD FILTRATE SAMPLE
 MFST.F                80:   MUD FILTRATE SAMPLE TEMPERATURE
 RMC .OHMM            .34:   RESISTIVITY MUD CAKE
 MCST.F                82:   MUD CAKE SAMPLE TEMPERATURE
 MFSS.               MEAS:   MUD FILTRATE SAMPLE SOURCE
 MCSS.               MEAS:   MUD CAKE SAMPLE SOURCE
 BHT .F                72:   BOTTOM HOLE TEMPERATURE
 TCS .HRS               3:   TIME CURCULATED STOPPED
 MRT .F                72:   MAXIMUM RECORDED TEMPERATURE
 LUN .               2958:   LOGGING UNIT NUMBER
 LUL .               CASP:   LOGGING UNIT LOCATION
 ENGI.           REYNOLDS:   RECORDING ENGINEER
 WITN.              AMEND:   WITNESSED BY
 CLNT.            A2DTECH:   CLIENT CODE
 ORIG.           5" PRINT:   ORIGIN OF DATA
 UWI .       490251070200:   UNIQUE WELL ID
 DICO. A2D Technologies, Inc.:   DIGITIZING COMPANY
~OTHER INFORMATION
~A   DEPT      SPR         SN        ILD         GRD      CALD       RHOB       DPHI       CORR   
# ...
  660.0000   -48.9999     8.8998    11.8836    82.0401     6.8781     2.3774     0.1815     0.3492
  660.5000   -49.0359     9.5756    12.8089    81.7949     6.7040     2.4345     0.1380     0.3811
  661.0000   -49.0661    10.1314    13.8241    81.8696     6.3993     2.4226     0.1512     0.3481
  661.5000   -49.4297    10.4385    15.3447    82.6089     7.4779     2.4478     0.1426     0.2978
  662.0000   -49.8821    10.5029    15.0340    82.9713     7.2450     2.4776     0.1329     0.2233
  662.5000   -50.3374    10.6000    14.2947    81.0196     7.6415     2.4267     0.1458     0.1485
  663.0000   -50.7970    10.5577    13.0261    79.0760     8.1317     2.4291     0.1385     0.1148
  663.5000   -50.9093    10.5265    12.2380    77.8018     7.7299     2.4504     0.1313     0.1234
  664.0000   -50.9665    10.4953    12.0337    78.0985     7.4143     2.4730     0.1232     0.1412
  664.5000   -51.0237    10.4642    11.8269    80.0163     7.3194     2.4959     0.1105     0.1592
  665.0000   -51.0163    10.4332    11.6216    81.6217     7.9093     2.5152     0.0976     0.1772
  665.5000   -51.1110    10.4023    11.3822    81.2936     7.9970     2.5339     0.0825     0.1957
  666.0000   -51.3731    10.3715    11.2507    80.3921     7.4071     2.5463     0.0856     0.1971
  666.5000   -51.6408    10.3408    11.1216    78.9664     7.4012     2.5372     0.0936     0.1663
  667.0000   -51.6927    10.3120    10.9927    78.8421     7.4168     2.5237     0.1015     0.1338
  667.5000   -51.7163    10.3436    11.0965    81.1455     7.4322     2.5101     0.1094     0.1013
  668.0000   -51.7399    10.3746    11.1598    81.0013     7.2322     2.4941     0.1233     0.0761
  668.5000   -51.7638    10.4058    11.2315    80.6650     6.8802     2.4612     0.1591     0.0670
  669.0000   -51.7878    10.4370    11.3038    81.5954     6.7406     2.4235     0.1583     0.0672
  669.5000   -51.8118    10.4684    11.3764    82.6497     6.7620     2.4060     0.1527     0.0963
  670.0000   -51.8358    10.5023    11.4496    82.6314     6.8307     2.4476     0.1364     0.1205
  670.5000   -51.8598    10.4769    11.5152    82.6127     6.9006     2.4685     0.1228     0.1302
  671.0000   -51.8838    10.4485    11.5316    82.1341     6.9702     2.4758     0.1229     0.1397
  671.5000   -51.9078    10.4200    11.5493    81.6308     7.0397     2.4737     0.1279     0.1518
  672.0000   -51.9318    10.2901    11.5672    81.1956     7.1092     2.4698     0.1285     0.1771
  672.5000   -51.9557    10.2264    11.5851    81.1077     7.1787     2.4778     0.1186     0.2026
  673.0000   -51.9797    10.1644    11.6031    81.0125     7.2483     2.5034     0.1064     0.2036
  673.5000   -52.0037    10.1024    11.6216    80.9137     7.3179     2.5220     0.0970     0.1822
  674.0000   -52.0273    10.0406    11.3625    80.8353     7.3877     2.5232     0.1001     0.1460
  674.5000   -52.0520     9.9792    11.2762    81.2899     7.4549     2.5064     0.1134     0.1067
  675.0000   -52.1086     9.9181    11.2016    82.9667     7.4573     2.4807     0.1328     0.0672
  675.5000   -52.2726     9.8574    10.7429    84.8922     7.4540     2.4558     0.1355     0.0431
  676.0000   -52.4301     9.7971    10.3114    86.5843     7.4387     2.4576     0.1364     0.0408
  676.5000   -52.5875     9.7372    10.2700    87.1999     7.3892     2.4622     0.1296     0.0400
  677.0000   -52.7451     9.6776    10.2199    87.0678     7.2475     2.4631     0.1311     0.0384
  677.5000   -52.9031     9.6087    10.1698    86.4953     7.1307     2.4609     0.1328     0.0328
  678.0000   -53.0599     9.5385    10.1256    86.2552     7.2457     2.4574     0.1385     0.0276
  678.5000   -53.1262     9.4687     9.9400    87.5304     7.3813     2.4538     0.1443     0.0279
  679.0000   -53.1886     9.4050     9.7331    88.7747     7.5178     2.4430     0.1512     0.0284
  679.5000   -53.2518     9.1859     9.5297    90.0152     7.6567     2.4316     0.1627     0.0289
  680.0000   -53.2634     8.9434     9.3305    91.2566     7.6076     2.4093     0.1742     0.0293
  680.5000   -53.3158     8.7073     8.9821    92.4948     7.5227     2.3868     0.1857     0.0335
  681.0000   -53.5824     8.4774     8.7375    93.7248     7.4366     2.3657     0.1927     0.0437
  681.5000   -53.8429     8.2536     8.7910    94.2312     7.3504     2.3662     0.1831     0.0540
  682.0000   -54.1029     8.0357     8.8937    94.0310     7.3369     2.4035     0.1644     0.0507
  682.5000   -54.3637     7.8965     8.9821    94.7297     7.3158     2.4346     0.1460     0.0450
  683.0000   -54.6237     7.8386     8.7215   101.2278     7.3144     2.4654     0.1277     0.0396
  683.5000   -54.8677     7.6453     8.2683   108.0188     7.4198     2.4963     0.1094     0.0394
  684.0000   -54.9034     7.3601     7.4107   109.2704     7.3808     2.5011     0.1056     0.0395
  684.5000   -54.9445     7.0289     6.6199   104.7748     7.1160     2.4989     0.1121     0.0395
  685.0000   -54.9865     6.4838     5.9789    96.2643     7.0999     2.4929     0.1184     0.0395
  685.5000   -55.0284     5.9808     5.6621    87.7970     7.2764     2.4850     0.1244     0.0395
  686.0000   -55.0704     5.5181     5.3135    82.8610     7.5223     2.4770     0.1256     0.0395
  686.5000   -55.1124     5.1662     5.3166    82.4403     7.7724     2.4716     0.1190     0.0396
  687.0000   -55.1544     5.1661     5.3129    82.1661     7.8680     2.4860     0.1127     0.0358
  687.5000   -55.1964     5.2146     5.7358    85.2196     7.8867     2.5027     0.1080     0.0315
  688.0000   -55.2383     5.7013     6.1981    89.3505     7.9041     2.5008     0.1094     0.0276
  688.5000   -55.2803     6.2565     6.6765    89.6976     7.9218     2.4958     0.1123     0.0275
  689.0000   -55.3223     6.8658     7.1917    89.6238     7.9388     2.4920     0.1123     0.0275
  689.5000   -55.3643     7.3981     7.7468    89.4689     7.9094     2.4941     0.1105     0.0275
  690.0000   -55.4061     7.8056     8.3447    89.3105     7.8886     2.4962     0.1104     0.0275
  690.5000   -55.4464     8.2696     8.9152    89.1535     7.8676     2.4896     0.1210     0.0273
  691.0000   -55.5211     8.3857     9.0902    89.2474     7.8590     2.4820     0.1264     0.0332
  691.5000   -55.5986     8.5166     9.1255    90.5615     8.0176     2.4753     0.1216     0.0399
  692.0000   -55.6762     8.6496     9.1608    90.8978     8.1440     2.4805     0.1155     0.0517
  692.5000   -55.7537     8.7588     9.1964    89.3281     7.9929     2.4948     0.1066     0.0633
  693.0000   -55.8310     8.9032     9.2334    87.8169     7.8087     2.5088     0.0978     0.0702
  693.5000   -55.9070     9.0499     9.4064    87.9276     7.6226     2.5226     0.0896     0.0718
  694.0000   -55.9870     9.1991     9.5903    88.2488     7.4342     2.5297     0.0951     0.0733
  694.5000   -56.1929     9.3507     9.8056    87.4788     7.3562     2.5171     0.1003     0.0750
  695.0000   -56.9922     9.5049    10.0454    86.7968     7.3099     2.5085     0.1032     0.0720
  695.5000   -56.1819     9.6615    10.2911    87.8226     7.2967     2.5138     0.0957     0.0669
  696.0000   -55.3959     9.8208    10.5434    88.9012     7.2965     2.5114     0.0918     0.0556
  696.5000   -55.6409     9.9828    10.8003    86.0688     7.2966     2.4829     0.1122     0.0446
  697.0000   -56.5387    10.1476    10.8984    83.5033     7.2966     2.4554     0.1430     0.0447
  697.5000   -56.4791    10.3145    10.8342    84.0862     7.2966     2.4254     0.1535     0.0632
  698.0000   -52.9182    10.5029    10.7969    86.0083     7.2966     2.4340     0.1453     0.0832
  698.5000   -52.5562    10.5535    10.9755    87.8289     7.2963     2.4468     0.1335     0.1001
  699.0000   -52.4995    10.6014    11.1489    88.3967     7.2794     2.4597     0.1216     0.1104
  699.5000   -52.6053    10.6496    11.4241    88.8948     7.2445     2.4726     0.1205     0.1255
  700.0000   -53.1537    10.6980    11.7296    89.4067     7.2098     2.4821     0.1207     0.1599
