~VERSION INFORMATION
 VERS.                2.0:   CWLS LOG ASCII STANDARD - VERSION 2.0
 WRAP.                 NO:   ONE LINE PER DEPTH STEP
~WELL INFORMATION
#MNEM.UNIT      DATA TYPE    INFORMATION
#----------   ------------   ------------------------------
 STRT.F            0.0000:   START DEPTH
 STOP.F          516.0000:   STOP DEPTH
 STEP.F            0.5000:   STEP LENGTH
 NULL.          -999.2500:   NO VALUE
 COMP.       F D SERV INC:   COMPANY
 WELL. NAVAL PETROLEUM RESERVE 3 SX-3 #77-2-3:   WELL
 FLD .             TEAPOT:   FIELD
 LOC .       S3 T38N R78W:   LOCATION
 CNTY.            NATRONA:   COUNTY
 STAT.            WYOMING:   STATE
 CTRY. UNITED STATES OF AMERICA:   COUNTRY
 SRVC.      Western Atlas:   SERVICE COMPANY
 DATE.        22-OCT-1992:   LOGDATE
 API .       490252255600:   API NUMBER
~CURVE INFORMATION
#MNEM.UNIT       API CODE    CURVE DESCRIPTION
#----------   ------------   ------------------------------
 DEPT.F                  :   
 GRR .GAPI   06 310 01 00:   GAMMA RAY FROM RESISTIVITY
 RILD.OHMM   06 120 46 00:   DEEP INDUCTION RESISTIVITY
 RILM.OHMM   06 120 44 00:   INDUCTION LOG MEDIUM RESISTIVITY
~PARAMETER INFORMATION
#MNEM.UNIT          VALUE    DESCRIPTION
#----------   ------------   ------------------------------
 PD  .                 GL:   PERMANENT DATUM
 EPD .F              5139:   ELEVATION PERMANENT DATUM
 LMF .                 KB:   LOG MEASURED FROM
 DAPD.F                10:   FEET ABOVE PERMANENT DATUM
 DMF .                 KB:   DRILLING MEASURED FROM
 EKB .F              5149:   KELLING BUSHING
 EDF .F              5148:   DRILLING FLOOR
 EGL .F              5139:   GROUND LEVEL
 DATE.        22-DEC-1992:   RUN DATE
 RUN .                  1:   RUN NUMBER
 DD  .F               525:   DEPTH DRILLER
 DL  .F               524:   DEPTH LOGGER
 CS  .IN            8.625:   CASING SIZE
 CBL .F                98:   CASING BOTTOM LOGGER
 BS  .IN            9.875:   BIT SIZE
 BSD .F               525:   BIT SIZE AT DEPTH
 DFT .           AIR FOAM:   DRILLING FLUID TYPE
 TCS .HRS               2:   TIME CURCULATED STOPPED
 LUN .            HL-6274:   LOGGING UNIT NUMBER
 LUL .             CASPER:   LOGGING UNIT LOCATION
 ENGI.             RASTIC:   RECORDING ENGINEER
 WITN.        GARY STRONG:   WITNESSED BY
 CLNT.            A2DTECH:   CLIENT CODE
 ORIG.           5" PRINT:   ORIGIN OF DATA
 UWI .       490252255600:   UNIQUE WELL ID
 DICO. A2D Technologies, Inc.:   DIGITIZING COMPANY
~OTHER INFORMATION
~A    DEPT      GRR      RILD       RILM   
# ...
  364.0000    93.2890    13.7960    13.5887
  364.5000    98.4008    13.4227    13.3117
  365.0000   100.5112    13.1495    13.0403
  365.5000   101.4222    12.8826    12.8630
  366.0000   102.3332    12.6204    12.5141
  366.5000   102.6447    12.5352    12.2594
  367.0000   102.3590    12.3654    12.1762
  367.5000   101.4681    12.1985    12.0940
  368.0000   102.6818    12.1167    12.0123
  368.5000   106.5913    12.1198    11.8494
  369.0000   110.5008    12.1222    11.8510
  369.5000   110.8126    12.2088    12.1012
  370.0000   107.8280    12.6411    12.4419
  370.5000   100.6431    13.2798    13.0602
  371.0000    99.1524    14.1274    13.8043
  371.5000   102.4651    15.3537    14.7938
  372.0000    99.3583    17.5145    16.0748
  372.5000    90.4969    18.2606    18.4601
  373.0000    85.1111    20.5443    20.3377
  373.5000    80.6248    23.4982    22.4063
  374.0000    77.0381    25.6480    24.0124
  374.5000    75.8501    26.9263    24.3497
  375.0000    76.7640    27.6875    25.3838
  375.5000    78.2747    28.2739    25.7412
  376.0000    81.5845    28.4760    26.4661
  376.5000    86.3936    28.4830    26.8379
  377.0000    89.4036    28.4887    27.2150
  377.5000    88.7657    28.4943    27.5973
  378.0000    84.6318    28.8972    27.6010
  378.5000    80.4454    29.1036    27.7970
  379.0000    77.7582    29.1095    27.8007
  379.5000    77.4669    29.1166    27.8044
  380.0000    78.9805    28.7202    27.6157
  380.5000    79.8915    28.1371    27.2412
  381.0000    78.1039    27.5343    25.9584
  381.5000    79.9173    27.0035    25.0803
  382.0000    82.9273    26.6377    25.0844
  382.5000    79.9403    26.2768    24.7426
  383.0000    80.6117    25.9219    24.5763
  383.5000    82.9646    25.9273    24.4104
  384.0000    85.9745    25.9337    24.4136
  384.5000    87.1854    25.7587    24.2487
  385.0000    87.1969    25.5861    24.2527
  385.5000    87.2084    25.5925    24.0881
  386.0000    86.6201    25.5975    23.9254
  386.5000    86.3317    25.6028    23.9294
  387.0000    89.6444    25.4311    23.9326
  387.5000    93.2541    25.2620    24.1025
  388.0000    94.1651    25.2670    24.1057
  388.5000    90.2804    25.2721    24.1089
  389.0000    89.0935    25.1028    23.7812
  389.5000    89.1049    24.9346    23.4578
  390.0000    89.1164    24.4284    22.9797
  390.5000    89.1279    24.0962    22.5113
  391.0000    92.1881    23.6058    22.2053
  391.5000    96.6499    23.2871    22.0553
  392.0000    96.9584    23.1312    22.0590
  392.5000    93.3745    22.9774    21.9099
  393.0000    91.2870    22.5098    21.7620
  393.5000    89.7991    22.0506    21.3191
  394.0000    91.1304    21.6029    21.0293
  394.5000    96.4218    21.1633    20.4588
  395.0000    96.7331    20.8765    19.4954
  395.5000    94.3457    20.3116    19.0979
  396.0000    93.4173    20.0355    18.7087
  396.5000    94.6985    19.4933    17.9519
  397.0000    96.7818    18.9649    17.5854
  397.5000    96.7933    18.5790    17.4666
  398.0000    96.8047    18.4545    17.8354
  398.5000    96.8162    18.4591    17.5928
  399.0000    96.5278    18.4628    17.7173
  399.5000    94.3059    18.5947    17.5976
  400.0000    92.0554    18.5984    17.3582
  400.5000    94.7624    18.6030    18.0959
  401.0000    98.6689    18.4801    18.2243
  401.5000    99.2770    18.4861    18.2267
  402.0000    95.3895    18.4909    18.1029
  402.5000    93.8965    18.1115    17.6123
  403.0000    94.8186    17.7480    17.2532
  403.5000    97.2159    17.3890    17.1366
  404.0000    96.9244    17.0351    16.6722
  404.5000    94.5340    16.6760    16.2124
  405.0000    92.0640    16.1281    15.7797
  405.5000    87.9542    15.6919    15.7823
  406.0000    90.3635    15.5876    15.5676
  406.5000    96.6687    15.2714    15.2364
  407.0000    98.1764    15.0664    14.9399
  407.5000    93.6891    15.0703    14.9418
  408.0000    89.1998    14.9662    14.8408
  408.5000    87.7089    14.8709    14.6395
  409.0000    91.0178    14.8757    14.5401
  409.5000    93.4250    14.8795    14.3429
  410.0000    96.1321    14.3641    14.2460
  410.5000    95.2430    14.1833    13.9556
  411.0000    95.2514    14.0891    13.7658
  411.5000    96.4593    13.9000    13.6728
  412.0000   100.0979    13.8077    13.5809
  412.5000    99.4767    13.8122    13.4891
  413.0000    96.7864    13.7196    13.3979
  413.5000    94.6959    13.7241    13.4001
  414.0000    97.4050    13.5389    13.4019
  414.5000   101.6113    13.5433    13.4040
  415.0000   101.9175    13.5468    13.4058
  415.5000    97.1224    13.5505    13.3151
  416.0000    93.2429    13.7436    13.3173
  416.5000    92.9493    13.7472    13.3191
  417.0000    95.9583    13.6559    13.4131
  417.5000    99.0454    13.5653    13.4149
  418.0000   102.5740    13.5697    13.4170
  418.5000   101.6828    13.3866    13.2346
  419.0000    97.1935    13.2978    13.0543
  419.5000    96.0025    13.2095    13.0564
  420.0000    97.2124    13.1226    12.8793
  420.5000   101.1188    13.0354    12.8809
  421.0000   100.5275    12.9498    12.7058
  421.5000   102.0373    12.8638    12.5331
  422.0000   105.0442    12.7784    12.3631
  422.5000   105.9522    12.6936    12.3647
  423.0000   103.8637    12.6977    12.3663
  423.5000   102.9705    12.7010    12.3683
  424.0000   102.9810    12.6159    12.2843
  424.5000   107.2513    12.5278    12.1177
  425.0000   109.2946    12.5370    12.1192
  425.5000   107.5040    12.5403    12.2053
  426.0000   107.5145    12.5435    12.2068
  426.5000   108.7244    12.5476    12.2084
  427.0000   108.1331    12.4635    12.2100
  427.5000   106.3403    12.4675    12.2120
  428.0000   106.9505    12.5573    12.2136
  428.5000   106.3613    12.4740    12.3851
  429.0000   102.1718    12.4780    12.3014
  429.5000   101.2786    12.4812    12.2183
  430.0000   102.0089    12.5712    12.2203
  430.5000   106.3970    12.4877    12.2219
  431.0000   107.0030    12.4917    12.2238
  431.5000   104.0150    12.4088    12.2254
  432.0000   101.9266    12.2422    11.9758
  432.5000   102.2349    12.1602    11.8133
  433.0000   106.4412    12.0794    11.7335
  433.5000   112.4468    11.8351    11.5740
  434.0000   110.9578    11.5957    11.5759
  434.5000   108.8673    11.5987    11.4976
  435.0000   109.7752    11.6017    11.4203
  435.5000   110.9831    11.4452    11.1105
  436.0000   109.1945    11.4489    10.8839
  436.5000   109.2029    11.2945    10.9608
  437.0000   108.8956    10.7632    10.1603
  437.5000   108.9219    10.3999    10.0218
  438.0000   108.9304    10.2596    10.0234
  438.5000   109.5385     9.9827     9.7518
  439.0000   113.7469     9.8481     9.3570
  439.5000   116.1541     9.5823     9.2934
  440.0000   116.1625     9.1316     9.0416
  440.5000   116.1709     8.7619     8.4978
  441.0000   116.7811     7.5147     7.6622
  441.5000   118.5886     6.6477     6.5372
  442.0000   119.7964     6.0355     5.5698
  442.5000   123.6829     5.9540     5.2059
  443.0000   135.7074     5.9145     5.3524
  443.5000   146.8102     5.9989     5.6574
  444.0000   148.6177     6.2548     6.0380
  444.5000   142.6313     6.3436     6.7261
  445.0000   128.2469     6.8951     7.4615
  445.5000   116.2613     7.4941     8.2204
  446.0000   108.9896     8.2585     8.8099
  446.5000   106.6829     9.0547     8.9956
  447.0000   106.9932     9.6890     9.2489
  447.5000   108.5009    10.0327     9.5752
  448.0000   113.3090    10.3169     9.8452
  448.5000   115.1165    10.4641     9.9835
  449.0000   116.3243    10.4668    10.0540
  449.5000   116.0329    10.4695    10.0600
  450.0000   116.0429    10.3283     9.9873
  450.5000   119.0273    10.6181    10.4848
  451.0000   125.9126    11.0006    10.9307
  451.5000   133.1255    11.3789    11.1619
  452.0000   132.7838    11.7795    11.3199
  452.5000   129.4741    11.9437    11.4797
  453.0000   124.9651    12.0266    11.7225
  453.5000   121.5592    12.0266    11.8879
  454.0000   116.2441    12.1942    11.9728
  454.5000   115.9329    12.3642    12.1423
