~VERSION INFORMATION
 VERS.                2.0:   CWLS LOG ASCII STANDARD - VERSION 2.0
 WRAP.                 NO:   ONE LINE PER DEPTH STEP
~WELL INFORMATION
#MNEM.UNIT      DATA TYPE    INFORMATION
#----------   ------------   ------------------------------
 STRT.F           67.0000:   START DEPTH
 STOP.F          510.0000:   STOP DEPTH
 STEP.F            0.5000:   STEP LENGTH
 NULL.          -999.2500:   NO VALUE
 COMP.       F D SERV INC:   COMPANY
 WELL.    77-5 SX 3 #77-3:   WELL
 FLD .             TEAPOT:   FIELD
 LOC .       S3 T38N R78W:   LOCATION
 CNTY.            NATRONA:   COUNTY
 STAT.            WYOMING:   STATE
 CTRY. UNITED STATES OF AMERICA:   COUNTRY
 SRVC.     Atlas Wireline:   SERVICE COMPANY
 DATE.        24-NOV-1992:   LOGDATE
 API .       490252254400:   API NUMBER
~CURVE INFORMATION
#MNEM.UNIT       API CODE    CURVE DESCRIPTION
#----------   ------------   ------------------------------
 DEPT.F                  :   
 PORZ.DEC    45 890 12 00:   DENSITY POROSITY
 NPOR.DEC    42 890 03 00:   NEUTRON POROSITY SANDSTONE
 C13 .IN     45 280 13 00:   CALIPER 1 - 3
 GRD .GAPI   45 310 01 00:   GAMMA RAY FROM DENSITY LOG
 ZCOR.G/C3   45 356 01 00:   DENSITY CORRECTION
 ZDEN.G/C3   45 350 01 00:   BULK DENSITY
~PARAMETER INFORMATION
#MNEM.UNIT          VALUE    DESCRIPTION
#----------   ------------   ------------------------------
 PD  .                 GL:   PERMANENT DATUM
 EPD .F              5137:   ELEVATION PERMANENT DATUM
 LMF .                 KB:   LOG MEASURED FROM
 DAPD.F                10:   FEET ABOVE PERMANENT DATUM
 DMF .                 KB:   DRILLING MEASURED FROM
 EKB .F              5147:   KELLING BUSHING
 EDF .F              5146:   DRILLING FLOOR
 EGL .F              5137:   GROUND LEVEL
 DATE.        24-NOV-1992:   RUN DATE
 RUN .                  1:   RUN NUMBER
 DD  .F               510:   DEPTH DRILLER
 DL  .F               512:   DEPTH LOGGER
 BLI .F               510:   BOTTOM LOG INTERVAL
 TLI .F                99:   TOP LOG INTERVAL
 CS  .IN            8.625:   CASING SIZE
 CBD .F                97:   CASING BOTTOM DRILLER
 CBL .F                99:   CASING BOTTOM LOGGER
 BS  .IN            7.875:   BIT SIZE
 BSD .F               510:   BIT SIZE AT DEPTH
 DFT .           AIR FOAM:   DRILLING FLUID TYPE
 MRT .F                70:   MAXIMUM RECORDED TEMPERATURE
 LUN .            HL-6274:   LOGGING UNIT NUMBER
 LUL .             CASPER:   LOGGING UNIT LOCATION
 WITN.           G.STRONG:   WITNESSED BY
 CLNT.            A2DTECH:   CLIENT CODE
 ORIG.           5" PRINT:   ORIGIN OF DATA
 UWI .       490252254400:   UNIQUE WELL ID
 DICO. A2D Technologies, Inc.:   DIGITIZING COMPANY
~OTHER INFORMATION
~A   DEPT     PORZ       NPOR        C13        GRD       ZCOR       ZDEN   
# ...
  171.0000     0.1037     0.3099     8.0062   146.0297     0.0128     2.4780
  171.5000     0.1059     0.3113     8.0062   144.5004     0.0143     2.4748
  172.0000     0.1080     0.3129     8.0062   143.2746     0.0158     2.4680
  172.5000     0.1092     0.3145     8.0062   145.7359     0.0158     2.4687
  173.0000     0.1080     0.3163     8.0062   148.1066     0.0173     2.4710
  173.5000     0.1071     0.3194     8.0062   145.3604     0.0158     2.4732
  174.0000     0.1068     0.3218     8.0062   144.1346     0.0143     2.4724
  174.5000     0.1099     0.3247     8.0062   143.8222     0.0098     2.4678
  175.0000     0.1135     0.3277     8.0062   145.6283     0.0083     2.4587
  175.5000     0.1172     0.3361     8.0064   148.6513     0.0083     2.4503
  176.0000     0.1229     0.3413     8.0065   150.4604     0.0083     2.4412
  176.5000     0.1284     0.3372     8.0066   148.6275     0.0113     2.4351
  177.0000     0.1239     0.3259     8.0068   146.4912     0.0158     2.4420
  177.5000     0.1148     0.3176     8.0069   144.0514     0.0173     2.4604
  178.0000     0.1081     0.3159     8.0071   141.6116     0.0143     2.4714
  178.5000     0.1096     0.3183     8.0072   146.5736     0.0143     2.4660
  179.0000     0.1124     0.3195     8.0073   149.7792     0.0173     2.4592
  179.5000     0.1148     0.3201     8.0075   150.6807     0.0204     2.4569
  180.0000     0.1151     0.3159     8.0076   145.8100     0.0219     2.4591
  180.5000     0.1112     0.3135     8.0078   144.2807     0.0219     2.4636
  181.0000     0.1088     0.3129     8.0079   144.2689     0.0158     2.4689
  181.5000     0.1069     0.3141     8.0080   145.4709     0.0098     2.4734
  182.0000     0.1063     0.3147     8.0082   146.6730     0.0053     2.4726
  182.5000     0.1094     0.3151     8.0083   149.6961     0.0085     2.4695
  183.0000     0.1109     0.3148     8.0085   150.3095     0.0158     2.4672
  183.5000     0.1103     0.3151     8.0086   147.8238     0.0204     2.4664
  184.0000     0.1075     0.3172     8.0088   146.6252     0.0234     2.4732
  184.5000     0.1040     0.3212     8.0089   150.2526     0.0279     2.4784
  185.0000     0.1025     0.3248     8.0090   152.3651     0.0279     2.4807
  185.5000     0.1022     0.3261     8.0092   153.2667     0.0264     2.4799
  186.0000     0.1043     0.3273     8.0093   153.5583     0.0219     2.4776
  186.5000     0.1049     0.3279     8.0095   153.5435     0.0158     2.4760
  187.0000     0.1055     0.3294     8.0096   153.8381     0.0143     2.4737
  187.5000     0.1071     0.3328     8.0097   150.7883     0.0143     2.4706
  188.0000     0.1113     0.3410     8.0099   145.9206     0.0173     2.4583
  188.5000     0.1222     0.3496     8.0100   144.0878     0.0234     2.4407
  189.0000     0.1356     0.3571     8.0102   143.1655     0.0294     2.4230
  189.5000     0.1472     0.3507     8.0103   144.0641     0.0354     2.4069
  190.0000     0.1426     0.3353     8.0104   145.8702     0.0400     2.4197
  190.5000     0.1211     0.3262     8.0106   147.9827     0.0385     2.4383
  191.0000     0.1114     0.3262     8.0107   151.3092     0.0279     2.4589
  191.5000     0.1080     0.3256     8.0109   154.9393     0.0173     2.4696
  192.0000     0.1065     0.3223     8.0110   157.0548     0.0097     2.4733
  192.5000     0.1047     0.3202     8.0111   152.4876     0.0083     2.4771
  193.0000     0.1029     0.3190     8.0113   147.6199     0.0113     2.4793
  193.5000     0.1014     0.3190     8.0114   146.3940     0.0173     2.4808
  194.0000     0.1026     0.3196     8.0116   150.3275     0.0219     2.4808
  194.5000     0.1035     0.3187     8.0117   150.6191     0.0234     2.4800
  195.0000     0.1045     0.3169     8.0118   147.5418     0.0173     2.4784
  195.5000     0.1054     0.3190     8.0115   146.6471     0.0098     2.4753
  196.0000     0.1060     0.3208     8.0109   148.7596     0.0038     2.4738
  196.5000     0.1038     0.3218     8.0103   151.1757     0.0068     2.4768
  197.0000     0.0983     0.3203     8.0103   152.6812     0.0144     2.4836
  197.5000     0.0942     0.3185     8.0107   153.5828     0.0221     2.4919
  198.0000     0.0945     0.3194     8.0110   152.6575     0.0279     2.4933
  198.5000     0.0969     0.3203     8.0114   151.1282     0.0204     2.4887
  199.0000     0.1012     0.3167     8.0118   149.9023     0.0143     2.4838
  199.5000     0.1030     0.3143     8.0121   149.8905     0.0158     2.4788
  200.0000     0.1000     0.3124     8.0125   151.6995     0.0289     2.4827
  200.5000     0.1000     0.3125     8.0128   152.6806     0.0414     2.4846
  201.0000     0.0994     0.3134     8.0132   151.9320     0.0278     2.4856
  201.5000     0.0970     0.3158     8.0135   150.3795     0.0126     2.4855
  202.0000     0.0970     0.3213     8.0139   148.9554     0.0020     2.4908
  202.5000     0.1014     0.3228     8.0142   148.9524    -0.0026     2.4794
  203.0000     0.1043     0.3201     8.0146   149.2529     0.0036     2.4778
  203.5000     0.1001     0.3159     8.0149   150.4639     0.0169     2.4831
  204.0000     0.0888     0.3107     8.0153   150.1574     0.0289     2.4990
  204.5000     0.0808     0.3132     8.0157   146.2090     0.0228     2.5141
  205.0000     0.0780     0.3178     8.0158   145.2963     0.0122     2.5209
  205.5000     0.0880     0.3205     8.0160   147.4170     0.0076     2.5084
  206.0000     0.0923     0.3220     8.0162   152.2698     0.0151     2.4977
  206.5000     0.0947     0.3230     8.0163   148.9285     0.0166     2.4898
  207.0000     0.0954     0.3242     8.0165   145.5871     0.0180     2.4890
  207.5000     0.0960     0.3238     8.0166   144.6736     0.0225     2.4912
  208.0000     0.0972     0.3211     8.0168   150.1334     0.0241     2.4889
  208.5000     0.1015     0.3203     8.0170   153.7723     0.0148     2.4805
  209.0000     0.1060     0.3230     8.0171   154.9833     0.0087     2.4760
  209.5000     0.1064     0.3249     8.0173   155.2838     0.0089     2.4759
  210.0000     0.1049     0.3264     8.0175   155.5843     0.0191     2.4774
  210.5000     0.1058     0.3292     8.0176   153.7238     0.0251     2.4766
  211.0000     0.1102     0.3340     8.0178   152.1872     0.0175     2.4683
  211.5000     0.1216     0.3434     8.0179   150.7187     0.0084     2.4538
  212.0000     0.1322     0.3510     8.0181   153.1436     0.0023     2.4341
  212.5000     0.1401     0.3574     8.0183   154.3546     0.0007     2.4208
  213.0000     0.1535     0.3675     8.0184   155.2621     0.0082     2.4063
  213.5000     0.1678     0.3773     8.0186   152.8311     0.0067     2.3757
  214.0000     0.1919     0.3893     8.0187   147.9723    -0.0040     2.3287
  214.5000     0.2193     0.3986     8.0189   147.0588    -0.0085     2.2859
  215.0000     0.2466     0.3961     8.0181   145.8419     0.0080     2.2446
  215.5000     0.2732     0.3815     8.0329   143.1075     0.0420     2.2124
  216.0000     0.2652     0.3672     8.0475   138.8556     0.0742     2.1959
  216.5000     0.2398     0.3563     8.0467   144.3155     0.0500     2.2428
  217.0000     0.2121     0.3500     8.0461   149.7753     0.0379     2.2910
  217.5000     0.1907     0.3643     8.0455   152.8072     0.0364     2.3296
  218.0000     0.1867     0.3600     8.0297   154.6251     0.0710     2.3406
  218.5000     0.1670     0.3443     8.0139   154.6221     0.0764     2.3734
  219.0000     0.1364     0.3367     7.9829   154.6272     0.0422     2.4178
  219.5000     0.1181     0.3349     7.9823   155.8787     0.0195     2.4700
  220.0000     0.1027     0.3367     7.9817   158.6795     0.0179     2.4798
  220.5000     0.1031     0.3383     7.9811   161.2869     0.0179     2.4783
  221.0000     0.1062     0.3411     7.9805   162.1937     0.0178     2.4715
  221.5000     0.1082     0.3448     7.9799   164.3151     0.0193     2.4692
  222.0000     0.1086     0.3477     7.9793   167.0435     0.0192     2.4707
  222.5000     0.1058     0.3462     7.9787   167.6482     0.0191     2.4760
