~VERSION INFORMATION
 VERS.                2.0:   CWLS LOG ASCII STANDARD - VERSION 2.0
 WRAP.                 NO:   ONE LINE PER DEPTH STEP
~WELL INFORMATION
#MNEM.UNIT      DATA TYPE    INFORMATION
#----------   ------------   ------------------------------
 STRT.F          598.0000:   START DEPTH
 STOP.F         2552.0000:   STOP DEPTH
 STEP.F            0.5000:   STEP LENGTH
 NULL.          -999.2500:   NO VALUE
 COMP. FENIX & SCISSON INC:   COMPANY
 WELL.     15-SHX-2 #15-2:   WELL
 FLD .             TEAPOT:   FIELD
 LOC .       S2 T38N R78W:   LOCATION
 CNTY.            NATRONA:   COUNTY
 STAT.            WYOMING:   STATE
 CTRY. UNITED STATES OF AMERICA:   COUNTRY
 SRVC.              Welex:   SERVICE COMPANY
 DATE.        03-JUN-1979:   LOGDATE
 API .       490251002100:   API NUMBER
~CURVE INFORMATION
#MNEM.UNIT       API CODE    CURVE DESCRIPTION
#----------   ------------   ------------------------------
 DEPT.F                  :   
 CALD.IN     45 280 60 00:   CALIPER
 GRD .GAPI   45 310 01 00:   GAMMA RAY FROM DENSITY LOG
 RHOB.G/C3   45 350 01 00:   BULK DENSITY
 DPHI.DEC    45 890 12 00:   DENSITY POROSITY SANDSTONE
 CORR.G/C3   45 356 01 00:   DENSITY CORRECTION
~PARAMETER INFORMATION
#MNEM.UNIT          VALUE    DESCRIPTION
#----------   ------------   ------------------------------
 PD  .                 GL:   PERMANENT DATUM
 EPD .F              5118:   ELEVATION PERMANENT DATUM
 LMF .                 KB:   LOG MEASURED FROM
 DAPD.F                10:   FEET ABOVE PERMANENT DATUM
 DMF .                 KB:   DRILLING MEASURED FROM
 EKB .F              5128:   KELLING BUSHING
 EGL .F              5118:   GROUND LEVEL
 DATE.             6-3-79:   RUN DATE
 RUN .                  1:   RUN NUMBER
 DD  .F              2569:   DEPTH DRILLER
 DL  .F              2554:   DEPTH LOGGER
 BLI .F              2552:   BOTTOM LOG INTERVAL
 TLI .F               622:   TOP LOG INTERVAL
 CS  .IN            9.625:   CASING SIZE
 CBD .F               622:   CASING BOTTOM DRILLER
 BS  .IN             8.75:   BIT SIZE
 BSD .F              2569:   BIT SIZE AT DEPTH
 DFT .        AIR DRILLED:   DRILLING FLUID TYPE
 TCS .HRS             2.5:   TIME CURCULATED STOPPED
 MRT .F               124:   MAXIMUM RECORDED TEMPERATURE
 ENGI.               REIN:   RECORDING ENGINEER
 WITN.              AMEND:   WITNESSED BY
 CLNT.            A2DTECH:   CLIENT CODE
 ORIG.           5" PRINT:   ORIGIN OF DATA
 UWI .       490251002100:   UNIQUE WELL ID
 DICO. A2D Technologies, Inc.:   DIGITIZING COMPANY
~OTHER INFORMATION
~A   DEPT     CALD         GRD      RHOB       DPHI       CORR   
# ...
 2001.0000     8.7547   117.1292     2.5283     0.0123     0.0354
 2001.5000     8.7591   117.3550     2.5426     0.0075     0.0382
 2002.0000     8.7499   116.3110     2.5429     0.0099     0.0411
 2002.5000     8.7369   115.9850     2.5279     0.0171     0.0439
 2003.0000     8.7239   116.6791     2.5170     0.0247     0.0467
 2003.5000     8.7109   117.2647     2.5061     0.0299     0.0469
 2004.0000     8.6979   115.4732     2.5039     0.0309     0.0504
 2004.5000     8.6849   115.1869     2.5069     0.0313     0.0530
 2005.0000     8.6719   116.1872     2.5067     0.0289     0.0556
 2005.5000     8.6589   117.1945     2.4983     0.0334     0.0591
 2006.0000     8.6459   116.2299     2.4901     0.0386     0.0563
 2006.5000     8.6488   114.7527     2.4865     0.0416     0.0469
 2007.0000     8.6675   113.9736     2.4929     0.0431     0.0377
 2007.5000     8.6860   115.0436     2.4999     0.0389     0.0329
 2008.0000     8.6996   116.0544     2.5070     0.0315     0.0343
 2008.5000     8.7195   116.3373     2.5015     0.0276     0.0269
 2009.0000     8.7422   113.9527     2.4922     0.0396     0.0196
 2009.5000     8.7648   112.8082     2.5014     0.0439     0.0130
 2010.0000     8.7875   114.6748     2.5129     0.0260     0.0145
 2010.5000     8.7985   116.7697     2.5211     0.0196     0.0175
 2011.0000     8.7960   118.8748     2.5138     0.0246     0.0190
 2011.5000     8.7934   120.9412     2.5057     0.0291     0.0192
 2012.0000     8.7908   120.8840     2.5116     0.0274     0.0195
 2012.5000     8.7883   120.0223     2.5199     0.0228     0.0199
 2013.0000     8.7857   120.3679     2.5160     0.0234     0.0202
 2013.5000     8.7831   119.8530     2.5119     0.0259     0.0205
 2014.0000     8.7806   117.3229     2.5242     0.0198     0.0209
 2014.5000     8.7780   115.3349     2.5403     0.0129     0.0223
 2015.0000     8.7754   115.1995     2.5500     0.0060     0.0242
 2015.5000     8.7728   117.3281     2.5578    -0.0009     0.0261
 2016.0000     8.7703   121.6605     2.5652    -0.0047     0.0281
 2016.5000     8.7677   125.9123     2.5590    -0.0053     0.0290
 2017.0000     8.7651   128.0036     2.5494     0.0029     0.0255
 2017.5000     8.7626   124.4517     2.5326     0.0120     0.0216
 2018.0000     8.7600   120.9900     2.5157     0.0228     0.0178
 2018.5000     8.7574   119.8305     2.4988     0.0344     0.0139
 2019.0000     8.7549   121.4961     2.4819     0.0460     0.0100
 2019.5000     8.7523   122.7732     2.4651     0.0576     0.0061
 2020.0000     8.7497   121.1487     2.4496     0.0682     0.0053
 2020.5000     8.7471   119.6444     2.4478     0.0688     0.0062
 2021.0000     8.7446   119.1176     2.4507     0.0662     0.0071
 2021.5000     8.7420   117.5480     2.4567     0.0626     0.0081
 2022.0000     8.7394   116.6334     2.4627     0.0590     0.0090
 2022.5000     8.7369   116.4028     2.4680     0.0562     0.0099
 2023.0000     8.7343   116.1775     2.4715     0.0542     0.0108
 2023.5000     8.7317   115.9442     2.4764     0.0516     0.0118
 2024.0000     8.7291   115.4713     2.4846     0.0470     0.0127
 2024.5000     8.7266   114.4088     2.4909     0.0419     0.0136
 2025.0000     8.7240   114.7391     2.4901     0.0405     0.0145
 2025.5000     8.7214   115.2057     2.4940     0.0411     0.0180
 2026.0000     8.7207   114.0779     2.4996     0.0378     0.0230
 2026.5000     8.7348   112.4988     2.5052     0.0331     0.0268
 2027.0000     8.7488   110.9267     2.5109     0.0283     0.0308
 2027.5000     8.7417   110.0638     2.5164     0.0236     0.0346
 2028.0000     8.6799   111.0491     2.5117     0.0261     0.0371
 2028.5000     8.6189   111.7933     2.5057     0.0300     0.0366
 2029.0000     8.5573   111.4152     2.5041     0.0307     0.0362
 2029.5000     8.5410   111.9501     2.5125     0.0270     0.0358
 2030.0000     8.5198   109.9115     2.5218     0.0195     0.0354
 2030.5000     8.5796   109.7587     2.5310     0.0139     0.0349
 2031.0000     8.6461   111.4200     2.5297     0.0142     0.0343
 2031.5000     8.7123   111.5245     2.5212     0.0175     0.0336
 2032.0000     8.7599   113.5548     2.5129     0.0232     0.0329
 2032.5000     8.7590   114.5993     2.5070     0.0271     0.0323
 2033.0000     8.7593   115.1687     2.5150     0.0250     0.0316
 2033.5000     8.7619   116.4405     2.5092     0.0242     0.0307
 2034.0000     8.7646   117.4639     2.5015     0.0310     0.0275
 2034.5000     8.7673   115.8601     2.4939     0.0378     0.0243
 2035.0000     8.7700   115.3084     2.4862     0.0441     0.0211
 2035.5000     8.7727   116.1270     2.4845     0.0447     0.0179
 2036.0000     8.7754   116.7151     2.4887     0.0436     0.0150
 2036.5000     8.7781   117.0046     2.4930     0.0398     0.0170
 2037.0000     8.7808   117.3027     2.4955     0.0359     0.0190
 2037.5000     8.7835   117.8793     2.4936     0.0369     0.0190
 2038.0000     8.7861   120.7188     2.4926     0.0379     0.0200
 2038.5000     8.7888   123.6081     2.4984     0.0350     0.0218
 2039.0000     8.7915   124.5325     2.5043     0.0318     0.0228
 2039.5000     8.7943   124.2924     2.5056     0.0295     0.0238
 2040.0000     8.7970   125.3268     2.5051     0.0305     0.0247
 2040.5000     8.7963   124.0067     2.5045     0.0314     0.0238
 2041.0000     8.7720   122.7477     2.5043     0.0299     0.0232
 2041.5000     8.7475   123.4719     2.5070     0.0283     0.0240
 2042.0000     8.7231   123.2887     2.5096     0.0268     0.0247
 2042.5000     8.6986   122.1651     2.5114     0.0253     0.0255
 2043.0000     8.6742   121.3290     2.5089     0.0259     0.0262
 2043.5000     8.6498   122.7993     2.5066     0.0284     0.0269
 2044.0000     8.6253   124.2931     2.5043     0.0293     0.0266
 2044.5000     8.6009   125.0702     2.5085     0.0273     0.0259
 2045.0000     8.5765   126.0876     2.5135     0.0248     0.0252
 2045.5000     8.5520   128.7544     2.5155     0.0231     0.0245
 2046.0000     8.5697   130.1301     2.5111     0.0248     0.0237
 2046.5000     8.6295   128.1363     2.5066     0.0282     0.0230
 2047.0000     8.6892   126.7507     2.5020     0.0317     0.0223
 2047.5000     8.7491   128.9515     2.4981     0.0347     0.0215
 2048.0000     8.7781   131.9471     2.4992     0.0346     0.0208
 2048.5000     8.7709   133.3872     2.5002     0.0343     0.0201
 2049.0000     8.7636   127.6960     2.4990     0.0340     0.0194
 2049.5000     8.7563   121.2945     2.4917     0.0363     0.0194
 2050.0000     8.7489   114.8882     2.4848     0.0397     0.0202
 2050.5000     8.7416   114.1991     2.4945     0.0396     0.0210
 2051.0000     8.7343   114.9583     2.5103     0.0286     0.0218
 2051.5000     8.7270   115.7344     2.5227     0.0201     0.0227
 2052.0000     8.7195   116.6205     2.5156     0.0236     0.0235
 2052.5000     8.7220   115.9403     2.5078     0.0286     0.0243
 2053.0000     8.7320   115.0372     2.5105     0.0265     0.0248
 2053.5000     8.7417   117.2476     2.5130     0.0243     0.0235
 2054.0000     8.7515   120.4582     2.5119     0.0259     0.0221
 2054.5000     8.7613   123.5823     2.5120     0.0263     0.0207
 2055.0000     8.7710   125.4118     2.5153     0.0251     0.0193
 2055.5000     8.7808   127.6075     2.5186     0.0215     0.0179
 2056.0000     8.7902   126.7621     2.5130     0.0204     0.0165
 2056.5000     8.7978   123.7631     2.5004     0.0332     0.0132
 2057.0000     8.8179   120.9665     2.4877     0.0435     0.0098
 2057.5000     8.8050   119.7614     2.4751     0.0495     0.0065
 2058.0000     8.7908   120.1296     2.4633     0.0548     0.0044
 2058.5000     8.7765   120.2145     2.4533     0.0617     0.0005
 2059.0000     8.7618   117.3947     2.4461     0.0689    -0.0034
 2059.5000     8.7600   112.8517     2.4473     0.0708    -0.0030
 2060.0000     8.7612   109.3418     2.4585     0.0632     0.0004
 2060.5000     8.7626   106.0333     2.4705     0.0556     0.0039
 2061.0000     8.7639   102.6822     2.4826     0.0480     0.0074
 2061.5000     8.7652    99.8344     2.4912     0.0403     0.0108
