~VERSION INFORMATION
 VERS.                2.0:   CWLS LOG ASCII STANDARD - VERSION 2.0
 WRAP.                 NO:   ONE LINE PER DEPTH STEP
~WELL INFORMATION
#MNEM.UNIT      DATA TYPE    INFORMATION
#----------   ------------   ------------------------------
 STRT.F           19.5000:   START DEPTH
 STOP.F          690.5000:   STOP DEPTH
 STEP.F            0.5000:   STEP LENGTH
 NULL.          -999.2500:   NO VALUE
 COMP. FENIX & SCISSON INC:   COMPANY
 WELL. 37-22 SX 11 WI #3-11:   WELL
 FLD .             TEAPOT:   FIELD
 LOC .      S11 T38N R78W:   LOCATION
 CNTY.            NATRONA:   COUNTY
 STAT.            WYOMING:   STATE
 CTRY. UNITED STATES OF AMERICA:   COUNTRY
 SRVC.      Dresser Atlas:   SERVICE COMPANY
 DATE.        11-AUG-1980:   LOGDATE
 API .       490251084400:   API NUMBER
~CURVE INFORMATION
#MNEM.UNIT       API CODE    CURVE DESCRIPTION
#----------   ------------   ------------------------------
 DEPT.F                  :   
 SPR .MV     07 010 01 00:   SPONTANEOUS POTENTIAL
 SFL .OHMM   07 220 01 00:   SHALLOW FOCUSED LOG RESISTIVITY
 ILD .OHMM   07 120 46 00:   INDUCTION LOG DEEP
 ILM .OHMM   07 120 44 00:   INDUCTION LOG MEDIUM
 GRD .GAPI   45 310 01 00:   GAMMA RAY FROM DENSITY LOG
 CALD.IN     45 280 60 00:   CALIPER
 CORR.G/C3   45 356 01 00:   DENSITY CORRECTION
 RHOB.G/C3   45 350 01 00:   BULK DENSITY
 NPHI.DEC    42 890 12 00:   NEUTRON POROSITY SANDSTONE
 DPHI.DEC    45 890 12 00:   DENSITY POROSITY SANDSTONE
~PARAMETER INFORMATION
#MNEM.UNIT          VALUE    DESCRIPTION
#----------   ------------   ------------------------------
 PD  .                 GL:   PERMANENT DATUM
 EPD .F              5191:   ELEVATION PERMANENT DATUM
 LMF .                 KB:   LOG MEASURED FROM
 DAPD.F                 5:   FEET ABOVE PERMANENT DATUM
 DMF .                 KB:   DRILLING MEASURED FROM
 EKB .F              5196:   KELLING BUSHING
 EGL .F              5191:   GROUND LEVEL
 DATE.            8-11-80:   RUN DATE
 RUN .                  1:   RUN NUMBER
 DD  .F               680:   DEPTH DRILLER
 DL  .F               689:   DEPTH LOGGER
 BLI .F               687:   BOTTOM LOG INTERVAL
 TLI .F                20:   TOP LOG INTERVAL
 CS  .IN            8.625:   CASING SIZE
 BS  .IN            7.875:   BIT SIZE
 BSD .F               680:   BIT SIZE AT DEPTH
 DFT .           CHEM GEL:   DRILLING FLUID TYPE
 DFD .                9.9:   DRILLING FLUID DENSITY
 DFV .                 52:   DRILLING FLUID VISCOSITY
 DFPH.               11.5:   DRILLING FLUID PH
 DFL .                104:   DRILLING FLUID LOSS
 MSS .           FLOWLINE:   MUD SAMPLE SOURCE
 RMS .OHMM             .2:   RESISTIVITY MUD SAMPLE
 MST .F                74:   MUD SAMPLE TEMPERATURE
 RMF .OHMM            .15:   RESISTIVITY MUD FILTRATE SAMPLE
 MFST.F                74:   MUD FILTRATE SAMPLE TEMPERATURE
 RMC .OHMM            .25:   RESISTIVITY MUD CAKE
 MCST.F                74:   MUD CAKE SAMPLE TEMPERATURE
 MFSS.               CALC:   MUD FILTRATE SAMPLE SOURCE
 MCSS.               CALC:   MUD CAKE SAMPLE SOURCE
 TCS .HRS               3:   TIME CURCULATED STOPPED
 LUN .             HL6150:   LOGGING UNIT NUMBER
 LUL .                 FM:   LOGGING UNIT LOCATION
 ENGI.            BRANNEY:   RECORDING ENGINEER
 WITN.           MCINTYRE:   WITNESSED BY
 CLNT.            A2DTECH:   CLIENT CODE
 ORIG.           5" PRINT:   ORIGIN OF DATA
 UWI .       490251084400:   UNIQUE WELL ID
 DICO. A2D Technologies, Inc.:   DIGITIZING COMPANY
~OTHER INFORMATION
~A   DEPT      SPR        SFL        ILD        ILM        GRD       CALD       CORR       RHOB       NPHI       DPHI   
# ...
  555.5000   -39.8420    15.3910    13.5850    12.4580    90.4320     7.7320     0.0320     2.3870     0.2080     0.1750
  556.0000   -39.7820    15.2400    13.5250    12.3990    91.1520     7.7260     0.0410     2.3930     0.2130     0.1780
  556.5000   -39.8440    15.0910    13.4640    12.3270    87.9760     7.7200     0.0330     2.3780     0.2180     0.1840
  557.0000   -39.9410    14.9420    13.4040    12.2550    89.2420     7.7140     0.0240     2.3780     0.2170     0.1820
  557.5000   -40.0380    14.7930    13.3430    12.1830    87.9690     7.7090     0.0160     2.3840     0.2150     0.1800
  558.0000   -40.1360    14.6440    13.2830    12.1100    90.5780     7.7030     0.0080     2.3680     0.2140     0.1870
  558.5000   -40.2340    14.5650    13.2230    12.0380    92.1470     7.7070     0.0130     2.3490     0.2150     0.1960
  559.0000   -40.3310    14.5610    13.1620    11.9660    92.5230     7.7160     0.0240     2.3560     0.2160     0.1910
  559.5000   -40.4280    14.5530    13.1020    11.8940    93.1990     7.7250     0.0340     2.3700     0.2120     0.1850
  560.0000   -40.5260    14.5460    13.0420    11.8220    94.4900     7.7340     0.0430     2.3950     0.2100     0.1800
  560.5000   -40.5490    14.5380    12.9810    11.7490    95.6790     7.7430     0.0420     2.3730     0.2130     0.1760
  561.0000   -40.4990    14.5300    12.9210    11.6770    94.5240     7.7520     0.0380     2.3890     0.2190     0.1790
  561.5000   -40.4500    14.5220    12.8600    11.6050    92.6930     7.7610     0.0340     2.3830     0.2250     0.1820
  562.0000   -40.4000    14.5150    12.8000    11.5330    93.8420     7.7700     0.0330     2.3750     0.2280     0.1810
  562.5000   -40.3500    14.5070    12.7400    11.4610    94.8880     7.7800     0.0400     2.3900     0.2260     0.1730
  563.0000   -40.3000    14.4990    12.6890    11.3880    92.0550     7.7890     0.0550     2.4080     0.2230     0.1640
  563.5000   -40.2500    14.4920    12.6970    11.3160    92.9550     7.7980     0.0680     2.4270     0.2200     0.1580
  564.0000   -40.1990    14.4840    12.7100    11.2440    94.8040     7.8070     0.0600     2.4110     0.2180     0.1650
  564.5000   -40.1500    14.4760    12.7240    11.1720    96.6280     7.8160     0.0450     2.3900     0.2220     0.1720
  565.0000   -40.0990    14.4680    12.7380    11.1570    98.5490     7.8250     0.0320     2.3800     0.2220     0.1780
  565.5000   -40.0450    14.4610    12.7520    11.1060    99.6860     7.8340     0.0240     2.3730     0.2190     0.1830
  566.0000   -39.9800    14.4530    12.7660    11.0420    98.4460     7.8380     0.0150     2.3670     0.2190     0.1910
  566.5000   -40.1730    14.4450    12.7790    10.9790    94.7390     7.8360     0.0150     2.3640     0.2250     0.1870
  567.0000   -40.1430    14.4370    12.7930    10.9150    93.5320     7.8330     0.0400     2.3790     0.2240     0.1780
  567.5000   -40.1210    14.3910    12.8050    10.8520    94.3000     7.8310     0.0550     2.3930     0.2220     0.1700
  568.0000   -40.0980    14.2280    12.7080    10.7890    92.8820     7.8280     0.0560     2.4080     0.2260     0.1640
  568.5000   -40.0750    14.0640    12.6140    10.7250    94.7360     7.8250     0.0430     2.4160     0.2230     0.1740
  569.0000   -40.0520    13.9010    12.5200    10.6620    97.0520     7.8230     0.0290     2.3790     0.2190     0.1820
  569.5000   -40.0290    13.7370    12.4260    10.5980    97.9320     7.8200     0.0260     2.3900     0.2170     0.1730
  570.0000   -40.0050    13.5740    12.3320    10.5350    96.1990     7.8170     0.0340     2.4040     0.2210     0.1650
  570.5000   -39.9850    13.4110    12.2390    10.4710    97.0990     7.8150     0.0340     2.3940     0.2240     0.1700
  571.0000   -40.2090    13.2470    12.1450    10.4080    94.8060     7.8120     0.0240     2.4000     0.2250     0.1670
  571.5000   -40.4590    13.0840    12.0510    10.3440    93.0230     7.8090     0.0340     2.4090     0.2310     0.1620
  572.0000   -40.7110    12.9200    11.9570    10.2810    92.6280     7.8070     0.0440     2.4190     0.2360     0.1580
  572.5000   -40.9610    12.7570    11.8630    10.2170    93.9420     7.8040     0.0410     2.4270     0.2420     0.1630
  573.0000   -40.9730    12.5930    11.7700    10.1540    93.6390     7.8010     0.0230     2.4070     0.2440     0.1680
  573.5000   -40.9720    12.4300    11.6760    10.0910    95.5110     7.8000     0.0070     2.3900     0.2440     0.1750
  574.0000   -40.9720    12.2660    11.5820    10.0270    95.3180     7.8030     0.0220     2.3990     0.2430     0.1690
  574.5000   -40.9730    12.2200    11.4880     9.9640    96.9880     7.8050     0.0380     2.4190     0.2340     0.1590
  575.0000   -40.9750    12.1920    11.4420     9.9000    95.0700     7.8080     0.0240     2.4100     0.2260     0.1700
  575.5000   -41.0540    12.1650    11.4090     9.8890    92.5270     7.8110     0.0130     2.3880     0.2180     0.1750
  576.0000   -41.4770    12.1370    11.3750     9.8780    94.2110     7.8130     0.0220     2.3960     0.2090     0.1670
  576.5000   -41.9020    12.1090    11.3420     9.8670    91.4280     7.8160     0.0310     2.4120     0.2150     0.1610
  577.0000   -41.7520    12.0820    11.3090     9.8560    94.6550     7.8190     0.0400     2.4300     0.2230     0.1560
  577.5000   -41.5060    12.0540    11.2750     9.8450    94.6270     7.8210     0.0350     2.4230     0.2210     0.1600
  578.0000   -41.2470    12.0260    11.2420     9.8340    95.6100     7.8240     0.0280     2.4070     0.2170     0.1620
  578.5000   -41.2730    11.9990    11.2080     9.8230    96.0950     7.8270     0.0350     2.4120     0.2180     0.1610
  579.0000   -41.4810    11.9710    11.1750     9.8120    94.8850     7.8290     0.0380     2.4200     0.2210     0.1620
  579.5000   -41.6910    11.9430    11.1410     9.8010    95.1640     7.8320     0.0290     2.4120     0.2250     0.1650
  580.0000   -41.9080    11.9160    11.1080     9.7900    96.3970     7.8350     0.0210     2.4000     0.2190     0.1640
  580.5000   -41.9810    11.8880    11.0750     9.7790    95.3840     7.8380     0.0120     2.4080     0.2120     0.1620
  581.0000   -42.0580    11.8600    11.0410     9.7690    92.9180     7.8380     0.0220     2.4190     0.2170     0.1590
  581.5000   -42.1300    11.8320    11.0080     9.7580    94.3320     7.8350     0.0360     2.4330     0.2230     0.1500
  582.0000   -42.2080    11.8050    10.9740     9.7470    97.0560     7.8310     0.0500     2.4630     0.2280     0.1410
  582.5000   -42.2910    11.7770    10.9410     9.7360    98.4120     7.8270     0.0530     2.4550     0.2240     0.1370
  583.0000   -42.3740    11.7490    10.9070     9.7250    96.9350     7.8240     0.0450     2.4430     0.2210     0.1430
  583.5000   -42.4580    11.7220    10.8740     9.7140    97.7290     7.8200     0.0590     2.4610     0.2250     0.1290
  584.0000   -42.5410    11.6940    10.8410     9.7030    96.4950     7.8160     0.0590     2.4740     0.2230     0.1340
  584.5000   -42.6180    11.6660    10.8070     9.6920    95.5940     7.8130     0.0480     2.4510     0.2180     0.1420
  585.0000   -42.6930    11.6390    10.7740     9.6810    96.7550     7.8090     0.0370     2.4320     0.2140     0.1490
  585.5000   -42.7690    11.6110    10.7430     9.6700   101.3500     7.8050     0.0280     2.4230     0.2120     0.1550
  586.0000   -42.8440    11.5830    10.7170     9.6590   101.8280     7.8010     0.0200     2.4190     0.2190     0.1590
  586.5000   -42.9190    11.5560    10.6910     9.6480   102.7820     7.7980     0.0260     2.4440     0.2190     0.1450
  587.0000   -42.9940    11.5280    10.6640     9.6370   104.1080     7.7940     0.0360     2.4630     0.2180     0.1330
  587.5000   -43.0690    11.5000    10.6380     9.6180   101.5480     7.7900     0.0460     2.4790     0.2180     0.1270
  588.0000   -43.1450    11.4730    10.6110     9.5910    98.7840     7.7870     0.0390     2.4690     0.2230     0.1320
  588.5000   -43.1100    11.4480    10.5850     9.5630    96.3850     7.7830     0.0270     2.4560     0.2230     0.1370
