~VERSION INFORMATION
 VERS.                2.0:   CWLS LOG ASCII STANDARD - VERSION 2.0
 WRAP.                 NO:   ONE LINE PER DEPTH STEP
~WELL INFORMATION
#MNEM.UNIT      DATA TYPE    INFORMATION
#----------   ------------   ------------------------------
 STRT.F           21.0000:   START DEPTH
 STOP.F          543.0000:   STOP DEPTH
 STEP.F            0.5000:   STEP LENGTH
 NULL.          -999.2500:   NO VALUE
 COMP. FENIX & SCISSON INC:   COMPANY
 WELL.      NPR #3 #46-10:   WELL
 FLD .             TEAPOT:   FIELD
 LOC .      S10 T38N R78W:   LOCATION
 CNTY.            NATRONA:   COUNTY
 STAT.            WYOMING:   STATE
 CTRY. UNITED STATES OF AMERICA:   COUNTRY
 SRVC.              Welex:   SERVICE COMPANY
 DATE.        08-MAY-1980:   LOGDATE
 API .       490251081100:   API NUMBER
~CURVE INFORMATION
#MNEM.UNIT       API CODE    CURVE DESCRIPTION
#----------   ------------   ------------------------------
 DEPT.F                  :   
 SGRD.OHMM   07 220 05 00:   SHALLOW GUARD RESISTIVITY
 ILD .OHMM   07 120 46 00:   INDUCTION LOG DEEP RESISTIVITY
 ILM .OHMM   07 120 44 00:   INDUCTION LOG MEDIUM
 SPR .MV     07 010 01 00:   SPONTANEOUS POTENTIAL
 CALD.IN     45 280 60 00:   CALIPER
 GRD .GAPI   45 310 01 00:   GAMMA RAY FROM DENSITY LOG
 CORR.G/C3   45 356 01 00:   DENSITY CORRECTION
 RHOB.G/C3   45 350 01 00:   BULK DENSITY
 DPHI.DEC    45 890 12 00:   DENSITY POROSITY SANDSTONE
~PARAMETER INFORMATION
#MNEM.UNIT          VALUE    DESCRIPTION
#----------   ------------   ------------------------------
 PD  .                 GL:   PERMANENT DATUM
 EPD .F              5206:   ELEVATION PERMANENT DATUM
 LMF .                 KB:   LOG MEASURED FROM
 DAPD.F                 5:   FEET ABOVE PERMANENT DATUM
 DMF .                 KB:   DRILLING MEASURED FROM
 EKB .F              5211:   KELLING BUSHING
 EGL .F              5206:   GROUND LEVEL
 DATE.             5-8-80:   RUN DATE
 RUN .                  1:   RUN NUMBER
 DD  .F               530:   DEPTH DRILLER
 DL  .F               543:   DEPTH LOGGER
 BLI .F               541:   BOTTOM LOG INTERVAL
 TLI .F                30:   TOP LOG INTERVAL
 BS  .IN            7.875:   BIT SIZE
 BSD .F               530:   BIT SIZE AT DEPTH
 DFT .            KCL MUD:   DRILLING FLUID TYPE
 DFD .                9.1:   DRILLING FLUID DENSITY
 DFV .                 43:   DRILLING FLUID VISCOSITY
 MSS .                PIT:   MUD SAMPLE SOURCE
 RMS .OHMM            .89:   RESISTIVITY MUD SAMPLE
 MST .F                75:   MUD SAMPLE TEMPERATURE
 RMF .OHMM            .71:   RESISTIVITY MUD FILTRATE SAMPLE
 MFST.F                75:   MUD FILTRATE SAMPLE TEMPERATURE
 RMC .OHMM           1.08:   RESISTIVITY MUD CAKE
 MCST.F                75:   MUD CAKE SAMPLE TEMPERATURE
 MFSS.           MEASURED:   MUD FILTRATE SAMPLE SOURCE
 MCSS.           MEASURED:   MUD CAKE SAMPLE SOURCE
 BHT .F               100:   BOTTOM HOLE TEMPERATURE
 TCS .HRS               2:   TIME CURCULATED STOPPED
 MRT .F               100:   MAXIMUM RECORDED TEMPERATURE
 LUN .               9685:   LOGGING UNIT NUMBER
 LUL .             CASPER:   LOGGING UNIT LOCATION
 ENGI.            TOTHILL:   RECORDING ENGINEER
 WITN.              AMEND:   WITNESSED BY
 CLNT.            A2DTECH:   CLIENT CODE
 ORIG.           5" PRINT:   ORIGIN OF DATA
 UWI .       490251081100:   UNIQUE WELL ID
 DICO. A2D Technologies, Inc.:   DIGITIZING COMPANY
~OTHER INFORMATION
~A   DEPT     SGRD        ILD        ILM        SPR        CALD        GRD        CORR       RHOB     DPHI   
# ...
  203.5000    10.3773     6.5976     9.1910   -31.4949     7.7919    98.6360     0.0442     2.4328     0.1470
  204.0000    10.4894     6.6153     9.3042   -31.0436     7.7839    98.8903     0.0501     2.4432     0.1409
  204.5000    10.2977     6.6153     9.4187   -31.0230     7.7759    98.7329     0.0556     2.4561     0.1333
  205.0000    10.4567     6.6153     9.5655   -31.0773     7.7680    98.0994     0.0551     2.4577     0.1304
  205.5000    10.6949     6.6153     9.5335   -31.2206     7.7585    99.0212     0.0527     2.4519     0.1326
  206.0000    10.8823     6.6153     9.4778   -31.3327     7.7806    99.2464     0.0468     2.4333     0.1389
  206.5000    10.6315     6.6153     9.3908   -31.5008     7.7694    99.2494     0.0411     2.4170     0.1523
  207.0000    10.4311     6.6153     9.3908   -31.6787     7.7519    99.2691     0.0432     2.4244     0.1541
  207.5000    10.2344     6.6153     9.3908   -31.9604     7.7344   100.0848     0.0437     2.4291     0.1476
  208.0000    10.1096     6.6153     9.3046   -32.0110     7.7216   100.9659     0.0395     2.4209     0.1516
  208.5000    10.1159     6.6153     9.3811   -32.0191     7.7372   101.0933     0.0351     2.4092     0.1608
  209.0000    10.0133     6.6153     9.4337   -31.8177     7.7524   100.3998     0.0402     2.4213     0.1558
  209.5000    10.2407     6.6153     9.4867   -31.8502     7.7675    99.7084     0.0382     2.4203     0.1502
  210.0000    10.3852     6.6153     9.5400   -31.9392     7.7826    98.7682     0.0301     2.4216     0.1511
  210.5000    10.5314     6.6153     9.5934   -32.0297     7.7977    98.1626     0.0220     2.3360     0.1510
  211.0000    10.5870     6.6153     9.6538   -32.1199     7.8130    97.8076     0.0200     2.2989     0.1508
  211.5000    10.5233     6.6153     9.5955   -32.2043     7.8138    98.1313     0.0255     2.3139     0.1453
  212.0000    10.4640     6.6153     9.5286   -32.0401     7.8053    98.6083     0.0303     2.3385     0.1402
  212.5000    10.4051     6.6153     9.4622   -31.8266     7.7966    99.0882     0.0345     2.3431     0.1389
  213.0000    10.3465     6.6153     9.3908   -31.6125     7.7878    99.5637     0.0448     2.3760     0.1376
  213.5000    10.2882     6.6153     9.3908   -31.3997     7.7803    99.8535     0.0582     2.4455     0.1363
  214.0000    10.2303     6.6153     9.3908   -31.1806     7.7940    99.8498     0.0683     2.4519     0.1328
  214.5000    10.1726     6.6153     9.3907   -30.8805     7.7637    99.8507     0.0682     2.4629     0.1287
  215.0000    10.1153     6.6153     9.3833   -30.8976     7.7343    99.8512     0.0685     2.4522     0.1337
  215.5000    10.0583     6.6153     9.3321   -31.1050     7.7049    99.8494     0.0715     2.4535     0.1306
  216.0000    10.0168     6.6153     9.2813   -31.3063     7.6756    99.7830     0.0806     2.4660     0.1253
  216.5000    10.0434     6.6153     9.2157   -31.5073     7.6462    99.4475     0.0775     2.4562     0.1253
  217.0000    10.0953     6.6154     9.1383   -31.7079     7.6170    99.5366     0.0654     2.4436     0.1380
  217.5000    10.1474     6.6159     9.1882   -31.9094     7.6001   100.2175     0.0534     2.4270     0.1473
  218.0000    10.2032     6.5638     9.2333   -32.1182     7.6015   100.4454     0.0412     2.4091     0.1575
  218.5000    10.1096     6.5057     9.2786   -32.4039     7.6279   100.4495     0.0289     2.3918     0.1695
  219.0000     9.9204     6.4480     9.3046   -32.4062     7.6546   100.4511     0.0228     2.3812     0.1748
  219.5000    10.0854     6.3909     9.2192   -32.1873     7.6814   100.4409     0.0182     2.3754     0.1788
  220.0000    10.2088     6.3342     8.9213   -32.2007     7.7252   101.0210     0.0146     2.3679     0.1855
  220.5000     9.8690     6.2627     8.6389   -32.1941     7.7476   101.7029     0.0167     2.3686     0.1818
  221.0000     9.4644     6.2078     8.3653   -32.3444     7.7606   101.8893     0.0223     2.3824     0.1757
  221.5000     9.0750     6.0971     8.1004   -32.5169     7.7878   101.9266     0.0280     2.3924     0.1701
  222.0000     8.7016     5.9212     7.8437   -32.6892     7.8146   101.4753     0.0309     2.4011     0.1643
  222.5000     8.3444     5.7755     7.5957   -32.7838     7.8387   101.9137     0.0202     2.3697     0.1801
  223.0000     8.0285     5.6359     7.3892   -32.7779     7.8391   102.7152     0.0126     2.3510     0.1942
  223.5000     8.0285     5.4996     7.4584   -32.5371     7.8390   103.0282     0.0196     2.3675     0.1865
  224.0000     8.2868     5.4008     7.4567   -32.2775     7.8390   102.9302     0.0264     2.3857     0.1767
  224.5000     8.6967     5.3022     8.1855   -32.0188     7.8390   104.4589     0.0258     2.3952     0.1679
  225.0000     9.1353     5.2717     8.1835   -31.7607     7.8390   104.8367     0.0236     2.3938     0.1684
  225.5000     9.5929     5.2509     8.1028   -31.4993     7.8390   104.1818     0.0219     2.3980     0.1667
  226.0000     9.9249     5.2995     8.1028   -31.4207     7.8390   102.6782     0.0206     2.3955     0.1675
  226.5000     9.8687     5.4367     8.2017   -31.4286     7.8390   101.3089     0.0198     2.3899     0.1704
  227.0000     9.8328     5.6910     8.3094   -31.4856     7.8379   101.3410     0.0204     2.3926     0.1694
  227.5000     9.8316     6.0357     8.4186   -31.5417     7.8345   101.3470     0.0247     2.4006     0.1637
  228.0000    10.2076     6.0312     8.5292   -31.5975     7.8311   101.3448     0.0297     2.4124     0.1575
  228.5000     9.9049     6.0234     8.6413   -31.6534     7.8278   101.4644     0.0319     2.4206     0.1534
  229.0000     9.5712     5.9814     8.7231   -31.7094     7.8244   101.6248     0.0353     2.4271     0.1492
  229.5000     9.3046     5.9397     8.3301   -31.7652     7.8210   101.7864     0.0395     2.4364     0.1443
  230.0000     9.1346     5.9225     8.1779   -31.8102     7.8176   101.9499     0.0411     2.4324     0.1409
  230.5000     9.0508     5.9225     8.2874   -31.8085     7.8142   102.1103     0.0426     2.4360     0.1468
  231.0000     9.1951     6.0169     8.3963   -31.8115     7.8108   102.0967     0.0390     2.4347     0.1420
  231.5000     9.3908     6.0885     8.4851   -31.9878     7.8074   100.9849     0.0289     2.4018     0.1541
  232.0000     9.0225     6.0885     8.1142   -32.4620     7.8041   100.8631     0.0309     2.4054     0.1651
  232.5000     8.7231     5.7670     7.8160   -32.9985     7.8007   101.2082     0.0375     2.4235     0.1539
  233.0000     8.8852     5.5539     7.5267   -32.8103     7.7992   101.5639     0.0378     2.4215     0.1512
  233.5000     8.9707     5.3486     7.3892   -32.5570     7.7992   101.8630     0.0434     2.4271     0.1486
  234.0000     8.3291     5.1509     7.3214   -33.1842     7.7992   102.1293     0.0427     2.4223     0.1476
  234.5000     7.8007     4.9512     7.3214   -33.3719     7.7992   102.6673     0.0339     2.3939     0.1668
  235.0000     7.1494     4.7517     7.2542   -33.1603     7.7992   102.8078     0.0308     2.3779     0.1753
  235.5000     6.5551     4.5603     7.2323   -32.8258     7.7992   101.8683     0.0256     2.3621     0.1877
  236.0000     6.0255     4.3766     7.0082   -32.7939     7.7997   100.9519     0.0258     2.3546     0.1930
  236.5000     5.7609     4.2003     6.7911   -32.8492     7.8028    99.5620     0.0270     2.3597     0.1886
  237.0000     6.4669     4.1338     6.6766   -32.9001     7.8058    98.0668     0.0254     2.3598     0.1892
  237.5000     7.6756     4.1338     6.8638   -32.9506     7.8088    96.9678     0.0226     2.3582     0.1888
  238.0000     8.9631     4.1338     7.0390   -33.0009     7.8119    96.5338     0.0182     2.3556     0.1908
  238.5000     9.1428     4.2588     7.2817   -33.0514     7.8149    96.5750     0.0129     2.3588     0.1904
  239.0000     8.9691     4.4507     7.5327   -33.1017     7.8179    97.3866     0.0095     2.3606     0.1885
  239.5000     8.9677     4.6510     7.7924   -33.1529     7.8191    98.1819     0.0135     2.3662     0.1848
