~VERSION INFORMATION
 VERS.                2.0:   CWLS LOG ASCII STANDARD - VERSION 2.0
 WRAP.                 NO:   ONE LINE PER DEPTH STEP
~WELL INFORMATION
#MNEM.UNIT      DATA TYPE    INFORMATION
#----------   ------------   ------------------------------
 STRT.F            7.0000:   START DEPTH
 STOP.F          480.0000:   STOP DEPTH
 STEP.F            0.1000:   STEP LENGTH
 NULL.          -999.2500:   NO VALUE
 COMP.       F D SERV INC:   COMPANY
 WELL.    67-2 SX-3 #67-3:   WELL
 FLD .          N.P.R. #3:   FIELD
 LOC .       S3 T38N R78W:   LOCATION
 CNTY.            NATRONA:   COUNTY
 STAT.            WYOMING:   STATE
 CTRY. UNITED STATES OF AMERICA:   COUNTRY
 SRVC.     Atlas Wireline:   SERVICE COMPANY
 DATE.        12-FEB-1992:   LOGDATE
 API .       490252250400:   API NUMBER
~CURVE INFORMATION
#MNEM.UNIT       API CODE    CURVE DESCRIPTION
#----------   ------------   ------------------------------
 DEPT.F                  :   
 SPR .MV     07 010 01 00:   SPONTANEOUS POTENTIAL
 GRR .GAPI   07 310 01 00:   GAMMA RAY
 RILD.OHMM   07 120 46 00:   INDUCTION LOG DEEP RESISTIVITY
 RILM.OHMM   07 120 44 00:   INDUCTION LOG MEDIUM RESISTIVITY
 RFOC.OHMM   07 220 04 00:   RESISTIVITY FOCUSED LOG
~PARAMETER INFORMATION
#MNEM.UNIT          VALUE    DESCRIPTION
#----------   ------------   ------------------------------
 PD  .                 GL:   PERMANENT DATUM
 EPD .F              5165:   ELEVATION PERMANENT DATUM
 LMF .                 KB:   LOG MEASURED FROM
 DAPD.F                10:   FEET ABOVE PERMANENT DATUM
 DMF .                 KB:   DRILLING MEASURED FROM
 EKB .F              5175:   KELLING BUSHING
 EDF .F              5174:   DRILLING FLOOR
 EGL .F              5165:   GROUND LEVEL
 DATE.        12-FEB-1992:   RUN DATE
 RUN .                  1:   RUN NUMBER
 DD  .F               487:   DEPTH DRILLER
 DL  .F               485:   DEPTH LOGGER
 BLI .F               482:   BOTTOM LOG INTERVAL
 CS  .IN            8.625:   CASING SIZE
 CBD .F               183:   CASING BOTTOM DRILLER
 CBL .F               186:   CASING BOTTOM LOGGER
 BS  .IN            7.875:   BIT SIZE
 BSD .F               487:   BIT SIZE AT DEPTH
 DFT .           CHEM GEL:   DRILLING FLUID TYPE
 DFD .               16.1:   DRILLING FLUID DENSITY
 DFV .                 43:   DRILLING FLUID VISCOSITY
 DFPH.                9.5:   DRILLING FLUID PH
 DFL .               11.8:   DRILLING FLUID LOSS
 MSS .           MUD TANK:   MUD SAMPLE SOURCE
 RMS .OHMM           2.36:   RESISTIVITY MUD SAMPLE
 MST .F                65:   MUD SAMPLE TEMPERATURE
 RMF .OHMM           1.17:   RESISTIVITY MUD FILTRATE SAMPLE
 MFST.F                65:   MUD FILTRATE SAMPLE TEMPERATURE
 RMC .OHMM           5.18:   RESISTIVITY MUD CAKE
 MCST.F                65:   MUD CAKE SAMPLE TEMPERATURE
 MFSS.               MEAS:   MUD FILTRATE SAMPLE SOURCE
 MCSS.               CALC:   MUD CAKE SAMPLE SOURCE
 RMB .OHMM           1.67:   RESISTIVITY MUD AT BHT
 BHT .F                92:   BOTTOM HOLE TEMPERATURE
 TCS .HRS               2:   TIME CURCULATED STOPPED
 MRT .F                92:   MAXIMUM RECORDED TEMPERATURE
 LUN .           HL- 6224:   LOGGING UNIT NUMBER
 LUL .             CASPER:   LOGGING UNIT LOCATION
 ENGI.        VERN RAUTIO:   RECORDING ENGINEER
 WITN.        GARY STRONG:   WITNESSED BY
 CLNT.            A2DTECH:   CLIENT CODE
 ORIG.           5" PRINT:   ORIGIN OF DATA
 UWI .       490252250400:   UNIQUE WELL ID
 DICO. A2D Technologies, Inc.:   DIGITIZING COMPANY
~OTHER INFORMATION
~A    DEPT     SPR        GRR       RILD       RILM       RFOC   
# ...
  348.6000   -34.1827    82.9997    12.8861    12.5050    12.4426
  348.7000   -34.1153    83.0039    12.8219    12.5448    12.4359
  348.8000   -34.1129    83.0081    12.7490    12.5599    12.3549
  348.9000   -34.1080    83.2062    12.6765    12.6318    12.3544
  349.0000   -33.9830    83.3163    12.6191    12.6315    12.3094
  349.1000   -33.9556    83.4065    12.6191    12.6869    12.2674
  349.2000   -33.9531    83.6566    12.6191    12.7191    12.2543
  349.3000   -33.9507    83.9290    12.5650    12.6713    12.1809
  349.4000   -33.9483    83.9328    12.5314    12.5271    12.1804
  349.5000   -33.9457    84.1069    12.5314    12.3684    12.1799
  349.6000   -33.9436    84.2411    12.5314    12.3058    12.1794
  349.7000   -33.9412    84.2453    12.5314    12.1895    12.1789
  349.8000   -33.8837    84.2495    12.5314    12.0811    12.1783
  349.9000   -33.7862    84.2545    12.5314    12.0272    12.1777
  350.0000   -33.7838    84.1744    12.5314    12.0269    12.2035
  350.1000   -33.7838    84.0760    12.5735    12.0537    12.2350
  350.2000   -33.7838    83.9775    12.6198    12.0805    12.2665
  350.3000   -33.7838    83.8790    12.6202    12.1073    12.2980
  350.4000   -33.7838    83.7806    12.6206    12.1341    12.3295
  350.5000   -33.7838    83.6878    12.6209    12.1609    12.3610
  350.6000   -33.7838    85.1945    12.6674    12.1877    12.3925
  350.7000   -33.7838    85.5984    12.7100    12.2040    12.4240
  350.8000   -33.7838    85.8051    12.7229    12.2051    12.4367
  350.9000   -33.7838    85.8111    12.7997    12.2064    12.4369
  351.0000   -33.7838    85.8171    12.8682    12.3377    12.4371
  351.1000   -33.7838    85.8238    12.8900    12.4789    12.4372
  351.2000   -33.8943    85.6156    12.8564    12.5550    12.4374
  351.3000   -33.9339    85.3789    12.8011    12.5562    12.4846
  351.4000   -33.9339    85.1423    12.8015    12.5574    12.5250
  351.5000   -33.9339    84.9055    12.7300    12.6295    12.5251
  351.6000   -33.9339    84.6541    12.7131    12.5936    12.5253
  351.7000   -33.9339    84.2047    12.7514    12.5611    12.5941
  351.8000   -34.0246    83.8957    12.8029    12.5623    12.6135
  351.9000   -34.0841    83.6590    12.8033    12.5635    12.6493
  352.0000   -34.0841    83.4223    12.8037    12.5650    12.7023
  352.1000   -34.0898    83.1844    12.8634    12.6242    12.7025
  352.2000   -34.2342    82.9489    12.9366    12.6968    12.7027
  352.3000   -34.2342    82.8966    13.0102    12.8205    12.7028
  352.4000   -34.3051    82.9025    13.0926    13.0318    12.7030
  352.5000   -34.3844    82.9085    13.2601    13.1993    12.7032
  352.6000   -34.3987    82.9145    13.3926    13.3318    12.7103
  352.7000   -34.5345    82.9216    13.5947    13.4844    12.7927
  352.8000   -34.5345    82.9265    13.8272    13.6386    12.7928
  352.9000   -34.6139    83.0737    14.0637    13.7945    12.7930
  353.0000   -34.7357    83.2384    14.3199    13.9626    12.8219
  353.1000   -34.8576    83.2444    14.5494    14.1869    12.9068
  353.2000   -34.9850    83.2511    14.7986    14.3733    13.0646
  353.3000   -35.1011    83.2564    15.0517    14.5377    13.0648
  353.4000   -35.3108    83.1072    15.3090    14.7231    13.1684
  353.5000   -35.6142    82.9685    15.5727    14.9773    13.2837
  353.6000   -35.9797    82.9745    15.8375    15.2327    13.3941
  353.7000   -36.3421    82.9809    16.1089    15.4944    13.6250
  353.8000   -36.5857    82.7602    16.3847    15.7602    13.7796
  353.9000   -37.0223    82.5235    16.6376    16.0303    13.9974
  354.0000   -37.6456    82.1749    16.8315    16.3050    14.2807
  354.1000   -38.4955    81.7504    17.1736    16.6372    14.6078
  354.2000   -39.5581    81.5113    17.4133    16.8700    14.9369
  354.3000   -40.3904    81.0367    17.7114    17.1032    15.2381
  354.4000   -41.0200    80.1910    18.0144    17.2988    15.6009
  354.5000   -41.7509    78.8486    18.3222    17.5072    15.9951
  354.6000   -42.3851    77.0874    18.6761    17.8462    16.3617
  354.7000   -42.8524    75.1516    19.0494    18.0244    16.7240
  354.8000   -43.2432    72.8527    19.4148    18.2967    17.0420
  354.9000   -43.5836    71.4777    19.7469    18.5259    17.3031
  355.0000   -43.9490    70.0650    20.0655    18.6499    17.6001
  355.1000   -44.3144    68.7750    20.3100    18.8783    17.9020
  355.2000   -44.6230    67.3503    20.6334    19.1798    18.2087
  355.3000   -44.7447    65.9858    20.9043    19.4325    18.5340
  355.4000   -44.7447    65.3576    21.1423    19.7062    18.8389
  355.5000   -44.7447    64.4818    21.3828    20.0184    19.1623
  355.6000   -44.6794    63.6139    21.6293    20.2502    19.4911
  355.7000   -44.5946    62.9709    21.8726    20.5937    19.7959
  355.8000   -44.5860    62.7171    22.0278    20.9474    20.0269
  355.9000   -44.4444    62.2724    22.2183    21.2444    20.4871
  356.0000   -44.4444    61.9610    22.4710    21.4873    20.9576
  356.1000   -44.4444    61.6136    22.7208    21.7328    21.5072
  356.2000   -44.4444    61.2414    22.8749    22.0292    22.1664
  356.3000   -44.4444    61.2475    22.9803    22.2333    22.9426
  356.4000   -44.4444    61.2534    23.1865    22.4877    24.0064
  356.5000   -44.5550    61.4413    23.4054    22.7449    24.7193
  356.6000   -44.5946    61.6899    23.5521    22.9914    25.5752
  356.7000   -44.6485    61.9386    23.8562    23.1413    26.3402
  356.8000   -44.7447    62.1873    24.0919    23.3710    26.8714
  356.9000   -44.7447    62.4839    24.3663    23.5541    27.0365
  357.0000   -44.7447    62.6847    24.6436    23.6896    26.8962
  357.1000   -44.7447    62.9333    24.9240    23.8475    26.4364
  357.2000   -44.7447    63.1820    25.2292    24.1408    25.7146
  357.3000   -44.7788    63.4063    25.4951    24.2693    24.8838
  357.4000   -44.9006    63.4131    25.7856    24.4089    24.1781
  357.5000   -45.0450    63.6282    26.0120    24.6125    23.9099
  357.6000   -45.1443    63.7241    26.1600    24.8631    23.6411
  357.7000   -45.2661    63.8257    26.3115    25.0086    23.4436
  357.8000   -45.3879    64.0360    26.6060    25.1500    23.3115
  357.9000   -45.5240    64.0424    26.7956    25.2947    23.1800
  358.0000   -45.7958    64.0480    26.9481    25.5140    23.0258
  358.1000   -45.9035    64.0540    27.0592    25.7254    23.0261
  358.2000   -46.0254    64.0600    27.0660    25.7336    23.0264
  358.3000   -46.0961    64.0660    27.2503    25.9108    23.0267
  358.4000   -46.0961    64.0721    27.2510    26.0307    23.0582
  358.5000   -46.0961    64.0780    27.3395    26.1804    23.3515
  358.6000   -46.0961    64.0840    27.4433    26.3310    23.5876
  358.7000   -46.0961    64.0900    27.4441    26.4678    23.8568
  358.8000   -46.0961    64.0959    27.4449    26.4708    24.1867
  358.9000   -46.0961    64.1020    27.4456    26.4730    24.5750
  359.0000   -46.0961    64.1091    27.5438    26.5694    24.8690
  359.1000   -46.0961    64.1139    27.6393    26.6633    25.2754
  359.2000   -46.1926    64.1199    27.6400    26.6659    25.6043
  359.3000   -46.2462    64.1259    27.6409    26.6687    25.9682
  359.4000   -46.2861    64.1319    27.6416    26.6711    26.4133
  359.5000   -46.4080    64.1388    27.6424    26.6737    26.8629
  359.6000   -46.5465    64.1439    27.6432    26.7439    27.1698
  359.7000   -46.5465    64.1499    27.6440    26.8654    27.4800
  359.8000   -46.6233    64.1559    27.6447    26.8681    27.7936
  359.9000   -46.7450    64.1991    27.6455    26.8706    28.1615
  360.0000   -46.8668    64.4683    27.6462    26.8733    28.6575
  360.1000   -46.9970    64.4738    27.6470    26.8759    29.4146
  360.2000   -46.9970    64.6453    27.6478    26.8785    29.5569
  360.3000   -47.0822    64.8940    27.6431    26.8811    29.8296
  360.4000   -47.1471    65.1938    27.4883    26.8838    30.1042
  360.5000   -47.1186    65.6973    27.4578    26.8864    30.2501
  360.6000   -46.9967    65.9399    27.4586    26.8039    30.2505
  360.7000   -46.8750    66.3681    27.4087    26.7049    30.0948
