~VERSION INFORMATION
 VERS.                2.0:   CWLS LOG ASCII STANDARD - VERSION 2.0
 WRAP.                 NO:   ONE LINE PER DEPTH STEP
~WELL INFORMATION
#MNEM.UNIT      DATA TYPE    INFORMATION
#----------   ------------   ------------------------------
 STRT.F            0.0000:   START DEPTH
 STOP.F          635.0000:   STOP DEPTH
 STEP.F            0.1000:   STEP LENGTH
 NULL.          -999.2500:   NO VALUE
 COMP.   FLUOR DANIEL INC:   COMPANY
 WELL. NAVAL PETROLEUM RESERVE 3 SX-3 #72-7-3:   WELL
 FLD .             TEAPOT:   FIELD
 LOC .       S3 T38N R78W:   LOCATION
 CNTY.            NATRONA:   COUNTY
 STAT.            WYOMING:   STATE
 CTRY. UNITED STATES OF AMERICA:   COUNTRY
 SRVC.      Western Atlas:   SERVICE COMPANY
 DATE.        11-JAN-1995:   LOGDATE
 API .       490252264900:   API NUMBER
~CURVE INFORMATION
#MNEM.UNIT       API CODE    CURVE DESCRIPTION
#----------   ------------   ------------------------------
 DEPT.F                  :   
 GRR .GAPI   07 310 01 00:   GAMMA RAY
 RILD.OHMM   07 120 46 00:   INDUCTION LOG DEEP RESISTIVITY
 RILM.OHMM   07 120 44 00:   RESITIVITY LONG MEDIUM
~PARAMETER INFORMATION
#MNEM.UNIT          VALUE    DESCRIPTION
#----------   ------------   ------------------------------
 PD  .                 GL:   PERMANENT DATUM
 EPD .F              5144:   ELEVATION PERMANENT DATUM
 LMF .                 KB:   LOG MEASURED FROM
 DAPD.F                10:   FEET ABOVE PERMANENT DATUM
 DMF .                 KB:   DRILLING MEASURED FROM
 EKB .F              5154:   KELLING BUSHING
 EDF .F              5153:   DRILLING FLOOR
 EGL .F              5144:   GROUND LEVEL
 DATE.        11-JAN-1995:   RUN DATE
 RUN .                  1:   RUN NUMBER
 DD  .F               641:   DEPTH DRILLER
 DL  .F               642:   DEPTH LOGGER
 BLI .F               635:   BOTTOM LOG INTERVAL
 CS  .IN            9.625:   CASING SIZE
 CBD .F                97:   CASING BOTTOM DRILLER
 CBL .F                97:   CASING BOTTOM LOGGER
 BS  .IN             8.75:   BIT SIZE
 BSD .F               641:   BIT SIZE AT DEPTH
 DFT .                AIR:   DRILLING FLUID TYPE
 MRT .F                89:   MAXIMUM RECORDED TEMPERATURE
 LUN .            HL 6530:   LOGGING UNIT NUMBER
 LUL .             CASPER:   LOGGING UNIT LOCATION
 ENGI.      PAT RASMUSSEN:   RECORDING ENGINEER
 WITN.        STEVE HARDY:   WITNESSED BY
 CLNT.            A2DTECH:   CLIENT CODE
 ORIG.           5" PRINT:   ORIGIN OF DATA
 UWI .       490252264900:   UNIQUE WELL ID
 DICO. A2D Technologies, Inc.:   DIGITIZING COMPANY
~OTHER INFORMATION
~A    DEPT      GRR      RILD       RILM   
# ...
  200.2000   122.1692     8.3645     8.6040
  200.3000   122.4280     8.4142     8.6552
  200.4000   122.6868     8.4403     8.7066
  200.5000   122.9638     8.4558     8.7625
  200.6000   123.2044     8.5061     8.8106
  200.7000   123.2671     8.5589     8.8237
  200.8000   123.4199     8.6566     8.8541
  200.9000   123.5704     8.6788     8.9068
  201.0000   123.5065     8.6790     8.9473
  201.1000   123.2489     8.7017     8.9508
  201.2000   122.9680     8.7535     9.0098
  201.3000   122.7338     8.8009     9.0576
  201.4000   122.2852     8.8012     9.0728
  201.5000   121.6223     8.8014     9.1024
  201.6000   120.8483     8.8403     9.1565
  201.7000   120.1335     8.8631     9.2110
  201.8000   119.6178     8.8633     9.2641
  201.9000   119.0448     8.8636     9.2642
  202.0000   118.3565     8.8663     9.3116
  202.1000   117.9539     8.9258     9.3289
  202.2000   117.5545     8.9260     9.3290
  202.3000   117.1366     8.9262     9.3482
  202.4000   116.8790     8.9265     9.4038
  202.5000   116.6113     8.9453     9.4597
  202.6000   116.0279     8.9890     9.4599
  202.7000   116.0284     8.9893     9.4600
  202.8000   115.8485     8.9896     9.4601
  202.9000   115.5910     9.0340     9.4875
  203.0000   115.4260     9.0526     9.5262
  203.1000   115.4266     9.0528     9.5264
  203.2000   115.4272     9.0531     9.5265
  203.3000   115.4279     9.0533     9.5266
  203.4000   115.4284     9.0536     9.5719
  203.5000   115.7794     9.0538     9.5932
  203.6000   116.1652     9.0541     9.5933
  203.7000   116.4240     9.0543     9.5935
  203.8000   116.7263     9.0546     9.5936
  203.9000   117.2441     9.0548     9.5937
  204.0000   117.8490     9.0551     9.5939
  204.1000   118.2773     9.0553     9.5940
  204.2000   118.7944     9.0556     9.5941
  204.3000   119.3114     9.0558     9.5943
  204.4000   119.8284     9.0561     9.5944
  204.5000   120.4984     9.0563     9.5945
  204.6000   122.0822     9.0566     9.5947
  204.7000   123.2914     9.0568     9.5948
  204.8000   123.9179     9.0571     9.5949
  204.9000   124.8578     9.0573     9.5632
  205.0000   125.7704     9.0576     9.5289
  205.1000   126.5456     9.0578     9.5167
  205.2000   127.3208     9.0581     9.4633
  205.3000   128.1287     9.0583     9.4634
  205.4000   128.6240     9.0586     9.4636
  205.5000   128.9376     9.0589     9.4637
  205.6000   129.1964     9.0591     9.4342
  205.7000   129.2240     9.0593     9.3786
  205.8000   128.9664     9.0596     9.3337
  205.9000   128.7365     9.0598     9.3338
  206.0000   128.7372     9.0601     9.3340
  206.1000   128.4957     9.0603     9.2876
  206.2000   128.2381     9.0606     9.2697
  206.3000   128.1347     9.0608     9.2698
  206.4000   128.1353     9.0611     9.2700
  206.5000   128.0695     9.0613     9.2616
  206.6000   127.8344     9.0616     9.2062
  206.7000   127.8351     9.0618     9.2063
  206.8000   127.8356     9.0621     9.2064
  206.9000   127.8363     9.0623     9.2065
  207.0000   127.8369     9.0626     9.1812
  207.1000   127.8375     9.0628     9.1272
  207.2000   127.7768     9.0631     9.0801
  207.3000   127.5365     9.0634     9.0802
  207.4000   127.5372     9.0606     9.0803
  207.5000   127.5378     9.0013     9.0386
  207.6000   127.3507     8.9548     8.9854
  207.7000   127.0930     8.9023     8.9556
  207.8000   126.6356     8.8501     8.9417
  207.9000   125.8616     8.7796     8.8891
  208.0000   125.0998     8.6959     8.8326
  208.1000   124.5203     8.6954     8.8328
  208.2000   124.2944     8.6364     8.7938
  208.3000   124.0368     8.6366     8.7420
  208.4000   124.4721     8.6029     8.7114
  208.5000   125.5054     8.5774     8.7116
  208.6000   126.6404     8.5776     8.7117
  208.7000   128.1973     8.5705     8.7118
  208.8000   130.2647     8.5189     8.6662
  208.9000   131.8134     8.5191     8.6518
  209.0000   133.0896     8.4793     8.6520
  209.1000   133.9897     8.4607     8.6329
  209.2000   134.7649     8.4610     8.5924
  209.3000   135.4947     8.4612     8.5925
  209.4000   136.0117     8.4563     8.5927
  209.5000   136.6134     8.4032     8.5928
  209.6000   136.6139     8.4035     8.5929
  209.7000   136.4425     8.3663     8.5669
  209.8000   135.9287     8.3459     8.5337
  209.9000   135.0704     8.3461     8.5252
  210.0000   134.0382     8.3348     8.4750
  210.1000   132.9915     8.2889     8.4751
  210.2000   131.7838     8.2892     8.4338
  210.3000   131.3629     8.2461     8.3842
  210.4000   130.6803     8.2324     8.3348
  210.5000   129.9063     8.2064     8.2857
  210.6000   129.2902     8.1584     8.2438
  210.7000   129.0326     8.1197     8.2439
  210.8000   128.7662     8.1191     8.2440
  210.9000   128.5174     8.0641     8.2054
  211.0000   128.2598     8.0242     8.1571
  211.1000   128.0022     8.0089     8.1308
  211.2000   127.7446     8.0091     8.1174
  211.3000   127.5607     7.9940     8.0696
  211.4000   127.5017     7.9542     8.0191
  211.5000   126.9577     7.9544     8.0192
  211.6000   126.7142     7.8997     7.9831
  211.7000   126.4566     7.8999     7.9640
  211.8000   126.0427     7.9001     7.9641
  211.9000   125.5269     7.8792     7.9642
  212.0000   125.0111     7.8460     7.9644
  212.1000   124.4953     7.8462     7.9645
  212.2000   123.9408     7.8465     7.9646
  212.3000   123.2248     7.8467     7.9647
  212.4000   122.4508     7.8118     7.9914
  212.5000   121.8278     7.7929     8.0203
  212.6000   121.2048     7.7931     8.0204
  212.7000   120.4941     7.7933     8.0206
  212.8000   119.9976     7.7936     8.0207
  212.9000   119.7155     7.7938     8.0208
  213.0000   119.4824     7.8352     8.0544
  213.1000   119.4145     7.8484     8.0768
  213.2000   119.4151     7.8486     8.0942
  213.3000   119.5176     7.8488     8.1333
  213.4000   119.7184     7.8491     8.1334
  213.5000   119.7190     7.8504     8.1335
  213.6000   119.7197     7.9041     8.1744
  213.7000   120.1770     7.9043     8.2230
  213.8000   121.0631     7.9045     8.2474
  213.9000   121.9559     7.9047     8.2476
  214.0000   122.7311     7.9050     8.2553
  214.1000   123.3480     7.9052     8.3052
  214.2000   123.3575     7.9054     8.3631
  214.3000   123.6514     7.9057     8.3632
  214.4000   123.4288     7.9437     8.3952
  214.5000   123.3505     7.9610     8.4451
  214.6000   123.2157     7.9830     8.4804
  214.7000   122.9581     8.0168     8.4805
  214.8000   122.6530     8.0171     8.4806
  214.9000   122.1371     8.0173     8.4807
  215.0000   121.5409     8.0175     8.4809
  215.1000   121.5414     8.0177     8.4810
  215.2000   121.1940     8.0180     8.4811
  215.3000   120.9384     8.0182     8.4812
  215.4000   120.8528     8.0300     8.4813
  215.5000   120.6374     8.0744     8.4815
  215.6000   120.6381     8.0746     8.4354
  215.7000   120.9409     8.1177     8.3858
  215.8000   121.3667     8.1312     8.3650
  215.9000   121.8838     8.1314     8.3651
  216.0000   122.5257     8.1317     8.3652
  216.1000   123.2200     8.1319     8.3653
  216.2000   123.7369     8.1335     8.3654
  216.3000   124.2677     8.1889     8.3655
  216.4000   124.8726     8.1891     8.4014
  216.5000   125.2880     8.1894     8.4240
  216.6000   126.1321     8.1896     8.4429
  216.7000   127.0459     8.1898     8.4829
  216.8000   127.6697     8.1900     8.4845
  216.9000   127.9285     8.1903     8.5421
  217.0000   128.1994     8.1905     8.5422
  217.1000   128.2000     8.2301     8.5772
  217.2000   127.9984     8.2479     8.6019
  217.3000   127.8991     8.2481     8.6196
  217.4000   127.8997     8.2484     8.6709
  217.5000   127.9708     8.2543     8.7224
  217.6000   128.2030     8.3062     8.7226
  217.7000   128.2037     8.3064     8.7656
  217.8000   128.4451     8.3445     8.8178
  217.9000   128.7039     8.3646     8.8448
  218.0000   129.1158     8.3649     8.8449
  218.1000   129.4145     8.3774     8.8524
  218.2000   129.5457     8.4273     8.9067
  218.3000   130.0626     8.4824     8.9068
