~VERSION INFORMATION
 VERS.                2.0:   CWLS LOG ASCII STANDARD - VERSION 2.0
 WRAP.                 NO:   ONE LINE PER DEPTH STEP
~WELL INFORMATION
#MNEM.UNIT      DATA TYPE    INFORMATION
#----------   ------------   ------------------------------
 STRT.F           27.0000:   START DEPTH
 STOP.F          713.0000:   STOP DEPTH
 STEP.F            0.5000:   STEP LENGTH
 NULL.          -999.2500:   NO VALUE
 COMP. FENIX & SCISSON INC:   COMPANY
 WELL.       NPR 3 #44-34:   WELL
 FLD .        TEAPOT DOME:   FIELD
 LOC .      S34 T39N R78W:   LOCATION
 CNTY.            NATRONA:   COUNTY
 STAT.            WYOMING:   STATE
 CTRY. UNITED STATES OF AMERICA:   COUNTRY
 SRVC.           BIRDWELL:   SERVICE COMPANY
 DATE.        24-AUG-1978:   LOGDATE
 API .       490251070000:   API NUMBER
~CURVE INFORMATION
#MNEM.UNIT       API CODE    CURVE DESCRIPTION
#----------   ------------   ------------------------------
 DEPT.F                  :   
 SPR .MV     05 010 01 00:   SPONTANEOUS POTENTIAL FROM RES.
 ILD .OHMM   05 120 46 00:   INDUCTION LOG DEEP
 SN  .OHMM   05 040 16 00:   SHORT NORMAL 16"
 CALD.IN     45 280 60 00:   CALIPER
 GRD .GAPI   45 310 01 00:   GAMMA RAY FROM DENSITY LOG
 DEN .G/C3   45 350 01 00:   COMPENSATED BULK DENSTIY
 DPHI.DEC    45 890 12 00:   DENSITY POROSITY SANDSTONE
 CORR.G/C3   45 356 01 00:   DENSITY CORRECTION
~PARAMETER INFORMATION
#MNEM.UNIT          VALUE    DESCRIPTION
#----------   ------------   ------------------------------
 PD  .                 GL:   PERMANENT DATUM
 EPD .F              5124:   ELEVATION PERMANENT DATUM
 LMF .                 KB:   LOG MEASURED FROM
 DAPD.F                 4:   FEET ABOVE PERMANENT DATUM
 DMF .                 KB:   DRILLING MEASURED FROM
 EKB .F              5128:   KELLING BUSHING
 EGL .F              5124:   GROUND LEVEL
 DATE.            8-24-78:   RUN DATE
 RUN .                  1:   RUN NUMBER
 DD  .F               716:   DEPTH DRILLER
 DL  .F               713:   DEPTH LOGGER
 BLI .F               707:   BOTTOM LOG INTERVAL
 TLI .F                50:   TOP LOG INTERVAL
 CS  .IN            8.625:   CASING SIZE
 CBD .F                40:   CASING BOTTOM DRILLER
 BS  .IN            7.875:   BIT SIZE
 BSD .F               716:   BIT SIZE AT DEPTH
 DFT .            MUD KCL:   DRILLING FLUID TYPE
 DFD .                8.6:   DRILLING FLUID DENSITY
 DFV .                 34:   DRILLING FLUID VISCOSITY
 DFL .                7.4:   DRILLING FLUID LOSS
 MSS .          FLOW LINE:   MUD SAMPLE SOURCE
 RMS .OHMM            .18:   RESISTIVITY MUD SAMPLE
 MST .F                76:   MUD SAMPLE TEMPERATURE
 RMF .OHMM            .16:   RESISTIVITY MUD FILTRATE SAMPLE
 MFST.F                92:   MUD FILTRATE SAMPLE TEMPERATURE
 RMC .OHMM             .3:   RESISTIVITY MUD CAKE
 MCST.F                86:   MUD CAKE SAMPLE TEMPERATURE
 MFSS.               MEAS:   MUD FILTRATE SAMPLE SOURCE
 TCS .HRS               3:   TIME CURCULATED STOPPED
 MRT .F                72:   MAXIMUM RECORDED TEMPERATURE
 LUN .               2958:   LOGGING UNIT NUMBER
 LUL .               CASP:   LOGGING UNIT LOCATION
 ENGI.           REYNOLDS:   RECORDING ENGINEER
 WITN.              AMEND:   WITNESSED BY
 CLNT.            A2DTECH:   CLIENT CODE
 ORIG.           5" PRINT:   ORIGIN OF DATA
 UWI .       490251070000:   UNIQUE WELL ID
 DICO. A2D Technologies, Inc.:   DIGITIZING COMPANY
~OTHER INFORMATION
~A   DEPT      SPR        ILD         SN       CALD         GRD       DEN       DPHI       CORR   
# ...
  391.5000   -68.4267     7.4255     7.8805     8.8668   105.8574     2.4910     0.1252     0.0208
  392.0000   -68.4237     7.4066     7.8517     8.8645   105.5493     2.4911     0.1251     0.0201
  392.5000   -68.6289     7.4065     7.8248     8.8623   104.6601     2.4951     0.1183     0.0196
  393.0000   -68.9480     7.4066     7.8128     8.8600   104.8711     2.5047     0.1073     0.0225
  393.5000   -69.0892     7.4066     7.8015     8.8580   105.2491     2.5248     0.0963     0.0253
  394.0000   -69.1804     7.4065     7.7902     8.8716   103.4817     2.5337     0.0877     0.0281
  394.5000   -69.2702     7.4071     7.7790     8.8867   100.5879     2.5187     0.1134     0.0309
  395.0000   -69.3588     7.3569     7.7677     8.8970    96.8104     2.4986     0.1253     0.0334
  395.5000   -69.4026     7.2989     7.7565     8.8737    91.7605     2.4781     0.1426     0.0317
  396.0000   -69.3312     7.2410     7.7453     8.8645    89.3751     2.4597     0.1448     0.0301
  396.5000   -69.2641     7.1836     7.7341     8.8868    91.1548     2.4593     0.1448     0.0284
  397.0000   -69.2974     7.1360     7.7229     8.9085    93.9063     2.4602     0.1440     0.0275
  397.5000   -69.4721     7.1181     7.7118     8.9304    98.3167     2.4645     0.1432     0.0275
  398.0000   -69.6058     7.1003     7.7007     8.9531    98.8016     2.4674     0.1384     0.0275
  398.5000   -69.4423     7.0825     7.6895     8.9490    98.7302     2.4776     0.1340     0.0275
  399.0000   -69.2826     7.0648     7.6528     8.9370    98.6621     2.4777     0.1338     0.0275
  399.5000   -69.3374     7.0471     7.5781     8.9249    98.6087     2.4773     0.1336     0.0267
  400.0000   -69.5965     7.0295     7.5041     8.9128    98.7844     2.4774     0.1326     0.0259
  400.5000   -69.8273     7.0110     7.4308     8.9003   100.2841     2.4789     0.1315     0.0248
  401.0000   -69.8213     6.9598     7.3582     8.8952   100.5258     2.4830     0.1287     0.0234
  401.5000   -69.8214     6.9044     7.2863     8.8906   103.8315     2.4888     0.1231     0.0220
  402.0000   -69.7494     6.7597     7.2538     8.8860   105.0153     2.4948     0.1192     0.0206
  402.5000   -69.6291     6.5609     7.2310     8.8814    93.6393     2.5004     0.1203     0.0196
  403.0000   -69.8745     6.3681     7.2083     8.8785    92.4393     2.4920     0.1278     0.0204
  403.5000   -70.1691     6.1673     7.1223     8.8834    92.3794     2.4855     0.1353     0.0213
  404.0000   -70.4254     6.1673     7.0301     8.8882    92.3875     2.4774     0.1428     0.0221
  404.5000   -70.4194     6.1673     6.9391     8.8930    92.3931     2.4623     0.1503     0.0229
  405.0000   -70.4480     6.1675     6.8491     8.8978    91.7782     2.4477     0.1553     0.0235
  405.5000   -70.5215     6.1667     6.7601     8.9026    90.7228     2.4373     0.1579     0.0235
  406.0000   -70.5972     6.2301     6.6963     8.9074    90.1853     2.4357     0.1595     0.0235
  406.5000   -70.5369     6.2911     6.7520     8.9122    93.3099     2.4353     0.1599     0.0235
  407.0000   -70.4246     6.3523     6.8032     8.9171    95.1747     2.4350     0.1533     0.0235
  407.5000   -70.3100     6.4142     6.8548     8.9148    95.6167     2.4388     0.1463     0.0235
  408.0000   -70.1957     6.4767     6.9068     8.9111    95.4314     2.4573     0.1393     0.0234
  408.5000   -70.0814     6.5397     6.9579     8.9073    92.5716     2.4735     0.1373     0.0251
  409.0000   -69.9673     6.6034     7.0050     8.9035    90.5622     2.4732     0.1401     0.0273
  409.5000   -69.8484     6.6360     7.0525     8.8998    90.4807     2.4679     0.1429     0.0295
  410.0000   -69.8207     6.5916     7.1002     8.9024    90.3925     2.4614     0.1444     0.0315
  410.5000   -69.8203     6.5620     7.1483     8.9119    92.3175     2.4617     0.1444     0.0315
  411.0000   -69.8207     6.5325     7.1967     8.9215    93.7540     2.4626     0.1434     0.0315
  411.5000   -69.8207     6.5047     7.2059     8.9311    95.1047     2.4656     0.1383     0.0313
  412.0000   -69.8207     6.4792     7.1058     8.9406    98.2986     2.4718     0.1370     0.0278
  412.5000   -69.8207     6.4537     7.0362     8.9502   101.5726     2.4739     0.1360     0.0243
  413.0000   -69.8206     6.4284     6.9672     8.9577   102.2676     2.4758     0.1332     0.0213
  413.5000   -69.8204     6.4031     6.8990     8.9550   101.0030     2.4778     0.1325     0.0206
  414.0000   -69.8166     6.3963     6.8638     8.9526    99.4293     2.4799     0.1296     0.0200
  414.5000   -69.9789     6.4005     6.8128     8.9501    97.2726     2.4795     0.1296     0.0204
  415.0000   -70.1765     5.9783     6.7622     8.9477    94.7718     2.4792     0.1327     0.0232
  415.5000   -70.3747     5.6755     6.7119     8.9452    94.2566     2.4713     0.1404     0.0260
  416.0000   -70.5725     5.1241     6.5368     8.9428   100.3027     2.4617     0.1445     0.0277
  416.5000   -70.7765     4.8166     6.3149     8.9403   101.2527     2.4524     0.1485     0.0281
  417.0000   -70.7899     4.8989     6.1006     8.9379   102.0694     2.4432     0.1524     0.0285
  417.5000   -70.7549     4.9610     5.8933     8.9354   100.4368     2.4329     0.1616     0.0289
  418.0000   -70.7189     5.0023     5.6941     8.9330    99.1092     2.4208     0.1739     0.0293
  418.5000   -70.6835     5.0163     5.5928     8.9305    97.4536     2.3984     0.1862     0.0304
  419.0000   -70.6481     5.0302     5.5222     8.9281    91.6209     2.3679     0.2002     0.0323
  419.5000   -70.6034     5.0422     5.4753     8.9256    89.5845     2.3672     0.2023     0.0341
  420.0000   -70.5005     5.5486     5.5256     8.9232    87.7730     2.3821     0.1825     0.0355
  420.5000   -70.3457     6.1377     5.7843     8.9207    84.3634     2.4113     0.1636     0.0355
  421.0000   -69.9506     6.7588     6.0473     8.9183    85.7094     2.4496     0.1506     0.0334
  421.5000   -69.8229     6.8788     6.3223     8.9158    89.3974     2.4594     0.1431     0.0306
  422.0000   -69.8016     6.9928     6.6337     8.9134    93.9154     2.4633     0.1395     0.0278
  422.5000   -69.6317     7.1103     6.9283     8.9110   100.8039     2.4681     0.1359     0.0253
  423.0000   -69.4558     7.2355     7.2295     8.9085   100.7152     2.4727     0.1323     0.0244
  423.5000   -69.4220     7.3391     7.3564     8.9061   103.0982     2.4774     0.1331     0.0235
  424.0000   -69.4218     7.3234     7.4879     8.9036   103.6760     2.4767     0.1348     0.0237
  424.5000   -69.4223     7.3104     7.6217     8.9012   102.3816     2.4751     0.1340     0.0241
  425.0000   -69.4223     7.2974     7.7580     8.8987    97.0253     2.4759     0.1332     0.0245
  425.5000   -69.4223     7.2844     7.8460     8.9024    93.1499     2.4769     0.1334     0.0249
  426.0000   -69.4223     7.2714     7.8873     8.9095    93.0880     2.4761     0.1364     0.0253
  426.5000   -69.4223     7.2585     7.9289     8.9168    95.3531     2.4751     0.1341     0.0254
  427.0000   -69.4222     7.2455     7.9706     8.9241    95.7610     2.4786     0.1306     0.0251
  427.5000   -69.4218     7.2326     8.0125     8.9313    94.2301     2.4823     0.1253     0.0248
  428.0000   -69.4228     7.2198     8.0427     8.9378    92.5929     2.4912     0.1201     0.0245
  428.5000   -69.4876     7.2063     8.0206     8.9379    93.6198     2.5009     0.1176     0.0241
  429.0000   -69.7067     7.2060     8.0034     8.9379    97.9192     2.5049     0.1178     0.0238
  429.5000   -69.9228     7.2200     7.9862     8.9379    99.0882     2.5020     0.1195     0.0235
  430.0000   -70.1414     7.2321     7.9698     8.9378    99.6405     2.4948     0.1230     0.0232
  430.5000   -70.2076     7.2444     7.9897     8.9410    98.4329     2.4926     0.1253     0.0229
  431.0000   -70.1925     7.2565     8.0096     8.9454    94.8000     2.4904     0.1293     0.0226
  431.5000   -70.1757     7.2722     8.0297     8.9498    90.3477     2.4813     0.1328     0.0223
