~VERSION INFORMATION
 VERS.                2.0:   CWLS LOG ASCII STANDARD - VERSION 2.0
 WRAP.                 NO:   ONE LINE PER DEPTH STEP
~WELL INFORMATION
#MNEM.UNIT      DATA TYPE    INFORMATION
#----------   ------------   ------------------------------
 STRT.F           30.5000:   START DEPTH
 STOP.F          674.0000:   STOP DEPTH
 STEP.F            0.5000:   STEP LENGTH
 NULL.          -999.2500:   NO VALUE
 COMP. FENIX & SCISSON INC:   COMPANY
 WELL. NPR 3 #37 SX 34-34:   WELL
 FLD .        TEAPOT DOME:   FIELD
 LOC .      S34 T39N R78W:   LOCATION
 CNTY.            NATRONA:   COUNTY
 STAT.            WYOMING:   STATE
 CTRY. UNITED STATES OF AMERICA:   COUNTRY
 SRVC.           BIRDWELL:   SERVICE COMPANY
 DATE.        21-JAN-1979:   LOGDATE
 API .       490251074400:   API NUMBER
~CURVE INFORMATION
#MNEM.UNIT       API CODE    CURVE DESCRIPTION
#----------   ------------   ------------------------------
 DEPT.F                  :   
 SPR .MV     05 010 01 00:   SPONTANEOUS POTENTIAL FROM RES.
 SN  .OHMM   05 040 16 00:   SHORT NORMAL 16"
 IL  .OHMM   05 120 00 00:   INDUCTION LOG
 CALD.IN     45 280 60 00:   CALIPER
 GRD .GAPI   45 310 01 00:   GAMMA RAY FROM DENSITY LOG
 RHOB.G/C3   45 350 01 00:   BULK DENSITY
 DPHI.DEC    45 890 12 00:   DENSITY POROSITY SANDSTONE
 CORR.G/C3   45 356 01 00:   DENSITY CORRECTION
~PARAMETER INFORMATION
#MNEM.UNIT          VALUE    DESCRIPTION
#----------   ------------   ------------------------------
 PD  .                 GL:   PERMANENT DATUM
 EPD .F              5175:   ELEVATION PERMANENT DATUM
 LMF .                 KB:   LOG MEASURED FROM
 DAPD.F                 4:   FEET ABOVE PERMANENT DATUM
 DMF .                 KB:   DRILLING MEASURED FROM
 EKB .F              5179:   KELLING BUSHING
 EGL .F              5175:   GROUND LEVEL
 DATE.            1-21-79:   RUN DATE
 RUN .                  1:   RUN NUMBER
 DD  .F               674:   DEPTH DRILLER
 DL  .F               673:   DEPTH LOGGER
 BLI .F               666:   BOTTOM LOG INTERVAL
 TLI .F                40:   TOP LOG INTERVAL
 CS  .IN            8.625:   CASING SIZE
 CBD .F                40:   CASING BOTTOM DRILLER
 CBL .F                30:   CASING BOTTOM LOGGER
 BS  .IN            7.875:   BIT SIZE
 BSD .F               674:   BIT SIZE AT DEPTH
 DFT .                KCL:   DRILLING FLUID TYPE
 DFD .                8.8:   DRILLING FLUID DENSITY
 DFV .                 60:   DRILLING FLUID VISCOSITY
 DFPH.                9.5:   DRILLING FLUID PH
 DFL .                  8:   DRILLING FLUID LOSS
 MSS .           FLOWLINE:   MUD SAMPLE SOURCE
 RMS .OHMM            .23:   RESISTIVITY MUD SAMPLE
 MST .F                56:   MUD SAMPLE TEMPERATURE
 MFSS.           MEASURED:   MUD FILTRATE SAMPLE SOURCE
 MCSS.           MEASURED:   MUD CAKE SAMPLE SOURCE
 RMB .OHMM            .22:   RESISTIVITY MUD AT BHT
 BHT .F                60:   BOTTOM HOLE TEMPERATURE
 TCS .HRS               4:   TIME CURCULATED STOPPED
 MRT .F                60:   MAXIMUM RECORDED TEMPERATURE
 LUN .               3006:   LOGGING UNIT NUMBER
 LUL .             CASPER:   LOGGING UNIT LOCATION
 ENGI.            ROLLINS:   RECORDING ENGINEER
 WITN.           DINSMORE:   WITNESSED BY
 CLNT.            A2DTECH:   CLIENT CODE
 ORIG.       2", 5" PRINT:   ORIGIN OF DATA
 UWI .       490251074400:   UNIQUE WELL ID
 DICO. A2D Technologies, Inc.:   DIGITIZING COMPANY
~OTHER INFORMATION
~A   DEPT      SPR         SN         IL       CALD        GRD       RHOB       DPHI       CORR   
# ...
  354.5000   -50.6840     6.8940     6.6580     8.1380   107.5860     2.4680     0.1170     0.0180
  355.0000   -50.7650     6.9400     6.7020     8.1380   106.6440     2.4790     0.1130     0.0090
  355.5000   -50.8450     6.9860     6.7460     8.1380   106.5230     2.4910     0.1080     0.0030
  356.0000   -50.9250     7.0330     6.7900     8.1380   106.3730     2.5040     0.1040    -0.0090
  356.5000   -51.0060     7.0790     6.8330     8.1380   106.3710     2.5130     0.0990    -0.0120
  357.0000   -51.0860     7.1220     6.8770     8.1380   108.1770     2.5210     0.0960     0.0080
  357.5000   -51.1660     7.1450     6.9210     8.1380   109.6530     2.5270     0.1020     0.0180
  358.0000   -51.2460     7.1670     6.9920     8.1380   108.2880     2.5250     0.1110     0.0180
  358.5000   -51.3270     7.1880     6.9840     8.1380   105.7430     2.5050     0.1170     0.0110
  359.0000   -51.4070     7.2100     6.9650     8.1380   104.6080     2.4850     0.1170     0.0080
  359.5000   -51.4870     7.2310     6.9460     8.1380   111.5590     2.4810     0.1130     0.0090
  360.0000   -51.5680     7.2540     6.9270     8.1380   120.4290     2.4830     0.1160     0.0090
  360.5000   -51.6480     7.2540     6.9080     8.1380   121.4040     2.4850     0.1180     0.0100
  361.0000   -51.7280     7.2540     6.8890     8.1380   119.9960     2.4810     0.1210     0.0100
  361.5000   -51.8090     7.2130     6.8700     8.1380   118.3760     2.4760     0.1240     0.0110
  362.0000   -51.8890     7.1200     6.8240     8.1380   115.9890     2.4710     0.1250     0.0110
  362.5000   -51.9690     7.0280     6.7660     8.1380   111.9620     2.4680     0.1250     0.0120
  363.0000   -52.0500     6.9350     6.7080     8.1380   107.5330     2.4670     0.1250     0.0120
  363.5000   -52.1300     6.8430     6.6490     8.1380   102.9760     2.4670     0.1250     0.0120
  364.0000   -52.2100     6.7500     6.5910     8.1680   103.9440     2.4670     0.1250     0.0130
  364.5000   -52.2910     6.6570     6.5330     8.2160   105.6700     2.4670     0.1270     0.0130
  365.0000   -52.3710     6.5650     6.4530     8.2630   106.2250     2.4660     0.1290     0.0140
  365.5000   -52.4510     6.4720     6.3340     8.2970   107.0250     2.4610     0.1320     0.0130
  366.0000   -52.5320     6.3800     6.2150     8.2850   109.0250     2.4590     0.1340     0.0120
  366.5000   -52.6010     6.2870     6.0960     8.2750   111.3410     2.4570     0.1400     0.0110
  367.0000   -52.3020     6.1170     5.9760     8.2640   112.2450     2.4550     0.1440     0.0100
  367.5000   -51.9620     5.9140     5.7870     8.2540   113.0840     2.4420     0.1460     0.0090
  368.0000   -51.6220     5.7100     5.5400     8.2430   112.3160     2.4320     0.1480     0.0080
  368.5000   -51.2830     5.5070     5.2920     8.2410   109.6160     2.4360     0.1570     0.0070
  369.0000   -50.9430     5.3040     5.0450     8.2490   106.8850     2.4260     0.1680     0.0070
  369.5000   -50.6030     5.0330     4.7270     8.2570   106.0720     2.4080     0.1830     0.0110
  370.0000   -50.2640     4.6990     4.3420     8.2650   106.1700     2.3790     0.1960     0.0170
  370.5000   -49.9200     4.3650     3.9580     8.2730   106.5350     2.3500     0.2220     0.0240
  371.0000   -49.8020     4.0310     3.5730     8.2810   107.9410     2.3210     0.2420     0.0270
  371.5000   -49.8000     3.6970     3.1890     8.2890   109.1240     2.2920     0.2570     0.0260
  372.0000   -49.8000     3.3630     2.8040     8.2980   108.9730     2.2630     0.2660     0.0230
  372.5000   -49.8000     3.0290     2.4850     8.2830   108.5590     2.2360     0.2690     0.0250
  373.0000   -49.8000     2.7050     2.4620     8.2640   107.0410     2.2290     0.2320     0.0310
  373.5000   -49.8000     2.6390     2.4380     8.2440   103.7110     2.2710     0.2080     0.0270
  374.0000   -49.8000     2.6070     2.4150     8.2400    99.7300     2.3250     0.1870     0.0200
  374.5000   -49.8000     2.7740     2.3990     8.2420   101.2650     2.3670     0.1660     0.0130
  375.0000   -49.8000     2.9020     2.5790     8.2440   105.8710     2.3890     0.1520     0.0110
  375.5000   -49.8000     3.0300     2.8430     8.2460   110.4020     2.4160     0.1410     0.0110
  376.0000   -49.8000     3.4150     3.2860     8.2480   114.9950     2.4390     0.1290     0.0100
  376.5000   -49.8000     3.8470     3.7290     8.2500   117.6460     2.4590     0.1200     0.0090
  377.0000   -49.8000     4.2780     4.1720     8.2530   118.6920     2.4740     0.1210     0.0080
  377.5000   -49.8000     4.7100     4.6150     8.2550   117.1710     2.4750     0.1220     0.0080
  378.0000   -49.8000     5.1410     5.0570     8.2570   114.4900     2.4740     0.1240     0.0070
  378.5000   -49.8000     5.4870     5.2580     8.2590   112.5390     2.4730     0.1230     0.0060
  379.0000   -49.8000     5.6150     5.3380     8.2610   112.2530     2.4730     0.1210     0.0060
  379.5000   -49.8000     5.7430     5.4180     8.2630   113.2740     2.4750     0.1200     0.0060
  380.0000   -49.8000     5.8680     5.4980     8.2650   116.2520     2.4770     0.1210     0.0060
  380.5000   -49.8000     5.9330     5.6040     8.2670   120.3000     2.4770     0.1230     0.0060
  381.0000   -49.8000     5.9770     5.5610     8.2700   121.3590     2.4770     0.1250     0.0060
  381.5000   -49.8000     5.9160     5.4980     8.2720   120.4690     2.4750     0.1270     0.0060
  382.0000   -49.8000     5.8600     5.4350     8.2740   119.8780     2.4720     0.1290     0.0060
  382.5000   -49.8000     5.8040     5.3720     8.2760   119.6530     2.4690     0.1380     0.0070
  383.0000   -49.8000     5.7480     5.3100     8.2780   119.4240     2.4620     0.1480     0.0150
  383.5000   -49.8000     5.6920     5.2540     8.2790   119.2040     2.4440     0.1570     0.0190
  384.0000   -49.8000     5.5960     5.0960     8.2790   119.7720     2.4260     0.1640     0.0200
  384.5000   -49.8000     5.4230     4.9240     8.2790   123.4040     2.4100     0.1600     0.0220
  385.0000   -49.8000     5.2500     4.7520     8.2790   127.5480     2.4050     0.1540     0.0230
  385.5000   -49.8000     5.0770     4.5790     8.2790   128.7620     2.4100     0.1470     0.0200
  386.0000   -49.8000     4.9030     4.4070     8.2790   129.2770     2.4170     0.1410     0.0100
  386.5000   -49.8000     4.7910     4.2920     8.2790   127.6510     2.4330     0.1350     0.0080
  387.0000   -49.8000     4.8480     4.2110     8.2790   123.2400     2.4500     0.1330     0.0070
  387.5000   -49.8000     4.9120     4.2960     8.2790   118.8050     2.4560     0.1340     0.0050
  388.0000   -49.8000     5.0450     4.3990     8.2790   114.3150     2.4550     0.1350     0.0040
  388.5000   -49.8000     5.2040     4.5840     8.2790   114.0080     2.4540     0.1360     0.0040
  389.0000   -49.8000     5.3870     4.8440     8.2790   120.1950     2.4530     0.1340     0.0040
  389.5000   -49.8000     5.5700     5.1050     8.2790   126.6770     2.4520     0.1320     0.0040
  390.0000   -49.8000     5.7540     5.3660     8.2790   127.5410     2.4550     0.1280     0.0050
  390.5000   -49.8000     5.9370     5.5670     8.2790   124.3080     2.4610     0.1220     0.0050
  391.0000   -49.8000     6.1200     5.7390     8.2690   122.3190     2.4710     0.1160     0.0050
  391.5000   -49.8000     6.3030     5.9110     8.2590   122.2760     2.4800     0.1150     0.0050
  392.0000   -49.8000     6.3810     6.0830     8.2500   122.0100     2.4850     0.1210     0.0050
  392.5000   -49.8000     6.3890     6.1570     8.2480   120.3680     2.4810     0.1250     0.0050
  393.0000   -49.8000     6.3970     6.1770     8.4800   119.3950     2.4740     0.1260     0.0050
  393.5000   -49.8000     6.4060     6.1960     8.4520   121.2710     2.4690     0.1260     0.0050
  394.0000   -49.8000     6.4140     6.2150     9.4890   123.1770     2.4690     0.1250     0.0060
  394.5000   -49.8000     6.4220     6.2340     9.2420   124.1000     2.4690     0.1250     0.0060
