~VERSION INFORMATION
 VERS.                2.0:   CWLS LOG ASCII STANDARD - VERSION 2.0
 WRAP.                 NO:   ONE LINE PER DEPTH STEP
~WELL INFORMATION
#MNEM.UNIT      DATA TYPE    INFORMATION
#----------   ------------   ------------------------------
 STRT.F           18.0000:   START DEPTH
 STOP.F          449.0000:   STOP DEPTH
 STEP.F            0.5000:   STEP LENGTH
 NULL.          -999.2500:   NO VALUE
 COMP.   LAWRENCE-ALLISON:   COMPANY
 WELL. NPR 3 #51-46SX10OB4:   WELL
 FLD .             TEAPOT:   FIELD
 LOC .      S10 T38N R78W:   LOCATION
 CNTY.            NATRONA:   COUNTY
 STAT.            WYOMING:   STATE
 CTRY. UNITED STATES OF AMERICA:   COUNTRY
 SRVC.      Dresser Atlas:   SERVICE COMPANY
 DATE.        19-NOV-1984:   LOGDATE
 API .       490251100700:   API NUMBER
~CURVE INFORMATION
#MNEM.UNIT       API CODE    CURVE DESCRIPTION
#----------   ------------   ------------------------------
 DEPT.F                  :   
 AC  .US/F   60 520 00 00:   ACCOUSTIC
 PORD.DEC    45 890 12 00:   POROSITY DENSITY SANDSTONE
 CNC .DEC    42 890 03 00:   NEUTRON POROSITY SANDSTONE
 CALD.IN     45 280 60 00:   CALIPER FROM DENSITY
 CORR.G/C3   45 356 01 00:   DENSITY CORRECTION
 DEN .G/C3   45 350 01 00:   COMPENSATED BULK DENSTIY
 GRD .GAPI   45 310 01 00:   GAMMA RAY FROM DENSITY LOG
~PARAMETER INFORMATION
#MNEM.UNIT          VALUE    DESCRIPTION
#----------   ------------   ------------------------------
 PD  .                 GL:   PERMANENT DATUM
 EPD .F              5163:   ELEVATION PERMANENT DATUM
 LMF .                 GL:   LOG MEASURED FROM
 DMF .                 GL:   DRILLING MEASURED FROM
 EGL .F              5163:   GROUND LEVEL
 DATE.        19-DEC-1984:   RUN DATE
 RUN .                  1:   RUN NUMBER
 DD  .F               450:   DEPTH DRILLER
 DL  .F               451:   DEPTH LOGGER
 BLI .F               449:   BOTTOM LOG INTERVAL
 TLI .F                20:   TOP LOG INTERVAL
 CS  .IN            8.625:   CASING SIZE
 CBD .F                20:   CASING BOTTOM DRILLER
 CBL .F                20:   CASING BOTTOM LOGGER
 BS  .IN             6.25:   BIT SIZE
 BSD .F               450:   BIT SIZE AT DEPTH
 DFT .          KCL WATER:   DRILLING FLUID TYPE
 MSS .            MUDTANK:   MUD SAMPLE SOURCE
 RMS .OHMM          0.146:   RESISTIVITY MUD SAMPLE
 MST .F               100:   MUD SAMPLE TEMPERATURE
 RMF .OHMM          0.110:   RESISTIVITY MUD FILTRATE SAMPLE
 MFST.F               100:   MUD FILTRATE SAMPLE TEMPERATURE
 RMC .OHMM          0.183:   RESISTIVITY MUD CAKE
 MCST.F               100:   MUD CAKE SAMPLE TEMPERATURE
 MFSS.               CALC:   MUD FILTRATE SAMPLE SOURCE
 MCSS.               CALC:   MUD CAKE SAMPLE SOURCE
 TCS .HRS               2:   TIME CURCULATED STOPPED
 MRT .F               100:   MAXIMUM RECORDED TEMPERATURE
 LUN .               6270:   LOGGING UNIT NUMBER
 ENGI.        TOM GAUGHAN:   RECORDING ENGINEER
 WITN.              LUERS:   WITNESSED BY
 CLNT.            A2DTECH:   CLIENT CODE
 ORIG.           5" PRINT:   ORIGIN OF DATA
 UWI .       490251100700:   UNIQUE WELL ID
 DICO. A2D Technologies, Inc.:   DIGITIZING COMPANY
~OTHER INFORMATION
~A   DEPT        AC      PORD        CNC       CALD       CORR        DEN        GRD   
   18.0000   116.7061  -999.2500  -999.2500  -999.2500  -999.2500  -999.2500  -999.2500
   18.5000   122.1407  -999.2500     0.0427  -999.2500  -999.2500  -999.2500   100.1255
   19.0000   134.5722  -999.2500     0.0400  -999.2500  -999.2500  -999.2500    96.1847
   19.5000   135.6829  -999.2500     0.0382  -999.2500  -999.2500  -999.2500    97.9869
   20.0000   133.0201  -999.2500     0.0379  -999.2500     0.2494  -999.2500   103.8554
   20.5000   128.7849     0.4041     0.0412     6.1274     0.0740     2.0782   115.3079
   21.0000   126.5937     0.2846     0.0473     6.1268     0.0936     2.2087   123.1459
   21.5000   124.0881     0.2008     0.0495     6.2616     0.1192     2.3164   129.4653
   22.0000   121.6611     0.1792     0.0495     6.3513     0.0752     2.3687   133.2128
   22.5000   120.8850     0.1683     0.0498     6.3810     0.0524     2.4050   134.8711
   23.0000   120.9737     0.1453     0.0498     6.3654     0.0629     2.4452   136.8223
   23.5000   121.2983     0.1331     0.0498     6.3348     0.0733     2.4596   138.1693
   24.0000   121.6229     0.1349     0.0492     6.3193     0.0687     2.4527   139.3775
   24.5000   121.0789     0.1404     0.0489     6.2887     0.0565     2.4421   141.4605
   25.0000   121.2500     0.1459     0.0486     6.2731     0.0443     2.4359   142.3591
   25.5000   121.0170     0.1507     0.0484     6.2877     0.0426     2.4275   143.1071
   26.0000   120.0546     0.1547     0.0490     6.2872     0.0365     2.4199   142.9515
   26.5000   118.8105     0.1586     0.0490     6.3018     0.0197     2.4130   140.5880
   27.0000   117.8663     0.1605     0.0493     6.2862     0.0120     2.4123   138.7132
   27.5000   116.9791     0.1579     0.0493     6.2857     0.0134     2.4152   137.9543
   28.0000   116.6722     0.1553     0.0493     6.2852     0.0194     2.4175   136.0609
   28.5000   117.3924     0.1544     0.0497     6.2847     0.0238     2.4197   131.0090
   29.0000   118.5032     0.1544     0.0503     6.2842     0.0131     2.4197   125.0452
   29.5000   119.2208     0.1544     0.0503     6.2837    -0.0082     2.4196   121.1663
   30.0000   118.9925     0.1535     0.0506     6.2832     0.0159     2.4203   120.1707
   30.5000   118.7693     0.1520     0.0506     6.2827     0.0415     2.4226   119.8469
   31.0000   118.4650     0.1502     0.0510     6.2822     0.0384     2.4272   119.7090
   31.5000   118.3153     0.1444     0.0513     6.2968     0.0231     2.4333   122.6648
   32.0000   118.5638     0.1381     0.0513     6.2962     0.0094     2.4418   131.5663
   32.5000   119.0456     0.1338     0.0513     6.3109     0.0229     2.4539   135.8084
   33.0000   119.3701     0.1308     0.0516     6.3102     0.0545     2.4626   134.5967
   33.5000   119.3016     0.1318     0.0516     6.3097     0.0726     2.4610   128.4488
   34.0000   118.9969     0.1364     0.0513     6.2942     0.0619     2.4549   122.3996
   34.5000   119.0860     0.1369     0.0510     6.3089     0.0618     2.4510   118.0221
   35.0000   119.2533     0.1344     0.0510     6.3233     0.0798     2.4518   116.3556
   35.5000   119.5779     0.1335     0.0511     6.3379     0.0873     2.4540   117.6330
   36.0000   120.1426     0.1360     0.0508     6.3373     0.0766     2.4524   118.8086
   36.5000   120.4689     0.1405     0.0505     6.3368     0.0462     2.4478   118.9008
   37.0000   120.6305     0.1448     0.0496     6.3363     0.0219     2.4432   117.6339
   37.5000   120.6407     0.1490     0.0475     6.3358     0.0066     2.4364   116.0333
   38.0000   120.7316     0.1530     0.0496     6.3353     0.0201     2.4295   111.5050
   38.5000   120.9775     0.1563     0.0669     6.3198     0.0412     2.4226   106.6807
   39.0000   121.6165     0.1551     0.1089     6.3193     0.0592     2.4195   103.2119
   39.5000   123.1203     0.1499     0.1836     6.3188     0.0697     2.4248   101.2490
   40.0000   124.2311     0.1432     0.3392     6.3032     0.0681     2.4354   100.1898
   40.5000   124.3198     0.1391     0.3440     6.3027     0.0695     2.4452   101.9920
   41.0000   123.8582     0.1354     0.3292     6.3022     0.0754     2.4512   104.2460
   41.5000   122.0601     0.1348     0.3145     6.3169     0.0829     2.4542   106.1988
   42.0000   118.3753     0.1397     0.3036     6.3314     0.0812     2.4504   105.5914
   42.5000   116.0269     0.1418     0.2912     6.3308     0.0630     2.4428   102.8756
   43.0000   115.4867     0.1400     0.2833     6.3303     0.0553     2.4442    99.4067
   43.5000   115.1823     0.1251     0.2857     6.3298     0.0627     2.4632   100.0041
   44.0000   114.7993     0.1081     0.2975     6.3293     0.0762     2.4874   102.4087
   44.5000   113.6302     0.1039     0.3089     6.3288     0.0761     2.5063   103.4579
   45.0000   111.7535     0.1097     0.3171     6.3283     0.0594     2.5002   103.9047
   45.5000   110.8202     0.1157     0.3122     6.3278     0.0199     2.4850   104.0516
   46.0000   110.2013     0.1151     0.2903     6.3273    -0.0029     2.4858   102.9911
   46.5000   110.6055     0.1107     0.2922     6.3268     0.0242     2.4942    98.4680
   47.0000   111.4921     0.1063     0.3025     6.3263     0.0393     2.5002    97.1076
   47.5000   112.2131     0.1048     0.3083     6.3258     0.0270     2.5046    97.8556
   48.0000   112.2858     0.1076     0.3056     6.3253     0.0103     2.5030   100.8626
   48.5000   111.9840     0.1130     0.2983     6.3248     0.0011     2.4938   103.5684
   49.0000   112.0727     0.1215     0.2914     6.3394     0.0116     2.4809   105.8224
   49.5000   112.3972     0.1282     0.2850     6.3540     0.0160     2.4664   108.2271
   50.0000   112.5646     0.1348     0.2804     6.3534     0.0068     2.4573   111.2339
   50.5000   112.4149     0.1382     0.2881     6.3528     0.0097     2.4497   109.4208
   51.0000   112.1917     0.1419     0.2896     6.3521     0.0127     2.4435   106.5534
   51.5000   111.8873     0.1446     0.2905     6.3516     0.0186     2.4382   104.5896
   52.0000   111.5044     0.1450     0.2914     6.3510     0.0231     2.4359   104.8849
   52.5000   111.1975     0.1413     0.3009     6.3504     0.0275     2.4434   105.9331
   53.0000   110.6598     0.1404     0.3070     6.3498     0.0305     2.4464   106.0793
   53.5000   109.7265     0.1426     0.3203     6.3642     0.0213     2.4433   106.0719
   54.0000   108.4001     0.1404     0.3328     6.3636     0.0167     2.4410   105.9153
   54.5000   107.7813     0.1386     0.3255     6.3480     0.0256     2.4486   102.2949
   55.0000   107.5555     0.1395     0.3103     6.3624     0.0165     2.4493   100.6323
   55.5000   107.4084     0.1414     0.2955     6.3617     0.0028     2.4462   102.7348
   56.0000   106.9468     0.1402     0.2824     6.3611    -0.0079     2.4424   103.1888
   56.5000   106.5636     0.1344     0.2776     6.3605    -0.0035     2.4507    99.0482
   57.0000   105.7092     0.1284     0.2758     6.3449     0.0070     2.4628    96.2411
   57.5000   104.3845     0.1259     0.2822     6.3443     0.0206     2.4695    97.0281
   58.0000   103.2153     0.1272     0.2858     6.3589     0.0311     2.4680    97.7630
   58.5000   102.5965     0.1284     0.2871     6.3581     0.0401     2.4664    97.2760
   59.0000   101.9777     0.1281     0.2862     6.3575     0.0263     2.4656    95.1616
   59.5000   101.2802     0.1245     0.2856     6.3569     0.0232     2.4694    93.9508
   60.0000   100.5828     0.1141     0.2986     6.3564     0.0262     2.4837    96.3545
   60.5000    99.8853     0.1090     0.2750     6.3558     0.0352     2.4936   101.4691
   61.0000    99.4237     0.1087     0.2628     6.3552     0.0411     2.4996   102.5188
   61.5000    98.8835     0.1078     0.2707     6.3546     0.0456     2.5011    98.4451
   62.0000    98.8125     0.1039     0.2808     6.3540     0.0500     2.5028    95.5777
   62.5000    99.1396     0.1005     0.2805     6.3684     0.0484     2.5119    90.7525
   63.0000    99.4641     0.0996     0.2793     6.3678     0.0468     2.5138    89.3912
