~VERSION INFORMATION
 VERS.                2.0:   CWLS LOG ASCII STANDARD - VERSION 2.0
 WRAP.                 NO:   ONE LINE PER DEPTH STEP
~WELL INFORMATION
#MNEM.UNIT      DATA TYPE    INFORMATION
#----------   ------------   ------------------------------
 STRT.F           39.5000:   START DEPTH
 STOP.F          591.0000:   STOP DEPTH
 STEP.F            0.5000:   STEP LENGTH
 NULL.          -999.2500:   NO VALUE
 COMP. FENIX & SCISSON INC:   COMPANY
 WELL.      26 SX 3 #26-3:   WELL
 FLD .             TEAPOT:   FIELD
 LOC .       S3 T38N R78W:   LOCATION
 CNTY.            NATRONA:   COUNTY
 STAT.            WYOMING:   STATE
 CTRY. UNITED STATES OF AMERICA:   COUNTRY
 SRVC.           BIRDWELL:   SERVICE COMPANY
 DATE.        01-OCT-1978:   LOGDATE
 API .       490251071500:   API NUMBER
~CURVE INFORMATION
#MNEM.UNIT       API CODE    CURVE DESCRIPTION
#----------   ------------   ------------------------------
 DEPT.F                  :   
 SPR .MV     05 010 01 00:   SPONTANEOUS POTENTIAL FROM RES.
 SN  .OHMM   05 040 16 00:   SHORT NORMAL 16"
 ILD .OHMM   05 120 46 00:   INDUCTION LOG DEEP
 RHOB.G/C3   45 350 01 00:   BULK DENSITY
 CORR.G/C3   45 356 01 00:   DENSITY CORRECTION
 DPHI.DEC    45 890 12 00:   DENSITY POROSITY SANDSTONE
 GRD .GAPI   45 310 01 00:   GAMMA RAY FROM DENSITY LOG
 CALD.IN     45 280 60 00:   CALIPER
~PARAMETER INFORMATION
#MNEM.UNIT          VALUE    DESCRIPTION
#----------   ------------   ------------------------------
 PD  .                 GL:   PERMANENT DATUM
 EPD .F              5225:   ELEVATION PERMANENT DATUM
 LMF .                 KB:   LOG MEASURED FROM
 DAPD.F                 4:   FEET ABOVE PERMANENT DATUM
 DMF .                 KB:   DRILLING MEASURED FROM
 EKB .F              5229:   KELLING BUSHING
 EGL .F              5225:   GROUND LEVEL
 DATE.            10-1-78:   RUN DATE
 RUN .                  1:   RUN NUMBER
 DD  .F               600:   DEPTH DRILLER
 DL  .F               597:   DEPTH LOGGER
 BLI .F               591:   BOTTOM LOG INTERVAL
 TLI .F                60:   TOP LOG INTERVAL
 CS  .IN            8.625:   CASING SIZE
 CBD .F                40:   CASING BOTTOM DRILLER
 BS  .IN            7.875:   BIT SIZE
 BSD .F               600:   BIT SIZE AT DEPTH
 DFT .                KCL:   DRILLING FLUID TYPE
 DFD .                8.7:   DRILLING FLUID DENSITY
 DFV .                 34:   DRILLING FLUID VISCOSITY
 DFPH.                  9:   DRILLING FLUID PH
 DFL .                 10:   DRILLING FLUID LOSS
 MSS .            MUD PIT:   MUD SAMPLE SOURCE
 RMS .OHMM            .24:   RESISTIVITY MUD SAMPLE
 MST .F                65:   MUD SAMPLE TEMPERATURE
 RMF .OHMM            .45:   RESISTIVITY MUD FILTRATE SAMPLE
 MFST.F                65:   MUD FILTRATE SAMPLE TEMPERATURE
 RMC .OHMM             .4:   RESISTIVITY MUD CAKE
 MCST.F                65:   MUD CAKE SAMPLE TEMPERATURE
 MFSS.               MEAS:   MUD FILTRATE SAMPLE SOURCE
 TCS .HRS               3:   TIME CURCULATED STOPPED
 LUN .               2958:   LOGGING UNIT NUMBER
 LUL .               CASP:   LOGGING UNIT LOCATION
 ENGI.             MILLER:   RECORDING ENGINEER
 WITN.           DINSMORE:   WITNESSED BY
 CLNT.            A2DTECH:   CLIENT CODE
 ORIG.       2", 5" PRINT:   ORIGIN OF DATA
 UWI .       490251071500:   UNIQUE WELL ID
 DICO. A2D Technologies, Inc.:   DIGITIZING COMPANY
~OTHER INFORMATION
~A   DEPT      SPR         SN        ILD       RHOB       CORR       DPHI        GRD         CALD 
# ...
  485.0000    -1.6966    11.3280    14.9386     2.4429     0.0507     0.1814    94.7981     7.3911
  485.5000    -1.6965    11.0825    14.3685     2.3859     0.0739     0.2067    98.8809     7.4325
  486.0000    -1.6948    10.8423    13.5998     2.3351     0.1787     0.2405    99.4203     7.5322
  486.5000    -1.6833    10.7113    13.6295     2.2844     0.2894     0.2662    97.7811     7.5969
  487.0000    -2.1633    10.8307    13.6580     2.2329     0.4533     0.2774    96.3397     7.5591
  487.5000    -2.7137    10.9141    13.6866     2.2165     0.5360     0.1931    96.0759     7.5239
  488.0000    -3.4464    10.9980    13.7253     2.3585     0.5227     0.1406    96.9807     7.4859
  488.5000    -4.1678    11.0827    13.6133     2.5485     0.4155     0.0392    98.2228     7.3522
  489.0000    -4.8868    11.2144    13.4431     2.6442     0.2405     0.0038    98.8782     7.2879
  489.5000    -5.6058    11.3726    13.3461     2.6762     0.0594     0.0396    98.4974     7.2876
  490.0000    -6.3243    11.5329    13.3324     2.5804     0.0173     0.1407    98.1219     7.3247
  490.5000    -7.0509    11.6955    13.3194     2.4761     0.0145     0.1395    99.6262     7.3656
  491.0000    -7.2899    11.8498    13.3059     2.4424     0.0117     0.1430   103.1714     7.4064
  491.5000    -7.3046    11.8381    13.2925     2.4414     0.0094     0.1430   106.7305     7.4470
  492.0000    -7.3151    11.8271    13.2791     2.4398     0.0071     0.1445   108.5806     7.4878
  492.5000    -7.3257    11.8161    13.2657     2.4365     0.0075     0.1448   112.1039     7.5111
  493.0000    -7.3367    11.8052    13.2524     2.4359     0.0081     0.1392   114.5792     7.5224
  493.5000    -7.3477    11.7942    13.2390     2.4400     0.0087     0.1361   117.1169     7.5335
  494.0000    -7.3587    11.7832    13.2257     2.4466     0.0092     0.1369   119.6470     7.5445
  494.5000    -7.3696    11.7723    13.2124     2.4515     0.0098     0.1377   121.1664     7.5557
  495.0000    -7.3806    11.7613    13.1991     2.4480     0.0104     0.1385   122.0868     7.5706
  495.5000    -7.3916    11.7504    13.1858     2.4449     0.0109     0.1361   121.2940     7.6023
  496.0000    -7.4026    11.7395    13.1725     2.4464     0.0111     0.1331   120.2477     7.6334
  496.5000    -7.4136    11.7286    13.1593     2.4640     0.0112     0.1211   116.3156     7.6595
  497.0000    -7.4246    11.7177    13.1460     2.4815     0.0113     0.1166   111.0557     7.7989
  497.5000    -7.4356    11.7068    13.1328     2.4836     0.0113     0.1197   111.2181     7.8015
  498.0000    -7.4466    11.6959    13.1195     2.4772     0.0114     0.1193   113.3953     7.8003
  498.5000    -7.4572    11.6851    13.1063     2.4746     0.0115     0.1145   118.5849     7.7992
  499.0000    -7.4686    11.6742    13.0931     2.4870     0.0116     0.1092   119.5535     7.7983
  499.5000    -7.4835    11.6634    13.0800     2.4915     0.0117     0.1086   117.0995     7.7974
  500.0000    -7.6987    11.6525    13.0668     2.4943     0.0118     0.1078   114.9551     7.7965
  500.5000    -8.1290    11.6418    13.0536     2.4968     0.0119     0.1058   113.3377     7.7955
  501.0000    -8.5564    11.6326    13.0405     2.4994     0.0120     0.1058   112.7585     7.7946
  501.5000    -8.9796    11.6276    13.0273     2.5014     0.0121     0.1037   112.7713     7.7937
  502.0000    -9.3011    11.6224    13.0141     2.5034     0.0121     0.1024   112.9445     7.7928
  502.5000    -9.3429    11.6174    13.0009     2.5054     0.0122     0.1029   113.4673     7.7919
  503.0000    -9.3916    11.6123    12.9672     2.5062     0.0123     0.1035   113.3705     7.7910
  503.5000    -9.4391    11.6072    12.7699     2.5050     0.0124     0.1040   113.2295     7.7901
  504.0000    -9.4823    11.6021    12.6365     2.5039     0.0125     0.1068   113.6309     7.7892
  504.5000    -9.4812    11.5970    12.6512     2.5004     0.0126     0.1111   112.8477     7.7883
  505.0000    -9.4810    11.5919    12.6624     2.4938     0.0127     0.1154   111.3851     7.7874
  505.5000    -9.4810    11.5869    12.6737     2.4853     0.0128     0.1131   111.8355     7.7864
  506.0000    -9.4810    11.5818    12.6849     2.4865     0.0128     0.1083   112.7631     7.7855
  506.5000    -9.4810    11.5767    12.6961     2.4936     0.0129     0.1038   115.4730     7.7846
  507.0000    -9.4808    11.5716    12.7073     2.5001     0.0129     0.1026   118.3607     7.7837
  507.5000    -9.4807    11.5666    12.7186     2.5034     0.0127     0.1024   121.2593     7.7828
  508.0000    -9.4989    11.5615    12.7298     2.5048     0.0124     0.1028   124.1449     7.7822
  508.5000    -9.6377    11.5564    12.7409     2.5045     0.0121     0.1039   126.8839     7.7822
  509.0000    -9.7770    11.5514    12.7531     2.5042     0.0119     0.1068   128.1675     7.7822
  509.5000    -9.9160    11.5463    12.6437     2.5002     0.0116     0.1097   129.5062     7.7822
  510.0000   -10.0549    11.5413    12.5279     2.4930     0.0113     0.1119   129.0363     7.7822
  510.5000   -10.1938    11.5363    12.4132     2.4869     0.0110     0.1090   125.1776     7.7822
  511.0000   -10.3331    11.5311    12.2932     2.4935     0.0108     0.1055   121.4722     7.7822
  511.5000   -10.4750    11.4848    12.2468     2.5008     0.0105     0.1014   121.0805     7.7822
  512.0000   -10.5921    11.3612    12.1979     2.5035     0.0102     0.1012   121.1041     7.7822
  512.5000   -10.7107    11.2389    12.1494     2.5038     0.0100     0.1045   119.5196     7.7822
  513.0000   -10.8298    11.1121    12.1010     2.5008     0.0097     0.1078   117.1341     7.7822
  513.5000   -10.9488    11.1121    12.0157     2.4990     0.0094     0.1075   114.9213     7.7822
  514.0000   -11.0679    11.1121    11.8641     2.4990     0.0092     0.1058   112.8197     7.7822
  514.5000   -11.1870    11.1120    11.7144     2.5004     0.0089     0.1021   111.2087     7.7822
  515.0000   -11.3057    11.0436    11.5665     2.5074     0.0086     0.0996   110.3725     7.7822
  515.5000   -11.4256    10.9207    11.4204     2.5142     0.0084     0.1003   110.4114     7.7822
  516.0000   -11.4686    10.7994    11.2773     2.5200     0.0081     0.1011   111.5987     7.7822
  516.5000   -11.4563    10.6797    11.1966     2.5163     0.0078     0.1019   112.1647     7.7812
  517.0000   -11.4430    10.5612    11.1672     2.5064     0.0076     0.1026   112.3362     7.7743
  517.5000   -11.4295    10.4443    11.1370     2.5042     0.0073     0.1022   113.3537     7.7674
  518.0000   -11.4162    10.3252    11.1069     2.5053     0.0071     0.1006   114.6045     7.7606
  518.5000   -11.4029    10.1292    11.0769     2.5064     0.0117     0.1002   117.4016     7.7537
  519.0000   -11.3895     9.9313    11.0470     2.5074     0.0168     0.0998   120.2610     7.7469
  519.5000   -11.3762     9.7374    11.0171     2.5084     0.0174     0.0995   122.7523     7.7400
  520.0000   -11.3629     9.5473    10.6868     2.5094     0.0177     0.0991   124.6663     7.7332
  520.5000   -11.3495     9.2535    10.2848     2.5104     0.0180     0.0987   125.4744     7.7263
  521.0000   -11.3362     8.9396     9.6794     2.5114     0.0183     0.0995   126.6090     7.7241
  521.5000   -11.3229     8.6364     8.7887     2.5095     0.0186     0.1006   129.7654     7.7268
  522.0000   -11.3096     8.3539     7.9784     2.5008     0.0193     0.1213   133.2896     7.7295
  522.5000   -11.2961     7.9539     7.2388     2.4793     0.0276     0.1418   137.2037     7.7322
  523.0000   -11.2840     7.5730     6.8323     2.4519     0.0361     0.1468   140.1499     7.7350
  523.5000   -11.1667     7.3176     6.9910     2.4352     0.0365     0.1390   142.9064     7.7378
  524.0000   -10.9826     7.2170     7.1089     2.4430     0.0304     0.1223   144.7237     7.7404
  524.5000   -10.7973     7.3889     7.2288     2.4646     0.0489     0.1083   142.1783     7.7328
  525.0000   -10.6117     7.8062     7.3508     2.4848     0.0604     0.0990   134.7144     7.6728
