~VERSION INFORMATION
 VERS.                2.0:   CWLS LOG ASCII STANDARD - VERSION 2.0
 WRAP.                 NO:   ONE LINE PER DEPTH STEP
~WELL INFORMATION
#MNEM.UNIT      DATA TYPE    INFORMATION
#----------   ------------   ------------------------------
 STRT.F           30.0000:   START DEPTH
 STOP.F          515.0000:   STOP DEPTH
 STEP.F            0.5000:   STEP LENGTH
 NULL.          -999.2500:   NO VALUE
 COMP. FENIX & SCISSON INC:   COMPANY
 WELL.      FP SX-3 #63-3:   WELL
 FLD .              NPR 3:   FIELD
 LOC .       S3 T38N R78W:   LOCATION
 CNTY.            NATRONA:   COUNTY
 STAT.            WYOMING:   STATE
 CTRY. UNITED STATES OF AMERICA:   COUNTRY
 SRVC.              Welex:   SERVICE COMPANY
 DATE.        21-JUN-1980:   LOGDATE
 API .       490251082100:   API NUMBER
~CURVE INFORMATION
#MNEM.UNIT       API CODE    CURVE DESCRIPTION
#----------   ------------   ------------------------------
 DEPT.F                  :   
 SPR .MV     07 010 01 00:   SPONTANEOUS POTENTIAL
 SGRD.OHMM   07 220 05 00:   SHALLOW GUARD RESISTIVITY
 ILD .OHMM   07 120 46 00:   INDUCTION LOG DEEP RESISTIVITY
 ILM .OHMM   07 120 44 00:   INDUCTION LOG MEDIUM
 CALD.IN     45 280 60 00:   CALIPER
 GRD .GAPI   45 310 01 00:   GAMMA RAY FROM DENSITY LOG
 CORR.G/C3   45 356 01 00:   DENSITY CORRECTION
 RHOB.G/C3   45 350 01 00:   BULK DENSITY
 DPHI.DEC    45 890 12 00:   DENSITY POROSITY SANDSTONE
 NPHI.DEC    42 890 03 00:   NEUTRON POROSITY SANDSTONE
~PARAMETER INFORMATION
#MNEM.UNIT          VALUE    DESCRIPTION
#----------   ------------   ------------------------------
 PD  .                 GL:   PERMANENT DATUM
 EPD .F              5160:   ELEVATION PERMANENT DATUM
 LMF .                 KB:   LOG MEASURED FROM
 DAPD.F                 5:   FEET ABOVE PERMANENT DATUM
 DMF .                 KB:   DRILLING MEASURED FROM
 EKB .F              5165:   KELLING BUSHING
 EGL .F              5160:   GROUND LEVEL
 DATE.            6-21-80:   RUN DATE
 RUN .                  1:   RUN NUMBER
 DD  .F               508:   DEPTH DRILLER
 DL  .F               517:   DEPTH LOGGER
 BLI .F               515:   BOTTOM LOG INTERVAL
 TLI .F                35:   TOP LOG INTERVAL
 BS  .IN            9.875:   BIT SIZE
 BSD .F               508:   BIT SIZE AT DEPTH
 DFT .            KCL MUD:   DRILLING FLUID TYPE
 DFD .                9.2:   DRILLING FLUID DENSITY
 DFV .                 50:   DRILLING FLUID VISCOSITY
 DFPH.                8.5:   DRILLING FLUID PH
 DFL .                  8:   DRILLING FLUID LOSS
 MSS .           FLOWLINE:   MUD SAMPLE SOURCE
 RMS .OHMM            .42:   RESISTIVITY MUD SAMPLE
 MST .F                63:   MUD SAMPLE TEMPERATURE
 RMF .OHMM            .34:   RESISTIVITY MUD FILTRATE SAMPLE
 MFST.F                63:   MUD FILTRATE SAMPLE TEMPERATURE
 RMC .OHMM             .5:   RESISTIVITY MUD CAKE
 MCST.F                63:   MUD CAKE SAMPLE TEMPERATURE
 MFSS.           MEASURED:   MUD FILTRATE SAMPLE SOURCE
 MCSS.           MEASURED:   MUD CAKE SAMPLE SOURCE
 RMB .OHMM            .35:   RESISTIVITY MUD AT BHT
 BHT .F                75:   BOTTOM HOLE TEMPERATURE
 TCS .HRS             1.5:   TIME CURCULATED STOPPED
 MRT .F                75:   MAXIMUM RECORDED TEMPERATURE
 LUN .               9685:   LOGGING UNIT NUMBER
 LUL .             CASPER:   LOGGING UNIT LOCATION
 ENGI.            TOTHILL:   RECORDING ENGINEER
 WITN.           DINSMORE:   WITNESSED BY
 CLNT.            A2DTECH:   CLIENT CODE
 ORIG.           5" PRINT:   ORIGIN OF DATA
 UWI .       490251082100:   UNIQUE WELL ID
 DICO. A2D Technologies, Inc.:   DIGITIZING COMPANY
~OTHER INFORMATION
~A   DEPT      SPR       SGRD        ILD        ILM        CALD       GRD         CORR       RHOB       DPHI       NPHI 
# ...
  331.5000   -20.3606    14.9848    12.6721    11.4927    10.1373    77.1610     0.1177     2.4211     0.1584     0.2528
  332.0000   -20.4515    14.5804    12.6721    11.4383    10.1835    77.7484     0.1196     2.4162     0.1629     0.2510
  332.5000   -20.5967    14.3030    12.7044    11.4383    10.2234    78.3359     0.1048     2.4034     0.1642     0.2483
  333.0000   -20.7432    14.6946    12.9235    11.5749    10.2574    78.9214     0.1022     2.4003     0.1657     0.2444
  333.5000   -20.8914    15.1250    13.1464    11.6774    10.2909    79.5098     0.1022     2.3989     0.1713     0.2390
  334.0000   -20.9450    14.9068    13.3732    11.7624    10.3247    80.0939     0.1018     2.3949     0.1767     0.2337
  334.5000   -20.7300    14.5719    13.6523    11.4283    10.3585    80.5863     0.0916     2.3871     0.1755     0.2323
  335.0000   -20.5018    14.6108    13.5174    11.2272    10.3198    80.0152     0.0846     2.3794     0.1723     0.2331
  335.5000   -20.2749    14.6599    13.3489    11.4513    10.2691    79.4608     0.0843     2.3824     0.1690     0.2344
  336.0000   -20.1356    14.7076    13.1531    11.5453    10.2200    78.9114     0.0882     2.3888     0.1647     0.2358
  336.5000   -20.3184    14.5533    13.3083    11.3104    10.2185    78.4516     0.0901     2.3951     0.1565     0.2334
  337.0000   -20.5331    14.4012    13.6523    11.0847    10.2468    78.4994     0.0876     2.4013     0.1500     0.2289
  337.5000   -20.7489    14.2513    13.5055    10.8635    10.3202    79.3520     0.0896     2.4143     0.1468     0.2213
  338.0000   -20.9642    14.1032    13.2806    10.6468    10.3854    80.2253     0.0966     2.4268     0.1444     0.2150
  338.5000   -21.1795    13.9565    13.0594    10.4670    10.3984    81.0769     0.0956     2.4298     0.1411     0.2126
  339.0000   -21.3949    13.9090    13.0312    10.3895    10.3810    81.4135     0.0905     2.4348     0.1401     0.2050
  339.5000   -21.6084    15.3476    13.3361    10.3127    10.2810    80.0803     0.0887     2.4401     0.1436     0.2005
  340.0000   -21.7650    16.6012    13.5258    10.2289    10.1863    78.7813     0.0774     2.4368     0.1436     0.1994
  340.5000   -21.9331    14.8537    13.1496    10.1943    10.0919    77.4820     0.0684     2.4379     0.1365     0.1970
  341.0000   -22.1247    13.4004    12.8009    10.1569    10.0160    76.2544     0.0683     2.4448     0.1387     0.1996
  341.5000   -22.3150    13.2419    12.4615    10.1193    10.0161    76.0772     0.0682     2.4427     0.1411     0.2028
  342.0000   -22.7924    13.0244    12.1311    10.0818    10.0784    76.2918     0.0729     2.4365     0.1420     0.2090
  342.5000   -23.3691    12.8130    11.8092    10.0444    10.1512    77.9492     0.0789     2.4343     0.1485     0.2200
  343.0000   -23.9495    12.5524    11.4951    10.0072    10.2234    79.5745     0.0851     2.4300     0.1556     0.2304
  343.5000   -24.5298    12.5568    11.1914     9.9701    10.2781    81.1932     0.0862     2.4189     0.1569     0.2344
  344.0000   -24.9976    11.8724    11.0200     9.9465    10.2761    82.8111     0.0862     2.4118     0.1565     0.2365
  344.5000   -24.3851    11.6533    11.0200     9.9471    10.2269    84.4254     0.0865     2.4115     0.1524     0.2354
  345.0000   -23.7473    11.7195    11.0200     9.9470    10.1779    85.8469     0.0927     2.4181     0.1533     0.2334
  345.5000   -23.1150    11.8907    11.0200     9.9470    10.1286    86.4271     0.0992     2.4184     0.1534     0.2348
  346.0000   -22.4820    12.0962    11.0200     9.9469    10.0793    86.6146     0.1002     2.4176     0.1527     0.2393
  346.5000   -22.1892    12.0124    11.0200     9.9388    10.0300    86.0701     0.0989     2.4177     0.1577     0.2438
  347.0000   -22.6486    11.8802    10.8940     9.9192     9.9808    84.8837     0.0957     2.4103     0.1627     0.2462
  347.5000   -23.1214    11.7495    10.7443     9.8999     9.9315    83.7065     0.0873     2.4057     0.1657     0.2410
  348.0000   -23.3822    11.6533    10.5963     9.8808     9.8822    82.5267     0.0788     2.3956     0.1648     0.2375
  348.5000   -23.3800    11.6735    10.5186     9.8604     9.8321    81.4096     0.0754     2.3983     0.1625     0.2360
  349.0000   -23.3807    11.7041    10.5184     9.7698     9.8167    81.2480     0.0808     2.4012     0.1602     0.2368
  349.5000   -23.3840    11.7347    10.5187     9.6423     9.8525    81.2806     0.0821     2.4041     0.1579     0.2357
  350.0000   -23.5747    11.7631    10.5190     9.5174     9.8919    81.8762     0.0803     2.4072     0.1509     0.2332
  350.5000   -23.9676    11.5364    10.5190     9.3942     9.9309    82.4555     0.0887     2.4208     0.1381     0.2394
  351.0000   -24.3581    11.2872    10.4083     9.2724     9.9583    83.0321     0.0980     2.4360     0.1365     0.2482
  351.5000   -24.8388    11.0788    10.1933     9.1519     9.9630    83.6622     0.1065     2.4457     0.1362     0.2532
  352.0000   -25.3217    10.7077     9.9833     8.9791     9.9700    83.8382     0.1037     2.4496     0.1361     0.2528
  352.5000   -25.8027    10.3245     9.7635     9.0334     9.9770    83.4556     0.1001     2.4502     0.1341     0.2524
  353.0000   -26.2237    10.3245     9.6730     9.1473     9.9841    82.7847     0.0966     2.4502     0.1370     0.2532
  353.5000   -26.0165    10.5745     9.6730     9.1473     9.9911    82.4333     0.0932     2.4467     0.1400     0.2551
  354.0000   -25.7989    10.9179     9.6730     9.1473     9.9980    82.4419     0.0897     2.4406     0.1400     0.2572
  354.5000   -25.5844    10.6903     9.6729     9.0012    10.0030    82.7205     0.0898     2.4383     0.1361     0.2554
  355.0000   -25.4278    10.3940     9.6741     8.8488    10.0080    83.1603     0.0939     2.4420     0.1298     0.2535
  355.5000   -25.6209    10.1060     9.3934     8.6987    10.0129    83.6031     0.0997     2.4494     0.1235     0.2528
  356.0000   -25.8160    10.0401     9.1922     8.5523    10.0179    84.0243     0.1084     2.4625     0.1181     0.2560
  356.5000   -25.2637    10.1398     9.0625     8.4906    10.0228    84.4437     0.1171     2.4748     0.1181     0.2591
  357.0000   -24.5600    10.2702     9.2422     8.6081    10.0278    84.4334     0.1204     2.4745     0.1283     0.2583
  357.5000   -23.9764    10.4022     9.4296     8.7299    10.0328    84.3210     0.1105     2.4661     0.1316     0.2545
  358.0000   -24.1112    10.5359     9.6730     8.8535    10.0378    84.1947     0.1016     2.4581     0.1333     0.2527
  358.5000   -24.2416    10.6171     9.6160     8.9785    10.0380    84.0684     0.0897     2.4505     0.1349     0.2523
  359.0000   -24.3740    10.4478     9.5219     8.9787    10.0452    83.9423     0.0881     2.4462     0.1304     0.2520
  359.5000   -24.2650    10.4212     9.4283     8.8552    10.0547    83.8164     0.0931     2.4475     0.1281     0.2455
  360.0000   -24.1060    10.9148     9.3197     8.7333    10.0642    83.6905     0.1000     2.4578     0.1306     0.2394
  360.5000   -24.0058    11.1281     9.3953     8.5687    10.0737    83.6284     0.1063     2.4565     0.1320     0.2337
  361.0000   -24.5822    10.7030     9.4880     8.6393    10.0833    83.9834     0.1052     2.4513     0.1320     0.2316
  361.5000   -25.1689    10.3278     9.5804     8.8024    10.0927    84.2090     0.1018     2.4526     0.1343     0.2307
  362.0000   -25.5986    10.7771     9.7635     8.9691    10.0953    84.9813     0.0984     2.4515     0.1315     0.2281
  362.5000   -25.1212    11.1210     9.6406     9.0625    10.0803    85.8529     0.0963     2.4464     0.1269     0.2253
  363.0000   -24.6470    11.1276     9.4972     8.9838    10.0658    86.7380     0.1045     2.4510     0.1256     0.2261
  363.5000   -24.3813    10.6699     9.3559     8.8643    10.0512    87.0122     0.1133     2.4596     0.1276     0.2278
  364.0000   -24.7457    10.3688     9.2167     8.7465    10.0382    87.0913     0.1219     2.4653     0.1300     0.2311
  364.5000   -25.1569    10.0401     9.0795     8.6318    10.0380    87.1789     0.1181     2.4621     0.1386     0.2370
