~VERSION INFORMATION
 VERS.                2.0:   CWLS LOG ASCII STANDARD - VERSION 2.0
 WRAP.                 NO:   ONE LINE PER DEPTH STEP
~WELL INFORMATION
#MNEM.UNIT      DATA TYPE    INFORMATION
#----------   ------------   ------------------------------
 STRT.F           60.0000:   START DEPTH
 STOP.F         3052.0000:   STOP DEPTH
 STEP.F            0.5000:   STEP LENGTH
 NULL.          -999.2500:   NO VALUE
 COMP.   FLUOR DANIEL INC:   COMPANY
 WELL. NAVAL PETROLEUM RESERVE 3 X-14 #57-14:   WELL
 FLD .            WILDCAT:   FIELD
 LOC .      S14 T38N R78W:   LOCATION
 CNTY.            NATRONA:   COUNTY
 STAT.            WYOMING:   STATE
 CTRY. UNITED STATES OF AMERICA:   COUNTRY
 SRVC.            Unknown:   SERVICE COMPANY
 DATE.        16-MAY-1995:   LOGDATE
 API .       490252272000:   API NUMBER
~CURVE INFORMATION
#MNEM.UNIT       API CODE    CURVE DESCRIPTION
#----------   ------------   ------------------------------
 DEPT.F                  :   
 ROP .FT/HR  91 810 01 00:   RAT OF DRILLING PENETRATION
 TGAS.TC/CC  91 830 01 00:   TOTAL GAS UNIT
~PARAMETER INFORMATION
#MNEM.UNIT          VALUE    DESCRIPTION
#----------   ------------   ------------------------------
 EKB .F              5312:   KELLING BUSHING
 EGL .F              5302:   GROUND LEVEL
 DATE.        16-MAY-1995:   RUN DATE
 RUN .                  1:   RUN NUMBER
 BLI .F              3062:   BOTTOM LOG INTERVAL
 TLI .F                60:   TOP LOG INTERVAL
 ENGI.     C.TOWER/R.HUSK:   RECORDING ENGINEER
 CLNT.            A2DTECH:   CLIENT CODE
 ORIG.           5" PRINT:   ORIGIN OF DATA
 UWI .       490252272000:   UNIQUE WELL ID
 DICO. A2D Technologies, Inc.:   DIGITIZING COMPANY
~OTHER INFORMATION
~A   DEPT        ROP       TGAS 
# ...
 1396.5000     0.7937     0.4766
 1397.0000     0.7938     0.4899
 1397.5000     0.7939     0.5032
 1398.0000     0.7940     0.5165
 1398.5000     0.7941     0.5297
 1399.0000     0.7942     0.5430
 1399.5000     0.7943     0.5563
 1400.0000     0.8038     0.5696
 1400.5000     0.8044     0.5829
 1401.0000     0.8049     0.5962
 1401.5000     0.8055     0.6095
 1402.0000     0.8060     0.6228
 1402.5000     0.6383     0.6361
 1403.0000     0.6389     0.6494
 1403.5000     0.6394     0.6627
 1404.0000     0.6401     0.6759
 1404.5000     0.6313     0.6892
 1405.0000     0.6130     0.7025
 1405.5000     0.6137     0.7158
 1406.0000     0.6143     0.7291
 1406.5000     0.6242     0.7424
 1407.0000     0.6247     0.7557
 1407.5000     0.6252     0.7690
 1408.0000     0.6258     0.7794
 1408.5000     0.6264     0.7832
 1409.0000     0.6270     0.7871
 1409.5000     0.6181     0.7910
 1410.0000     0.6281     0.7948
 1410.5000     0.6380     0.7987
 1411.0000     0.6385     0.8026
 1411.5000     0.6391     0.8064
 1412.0000     0.6396     0.8103
 1412.5000     0.6402     0.8142
 1413.0000     0.6407     0.8180
 1413.5000     0.6508     0.8219
 1414.0000     0.6513     0.8258
 1414.5000     0.7733     0.8297
 1415.0000     0.7739     0.8335
 1415.5000     0.7838     0.8374
 1416.0000     0.7843     0.8413
 1416.5000     0.7849     0.8451
 1417.0000     0.7854     0.8490
 1417.5000     0.7860     0.8529
 1418.0000     0.7865     0.8567
 1418.5000     0.7872     0.8606
 1419.0000     0.7877     0.8645
 1419.5000     0.7883     0.8683
 1420.0000     0.7888     0.8746
 1420.5000     0.6585     0.8810
 1421.0000     0.6591     0.8888
 1421.5000     0.6596     0.8931
 1422.0000     0.6602     0.8943
 1422.5000     0.6620     0.8956
 1423.0000     0.6708     0.8968
 1423.5000     0.6713     0.8981
 1424.0000     0.6719     0.8993
 1424.5000     0.6724     0.9006
 1425.0000     0.6729     0.9018
 1425.5000     0.6735     0.9031
 1426.0000     0.6740     0.9043
 1426.5000     0.6746     0.9056
 1427.0000     0.6751     0.9068
 1427.5000     0.6758     0.9081
 1428.0000     0.6764     0.9093
 1428.5000     0.6769     0.9106
 1429.0000     0.6774     0.9118
 1429.5000     0.6780     0.9131
 1430.0000     0.6692     0.9143
 1430.5000     0.6697     0.9156
 1431.0000     0.6703     0.9168
 1431.5000     0.6708     0.9181
 1432.0000     0.6714     0.9193
 1432.5000     0.6721     0.9206
 1433.0000     0.6726     0.9218
 1433.5000     0.6732     0.9231
 1434.0000     0.6737     0.9243
 1434.5000     0.6648     0.9256
 1435.0000     0.6654     0.9268
 1435.5000     0.6660     0.9281
 1436.0000     0.6665     0.9293
 1436.5000     0.6671     0.9306
 1437.0000     0.6771     0.9318
 1437.5000     0.6777     0.9331
 1438.0000     0.6782     0.9343
 1438.5000     0.6788     0.9355
 1439.0000     0.6793     0.9368
 1439.5000     0.6798     0.9380
 1440.0000     0.6897     0.9393
 1440.5000     0.6903     0.9405
 1441.0000     0.6909     0.9418
 1441.5000     0.6914     0.9430
 1442.0000     0.6920     0.9443
 1442.5000     0.6832     0.9455
 1443.0000     0.6837     0.9468
 1443.5000     0.6844     0.9480
 1444.0000     0.6849     0.9493
 1444.5000     0.6855     0.9505
 1445.0000     0.6860     0.9518
 1445.5000     0.6866     0.9530
 1446.0000     0.6871     0.9543
 1446.5000     0.6877     0.9555
 1447.0000     0.6882     0.9568
 1447.5000     0.6888     0.9580
 1448.0000     0.6894     0.9593
 1448.5000     0.6900     0.9605
 1449.0000     0.6905     0.9618
 1449.5000     0.6911     0.9630
 1450.0000     0.6729     0.9643
 1450.5000     0.6826     0.9655
 1451.0000     0.6828     0.9668
 1451.5000     0.6831     0.9607
 1452.0000     0.7675     0.9509
 1452.5000     0.7678     0.9410
 1453.0000     0.7680     0.9311
 1453.5000     0.7683     0.9212
 1454.0000     0.7686     0.9113
 1454.5000     0.7689     0.9014
 1455.0000     0.7692     0.8915
 1455.5000     0.7695     0.8816
 1456.0000     0.7698     0.8717
 1456.5000     0.7700     0.8618
 1457.0000     0.7703     0.8519
 1457.5000     0.7706     0.8420
 1458.0000     0.7709     0.8321
 1458.5000     0.7711     0.8222
 1459.0000     0.7714     0.8123
 1459.5000     0.7717     0.8024
 1460.0000     0.7720     0.7925
 1460.5000     0.7723     0.7826
 1461.0000     0.7726     0.7727
 1461.5000     0.7728     0.7628
 1462.0000     0.7638     0.7529
 1462.5000     0.6705     0.7430
 1463.0000     0.6709     0.7331
 1463.5000     0.6618     0.7232
 1464.0000     0.6621     0.7133
 1464.5000     0.6624     0.7034
 1465.0000     0.6627     0.6935
 1465.5000     0.6629     0.6836
 1466.0000     0.6632     0.6737
 1466.5000     0.6728     0.6638
 1467.0000     0.6731     0.6539
 1467.5000     0.6734     0.6440
 1468.0000     0.6737     0.6342
 1468.5000     0.6646     0.6243
 1469.0000     0.6462     0.6144
 1469.5000     0.6464     0.6045
 1470.0000     0.6468     0.5946
 1470.5000     0.6471     0.5847
 1471.0000     0.6473     0.5748
 1471.5000     0.6476     0.5649
 1472.0000     0.6479     0.5550
 1472.5000     0.6482     0.5451
 1473.0000     0.6484     0.5352
 1473.5000     0.6487     0.5253
 1474.0000     0.6490     0.5154
 1474.5000     0.6493     0.5055
 1475.0000     0.6495     0.4956
 1475.5000     0.6499     0.4857
 1476.0000     0.6501     0.4758
 1476.5000     0.6504     0.4659
 1477.0000     0.6507     0.4560
 1477.5000     0.6510     0.4461
 1478.0000     0.6512     0.4362
 1478.5000     0.6515     0.4263
 1479.0000     0.6518     0.4164
 1479.5000     0.6521     0.4065
 1480.0000     0.6523     0.3966
 1480.5000     0.6526     0.3867
 1481.0000     0.6529     0.3768
 1481.5000     0.6532     0.3669
 1482.0000     0.6535     0.3646
 1482.5000     0.6538     0.3703
 1483.0000     0.6540     0.3762
 1483.5000     0.6543     0.5715
 1484.0000     0.6546     0.5772
 1484.5000     0.6549     0.5829
 1485.0000     0.6551     0.5886
 1485.5000     0.6554     0.5943
 1486.0000     0.6557     0.6000
 1486.5000     0.6560     0.6057
 1487.0000     0.6563     0.6114
 1487.5000     0.6566     0.6171
 1488.0000     0.6569     0.6228
 1488.5000     0.6571     0.6291
 1489.0000     0.6574     0.6342
 1489.5000     0.6577     0.6399
 1490.0000     0.6580     0.6456
 1490.5000     0.6582     0.6505
 1491.0000     0.6585     0.6498
 1491.5000     0.6588     0.6491
 1492.0000     0.6591     0.6485
 1492.5000     0.6594     0.6478
 1493.0000     0.6597     0.6472
 1493.5000     0.6599     0.6466
 1494.0000     0.6602     0.6459
 1494.5000     0.6605     0.6453
 1495.0000     0.6608     0.6446
 1495.5000     0.6610     0.6440
 1496.0000     0.6613     0.6434
 1496.5000     0.6616     0.6427
 1497.0000     0.6619     0.6421
 1497.5000     0.6622     0.6414
 1498.0000     0.6625     0.6408
 1498.5000     0.6628     0.6402
 1499.0000     0.6630     0.6395
 1499.5000     0.6633     0.6389
 1500.0000     0.6673     0.6382
 1500.5000     0.6664     0.6376
 1501.0000     0.6655     0.6370
 1501.5000     0.6646     0.6363
 1502.0000     0.6637     0.6357
 1502.5000     0.6628     0.6350
 1503.0000     0.6619     0.6344
 1503.5000     0.6610     0.6338
 1504.0000     0.6601     0.6331
 1504.5000     0.6591     0.6325
 1505.0000     0.6582     0.6318
 1505.5000     0.6573     0.6301
 1506.0000     0.6564     0.6229
 1506.5000     0.6555     0.6158
 1507.0000     0.6546     0.6086
 1507.5000     0.6537     0.6014
 1508.0000     0.6528     0.5942
 1508.5000     0.6519     0.5871
 1509.0000     0.6510     0.5799
 1509.5000     0.6501     0.5727
 1510.0000     0.6492     0.5655
 1510.5000     0.6483     0.5584
 1511.0000     0.6474     0.5512
 1511.5000     0.6465     0.5440
 1512.0000     0.6456     0.5368
 1512.5000     0.6447     0.5297
 1513.0000     0.6438     0.5225
 1513.5000     0.6429     0.5153
 1514.0000     0.8120     0.5081
 1514.5000     0.8116     0.5010
 1515.0000     0.8113     0.4938
 1515.5000     0.8109     0.4866
 1516.0000     0.8106     0.4795
 1516.5000     0.8102     0.4723
 1517.0000     0.8099     0.4651
 1517.5000     0.8096     0.4579
