~VERSION INFORMATION
 VERS.                2.0:   CWLS LOG ASCII STANDARD - VERSION 2.0
 WRAP.                 NO:   ONE LINE PER DEPTH STEP
~WELL INFORMATION
#MNEM.UNIT      DATA TYPE    INFORMATION
#----------   ------------   ------------------------------
 STRT.F           34.0000:   START DEPTH
 STOP.F          616.0000:   STOP DEPTH
 STEP.F            0.5000:   STEP LENGTH
 NULL.          -999.2500:   NO VALUE
 COMP. FENIX & SCISSON INC:   COMPANY
 WELL. NAVAL PETROLEUM RESERVE 3 S-10 #86-10:   WELL
 FLD .             TEAPOT:   FIELD
 LOC .      S10 T38N R78W:   LOCATION
 CNTY.            NATRONA:   COUNTY
 STAT.            WYOMING:   STATE
 CTRY. UNITED STATES OF AMERICA:   COUNTRY
 SRVC.              Welex:   SERVICE COMPANY
 DATE.        12-APR-1977:   LOGDATE
 API .       490251033800:   API NUMBER
~CURVE INFORMATION
#MNEM.UNIT       API CODE    CURVE DESCRIPTION
#----------   ------------   ------------------------------
 DEPT.F                  :   
 CALD.IN     45 280 60 00:   CALIPER FROM DENSITY LOG
 GRD .GAPI   45 310 01 00:   GAMMA RAY FROM DENSITY LOG
 CORR.G/C3   45 356 01 00:   DENSITY CORRECTION
 DPHI.DEC    45 890 12 00:   DENSITY POROSITY SANDSTONE
 RHOB.G/C3   45 350 01 00:   BULK DENSITY
 SPR .MV     07 010 01 00:   SPONTANEOUS POTENTIAL
 ILD .OHMM   07 120 46 00:   INDUCTION LOG DEEP
 ILM .OHMM   07 120 44 00:   INDUCTION LOG MEDIUM
 SGRD.OHMM   07 221 05 00:   SHALLOW SHORT GUARD RESISTIVITY
~PARAMETER INFORMATION
#MNEM.UNIT          VALUE    DESCRIPTION
#----------   ------------   ------------------------------
 PD  .                 GL:   PERMANENT DATUM
 EPD .F              5240:   ELEVATION PERMANENT DATUM
 LMF .                 KB:   LOG MEASURED FROM
 DAPD.F                 5:   FEET ABOVE PERMANENT DATUM
 DMF .                 KB:   DRILLING MEASURED FROM
 EKB .F              5245:   KELLING BUSHING
 EGL .F              5240:   GROUND LEVEL
 DATE.        12-APR-1977:   RUN DATE
 RUN .                  1:   RUN NUMBER
 DD  .F               625:   DEPTH DRILLER
 DL  .F               617:   DEPTH LOGGER
 BLI .F               615:   BOTTOM LOG INTERVAL
 TLI .F                35:   TOP LOG INTERVAL
 CS  .IN            8.625:   CASING SIZE
 BS  .IN            7.875:   BIT SIZE
 BSD .F               625:   BIT SIZE AT DEPTH
 DFT .           KCL- GEL:   DRILLING FLUID TYPE
 DFD .                8.8:   DRILLING FLUID DENSITY
 BHT .F                68:   BOTTOM HOLE TEMPERATURE
 TCS .HRS            0100:   TIME CURCULATED STOPPED
 MRT .F                68:   MAXIMUM RECORDED TEMPERATURE
 ENGI.        E. CALLAHAN:   RECORDING ENGINEER
 WITN.            R. LYON:   WITNESSED BY
 CLNT.            A2DTECH:   CLIENT CODE
 ORIG.           5" PRINT:   ORIGIN OF DATA
 UWI .       490251033800:   UNIQUE WELL ID
 DICO. A2D Technologies, Inc.:   DIGITIZING COMPANY
~OTHER INFORMATION
~A   DEPT     CALD        GRD       CORR       DPHI         RHOB      SPR        ILD        ILM       SGRD   
# ...
  180.0000     8.0773   125.1637     0.0309     0.0917     2.5089   -72.8749     7.4808     9.2068    11.6017
  180.5000     8.0779   125.4693     0.0326     0.0857     2.5134   -72.8794     7.5304     9.3313    12.2416
  181.0000     8.0787   125.6265     0.0281     0.0887     2.5097   -72.4348     7.5788     9.3274    12.1471
  181.5000     8.0794   125.6354     0.0252     0.0908     2.5015   -71.2417     7.6291     9.2593    11.9008
  182.0000     8.0801   126.0893     0.0253     0.0911     2.4993   -70.4965     7.6789     9.1916    11.8975
  182.5000     8.0809   126.6917     0.0299     0.0892     2.5069   -70.5021     7.6220     9.1878    11.9769
  183.0000     8.0816   127.4424     0.0315     0.0868     2.5130   -70.9557     7.6188     9.0578    11.8909
  183.5000     8.0824   128.1931     0.0346     0.0841     2.5138   -71.4093     7.5631     9.0541    11.8056
  184.0000     8.0831   129.0922     0.0362     0.0850     2.5131   -71.5635     7.5079     8.9879    11.5599
  184.5000     8.0838   130.2880     0.0363     0.0874     2.5079   -71.7177     7.4530     8.9842    12.1625
  185.0000     8.0846   130.8904     0.0378     0.0906     2.4967   -71.7222     7.3985     8.9805    12.0103
  185.5000     8.0853   131.1960     0.0379     0.0942     2.4900   -71.5758     7.2938     8.9149    11.3696
  186.0000     8.0861   131.6499     0.0380     0.0946     2.4931   -71.5814     7.2405     8.7887    11.1544
  186.5000     8.0868   131.8072     0.0381     0.0948     2.4924   -71.5859     7.1876     8.5452    11.2289
  187.0000     8.0875   131.5193     0.0382     0.0969     2.4880   -71.4407     7.0859     8.2512    11.1116
  187.5000     8.0883   131.0831     0.0398     0.0998     2.4843   -71.4452     6.9856     8.0783    10.6059
  188.0000     8.0890   130.4965     0.0384     0.1013     2.4843   -71.4497     6.8393     8.1884    10.2542
  188.5000     8.0898   129.7616     0.0385     0.1004     2.4844   -71.0050     6.7893     8.3558    10.1807
  189.0000     8.0905   129.0208     0.0386     0.0995     2.4807   -70.5604     6.6932     8.5285    10.2487
  189.5000     8.0912   128.1434     0.0356     0.0995     2.4770   -69.9661     6.6904     8.4653    10.7832
  190.0000     8.0920   126.9436     0.0327     0.1004     2.4763   -69.3718     6.6876     8.2308    11.6815
  190.5000     8.0928   125.6232     0.0313     0.1012     2.4861   -68.7775     6.7787     8.2274    11.2033
  191.0000     8.0935   124.9001     0.0299     0.0994     2.4892   -68.1831     6.8230     8.2240    10.8944
  191.5000     8.0942   123.8526     0.0300     0.0976     2.4877   -67.5888     6.8668     8.3930    11.5114
  192.0000     8.0950   123.0027     0.0301     0.0927     2.4953   -67.4425     6.9596     8.6849    11.5889
  192.5000     8.0957   122.3986     0.0317     0.0900     2.5029   -67.7475     7.0058     9.1122    11.1909
  193.0000     8.0964   121.8121     0.0339     0.0880     2.5059   -68.7999     7.0997     9.1726    11.4225
  193.5000     8.0972   121.8819     0.0394     0.0879     2.5067   -70.0020     7.1964     8.9176    12.0693
  194.0000     8.0979   122.6449     0.0380     0.0905     2.5060   -70.4556     7.3436     8.7316    11.6557
  194.5000     8.0987   123.6686     0.0336     0.0965     2.4993   -69.7115     7.3923     8.9104    11.4923
  195.0000     8.0996   124.3935     0.0291     0.1003     2.4882   -69.1172     7.5434     9.0933    11.7309
  195.5000     8.1003   124.8474     0.0277     0.1017     2.4800   -68.5229     7.5935     9.1528    12.0560
  196.0000     8.1010   125.1531     0.0278     0.1004     2.4823   -67.9286     7.6430     9.2126    12.3055
  196.5000     8.1018   125.1619     0.0324     0.0992     2.4868   -67.9331     7.6391     9.3371    12.3021
  197.0000     8.1025   125.1708     0.0355     0.0977     2.4914   -68.2369     7.6359     9.3980    12.3841
  197.5000     8.1033   125.1797     0.0401     0.0959     2.4952   -69.2893     7.5801     9.3940    12.2105
  198.0000     8.1040   124.8918     0.0417     0.0938     2.4975   -70.0423     7.5770     9.3254    12.1230
  198.5000     8.1047   124.6039     0.0403     0.0923     2.5006   -70.3462     7.5738     9.3215    11.3878
  199.0000     8.1055   124.1655     0.0404     0.0913     2.5021   -70.3507     7.5185     9.1262    11.1508
  199.5000     8.1062   123.5831     0.0389     0.0916     2.5037   -69.6067     7.4121     9.0596    11.7010
  200.0000     8.1069   123.1771     0.0357     0.0936     2.4993   -68.7128     7.3579     8.9931    12.0269
  200.5000     8.1082   121.6745     0.0317     0.1003     2.4866   -69.1634     7.3042     8.9900    11.7729
  201.0000     8.1095   120.6477     0.0278     0.1006     2.4851   -70.3625     7.1523     9.0501    11.7672
  201.5000     8.1110   119.7693     0.0238     0.0984     2.4889   -72.4598     7.1499     9.1098    11.9254
  202.0000     8.1123   119.0392     0.0214     0.0996     2.4935   -73.5092     7.1970     9.1698    12.2542
  202.5000     8.1137   118.0125     0.0199     0.1077     2.4763   -73.9598     7.1945     9.2303    12.3348
  203.0000     8.1150   116.8373     0.0156     0.1101     2.4719   -74.1110     7.2922     9.4199    11.9908
  203.5000     8.1163   115.6622     0.0158     0.1094     2.4817   -74.5616     7.3403     9.4828    11.3396
  204.0000     8.1176   115.3769     0.0191     0.1019     2.4952   -74.7128     7.4400     9.6784    12.2305
  204.5000     8.1190   115.5374     0.0222     0.0935     2.5013   -74.8640     7.5412     9.8780    12.9204
  205.0000     8.1203   115.4006     0.0253     0.0905     2.5044   -75.0152     7.6966    10.0122    13.0054
  205.5000     8.1216   115.4126     0.0282     0.0899     2.5059   -75.1664     7.8010    10.2178    13.3623
  206.0000     8.1230   114.9793     0.0283     0.0896     2.5075   -75.3176     7.9621    10.4285    13.4486
  206.5000     8.1094   113.9486     0.0299     0.0883     2.5090   -75.3191     8.0702    10.5702    13.6294
  207.0000     8.1108   112.9140     0.0300     0.0868     2.5106   -75.1709     8.1799    10.5665    14.0052
  207.5000     8.1121   112.1859     0.0316     0.0868     2.5099   -75.1724     8.3486    10.7100    14.0973
  208.0000     8.1134   111.6004     0.0317     0.0887     2.5077   -74.8741     8.5799    10.7816    13.8952
  208.5000     8.1147   111.3116     0.0333     0.0949     2.5040   -74.7259     8.6964    11.0030    14.0837
  209.0000     8.1161   110.7260     0.0349     0.0957     2.4973   -74.5777     8.9374    11.3079    14.7738
  209.5000     8.1174   110.1147     0.0365     0.0938     2.4965   -74.1301     9.1219    11.7019    15.2865
  210.0000     8.1187   108.4000     0.0367     0.0921     2.5005   -73.6825     9.3745    11.9433    15.9268
  210.5000     8.1052   109.7471     0.0323     0.0948     2.4990   -73.2353     9.5678    12.3594    16.2530
  211.0000     8.0917   110.9458     0.0249     0.0980     2.4938   -72.9370     9.7651    12.4420    15.6927
  211.5000     8.0630   111.2543     0.0234     0.0959     2.4946   -72.7888     9.9665    12.3509    15.3647
  212.0000     8.0350   110.5243     0.0266     0.0932     2.4977   -72.6406    10.1720    12.4323    16.2295
  212.5000     8.0203   109.0524     0.0312     0.0917     2.5000   -72.7922    10.2400    13.0449    18.3734
  213.0000     8.0063   108.3194     0.0358     0.0926     2.5023   -73.6919    10.3791    13.7826    20.0956
  213.5000     7.9796   110.5597     0.0359     0.0967     2.5016   -75.3401    10.4475    13.4948    16.4318
  214.0000     7.9810   112.0551     0.0345     0.1021     2.4956   -75.9404    10.3710    12.6756    15.6492
  214.5000     7.9826   114.1441     0.0301     0.1072     2.4874   -75.9419    10.2959    12.8478    16.1922
  215.0000     7.9839   114.6010     0.0242     0.1111     2.4784   -75.9434    10.1509    13.1139    16.0709
  215.5000     7.9853   114.6128     0.0198     0.1155     2.4709   -75.7948    10.0774    12.6624    15.8423
  216.0000     7.9866   114.4732     0.0169     0.1182     2.4620   -75.4969     9.9354    11.9763    15.6170
