~VERSION INFORMATION
 VERS.                2.0:   CWLS LOG ASCII STANDARD - VERSION 2.0
 WRAP.                 NO:   ONE LINE PER DEPTH STEP
~WELL INFORMATION
#MNEM.UNIT      DATA TYPE    INFORMATION
#----------   ------------   ------------------------------
 STRT.F           30.0000:   START DEPTH
 STOP.F          770.5000:   STOP DEPTH
 STEP.F            0.5000:   STEP LENGTH
 NULL.          -999.2500:   NO VALUE
 COMP. FENIX & SCISSON INC:   COMPANY
 WELL. TEAPOT DOME 63 SX 34 #63-34:   WELL
 FLD .             TEAPOT:   FIELD
 LOC .      S34 T39N R78W:   LOCATION
 CNTY.            NATRONA:   COUNTY
 STAT.            WYOMING:   STATE
 CTRY. UNITED STATES OF AMERICA:   COUNTRY
 SRVC.           BIRDWELL:   SERVICE COMPANY
 DATE.        18-AUG-1978:   LOGDATE
 API .       490251070300:   API NUMBER
~CURVE INFORMATION
#MNEM.UNIT       API CODE    CURVE DESCRIPTION
#----------   ------------   ------------------------------
 DEPT.F                  :   
 SPR .MV     05 010 01 00:   SPONTANEOUS POTENTIAL
 SN  .OHMM   05 040 16 00:   SHORT NORMAL 16'
 ILD .OHMM   05 120 46 00:   INDUCTION LOG DEEP RESISTIVITY
 CALD.IN     45 280 60 00:   CALIPER
 GRD .GAPI   45 310 01 00:   GAMMA RAY FROM DENSITY LOG
 RHOB.G/C3   45 350 01 00:   BULK DENSITY
 DPHI.DEC    45 890 12 00:   DENSITY POROSITY SANDSTONE
 CORR.G/C3   45 356 01 00:   DENSITY CORRECTION
~PARAMETER INFORMATION
#MNEM.UNIT          VALUE    DESCRIPTION
#----------   ------------   ------------------------------
 PD  .                 GL:   PERMANENT DATUM
 EPD .F              5063:   ELEVATION PERMANENT DATUM
 LMF .                 KB:   LOG MEASURED FROM
 DAPD.F                 4:   FEET ABOVE PERMANENT DATUM
 DMF .                 KB:   DRILLING MEASURED FROM
 EKB .F              5067:   KELLING BUSHING
 EGL .F              5063:   GROUND LEVEL
 DATE.          8-18-1978:   RUN DATE
 RUN .                  1:   RUN NUMBER
 DD  .F               760:   DEPTH DRILLER
 DL  .F               770:   DEPTH LOGGER
 BLI .F               763:   BOTTOM LOG INTERVAL
 TLI .F                40:   TOP LOG INTERVAL
 CS  .IN            8.625:   CASING SIZE
 CBD .F                40:   CASING BOTTOM DRILLER
 CBL .F                40:   CASING BOTTOM LOGGER
 BS  .IN            7.875:   BIT SIZE
 BSD .F               760:   BIT SIZE AT DEPTH
 DFT .            MUD KCL:   DRILLING FLUID TYPE
 DFL .               10.6:   DRILLING FLUID LOSS
 MSS .          FLOW LINE:   MUD SAMPLE SOURCE
 RMS .OHMM             .2:   RESISTIVITY MUD SAMPLE
 MST .F                56:   MUD SAMPLE TEMPERATURE
 RMF .OHMM             .2:   RESISTIVITY MUD FILTRATE SAMPLE
 MFST.F                64:   MUD FILTRATE SAMPLE TEMPERATURE
 RMC .OHMM            .36:   RESISTIVITY MUD CAKE
 MCST.F                64:   MUD CAKE SAMPLE TEMPERATURE
 MFSS.               MEAS:   MUD FILTRATE SAMPLE SOURCE
 MCSS.               MEAS:   MUD CAKE SAMPLE SOURCE
 TCS .HRS               3:   TIME CURCULATED STOPPED
 MRT .F                72:   MAXIMUM RECORDED TEMPERATURE
 LUN .               3006:   LOGGING UNIT NUMBER
 LUL .               CASP:   LOGGING UNIT LOCATION
 ENGI.           REYNOLDS:   RECORDING ENGINEER
 WITN.              AMEND:   WITNESSED BY
 CLNT.            A2DTECH:   CLIENT CODE
 ORIG.           5" PRINT:   ORIGIN OF DATA
 UWI .       490251070300:   UNIQUE WELL ID
 DICO. A2D Technologies, Inc.:   DIGITIZING COMPANY
~OTHER INFORMATION
~A   DEPT      SPR         SN        ILD       CALD         GRD      RHOB       DPHI       CORR   
# ...
  313.5000   -77.4268     8.3700     6.7171     7.1278    88.5791     2.5046     0.0970     0.0413
  314.0000   -77.2310     8.3639     6.7090     7.1255    86.3060     2.4968     0.1028     0.0356
  314.5000   -77.0684     8.3577     6.7009     7.1232    84.4115     2.4894     0.1074     0.0316
  315.0000   -77.3216     8.3516     6.6927     7.1210    84.9530     2.4824     0.1090     0.0307
  315.5000   -77.5767     8.3454     6.6846     7.1187    86.5335     2.4824     0.1096     0.0299
  316.0000   -77.8295     8.3392     6.6765     7.1164    87.0798     2.4850     0.1100     0.0290
  316.5000   -78.0548     8.3331     6.6684     7.1142    86.7144     2.4850     0.1105     0.0281
  317.0000   -78.0572     8.3270     6.6603     7.1119    86.3383     2.4821     0.1109     0.0272
  317.5000   -78.0563     8.3208     6.6522     7.1097    85.9671     2.4796     0.1104     0.0263
  318.0000   -78.0561     8.3147     6.6441     7.1074    86.7875     2.4806     0.1089     0.0234
  318.5000   -78.0561     8.3086     6.6360     7.1052    88.8063     2.4814     0.1108     0.0190
  319.0000   -78.0561     8.3024     6.6280     7.1029    90.6798     2.4810     0.1167     0.0145
  319.5000   -78.0561     8.2963     6.6199     7.1007    89.9343     2.4686     0.1225     0.0101
  320.0000   -78.0561     8.2902     6.6119     7.0984    88.7515     2.4572     0.1274     0.0103
  320.5000   -78.0562     8.2841     6.6039     7.0961    88.2630     2.4586     0.1216     0.0121
  321.0000   -78.0440     8.2780     6.5958     7.0939    88.6349     2.4613     0.1198     0.0138
  321.5000   -78.0222     8.2719     6.5879     7.0917    88.2122     2.4639     0.1190     0.0156
  322.0000   -78.0003     8.2658     6.5799     7.0920    86.6351     2.4647     0.1203     0.0152
  322.5000   -77.9783     8.2597     6.5719     7.1007    84.3427     2.4617     0.1226     0.0131
  323.0000   -77.9564     8.2536     6.5639     7.1091    82.0718     2.4613     0.1199     0.0109
  323.5000   -77.9345     8.2475     6.5559     7.1174    80.7371     2.4649     0.1184     0.0088
  324.0000   -77.9129     8.2414     6.5479     7.1257    81.8961     2.4574     0.1257     0.0086
  324.5000   -77.8910     8.2354     6.5400     7.1263    82.8823     2.4539     0.1225     0.0117
  325.0000   -77.8658     8.2293     6.5321     7.1189    82.7571     2.4693     0.1171     0.0148
  325.5000   -77.6725     8.2232     6.5241     7.1064    82.7045     2.4762     0.1142     0.0179
  326.0000   -77.2124     8.2172     6.5162     7.0991    83.7427     2.4794     0.1126     0.0210
  326.5000   -76.8627     8.2111     6.5083     7.1100    86.8032     2.4823     0.1089     0.0241
  327.0000   -76.9640     8.2051     6.5004     7.1219    88.7303     2.4857     0.1070     0.0259
  327.5000   -77.0568     8.1990     6.4925     7.1301    84.4431     2.4873     0.1058     0.0247
  328.0000   -77.1490     8.1930     6.4846     7.1198    81.3468     2.4853     0.1071     0.0216
  328.5000   -77.2426     8.1869     6.4767     7.1086    81.9651     2.4798     0.1126     0.0185
  329.0000   -77.1961     8.1809     6.4689     7.0974    83.2688     2.4769     0.1123     0.0154
  329.5000   -77.1268     8.1749     6.4610     7.0911    82.6414     2.4760     0.1122     0.0124
  330.0000   -77.0569     8.1688     6.4532     7.1006    81.7188     2.4679     0.1185     0.0099
  330.5000   -76.9869     8.1618     6.4454     7.1101    81.6494     2.4601     0.1244     0.0100
  331.0000   -76.9161     8.1677     6.4375     7.1195    83.8782     2.4601     0.1221     0.0125
  331.5000   -76.8638     8.1754     6.4297     7.1289    86.5127     2.4659     0.1175     0.0150
  332.0000   -77.0586     8.1832     6.4219     7.1384    88.1674     2.4714     0.1138     0.0160
  332.5000   -77.2525     8.1910     6.4141     7.1484    88.3187     2.4704     0.1169     0.0160
  333.0000   -77.4462     8.1988     6.4063     7.1356    87.3904     2.4649     0.1217     0.0159
  333.5000   -77.6451     8.2066     6.3986     7.1170    86.2118     2.4597     0.1266     0.0160
  334.0000   -77.6896     8.2144     6.3908     7.0980    86.0814     2.4511     0.1287     0.0185
  334.5000   -77.7249     8.2222     6.3830     7.0979    88.3747     2.4430     0.1262     0.0211
  335.0000   -77.7611     8.2300     6.3753     7.1111    90.6646     2.4540     0.1226     0.0236
  335.5000   -77.7975     8.2379     6.3686     7.1245    92.9651     2.4677     0.1182     0.0260
  336.0000   -77.8339     8.2457     6.3840     7.1300    94.1607     2.4738     0.1150     0.0286
  336.5000   -77.8704     8.2535     6.3981     7.1301    92.6341     2.4744     0.1134     0.0311
  337.0000   -77.9068     8.2614     6.4124     7.1300    90.7916     2.4762     0.1109     0.0336
  337.5000   -77.9432     8.2692     6.4266     7.1296    88.9295     2.4870     0.1072     0.0333
  338.0000   -77.9797     8.2771     6.4409     7.1025    87.0748     2.4980     0.1036     0.0326
  338.5000   -78.0161     8.2850     6.4553     7.0966    85.2169     2.5076     0.0998     0.0319
  339.0000   -78.0525     8.2929     6.4697     7.1045    84.6987     2.5001     0.1024     0.0312
  339.5000   -78.0890     8.3008     6.4841     7.1128    88.3813     2.4946     0.1050     0.0305
  340.0000   -78.1254     8.3087     6.4985     7.1210    88.7060     2.5014     0.1037     0.0298
  340.5000   -78.1619     8.3166     6.5129     7.1291    87.3243     2.5055     0.1011     0.0291
  341.0000   -78.1983     8.3245     6.5274     7.1372    86.2361     2.5018     0.1010     0.0284
  341.5000   -78.2341     8.3324     6.5469     7.1453    87.8001     2.4984     0.1038     0.0277
  342.0000   -78.2326     8.3403     6.5303     7.1441    89.4239     2.4865     0.1106     0.0270
  342.5000   -78.1705     8.3483     6.4990     7.1303    87.4770     2.4798     0.1094     0.0263
  343.0000   -78.1093     8.3562     6.4677     7.1167    85.0659     2.4842     0.1075     0.0253
  343.5000   -78.0479     8.3642     6.4365     7.1029    84.7043     2.4876     0.1081     0.0240
  344.0000   -77.9866     8.3721     6.4222     7.0904    85.9989     2.4815     0.1154     0.0228
  344.5000   -77.9253     8.3800     6.4145     7.0952    88.1946     2.4711     0.1194     0.0215
  345.0000   -77.8640     8.3914     6.4072     7.1003    90.3644     2.4645     0.1202     0.0202
  345.5000   -77.8026     8.3328     6.3998     7.1053    92.5223     2.4621     0.1204     0.0189
  346.0000   -77.7413     8.2491     6.3925     7.1100    94.3378     2.4597     0.1206     0.0180
  346.5000   -77.6800     8.1671     6.3851     7.1124    94.3130     2.4573     0.1226     0.0188
  347.0000   -77.6187     8.0859     6.3778     7.1146    92.5980     2.4566     0.1244     0.0223
  347.5000   -77.5573     8.0135     6.3705     7.1168    90.9366     2.4585     0.1229     0.0256
  348.0000   -77.4960     8.0136     6.3631     7.1191    89.2828     2.4653     0.1179     0.0289
  348.5000   -77.4347     8.0135     6.3558     7.1213    87.8105     2.4727     0.1134     0.0319
  349.0000   -77.3734     8.0135     6.3485     7.1235    86.8072     2.4803     0.1107     0.0316
  349.5000   -77.3120     8.0135     6.3412     7.1258    85.8028     2.4878     0.1082     0.0313
  350.0000   -77.2507     8.0135     6.3339     7.1280    84.7719     2.4922     0.1057     0.0310
  350.5000   -77.1894     8.0135     6.3267     7.1301    84.6402     2.4902     0.1060     0.0307
  351.0000   -77.1281     8.0134     6.3194     7.1340    85.1557     2.4876     0.1074     0.0303
  351.5000   -77.0667     8.0137     6.3102     7.1378    85.4116     2.4849     0.1088     0.0299
  352.0000   -77.0054     8.0329     6.3331     7.1414    83.5677     2.4825     0.1094     0.0352
  352.5000   -76.9443     8.0543     6.3657     7.1452    82.3225     2.4911     0.0991     0.0429
  353.0000   -76.8825     8.0757     6.3984     7.1488    83.2060     2.5008     0.0897     0.0499
  353.5000   -76.8867     8.0971     6.4313     7.1525    86.0593     2.5106     0.0790     0.0497
