~VERSION INFORMATION
 VERS.                2.0:   CWLS LOG ASCII STANDARD - VERSION 2.0
 WRAP.                 NO:   ONE LINE PER DEPTH STEP
~WELL INFORMATION
#MNEM.UNIT      DATA TYPE    INFORMATION
#----------   ------------   ------------------------------
 STRT.F           44.0000:   START DEPTH
 STOP.F          510.0000:   STOP DEPTH
 STEP.F            0.5000:   STEP LENGTH
 NULL.          -999.2500:   NO VALUE
 COMP. FENIX & SCISSON INC:   COMPANY
 WELL. NPR-3 76-SX-3 #76-3:   WELL
 FLD . TEAPOT DOME NPR #3:   FIELD
 LOC .       S3 T38N R78W:   LOCATION
 CNTY.            NATRONA:   COUNTY
 STAT.            WYOMING:   STATE
 CTRY. UNITED STATES OF AMERICA:   COUNTRY
 SRVC.            Unknown:   SERVICE COMPANY
 DATE.        13-OCT-1978:   LOGDATE
 API .       490251072300:   API NUMBER
~CURVE INFORMATION
#MNEM.UNIT       API CODE    CURVE DESCRIPTION
#----------   ------------   ------------------------------
 DEPT.F                  :   
 CALD.IN     45 280 60 00:   CALIPER
 RHOB.G/C3   45 350 01 00:   BULK DENSITY
 CORR.G/C3   45 356 01 00:   DENSITY CORRECTION
 SPR .MV     05 010 01 00:   SPONTANEOUS POTENTIAL FROM RES.
 SN  .OHMM   05 040 16 00:   SHORT NORMAL 16"
 ILD .OHMM   05 120 46 00:   INDUCTION LOG DEEP
 DPHI.DEC    45 890 12 00:   DENSITY POROSITY SANDSTONE
~PARAMETER INFORMATION
#MNEM.UNIT          VALUE    DESCRIPTION
#----------   ------------   ------------------------------
 PD  .                 GL:   PERMANENT DATUM
 EPD .F              5151:   ELEVATION PERMANENT DATUM
 LMF .                 KB:   LOG MEASURED FROM
 DAPD.F                 4:   FEET ABOVE PERMANENT DATUM
 DMF .                 KB:   DRILLING MEASURED FROM
 EKB .F              5155:   KELLING BUSHING
 EGL .F              5151:   GROUND LEVEL
 DATE.         10-13-1978:   RUN DATE
 RUN .                  1:   RUN NUMBER
 DD  .F               515:   DEPTH DRILLER
 DL  .F               517:   DEPTH LOGGER
 BLI .F               511:   BOTTOM LOG INTERVAL
 TLI .F                50:   TOP LOG INTERVAL
 CS  .IN            8.625:   CASING SIZE
 CBD .F                40:   CASING BOTTOM DRILLER
 BS  .IN            7.875:   BIT SIZE
 BSD .F               515:   BIT SIZE AT DEPTH
 DFT .                KCL:   DRILLING FLUID TYPE
 MSS .            MUD PIT:   MUD SAMPLE SOURCE
 RMS .OHMM             .2:   RESISTIVITY MUD SAMPLE
 MST .F                54:   MUD SAMPLE TEMPERATURE
 RMF .OHMM            .19:   RESISTIVITY MUD FILTRATE SAMPLE
 MFST.F                63:   MUD FILTRATE SAMPLE TEMPERATURE
 RMC .OHMM            .26:   RESISTIVITY MUD CAKE
 MCST.F                64:   MUD CAKE SAMPLE TEMPERATURE
 MFSS.               MEAS:   MUD FILTRATE SAMPLE SOURCE
 MCSS.               MEAS:   MUD CAKE SAMPLE SOURCE
 TCS .HRS               2:   TIME CURCULATED STOPPED
 LUN .               3006:   LOGGING UNIT NUMBER
 LUL .               CASP:   LOGGING UNIT LOCATION
 ENGI.             MILLER:   RECORDING ENGINEER
 WITN.           DINSMORE:   WITNESSED BY
 CLNT.            A2DTECH:   CLIENT CODE
 ORIG.           5" PRINT:   ORIGIN OF DATA
 UWI .       490251072300:   UNIQUE WELL ID
 DICO. A2D Technologies, Inc.:   DIGITIZING COMPANY
~OTHER INFORMATION
~A   DEPT     CALD       RHOB        CORR       SPR         SN        ILD         DPHI 
# ...
  180.5000     7.5813     2.4804     0.0490   -17.7580     7.0464     7.1725     0.1150
  181.0000     7.5887     2.4805     0.0490   -17.7579     6.9720     7.1044     0.1164
  181.5000     7.5961     2.4806     0.0490   -17.7579     6.8984     7.0368     0.1199
  182.0000     7.6035     2.4763     0.0490   -17.7579     6.8256     6.9699     0.1234
  182.5000     7.6108     2.4698     0.0490   -17.7579     6.7535     6.9037     0.1293
  183.0000     7.6182     2.4633     0.0490   -17.7579     6.6822     6.8396     0.1364
  183.5000     7.6255     2.4567     0.0496   -17.7579     6.6117     6.7821     0.1420
  184.0000     7.6324     2.4501     0.0502   -17.7579     6.5419     6.7265     0.1430
  184.5000     7.6592     2.4434     0.0508   -17.7579     6.5144     6.6713     0.1403
  185.0000     7.6893     2.4459     0.0514   -17.7579     6.4941     6.6369     0.1370
  185.5000     7.6939     2.4511     0.0520   -17.7579     6.4720     6.5922     0.1349
  186.0000     7.6939     2.4564     0.0525   -17.7579     6.4900     6.6281     0.1311
  186.5000     7.6938     2.4615     0.0532   -17.7579     6.5102     6.6799     0.1251
  187.0000     7.6939     2.4710     0.0575   -17.7579     6.5318     6.7296     0.1191
  187.5000     7.6936     2.4809     0.0619   -17.7579     6.6226     6.7769     0.1131
  188.0000     7.7067     2.4891     0.0665   -17.7579     6.7211     6.9805     0.1086
  188.5000     7.7259     2.4969     0.0706   -17.7579     6.8207     7.1619     0.1082
  189.0000     7.7453     2.4983     0.0783   -17.7579     6.9025     7.1619     0.1099
  189.5000     7.7648     2.4966     0.0857   -17.7576     6.8812     7.1619     0.1070
  190.0000     7.7842     2.5020     0.0931   -17.7599     6.8630     7.1619     0.1046
  190.5000     7.8037     2.5085     0.1005   -17.8045     6.8449     7.1617     0.1049
  191.0000     7.8231     2.5143     0.1068   -17.8491     6.8269     7.1417     0.1046
  191.5000     7.8425     2.5113     0.1109   -17.8934     6.8088     7.1220     0.1028
  192.0000     7.8559     2.5084     0.1099   -17.9377     6.7909     7.1025     0.0999
  192.5000     7.8623     2.5128     0.1089   -17.9820     6.7729     7.0391     0.0970
  193.0000     7.8687     2.5178     0.1065   -18.0263     6.7551     6.9226     0.0941
  193.5000     7.8752     2.5197     0.1042   -18.0706     6.7372     6.8074     0.0914
  194.0000     7.8816     2.5211     0.1006   -18.1149     6.7194     6.6943     0.0939
  194.5000     7.8880     2.5205     0.0956   -18.1592     6.6735     6.5832     0.0981
  195.0000     7.8884     2.5162     0.0906   -18.2035     6.6178     6.4739     0.1038
  195.5000     7.8695     2.5078     0.0856   -18.2480     6.5625     6.3664     0.1095
  196.0000     7.8514     2.4990     0.0805   -18.2917     6.5078     6.2607     0.1152
  196.5000     7.8333     2.4901     0.0801   -18.3393     6.4535     6.1568     0.1209
  197.0000     7.8151     2.4813     0.0816   -18.1587     6.3996     6.0546     0.1258
  197.5000     7.7970     2.4724     0.0831   -17.8520     6.3462     5.9570     0.1287
  198.0000     7.7786     2.4643     0.0847   -17.5619     6.2955     5.9857     0.1241
  198.5000     7.7793     2.4734     0.0862   -17.4841     6.3126     6.0138     0.1169
  199.0000     7.7874     2.4834     0.0878   -17.4114     6.3290     6.0408     0.1098
  199.5000     7.7958     2.4935     0.0893   -17.2618     6.3454     6.0691     0.1057
  200.0000     7.8041     2.5017     0.0909   -16.8504     6.4879     6.2853     0.1038
  200.5000     7.8124     2.5059     0.0980   -16.5451     6.7689     6.4951     0.1024
  201.0000     7.8208     2.5106     0.1072   -16.4923     6.9891     6.7106     0.0996
  201.5000     7.8291     2.5193     0.1241   -16.4333     7.0592     6.9106     0.0934
  202.0000     7.8375     2.5265     0.1408   -16.3754     7.1301     6.9683     0.0870
  202.5000     7.8457     2.5330     0.1514   -16.3173     7.2016     7.0267     0.0801
  203.0000     7.8532     2.5406     0.1626   -16.2592     7.2739     7.0853     0.0732
  203.5000     7.8597     2.5482     0.1643   -16.2011     7.3472     7.1446     0.0674
  204.0000     7.8668     2.5557     0.1593   -16.1430     7.3915     7.2042     0.0741
  204.5000     7.8740     2.5607     0.1488   -16.0849     7.4286     7.2386     0.0828
  205.0000     7.8812     2.5514     0.1205   -16.0269     7.4657     7.2559     0.0916
  205.5000     7.8881     2.5375     0.0909   -15.9688     7.5031     7.2733     0.0985
  206.0000     7.8813     2.5236     0.0719   -15.9104     7.5407     7.2907     0.1026
  206.5000     7.8515     2.5122     0.0661   -15.8531     7.5705     7.3081     0.1058
  207.0000     7.8220     2.5155     0.0645   -15.7904     7.5764     7.3256     0.0964
  207.5000     7.7940     2.5206     0.0629   -16.0117     7.5823     7.3431     0.0903
  208.0000     7.7921     2.5225     0.0601   -16.3722     7.5883     7.3607     0.0981
  208.5000     7.7912     2.5225     0.0572   -16.7372     7.5943     7.3694     0.0910
  209.0000     7.7901     2.5213     0.0543   -17.1007     7.6003     7.3770     0.0968
  209.5000     7.7889     2.5178     0.0514   -17.3840     7.6063     7.3847     0.1034
  210.0000     7.7878     2.5119     0.0510   -17.4536     7.6123     7.3923     0.1027
  210.5000     7.7867     2.5074     0.0510   -17.5250     7.6184     7.4000     0.1025
  211.0000     7.7856     2.5072     0.0510   -17.5964     7.6243     7.4076     0.1035
  211.5000     7.7844     2.5069     0.0510   -17.6679     7.6303     7.4152     0.1045
  212.0000     7.7833     2.5066     0.0510   -17.7395     7.6386     7.4226     0.1043
  212.5000     7.7822     2.5067     0.0510   -17.8111     7.5845     7.4302     0.1017
  213.0000     7.7811     2.5103     0.0509   -17.8827     7.4924     7.3472     0.0992
  213.5000     7.7799     2.5138     0.0504   -17.9542     7.4018     7.2647     0.0975
  214.0000     7.7788     2.5166     0.0499   -18.0258     7.3124     7.1831     0.0989
  214.5000     7.7777     2.5145     0.0494   -18.0974     7.2282     7.1024     0.1002
  215.0000     7.7765     2.5116     0.0489   -18.1691     7.1813     7.0226     0.1016
  215.5000     7.7754     2.5086     0.0484   -18.2406     7.1099     6.9437     0.1027
  216.0000     7.7743     2.5061     0.0479   -18.3112     7.0393     6.8640     0.1040
  216.5000     7.7740     2.5036     0.0474   -18.3181     6.9525     6.7853     0.1054
  217.0000     7.7785     2.5011     0.0470   -18.2307     6.8647     6.7061     0.1072
  217.5000     7.7829     2.4987     0.0465   -18.1361     6.7780     6.6076     0.1100
  218.0000     7.7873     2.4947     0.0460   -18.9139     6.6924     6.4627     0.1128
  218.5000     7.7917     2.4899     0.0455   -19.7321     6.5559     6.3215     0.1147
  219.0000     7.7961     2.4851     0.0450   -19.8211     6.3786     6.1835     0.1163
  219.5000     7.8005     2.4803     0.0450   -19.8916     6.2061     5.9800     0.1221
  220.0000     7.8049     2.4742     0.0450   -20.0527     6.0077     5.7319     0.1272
  220.5000     7.8093     2.4661     0.0450   -20.5121     5.6810     5.4523     0.1374
  221.0000     7.8137     2.4578     0.0450   -20.9536     5.3720     5.1530     0.1501
  221.5000     7.8181     2.4411     0.0450   -21.3948     5.0499     4.7765     0.1630
  222.0000     7.8225     2.4126     0.0450   -21.8309     4.6451     4.2010     0.1828
  222.5000     7.8269     2.3839     0.0463   -22.1276     4.2727     3.5664     0.2069
  223.0000     7.8313     2.3482     0.0483   -22.1226     3.9301     3.1931     0.2308
  223.5000     7.8357     2.3089     0.0549   -22.1231     3.6151     2.9582     0.2483
  224.0000     7.8401     2.2780     0.0635   -22.1245     3.3252     2.8507     0.2468
  224.5000     7.8446     2.2765     0.0722   -21.9759     3.1844     2.8156     0.2356
  225.0000     7.8492     2.2878     0.0681   -21.7269     3.1844     2.7734     0.2139
  225.5000     7.8527     2.3216     0.0623   -21.4720     3.2009     2.8152     0.1925
