~VERSION INFORMATION
 VERS.                2.0:   CWLS LOG ASCII STANDARD - VERSION 2.0
 WRAP.                 NO:   ONE LINE PER DEPTH STEP
~WELL INFORMATION
#MNEM.UNIT      DATA TYPE    INFORMATION
#----------   ------------   ------------------------------
 STRT.F           30.0000:   START DEPTH
 STOP.F          515.0000:   STOP DEPTH
 STEP.F            0.5000:   STEP LENGTH
 NULL.          -999.2500:   NO VALUE
 COMP. FENIX & SCISSON INC:   COMPANY
 WELL.      FP SX-3 #63-3:   WELL
 FLD .              NPR 3:   FIELD
 LOC .       S3 T38N R78W:   LOCATION
 CNTY.            NATRONA:   COUNTY
 STAT.            WYOMING:   STATE
 CTRY. UNITED STATES OF AMERICA:   COUNTRY
 SRVC.              Welex:   SERVICE COMPANY
 DATE.        21-JUN-1980:   LOGDATE
 API .       490251082100:   API NUMBER
~CURVE INFORMATION
#MNEM.UNIT       API CODE    CURVE DESCRIPTION
#----------   ------------   ------------------------------
 DEPT.F                  :   
 SPR .MV     07 010 01 00:   SPONTANEOUS POTENTIAL
 SGRD.OHMM   07 220 05 00:   SHALLOW GUARD RESISTIVITY
 ILD .OHMM   07 120 46 00:   INDUCTION LOG DEEP RESISTIVITY
 ILM .OHMM   07 120 44 00:   INDUCTION LOG MEDIUM
 CALD.IN     45 280 60 00:   CALIPER
 GRD .GAPI   45 310 01 00:   GAMMA RAY FROM DENSITY LOG
 CORR.G/C3   45 356 01 00:   DENSITY CORRECTION
 RHOB.G/C3   45 350 01 00:   BULK DENSITY
 DPHI.DEC    45 890 12 00:   DENSITY POROSITY SANDSTONE
 NPHI.DEC    42 890 03 00:   NEUTRON POROSITY SANDSTONE
~PARAMETER INFORMATION
#MNEM.UNIT          VALUE    DESCRIPTION
#----------   ------------   ------------------------------
 PD  .                 GL:   PERMANENT DATUM
 EPD .F              5160:   ELEVATION PERMANENT DATUM
 LMF .                 KB:   LOG MEASURED FROM
 DAPD.F                 5:   FEET ABOVE PERMANENT DATUM
 DMF .                 KB:   DRILLING MEASURED FROM
 EKB .F              5165:   KELLING BUSHING
 EGL .F              5160:   GROUND LEVEL
 DATE.            6-21-80:   RUN DATE
 RUN .                  1:   RUN NUMBER
 DD  .F               508:   DEPTH DRILLER
 DL  .F               517:   DEPTH LOGGER
 BLI .F               515:   BOTTOM LOG INTERVAL
 TLI .F                35:   TOP LOG INTERVAL
 BS  .IN            9.875:   BIT SIZE
 BSD .F               508:   BIT SIZE AT DEPTH
 DFT .            KCL MUD:   DRILLING FLUID TYPE
 DFD .                9.2:   DRILLING FLUID DENSITY
 DFV .                 50:   DRILLING FLUID VISCOSITY
 DFPH.                8.5:   DRILLING FLUID PH
 DFL .                  8:   DRILLING FLUID LOSS
 MSS .           FLOWLINE:   MUD SAMPLE SOURCE
 RMS .OHMM            .42:   RESISTIVITY MUD SAMPLE
 MST .F                63:   MUD SAMPLE TEMPERATURE
 RMF .OHMM            .34:   RESISTIVITY MUD FILTRATE SAMPLE
 MFST.F                63:   MUD FILTRATE SAMPLE TEMPERATURE
 RMC .OHMM             .5:   RESISTIVITY MUD CAKE
 MCST.F                63:   MUD CAKE SAMPLE TEMPERATURE
 MFSS.           MEASURED:   MUD FILTRATE SAMPLE SOURCE
 MCSS.           MEASURED:   MUD CAKE SAMPLE SOURCE
 RMB .OHMM            .35:   RESISTIVITY MUD AT BHT
 BHT .F                75:   BOTTOM HOLE TEMPERATURE
 TCS .HRS             1.5:   TIME CURCULATED STOPPED
 MRT .F                75:   MAXIMUM RECORDED TEMPERATURE
 LUN .               9685:   LOGGING UNIT NUMBER
 LUL .             CASPER:   LOGGING UNIT LOCATION
 ENGI.            TOTHILL:   RECORDING ENGINEER
 WITN.           DINSMORE:   WITNESSED BY
 CLNT.            A2DTECH:   CLIENT CODE
 ORIG.           5" PRINT:   ORIGIN OF DATA
 UWI .       490251082100:   UNIQUE WELL ID
 DICO. A2D Technologies, Inc.:   DIGITIZING COMPANY
~OTHER INFORMATION
~A   DEPT      SPR       SGRD        ILD        ILM        CALD       GRD         CORR       RHOB       DPHI       NPHI 
# ...
  264.5000   -40.1950     4.6350     3.9264     4.6826    10.0935   113.0850     0.0906     2.4832     0.1037     0.3078
  265.0000   -40.6291     6.1336     4.0194     4.9456    10.0931   111.2719     0.0959     2.4979     0.0946     0.3050
  265.5000   -41.1831     6.3770     4.1784     5.1349    10.0926   109.4483     0.0943     2.5148     0.0855     0.3025
  266.0000   -40.9233     6.6029     4.4148     5.2315    10.0921   107.6177     0.0992     2.5313     0.0831     0.3002
  266.5000   -39.8097     6.8485     4.6660     5.4439    10.0917   106.6511     0.1041     2.5378     0.0899     0.2982
  267.0000   -39.1144     6.9176     4.9312     5.6464    10.0912   105.9154     0.0916     2.5263     0.0946     0.2943
  267.5000   -38.9652     6.8927     5.2109     5.8538    10.0908   105.8939     0.0793     2.5196     0.0958     0.2937
  268.0000   -39.2854     6.8125     5.5321     5.9592    10.0903   105.9398     0.0736     2.5239     0.0910     0.2930
  268.5000   -39.6677     6.7589     5.5839     5.9773    10.0898   106.7121     0.0770     2.5266     0.0870     0.2940
  269.0000   -40.0559     6.7159     5.5840     6.0013    10.0894   107.4755     0.0833     2.5331     0.0849     0.2946
  269.5000   -40.1936     6.6731     5.5838     6.0254    10.0889   108.2337     0.0897     2.5414     0.0826     0.2933
  270.0000   -39.7281     6.6307     5.5839     6.0496    10.0884   108.9914     0.0961     2.5422     0.0867     0.2913
  270.5000   -39.1954     6.6029     5.5839     6.0740    10.0880   109.7586     0.0888     2.5303     0.0963     0.2894
  271.0000   -38.6604     6.6562     5.5839     6.0984    10.0875   110.2884     0.0746     2.5155     0.1042     0.2896
  271.5000   -38.1236     6.7543     5.5839     6.1289    10.0870   110.2827     0.0598     2.5005     0.1082     0.2898
  272.0000   -38.0511     6.8539     5.5839     6.0662    10.0866   110.1347     0.0562     2.4988     0.1068     0.2920
  272.5000   -38.4612     6.9189     5.5839     6.0556    10.0861   109.3203     0.0649     2.5007     0.1040     0.2942
  273.0000   -38.8600     6.8626     5.5839     6.0451    10.0856   108.5184     0.0732     2.5010     0.1012     0.2946
  273.5000   -39.2578     6.8052     5.5839     6.0347    10.0852   107.7178     0.0816     2.5041     0.0986     0.2955
  274.0000   -39.6623     6.7270     5.5838     6.0243    10.0847   106.9147     0.0899     2.5088     0.1042     0.2994
  274.5000   -39.7129     6.8735     5.5838     6.0155    10.0843   106.5347     0.0922     2.4977     0.1124     0.2998
  275.0000   -39.6193     7.0916     5.5843     6.0576    10.0838   107.2668     0.0805     2.4848     0.1205     0.3070
  275.5000   -39.3116     7.1802     5.5834     6.1293    10.0833   107.9869     0.0694     2.4720     0.1237     0.3088
  276.0000   -38.3831     7.0534     5.6765     6.2015    10.0829   108.7141     0.0630     2.4624     0.1238     0.3093
  276.5000   -37.4667     6.8535     5.7429     6.2745    10.0824   109.0816     0.0691     2.4688     0.1263     0.3012
  277.0000   -36.5659     7.1125     5.7958     6.3485    10.0819   108.3973     0.0746     2.4668     0.1372     0.2969
  277.5000   -36.0656     7.3764     5.6469     6.3615    10.0815   106.4015     0.0738     2.4503     0.1487     0.2926
  278.0000   -36.5591     7.6501     5.5321     6.2293    10.0810   104.4259     0.0502     2.4336     0.1497     0.2884
  278.5000   -37.0275     7.8858     5.2220     6.1424    10.0805   102.4468     0.0502     2.4234     0.1439     0.2866
  279.0000   -37.3482     7.8871     4.9371     5.9048    10.0801   100.4645     0.0610     2.4233     0.1380     0.2918
  279.5000   -36.9421     7.3978     4.6685     5.4354    10.0796    99.4198     0.0746     2.4332     0.1412     0.2956
  280.0000   -36.5065     6.2064     4.4146     5.0223    10.0791   100.2028     0.0884     2.4378     0.1472     0.2995
  280.5000   -36.1230     3.7952     4.1746     4.6406    10.0787   101.5125     0.1022     2.4300     0.1532     0.3000
  281.0000   -36.1329     2.6262     3.9476     4.5072    10.0782   102.8385     0.1063     2.4224     0.1552     0.3013
  281.5000   -36.1378     4.0289     3.9196     4.4655    10.0773   104.1582     0.1062     2.4148     0.1527     0.3087
  282.0000   -36.1170     7.6026     4.0307     4.9043    10.0764   105.3352     0.1060     2.4161     0.1388     0.3094
  282.5000   -35.3799     8.5353     4.3293     5.4808    10.0754   104.7284     0.1130     2.4331     0.1249     0.3013
  283.0000   -34.6944     8.6922     4.6430     5.8178    10.0744   102.8937     0.1200     2.4497     0.1107     0.2943
  283.5000   -35.0101     8.8520     4.9857     6.2165    10.0735   101.0838     0.1167     2.4665     0.0945     0.2871
  284.0000   -35.3181     9.0147     5.3724     6.6432    10.0725    99.2761     0.1015     2.4972     0.0807     0.2727
  284.5000   -34.7347     9.0621     5.8106     7.1136    10.0716    97.4464     0.0762     2.5344     0.0814     0.2691
  285.0000   -34.1173     8.9345     6.2855     7.1136    10.0707    96.6088     0.0850     2.5472     0.0873     0.2667
  285.5000   -33.5121     8.7958     6.6413     6.9824    10.0697    97.3776     0.0943     2.5436     0.0930     0.2781
  286.0000   -33.9487     8.6593     6.9603     7.2677    10.0687    98.6689     0.0960     2.5327     0.1042     0.2832
  286.5000   -34.3221     8.5252     7.1802     7.4623    10.0678    99.9732     0.0859     2.5129     0.1185     0.2857
  287.0000   -33.5669     8.3931     7.2595     7.7330    10.0668   101.2899     0.0751     2.4930     0.1238     0.2871
  287.5000   -32.3335     8.2566     7.3152     8.1627    10.0659   101.9059     0.0643     2.4745     0.1317     0.2884
  288.0000   -31.0873     8.4004     7.7936     8.6152    10.0649    97.7802     0.0580     2.4626     0.1416     0.2870
  288.5000   -29.8444     8.9039     8.3308     9.0927    10.0640    93.1283     0.0543     2.4506     0.1440     0.2809
  289.0000   -29.4839    11.2890     8.9051     9.5966    10.0630    90.5678     0.0523     2.4384     0.1448     0.2748
  289.5000   -29.1995    14.3772     9.5185    10.1282    10.0621    89.5579     0.0544     2.4318     0.1506     0.2686
  290.0000   -28.5619    21.1167    10.1744    10.8218    10.0611    85.9947     0.0591     2.4304     0.1589     0.2612
  290.5000   -27.4647    18.4177    11.2222    10.8153    10.0602    82.2372     0.0637     2.4220     0.1672     0.2536
  291.0000   -27.0684    15.6990    12.4805    10.8167    10.0592    78.4783     0.0627     2.4088     0.1704     0.2461
  291.5000   -26.8340    15.4820    13.2491    10.6177    10.0583    74.7281     0.0601     2.3913     0.1714     0.2444
  292.0000   -25.7806    14.2490    13.8161    10.2913    10.0577    70.9982     0.0686     2.3868     0.1764     0.2518
  292.5000   -24.4308    13.6523    14.4075    10.2289    10.0485    69.4674     0.0802     2.3828     0.1817     0.2570
  293.0000   -24.1438    15.1457    15.0242    10.9983    10.0392    70.7241     0.0889     2.3744     0.1870     0.2623
  293.5000   -23.7941    16.5039    15.4094    11.3322    10.0300    71.9645     0.0928     2.3661     0.1922     0.2598
  294.0000   -22.7708    17.9802    15.8963    11.1231    10.0207    73.2428     0.0963     2.3577     0.2002     0.2564
  294.5000   -21.7948    18.5751    16.3878    11.0200    10.0113    73.5261     0.0962     2.3472     0.2087     0.2556
  295.0000   -20.8222    18.0564    16.8944    11.1231    10.0015    72.9680     0.0945     2.3328     0.2172     0.2526
  295.5000   -19.8399    19.9996    17.4168    11.6867     9.9767    71.9516     0.0868     2.3183     0.2238     0.2499
  296.0000   -18.9610    23.4534    17.9552    12.4398     9.9776    69.4011     0.0792     2.3038     0.2282     0.2484
  296.5000   -18.9184    27.6907    18.5103    13.0312     9.9780    66.4000     0.0763     2.2901     0.2295     0.2524
  297.0000   -19.0128    29.2991    19.0826    12.7780     9.9780    64.2887     0.0763     2.2884     0.2294     0.2529
  297.5000   -19.1396    23.8854    19.6309    12.6721     9.9780    63.4251     0.0763     2.2875     0.2289     0.2549
