~VERSION INFORMATION
 VERS.                2.0:   CWLS LOG ASCII STANDARD - VERSION 2.0
 WRAP.                 NO:   ONE LINE PER DEPTH STEP
~WELL INFORMATION
#MNEM.UNIT      DATA TYPE    INFORMATION
#----------   ------------   ------------------------------
 STRT.F          432.0000:   START DEPTH
 STOP.F         1258.0000:   STOP DEPTH
 STEP.F            0.5000:   STEP LENGTH
 NULL.          -999.2500:   NO VALUE
 COMP. FENIX & SCISSON INC:   COMPANY
 WELL.   12 SHX 34 #12-34:   WELL
 FLD .            WILDCAT:   FIELD
 LOC .      S34 T39N R78W:   LOCATION
 CNTY.            NATRONA:   COUNTY
 STAT.            WYOMING:   STATE
 CTRY. UNITED STATES OF AMERICA:   COUNTRY
 SRVC.              Welex:   SERVICE COMPANY
 DATE.        23-APR-1979:   LOGDATE
 API .       490251078200:   API NUMBER
~CURVE INFORMATION
#MNEM.UNIT       API CODE    CURVE DESCRIPTION
#----------   ------------   ------------------------------
 DEPT.F                  :   
 CALD.IN     45 280 60 00:   CALIPER
 GRD .GAPI   45 310 01 00:   GAMMA RAY FROM DENSITY LOG
 RHOB.G/C3   45 350 01 00:   BULK DENSITY
 DPHI.DEC    45 890 12 00:   DENSITY POROSITY SANDSTONE
 CORR.G/C3   45 356 01 00:   DENSITY CORRECTION
~PARAMETER INFORMATION
#MNEM.UNIT          VALUE    DESCRIPTION
#----------   ------------   ------------------------------
 PD  .                 GL:   PERMANENT DATUM
 EPD .F              5092:   ELEVATION PERMANENT DATUM
 LMF .                 KB:   LOG MEASURED FROM
 DAPD.F                10:   FEET ABOVE PERMANENT DATUM
 DMF .                 KB:   DRILLING MEASURED FROM
 EKB .F              5102:   KELLING BUSHING
 EGL .F              5092:   GROUND LEVEL
 DATE.            4-23-79:   RUN DATE
 RUN .                  1:   RUN NUMBER
 DD  .F              1260:   DEPTH DRILLER
 DL  .F              1260:   DEPTH LOGGER
 BLI .F              1258:   BOTTOM LOG INTERVAL
 TLI .F               446:   TOP LOG INTERVAL
 CS  .IN            9.625:   CASING SIZE
 CBD .F               440:   CASING BOTTOM DRILLER
 BS  .IN            8.375:   BIT SIZE
 BSD .F              1260:   BIT SIZE AT DEPTH
 DFT .                OIL:   DRILLING FLUID TYPE
 DFD .                8.7:   DRILLING FLUID DENSITY
 TCS .HRS               1:   TIME CURCULATED STOPPED
 ENGI.               REIN:   RECORDING ENGINEER
 WITN.              AMEND:   WITNESSED BY
 CLNT.            A2DTECH:   CLIENT CODE
 ORIG.           5" PRINT:   ORIGIN OF DATA
 UWI .       490251078200:   UNIQUE WELL ID
 DICO. A2D Technologies, Inc.:   DIGITIZING COMPANY
~OTHER INFORMATION
~A   DEPT     CALD         GRD      RHOB       DPHI       CORR   
# ...
  920.0000     8.6135    89.4061     2.4858     0.0402     0.0012
  920.5000     8.6193    88.8770     2.4830     0.0415     0.0025
  921.0000     8.6125    86.7182     2.4802     0.0423     0.0053
  921.5000     8.6060    84.5157     2.4776     0.0431     0.0069
  922.0000     8.5994    83.6842     2.4799     0.0432     0.0090
  922.5000     8.5928    85.0462     2.4840     0.0433     0.0091
  923.0000     8.5862    86.3660     2.4787     0.0439     0.0076
  923.5000     8.5796    86.5035     2.4746     0.0455     0.0048
  924.0000     8.5730    83.2960     2.4801     0.0484     0.0020
  924.5000     8.5664    79.7252     2.4739     0.0519     0.0010
  925.0000     8.5598    79.0396     2.4617     0.0553     0.0010
  925.5000     8.5532    81.8483     2.4492     0.0588     0.0010
  926.0000     8.5466    84.6597     2.4437     0.0623     0.0014
  926.5000     8.5400    87.4597     2.4494     0.0653     0.0025
  927.0000     8.5335    88.7481     2.4566     0.0603     0.0036
  927.5000     8.5267    86.8630     2.4639     0.0550     0.0047
  928.0000     8.5361    84.9640     2.4711     0.0515     0.0059
  928.5000     8.5543    84.3662     2.4785     0.0475     0.0070
  929.0000     8.5729    84.6683     2.4799     0.0459     0.0081
  929.5000     8.5913    85.7068     2.4784     0.0459     0.0092
  930.0000     8.6022    85.9529     2.4780     0.0457     0.0103
  930.5000     8.5942    82.4091     2.4811     0.0434     0.0114
  931.0000     8.5862    82.1433     2.4829     0.0419     0.0125
  931.5000     8.5781    82.6821     2.4829     0.0426     0.0137
  932.0000     8.5701    81.5569     2.4897     0.0392     0.0148
  932.5000     8.5621    79.2244     2.4999     0.0337     0.0150
  933.0000     8.5541    76.9858     2.5072     0.0290     0.0131
  933.5000     8.5457    76.8260     2.5021     0.0301     0.0113
  934.0000     8.5447    80.4324     2.4960     0.0322     0.0095
  934.5000     8.5458    84.7604     2.5027     0.0302     0.0077
  935.0000     8.5469    85.7592     2.5114     0.0264     0.0058
  935.5000     8.5480    85.3425     2.5092     0.0253     0.0040
  936.0000     8.5491    85.5850     2.5021     0.0281     0.0022
  936.5000     8.5503    92.3902     2.4967     0.0310     0.0003
  937.0000     8.5514    90.5635     2.4981     0.0338    -0.0010
  937.5000     8.5525    88.7895     2.5027     0.0327     0.0010
  938.0000     8.5536    87.0247     2.5071     0.0303     0.0096
  938.5000     8.5547    85.2625     2.5005     0.0331     0.0152
  939.0000     8.5558    83.4945     2.4891     0.0389     0.0135
  939.5000     8.5569    81.6908     2.4832     0.0411     0.0092
  940.0000     8.5581    81.5786     2.4922     0.0411     0.0071
  940.5000     8.5592    84.7730     2.5011     0.0350     0.0083
  941.0000     8.5603    84.1771     2.5100     0.0283     0.0125
  941.5000     8.5612    83.5587     2.5190     0.0217     0.0164
  942.0000     8.5630    86.6390     2.5201     0.0201     0.0178
  942.5000     8.5779    89.6401     2.5051     0.0245     0.0106
  943.0000     8.5758    87.6861     2.4946     0.0345     0.0038
  943.5000     8.5682    85.5002     2.4900     0.0378    -0.0028
  944.0000     8.5610    82.6960     2.4956     0.0378    -0.0031
  944.5000     8.5539    89.3765     2.5043     0.0345     0.0007
  945.0000     8.5467    88.2971     2.5131     0.0278     0.0064
  945.5000     8.5396    85.7065     2.5210     0.0211     0.0122
  946.0000     8.5325    90.7389     2.5232     0.0156     0.0180
  946.5000     8.5253    95.5845     2.5299     0.0136     0.0238
  947.0000     8.5182    92.4740     2.5412     0.0107     0.0292
  947.5000     8.5111    89.4956     2.5400     0.0102     0.0293
  948.0000     8.5047    86.4972     2.5292     0.0151     0.0293
  948.5000     8.5065    83.5317     2.5189     0.0200     0.0244
  949.0000     8.5083    81.7244     2.5088     0.0248     0.0180
  949.5000     8.5101    82.7363     2.4987     0.0297     0.0116
  950.0000     8.5119    85.0507     2.4885     0.0346     0.0051
  950.5000     8.5136    87.3593     2.4781     0.0395    -0.0013
  951.0000     8.5154    89.6767     2.4738     0.0443    -0.0079
  951.5000     8.5172    91.9857     2.4732     0.0467    -0.0070
  952.0000     8.5190    93.8003     2.4820     0.0457    -0.0035
  952.5000     8.5208    92.1346     2.4832     0.0400     0.0000
  953.0000     8.5226    90.2919     2.4761     0.0426     0.0016
  953.5000     8.5243    88.4455     2.4692     0.0471     0.0010
  954.0000     8.5220    86.6165     2.4637     0.0516     0.0009
  954.5000     8.5160    85.1315     2.4666     0.0528    -0.0022
  955.0000     8.5099    84.9428     2.4728     0.0512    -0.0050
  955.5000     8.5046    86.3740     2.4790     0.0477    -0.0046
  956.0000     8.5141    89.1318     2.4853     0.0439    -0.0032
  956.5000     8.5271    91.8776     2.4916     0.0401    -0.0018
  957.0000     8.5339    93.4067     2.4971     0.0364    -0.0004
  957.5000     8.5401    92.1341     2.4970     0.0322     0.0009
  958.0000     8.5485    89.4764     2.4970     0.0318     0.0023
  958.5000     8.5628    87.1427     2.4990     0.0318     0.0037
  959.0000     8.5579    86.8785     2.5045     0.0298     0.0055
  959.5000     8.5519    91.0365     2.5101     0.0277     0.0070
  960.0000     8.5461    96.0880     2.5157     0.0267     0.0071
  960.5000     8.5403    96.3938     2.5185     0.0239     0.0071
  961.0000     8.5343    95.3507     2.5193     0.0207     0.0071
  961.5000     8.5291    93.5707     2.5230     0.0176     0.0070
  962.0000     8.5395    91.7870     2.5323     0.0135     0.0067
  962.5000     8.5538    90.0010     2.5401     0.0092     0.0203
  963.0000     8.5625    88.2104     2.5276     0.0096     0.0358
  963.5000     8.5714    86.4814     2.5134     0.0206     0.0509
  964.0000     8.5804    86.0733     2.4993     0.0289     0.0517
  964.5000     8.5894    87.6492     2.4852     0.0373     0.0435
  965.0000     8.5984    89.2465     2.4703     0.0456     0.0339
  965.5000     8.6075    91.1721     2.4705     0.0516     0.0242
  966.0000     8.6164    93.5805     2.4840     0.0461     0.0146
  966.5000     8.6201    91.6745     2.4975     0.0363     0.0068
  967.0000     8.6154    89.5419     2.5055     0.0290     0.0075
  967.5000     8.6111    88.4584     2.4952     0.0349     0.0132
  968.0000     8.6053    89.6526     2.4825     0.0416     0.0096
  968.5000     8.5726    93.5104     2.4769     0.0443     0.0056
  969.0000     8.5624    97.2231     2.4886     0.0360     0.0016
  969.5000     8.5656    97.4363     2.5080     0.0267     0.0055
  970.0000     8.5693    95.0785     2.5204     0.0209     0.0124
  970.5000     8.5729    92.7315     2.5251     0.0177     0.0172
  971.0000     8.5765    90.3549     2.5285     0.0165     0.0158
  971.5000     8.5801    89.0810     2.5203     0.0156     0.0119
  972.0000     8.5837    89.8181     2.5057     0.0314     0.0081
  972.5000     8.5874    91.0497     2.4910     0.0401     0.0042
  973.0000     8.5910    92.2287     2.4840     0.0399    -0.0006
  973.5000     8.5946    93.0703     2.4850     0.0369    -0.0011
  974.0000     8.5983    93.9118     2.4920     0.0331    -0.0003
  974.5000     8.6020    94.7508     2.4988     0.0301     0.0006
  975.0000     8.6022    95.5913     2.5052     0.0298     0.0030
  975.5000     8.5780    96.4506     2.5070     0.0282     0.0051
  976.0000     8.5507    96.2498     2.5071     0.0309     0.0032
  976.5000     8.5248    95.1555     2.5047     0.0326     0.0041
  977.0000     8.5251    94.0519     2.5017     0.0310     0.0049
  977.5000     8.5485    93.7125     2.4987     0.0326     0.0057
  978.0000     8.5718    94.8719     2.4957     0.0351     0.0064
  978.5000     8.5949    96.8935     2.4930     0.0376     0.0063
  979.0000     8.6183    99.0335     2.4916     0.0383     0.0014
  979.5000     8.6163   101.0882     2.4901     0.0366    -0.0030
  980.0000     8.6096    97.8187     2.4890     0.0346    -0.0030
  980.5000     8.6027    97.6107     2.4899     0.0362    -0.0003
