~VERSION INFORMATION
 VERS.                2.0:   CWLS LOG ASCII STANDARD - VERSION 2.0
 WRAP.                 NO:   ONE LINE PER DEPTH STEP
~WELL INFORMATION
#MNEM.UNIT      DATA TYPE    INFORMATION
#----------   ------------   ------------------------------
 STRT.F            0.0000:   START DEPTH
 STOP.F          497.0000:   STOP DEPTH
 STEP.F            0.1000:   STEP LENGTH
 NULL.          -999.2500:   NO VALUE
 COMP.       F D SERV INC:   COMPANY
 WELL. NAVAL PETROLEUM RESERVE 3 SX-1 #81-1-10:   WELL
 FLD .             NPR #3:   FIELD
 LOC .      S10 T38N R78W:   LOCATION
 CNTY.            NATRONA:   COUNTY
 STAT.            WYOMING:   STATE
 CTRY. UNITED STATES OF AMERICA:   COUNTRY
 SRVC.     Atlas Wireline:   SERVICE COMPANY
 DATE.        14-DEC-1997:   LOGDATE
 API .       490252257400:   API NUMBER
~CURVE INFORMATION
#MNEM.UNIT       API CODE    CURVE DESCRIPTION
#----------   ------------   ------------------------------
 DEPT.F                  :   
 GRR .GAPI   07 310 01 00:   GAMMA RAY
 RILD.OHMM   07 120 46 00:   INDUCTION LOG DEEP RESISTIVITY
 RILM.OHMM   07 120 44 00:   INDUCTION LOG MEDIUM RESISTIVITY
~PARAMETER INFORMATION
#MNEM.UNIT          VALUE    DESCRIPTION
#----------   ------------   ------------------------------
 PD  .                 GL:   PERMANENT DATUM
 EPD .F              5132:   ELEVATION PERMANENT DATUM
 LMF .                 KB:   LOG MEASURED FROM
 DAPD.F                10:   FEET ABOVE PERMANENT DATUM
 DMF .                 KB:   DRILLING MEASURED FROM
 EKB .F              5142:   KELLING BUSHING
 EDF .F              5141:   DRILLING FLOOR
 EGL .F              5132:   GROUND LEVEL
 DATE.        14-DEC-1992:   RUN DATE
 RUN .                  1:   RUN NUMBER
 DD  .F               513:   DEPTH DRILLER
 DL  .F               505:   DEPTH LOGGER
 BLI .F               497:   BOTTOM LOG INTERVAL
 CS  .IN            8.625:   CASING SIZE
 CBD .F                53:   CASING BOTTOM DRILLER
 CBL .F                54:   CASING BOTTOM LOGGER
 BS  .IN            7.875:   BIT SIZE
 BSD .F               513:   BIT SIZE AT DEPTH
 DFT .           AIR FOAM:   DRILLING FLUID TYPE
 BHT .F                68:   BOTTOM HOLE TEMPERATURE
 MRT .F                68:   MAXIMUM RECORDED TEMPERATURE
 LUN .           HL- 6274:   LOGGING UNIT NUMBER
 LUL .             CASPER:   LOGGING UNIT LOCATION
 ENGI.             RAUTIO:   RECORDING ENGINEER
 WITN.          G. STRONG:   WITNESSED BY
 CLNT.            A2DTECH:   CLIENT CODE
 ORIG.           5" PRINT:   ORIGIN OF DATA
 UWI .       490252257400:   UNIQUE WELL ID
 DICO. A2D Technologies, Inc.:   DIGITIZING COMPANY
~OTHER INFORMATION
~A    DEPT      GRR      RILD       RILM   
# ...
  145.6000   100.6364    11.7441    11.4641
  145.7000    99.8755    11.7712    11.4641
  145.8000    98.8740    11.8264    11.4641
  145.9000    97.8661    11.8265    11.4641
  146.0000    97.0105    11.8267    11.4641
  146.1000    96.5648    11.8269    11.4641
  146.2000    96.6733    11.8270    11.4641
  146.3000    97.1763    11.8272    11.5229
  146.4000    97.7659    11.8274    11.5441
  146.5000    98.3910    11.8275    11.5441
  146.6000    99.4651    11.8277    11.5441
  146.7000   100.8343    11.7704    11.5441
  146.8000   102.1594    11.7023    11.5441
  146.9000   102.9014    11.6649    11.5441
  147.0000   103.4766    11.6478    11.5441
  147.1000   103.4761    11.5844    11.5441
  147.2000   103.4755    11.5846    11.5234
  147.3000   103.5928    11.5847    11.4641
  147.4000   103.7750    11.5849    11.4641
  147.5000   103.7744    11.5850    11.4641
  147.6000   103.7738    11.5662    11.4162
  147.7000   103.7732    11.5051    11.3846
  147.8000   103.5986    11.5053    11.3846
  147.9000   103.3462    11.5054    11.3846
  148.0000   102.9413    11.4124    11.3846
  148.1000   102.2398    11.3136    11.3228
  148.2000   101.9657    11.2685    11.3057
  148.3000   101.2746    11.2609    11.2700
  148.4000   100.5185    11.1907    11.2047
  148.5000   100.0271    11.1309    11.1397
  148.6000    99.9415    11.0665    11.0722
  148.7000   100.1583    11.0024    11.0109
  148.8000   100.1576    10.9604    10.9954
  148.9000   100.6317    10.9605    10.9595
  149.0000   101.1348    10.9607    10.9192
  149.1000   101.7774    10.9003    10.9192
  149.2000   102.4417    10.8851    10.9192
  149.3000   102.9448    10.8852    10.8575
  149.4000   103.4622    10.8620    10.7946
  149.5000   103.4617    10.7991    10.7320
  149.6000   103.4611    10.7354    10.6937
  149.7000   103.6072    10.7355    10.6937
  149.8000   103.7606    10.7357    10.6937
  149.9000   103.8089    10.6989    10.6321
  150.0000   104.0602    10.6616    10.4658
  150.1000   104.0138    10.6814    10.4048
  150.2000   103.7501    10.7366    10.3441
  150.3000   102.8624    10.7211    10.2983
  150.4000   102.0177    10.6583    10.2986
  150.5000   101.1671    10.5893    10.2989
  150.6000   100.5227    10.5339    10.2461
  150.7000    99.9472    10.5165    10.2281
  150.8000    99.2076    10.4835    10.2284
  150.9000    98.6473    10.4442    10.2286
  151.0000    97.9669    10.4334    10.2289
  151.1000    97.2063    10.3724    10.2292
  151.2000    96.7092    10.3728    10.2295
  151.3000    96.4559    10.3730    10.2298
  151.4000    96.2026    10.3733    10.2665
  151.5000    95.9383    10.4023    10.3017
  151.6000    95.9386    10.4462    10.3020
  151.7000    96.3288    10.4534    10.3023
  151.8000    96.8363    10.5197    10.3026
  151.9000    97.4436    10.5200    10.3561
  152.0000    98.4658    10.5672    10.4175
  152.1000   100.4859    10.5939    10.4792
  152.2000   102.2657    10.6192    10.5413
  152.3000   103.5299    10.6823    10.5945
  152.4000   104.7257    10.7457    10.5948
  152.5000   105.6250    10.8184    10.5951
  152.6000   106.2504    10.8187    10.6444
  152.7000   106.4840    10.8190    10.7075
  152.8000   106.4844    10.8517    10.7709
  152.9000   106.2583    10.9162    10.8347
  153.0000   105.8263    10.9714    10.8954
  153.1000   105.3193    10.9717    10.8957
  153.2000   104.7288    11.0350    10.8960
  153.3000   103.7884    11.0488    10.8963
  153.4000   101.6669    11.0491    10.9293
  153.5000   100.6994    11.0494    10.9729
  153.6000    99.8795    11.0497    10.9826
  153.7000    99.2657    11.0552    11.0500
  153.8000    98.6596    11.1275    11.1131
  153.9000    98.0023    11.1277    11.1277
  154.0000    97.7490    11.1280    11.1280
  154.1000    97.4522    11.1283    11.1283
  154.2000    97.2424    11.1287    11.1133
  154.3000    96.9891    11.1290    11.0519
  154.4000    96.8506    11.1299    11.0522
  154.5000    96.8509    11.2073    11.0525
  154.6000    96.8512    11.2075    11.0528
  154.7000    96.8515    11.2078    11.0203
  154.8000    96.8518    11.1769    10.9768
  154.9000    96.8521    11.1308    10.9680
  155.0000    96.7219    11.1311    10.9014
  155.1000    96.5515    11.1315    10.9017
  155.2000    96.4811    11.0703    10.9020
  155.3000    95.9497    10.9563    10.8642
  155.4000    95.9500    10.8653    10.8271
  155.5000    95.7565    10.8017    10.8274
  155.6000    95.7956    10.7384    10.8277
  155.7000    96.0495    10.6755    10.8280
  155.8000    96.3034    10.6049    10.8283
  155.9000    96.5573    10.5509    10.8286
  156.0000    96.8555    10.5320    10.8289
  156.1000    97.4840    10.5323    10.8088
  156.2000    97.9215    10.5325    10.7457
  156.3000    98.6325    10.5232    10.6803
  156.4000    99.7675    10.4602    10.6806
  156.5000   100.5286    10.4605    10.6323
  156.6000   101.3753    10.4608    10.6072
  156.7000   101.6007    10.4228    10.5819
  156.8000   101.6771    10.4161    10.5343
  156.9000   101.8073    10.4616    10.5287
  157.0000   101.9789    10.4619    10.3895
  157.1000   102.0487    10.4622    10.3897
  157.2000   102.5819    10.4066    10.3484
  157.3000   102.5822    10.3903    10.3183
  157.4000   102.7757    10.3906    10.2993
  157.5000   102.8840    10.3681    10.2391
  157.6000   102.8843    10.3191    10.1767
  157.7000   102.8846    10.3195    10.1200
  157.8000   102.8849    10.3198    10.0610
  157.9000   102.8853    10.2692    10.0022
  158.0000   102.8856    10.2489     9.9439
  158.1000   102.8858    10.2491     9.8858
  158.2000   102.8861    10.2494     9.8281
  158.3000   102.8864    10.2497     9.7629
  158.4000   102.8867    10.2500     9.7632
  158.5000   102.8871    10.2503     9.7245
  158.6000   102.8874    10.2043     9.6395
  158.7000   102.8877    10.1445     9.5447
  158.8000   102.8880    10.0851     9.4890
  158.9000   102.8883    10.0261     9.4310
  159.0000   102.8886     9.9706     9.4313
  159.1000   102.8889     9.9709     9.3889
  159.2000   102.8892     9.9711     9.3341
  159.3000   103.0820     9.9305     9.2796
  159.4000   103.4809     9.9026     9.2376
  159.5000   103.8911     9.8830     9.2379
  159.6000   104.0952     9.8251     9.2382
  159.7000   104.0999     9.7667     9.2854
  159.8000   104.6982     9.7670     9.3291
  159.9000   104.6985     9.7673     9.3677
  160.0000   104.8594     9.7675     9.4062
  160.1000   105.0003     9.7678     9.4447
  160.2000   105.0006     9.7681     9.4833
  160.3000   105.0009     9.7683     9.5005
  160.4000   105.0012     9.7686     9.5007
  160.5000   105.0015     9.7163     9.5010
  160.6000   105.0018     9.7015     9.5013
  160.7000   104.8734     9.7018     9.5016
  160.8000   104.6201     9.7020     9.5018
  160.9000   104.4003     9.6908     9.4660
  161.0000   104.4006     9.6353     9.4365
  161.1000   104.1614     9.6357     9.4211
  161.2000   104.1000     9.5880     9.3716
  161.3000   103.9559     9.5694     9.3719
  161.4000   103.7026     9.5422     9.3217
  161.5000   103.4493     9.5036     9.3075
  161.6000   103.1960     9.4965     9.3078
  161.7000   102.8967     9.4384     9.3080
  161.8000   102.6894     9.4386     9.3083
  161.9000   102.2760     9.4389     9.3085
  162.0000   101.8815     9.4391     9.3089
  162.1000   101.6931     9.4162     9.3091
  162.2000   101.6761     9.3743     9.3093
  162.3000   101.3925     9.3745     9.2844
  162.4000   101.3928     9.3748     9.2454
  162.5000   101.3931     9.3750     9.2456
  162.6000   101.5215     9.3753     9.2459
  162.7000   101.6949     9.3756     9.2461
  162.8000   101.7281     9.3758     9.2464
  162.9000   101.9967     9.3761     9.2466
  163.0000   102.2360     9.3764     9.2469
  163.1000   102.4899     9.3767     9.2472
  163.2000   102.6000     9.3320     9.2474
  163.3000   102.6003     9.3122     9.2477
  163.4000   102.5520     9.3124     9.2479
  163.5000   102.2987     9.3127     9.2482
  163.6000   101.9988     9.3130     9.2235
  163.7000   101.7921     9.3132     9.1846
