~VERSION INFORMATION
 VERS.                2.0:   CWLS LOG ASCII STANDARD - VERSION 2.0
 WRAP.                 NO:   ONE LINE PER DEPTH STEP
~WELL INFORMATION
#MNEM.UNIT      DATA TYPE    INFORMATION
#----------   ------------   ------------------------------
 STRT.F            9.0000:   START DEPTH
 STOP.F          512.0000:   STOP DEPTH
 STEP.F            0.5000:   STEP LENGTH
 NULL.          -999.2500:   NO VALUE
 COMP. LAWRENCE-ALLISON &AS:   COMPANY
 WELL. NPR 3 #61-21SX10UP2:   WELL
 FLD .             TEAPOT:   FIELD
 LOC .      S10 T38N R78W:   LOCATION
 CNTY.            NATRONA:   COUNTY
 STAT.            WYOMING:   STATE
 CTRY. UNITED STATES OF AMERICA:   COUNTRY
 SRVC.      Dresser Atlas:   SERVICE COMPANY
 DATE.        13-DEC-1984:   LOGDATE
 API .       490251100500:   API NUMBER
~CURVE INFORMATION
#MNEM.UNIT       API CODE    CURVE DESCRIPTION
#----------   ------------   ------------------------------
 DEPT.F                  :   
 PORD.DEC    45 890 12 00:   POROSITY DENSITY SANDSTONE
 CNCF.DEC    42 890 03 00:   NEUTRON POROSITY SANDSTONE
 GRD .GAPI   45 310 01 00:   GAMMA RAY FROM DENSITY LOG
 CALD.IN     45 280 60 00:   CALIPER FROM DENSITY LOG
 CORR.G/C3   45 356 01 00:   DENSITY CORRECTION
 DEN .G/C3   45 350 01 00:   COMPENSATED BULK DENSTIY
 AC  .US/F   60 520 00 00:   ACCOUSTIC
 RILD.OHMM   07 120 46 00:   INDUCTION LOG DEEP RESISTIVITY
 RILM.OHMM   07 120 44 00:   INDUCTION LOG MEDIUM RESISTIVITY
 RFOC.OHMM   07 220 04 00:   RESISTIVITY FOCUSED LOG
 SPR .MV     11 010 01 00:   SPONTANEOUS POTENTIAL FROM RES.
 RS  .OHMM   11 220 09 00:   RESISTIVITY SHALLOW
 RD  .OHMM   11 220 10 00:   RESISTIVITY DEEP
~PARAMETER INFORMATION
#MNEM.UNIT          VALUE    DESCRIPTION
#----------   ------------   ------------------------------
 PD  .                 GL:   PERMANENT DATUM
 EPD .F              5157:   ELEVATION PERMANENT DATUM
 LMF .                 GL:   LOG MEASURED FROM
 DMF .                 GL:   DRILLING MEASURED FROM
 EGL .F              5157:   GROUND LEVEL
 DATE.         12-13-1984:   RUN DATE
 RUN .                  1:   RUN NUMBER
 DD  .F               514:   DEPTH DRILLER
 DL  .F               513:   DEPTH LOGGER
 BLI .F               512:   BOTTOM LOG INTERVAL
 TLI .F                20:   TOP LOG INTERVAL
 CS  .IN            8.625:   CASING SIZE
 CBD .F                20:   CASING BOTTOM DRILLER
 CBL .F                20:   CASING BOTTOM LOGGER
 BS  .IN            7.875:   BIT SIZE
 BSD .F               514:   BIT SIZE AT DEPTH
 DFT .          KCL WATER:   DRILLING FLUID TYPE
 MSS .           FLOWLINE:   MUD SAMPLE SOURCE
 RMS .OHMM            .17:   RESISTIVITY MUD SAMPLE
 MST .F                95:   MUD SAMPLE TEMPERATURE
 RMF .OHMM            .08:   RESISTIVITY MUD FILTRATE SAMPLE
 MFST.F                95:   MUD FILTRATE SAMPLE TEMPERATURE
 RMC .OHMM            .14:   RESISTIVITY MUD CAKE
 MCST.F                95:   MUD CAKE SAMPLE TEMPERATURE
 MFSS.               CALC:   MUD FILTRATE SAMPLE SOURCE
 MCSS.               CALC:   MUD CAKE SAMPLE SOURCE
 TCS .HRS              10:   TIME CURCULATED STOPPED
 MRT .F               100:   MAXIMUM RECORDED TEMPERATURE
 LUN .               6270:   LOGGING UNIT NUMBER
 LUL .                 FM:   LOGGING UNIT LOCATION
 ENGI.            LEBSOCK:   RECORDING ENGINEER
 WITN.        GREG GROOMS:   WITNESSED BY
 CLNT.            A2DTECH:   CLIENT CODE
 ORIG.           5" PRINT:   ORIGIN OF DATA
 UWI .       490251100500:   UNIQUE WELL ID
 DICO. A2D Technologies, Inc.:   DIGITIZING COMPANY
~OTHER INFORMATION
~A    DEPT    PORD       CNCF        GRD       CALD       CORR        DEN          AC      RILD       RILM       RFOC        SPR         RS         RD   
# ...
  139.0000     0.1796     0.2968   100.0718     7.8415     0.0409     2.3708   111.8258     5.7973     5.0636     5.4477   -73.6818     6.0114    10.3776
  139.5000     0.1600     0.2962   100.9694     7.8407     0.0424     2.3941   109.5661     5.9563     5.2759     6.5823   -73.5422     6.5308    12.5107
  140.0000     0.1521     0.2896   101.8671     7.8400     0.0348     2.4190   107.3064     6.1633     5.4212     7.4892   -73.8550     7.5525    14.4685
  140.5000     0.1501     0.2878   101.2587     7.8242     0.0317     2.4281   106.5561     6.5119     5.5704     7.8992   -73.8653     8.5540    15.8281
  141.0000     0.1483     0.2903    99.7467     7.7933     0.0301     2.4311   105.7304     7.0254     5.7237     8.0618   -73.8756     8.9141    16.3796
  141.5000     0.1456     0.3011    99.2890     7.7774     0.0180     2.4348   105.0556     7.4747     5.8813     8.1022   -74.0358     9.0979    16.6028
  142.0000     0.1432     0.3033   100.7890     7.7616    -0.0002     2.4385   104.7571     7.8976     6.0432     8.1532   -73.8936     9.2222    16.5928
  142.5000     0.1420     0.2840   104.9999     7.7608    -0.0199     2.4400   104.9891     8.1720     6.2095     8.2045   -73.9065     9.2827    16.4700
  143.0000     0.1426     0.2804   106.3494     7.7601    -0.0229     2.4400   105.1444     8.2826     6.2933     8.2561   -73.9169     9.2779    16.6924
  143.5000     0.1432     0.2789   105.1205     7.7746    -0.0094     2.4392   105.2999     8.3353     6.4206     8.3080   -73.9272     9.3396    16.6844
  144.0000     0.1433     0.2714   103.7771     7.7737    -0.0034     2.4392   105.3798     8.3883     6.5073     8.4172   -73.9375     9.4663    16.9117
  144.5000     0.1433     0.2674   104.1185     7.7729    -0.0080     2.4392   105.3088     8.5005     6.6389     8.4716   -73.7979     9.6605    17.1400
  145.0000     0.1433     0.2739   104.6690     7.7722    -0.0156     2.4392   104.9359     8.6142     6.7273     8.5830   -73.6583     9.8597    17.4905
  145.5000     0.1381     0.2809   102.8543     7.7714    -0.0157     2.4407   104.1706     8.7295     6.8169     8.6973   -73.6686    10.0630    17.8502
  146.0000     0.1348     0.2948   100.4387     7.7707    -0.0037     2.4489   103.4254     8.9067     6.8610     8.7535   -73.5290    10.2705    18.0913
  146.5000     0.1340     0.3083    99.3785     7.7699     0.0174     2.4534   103.1379     8.9647     7.0009     8.8686   -73.5397    10.3378    18.2086
  147.0000     0.1349     0.3086    99.5232     7.7692     0.0158     2.4533   103.4453     8.9577     7.1425     8.8624   -73.3997    10.4780    18.1997
  147.5000     0.1337     0.2996   100.8727     7.7684     0.0037     2.4541   103.5253     8.9521     7.3391     8.9805   -73.4126    10.4011    18.1909
  148.0000     0.1265     0.2856   102.9751     7.7677     0.0006     2.4571   103.4531     9.0092     7.4888     9.0370   -73.4229    10.3968    18.1820
  148.5000     0.1178     0.2827   104.6258     7.7669     0.0217     2.4759   103.3078     9.0034     7.6950     9.0938   -73.5831    10.4651    18.3233
  149.0000     0.1126     0.2873   103.8668     7.7662     0.0533     2.4902   103.0103     9.0607     7.7975     9.1526   -73.7434    10.5336    18.6744
  149.5000     0.1115     0.2867   103.5597     7.7805     0.0623     2.4955   102.5620     9.1819     7.8465     9.2729   -74.0535    10.6765    19.0585
  150.0000     0.1128     0.2831   103.7338     7.7798     0.0547     2.4962   102.1890     9.3047     7.9511     9.4621   -74.2553    10.8271    19.2164
  150.5000     0.1169     0.2858   103.2485     7.7856     0.0139     2.4819   102.3477     9.3940     8.0964     9.5061   -74.5246    10.8985    19.6056
  151.0000     0.1194     0.2922   100.0813     7.7936     0.0032     2.4789   102.0500     9.4276     8.2262     9.5839   -74.9843    10.9698    19.9947
  151.5000     0.1185     0.2931    99.0226     7.8017     0.0109     2.4811   101.9074     9.4228     8.2220     9.5786   -75.5944    11.0411    20.5275
  152.0000     0.1076     0.2808   100.3735     7.8059     0.0276     2.4895   101.7630     9.4189     8.1615     9.6415   -76.0546    11.1125    20.6620
  152.5000     0.1016     0.2687   100.6702     7.8200     0.0532     2.5001   101.7699     9.4150     8.1016     9.7035   -76.2150    11.1764    20.6477
  153.0000     0.1007     0.2642   100.9669     7.8337     0.0573     2.5091   101.8521     9.4778     8.0982     9.6428   -76.5252    11.0156    20.4934
  153.5000     0.1037     0.2637   102.0166     7.8327     0.0364     2.5098   102.0146     9.5401     8.0949     9.4912   -76.6856    10.7088    20.1995
  154.0000     0.1122     0.2682   103.8193     7.8316     0.0147     2.5013   102.4031     9.6017     8.0354     9.5536   -76.9959    10.4831    20.0486
  154.5000     0.1158     0.2839   104.2666     7.8306     0.0118     2.4864   102.7160     9.5978     7.9764     9.5470   -77.3062    10.3336    20.0375
  155.0000     0.1165     0.2964   102.3042     7.8144     0.0147     2.4865   102.9371     9.5273     7.9178     9.6086   -77.7664    10.2571    19.7501
  155.5000     0.1104     0.3051   101.2455     7.7983     0.0179     2.4927   102.9438     9.5234     7.8596     9.6032   -78.0767    10.1813    19.4669
  156.0000     0.1050     0.3064   100.9398     7.7822     0.0312     2.5040   102.8734     9.3879     7.7477     9.5313   -78.5369    10.1763    19.1877
  156.5000     0.1017     0.3001   100.1822     7.7811     0.0447     2.5098   102.8046     9.3190     7.6908     9.4600   -78.8472    10.1011    18.9125
  157.0000     0.1032     0.2959    99.4247     7.7801     0.0401     2.5074   102.8130     9.1813     7.5270     9.3870   -79.1574     9.9570    18.7712
  157.5000     0.1063     0.2920    99.7214     7.7790     0.0264     2.4997   102.9706     9.0473     7.2639     9.2487   -79.3204     9.6797    18.3740
  158.0000     0.1163     0.2875   100.7711     7.7780     0.0097     2.4815   103.3547     8.8535     7.0526     9.0494   -79.4783     9.4756    17.6611
  158.5000     0.1226     0.2842   102.2726     7.7769     0.0021     2.4742   104.0406     8.6174     6.7181     8.7320   -79.3293     9.1480    16.8851
  159.0000     0.1238     0.2849   103.7741     7.7910     0.0232     2.4720   105.1039     8.4360     6.4036     8.3799   -79.0365     8.8932    16.0748
  159.5000     0.1245     0.2891   104.6732     7.7899     0.0427     2.4697   105.9408     8.0795     6.1391     8.1452   -78.5937     8.5263    14.9879
  160.0000     0.1272     0.2903   104.3675     7.7888     0.0396     2.4651   107.3060     7.4723     5.6447     7.8623   -78.0206     8.1181    13.9744
  160.5000     0.1326     0.3006   103.3087     7.7878     0.0169     2.4558   108.5957     6.6028     5.2264     7.4323   -77.5582     7.6759    12.9393
  161.0000     0.1432     0.3211   101.4970     7.7867    -0.0224     2.4412   109.7345     5.6385     4.5453     7.1243   -77.2654     7.1577    11.8156
  161.5000     0.1487     0.3372    99.9865     7.7857    -0.0074     2.4302   111.6280     4.8930     3.5362     6.7817   -76.7052     6.4918    10.6406
  162.0000     0.1538     0.3402    98.1747     7.7846     0.0182     2.4195   114.2209     4.2854     3.0328     6.3663   -76.4158     5.8066     9.5825
  162.5000     0.1608     0.3496    97.4172     7.7836     0.0166     2.4082   116.8303     3.8592     2.7692     5.8123   -76.2737     5.0868     8.5105
  163.0000     0.1702     0.3777    97.7139     7.7825     0.0075     2.3942   121.6397     3.2418     2.6000     5.0893   -76.4367     4.5499     7.5061
  163.5000     0.1898     0.4112    98.9142     7.7966     0.0044     2.3647   128.1093     2.9194     2.4411     4.3947   -76.4471     3.9859     6.4838
  164.0000     0.2225     0.4282    99.5121     7.7953     0.0088     2.3184   131.2103     2.7221     2.4066     3.6651   -76.4575     3.3726     5.6790
  164.5000     0.2479     0.4185    96.0437     7.7942     0.0223     2.2644   130.3113     2.6280     2.4732     3.1429   -76.4680     2.9958     5.2219
