~VERSION INFORMATION
 VERS.                2.0:   CWLS LOG ASCII STANDARD - VERSION 2.0
 WRAP.                 NO:   ONE LINE PER DEPTH STEP
~WELL INFORMATION
#MNEM.UNIT      DATA TYPE    INFORMATION
#----------   ------------   ------------------------------
 STRT.F           10.0000:   START DEPTH
 STOP.F          485.0000:   STOP DEPTH
 STEP.F            0.5000:   STEP LENGTH
 NULL.          -999.2500:   NO VALUE
 COMP. FENIX & SCISSON INC:   COMPANY
 WELL.    56 S 3 SX #56-3:   WELL
 FLD .             TEAPOT:   FIELD
 LOC .       S3 T38N R78W:   LOCATION
 CNTY.            NATRONA:   COUNTY
 STAT.            WYOMING:   STATE
 CTRY. UNITED STATES OF AMERICA:   COUNTRY
 SRVC.            Unknown:   SERVICE COMPANY
 DATE.        09-OCT-1978:   LOGDATE
 API .       490251071900:   API NUMBER
~CURVE INFORMATION
#MNEM.UNIT       API CODE    CURVE DESCRIPTION
#----------   ------------   ------------------------------
 DEPT.F                  :   
 SPR .MV     05 010 01 00:   SPONTANEOUS POTENTIAL FROM RES.
 SN  .OHMM   05 040 16 00:   SHORT NORMAL 16"
 ILD .OHMM   05 120 46 00:   INDUCTION LOG DEEP
 CALD.IN     45 280 60 00:   CALIPER
 GRD .GAPI   45 310 01 00:   GAMMA RAY FROM DENSITY LOG
 CORR.G/C3   45 356 01 00:   DENSITY CORRECTION
 RHOB.G/C3   45 350 01 00:   BULK DENSITY
 DPHI.DEC    45 890 12 00:   DENSITY POROSITY SANDSTONE
~PARAMETER INFORMATION
#MNEM.UNIT          VALUE    DESCRIPTION
#----------   ------------   ------------------------------
 PD  .                 GL:   PERMANENT DATUM
 EPD .F              5188:   ELEVATION PERMANENT DATUM
 LMF .                 KB:   LOG MEASURED FROM
 DAPD.F                 4:   FEET ABOVE PERMANENT DATUM
 DMF .                 KB:   DRILLING MEASURED FROM
 EKB .F              5192:   KELLING BUSHING
 EGL .F              5188:   GROUND LEVEL
 DATE.            10-9-78:   RUN DATE
 RUN .                  1:   RUN NUMBER
 DD  .F               485:   DEPTH DRILLER
 DL  .F               485:   DEPTH LOGGER
 BLI .F               479:   BOTTOM LOG INTERVAL
 TLI .F                32:   TOP LOG INTERVAL
 CS  .IN            8.625:   CASING SIZE
 BS  .IN            7.875:   BIT SIZE
 BSD .F               485:   BIT SIZE AT DEPTH
 DFT .                KCL:   DRILLING FLUID TYPE
 DFD .                8.8:   DRILLING FLUID DENSITY
 DFV .                 41:   DRILLING FLUID VISCOSITY
 DFPH.                  9:   DRILLING FLUID PH
 DFL .                7.6:   DRILLING FLUID LOSS
 MSS .          FLOW LINE:   MUD SAMPLE SOURCE
 RMS .OHMM            .18:   RESISTIVITY MUD SAMPLE
 MST .F                60:   MUD SAMPLE TEMPERATURE
 RMF .OHMM            .16:   RESISTIVITY MUD FILTRATE SAMPLE
 MFST.F                70:   MUD FILTRATE SAMPLE TEMPERATURE
 RMC .OHMM            .26:   RESISTIVITY MUD CAKE
 MCST.F                70:   MUD CAKE SAMPLE TEMPERATURE
 MFSS.               MEAS:   MUD FILTRATE SAMPLE SOURCE
 MCSS.               MEAS:   MUD CAKE SAMPLE SOURCE
 TCS .HRS             1.5:   TIME CURCULATED STOPPED
 LUN .               2958:   LOGGING UNIT NUMBER
 LUL .               CASP:   LOGGING UNIT LOCATION
 ENGI.             MILLER:   RECORDING ENGINEER
 WITN.              AMEND:   WITNESSED BY
 CLNT.            A2DTECH:   CLIENT CODE
 ORIG.           5" PRINT:   ORIGIN OF DATA
 UWI .       490251071900:   UNIQUE WELL ID
 DICO. A2D Technologies, Inc.:   DIGITIZING COMPANY
~OTHER INFORMATION
~A   DEPT      SPR         SN        ILD       CALD         GRD      CORR       RHOB       DPHI   
# ...
  334.0000   -26.6860    11.0458    13.8935     8.0949    81.6695     0.0158     2.4140     0.1572
  334.5000   -26.7028    11.0219    13.9770     8.0946    84.5374     0.0198     2.4068     0.1645
  335.0000   -26.7196    10.9981    14.0172     8.0943    84.6438     0.0239     2.3986     0.1716
  335.5000   -26.7365    10.9744    14.0249     8.0940    84.8336     0.0278     2.3970     0.1708
  336.0000   -26.7533    10.9507    14.0326     8.0936    84.8672     0.0317     2.3977     0.1692
  336.5000   -26.7701    10.9342    14.0402     8.0933    84.9910     0.0360     2.4217     0.1611
  337.0000   -26.7870    10.9448    14.0479     8.0930    85.1089     0.0399     2.4242     0.1549
  337.5000   -26.8038    10.9544    14.0556     8.0927    85.9772     0.0552     2.4274     0.1537
  338.0000   -26.8207    10.9641    14.0633     8.0924    86.9763     0.0743     2.4329     0.1504
  338.5000   -26.8375    10.9738    14.0711     8.0920    87.8260     0.0934     2.4412     0.1448
  339.0000   -26.8544    10.9834    14.0788     8.0917    87.8438     0.1122     2.4505     0.1384
  339.5000   -26.8710    10.9931    14.0865     8.0914    87.7600     0.1312     2.4603     0.1320
  340.0000   -26.8789    11.0028    14.0942     8.0911    87.3189     0.1419     2.4707     0.1256
  340.5000   -26.8417    11.0125    14.1019     8.0907    85.9625     0.1491     2.4796     0.1190
  341.0000   -26.8050    11.0219    14.1097     8.0904    84.5755     0.1558     2.5054     0.1125
  341.5000   -26.7686    11.0343    14.1173     8.0901    83.0947     0.1561     2.5083     0.1060
  342.0000   -26.7320    11.0006    14.1260     8.0898    81.9146     0.1569     2.5014     0.1000
  342.5000   -26.6955    10.9486    14.1329     8.0894    81.1907     0.1488     2.4944     0.1084
  343.0000   -26.6590    10.8967    14.1449     8.0891    81.4188     0.1268     2.4940     0.1115
  343.5000   -26.6224    10.8452    13.7341     8.0888    81.6817     0.1038     2.4949     0.1107
  344.0000   -26.5859    10.8341    13.2349     8.0885    82.5230     0.0807     2.4838     0.1177
  344.5000   -26.5494    10.8343    13.0007     8.0881    84.8258     0.0572     2.4624     0.1300
  345.0000   -26.5124    10.8343    12.9664     8.0878    87.2669     0.0399     2.4578     0.1342
  345.5000   -26.4691    10.8342    12.9322     8.0875    87.7724     0.0370     2.4673     0.1342
  346.0000   -26.4032    10.8342    12.9007     8.0872    86.5274     0.0336     2.4738     0.1231
  346.5000   -26.3368    10.8342    12.9279     8.0868    85.4146     0.0304     2.4705     0.1249
  347.0000   -26.1307    10.8341    12.9531     8.0865    84.3119     0.0289     2.4627     0.1283
  347.5000   -25.7018    10.8346    12.9785     8.0862    83.9091     0.0298     2.4604     0.1316
  348.0000   -25.6656    10.8555    13.0030     8.0859    85.5242     0.0305     2.4613     0.1328
  348.5000   -24.4457    10.9670    13.1918     8.0855    87.1184     0.0313     2.4621     0.1314
  349.0000   -24.3277    11.0796    13.6676     8.0852    88.0925     0.0320     2.4612     0.1302
  349.5000   -24.1798    11.1933    14.1613     8.0849    88.5114     0.0328     2.4586     0.1313
  350.0000   -23.8914    11.3083    15.2017     8.0846    88.2834     0.0328     2.4565     0.1323
  350.5000   -23.5166    11.7175    16.8909     8.0842    87.5966     0.0328     2.4540     0.1333
  351.0000   -23.5070    12.2773    18.7678     8.0839    86.8586     0.0328     2.4488     0.1352
  351.5000   -23.3958    12.8637    20.6590     8.0836    86.1377     0.0328     2.4362     0.1398
  352.0000   -22.9256    13.4782    22.4914     8.0833    82.7968     0.0328     2.4154     0.1570
  352.5000   -22.8736    14.1222    24.4864     8.0829    77.1684     0.0328     2.3951     0.1693
  353.0000   -22.8369    14.7971    26.6583     8.0826    71.7221     0.0298     2.4077     0.1557
  353.5000   -22.7982    15.4333    29.0229     8.0823    65.4077     0.0256     2.4641     0.1581
  354.0000   -22.7588    15.9855    30.5983     8.0820    63.5911     0.0214     2.5017     0.1746
  354.5000   -22.7193    16.2696    29.2737     8.0816    63.4912     0.0172     2.4127     0.1889
  355.0000   -22.7005    16.3366    28.1914     8.0813    66.1992     0.0129     2.3367     0.2031
  355.5000   -22.6822    16.3817    27.1492     8.0810    70.7228     0.0088     2.2791     0.2213
  356.0000   -22.6638    16.3203    26.6293     8.0807    73.1290     0.0052     2.2752     0.2400
  356.5000   -22.6454    16.2743    26.5721     8.0803    74.0117     0.0068     2.2742     0.2400
  357.0000   -22.6270    16.2319    26.5149     8.0800    74.9731     0.0082     2.2788     0.2398
  357.5000   -22.6086    16.1044    26.4579     8.0797    75.6879     0.0099     2.2822     0.2376
  358.0000   -22.5902    15.9878    26.4151     8.0794    76.6413     0.0115     2.2836     0.2356
  358.5000   -22.5716    15.8718    25.6970     8.0791    75.1968     0.0131     2.2836     0.2336
  359.0000   -22.5530    15.7565    25.6970     8.0787    73.4975     0.0147     2.2886     0.2319
  359.5000   -22.5357    15.6423    25.6970     8.0784    72.4017     0.0164     2.3017     0.2273
  360.0000   -22.5589    15.5289    25.6970     8.0781    73.8602     0.0169     2.3168     0.2204
  360.5000   -22.7855    15.3885    25.6970     8.0778    75.3344     0.0169     2.3333     0.2123
  361.0000   -23.0117    15.2414    25.6970     8.0774    76.0311     0.0169     2.3433     0.2034
  361.5000   -23.1293    15.0958    25.2797     8.0771    75.8646     0.0169     2.3398     0.2042
  362.0000   -23.1576    14.9517    24.8465     8.0768    75.7156     0.0169     2.3379     0.2051
  362.5000   -23.1860    14.8090    24.4208     8.0765    75.5758     0.0169     2.3370     0.2058
  363.0000   -23.2139    14.6677    24.0023     8.0761    74.1571     0.0169     2.3370     0.2050
  363.5000   -23.2417    14.5374    23.5910     8.0758    72.7209     0.0169     2.3369     0.2059
  364.0000   -23.2696    14.5374    23.1868     8.0755    71.6786     0.0170     2.3370     0.2067
  364.5000   -23.2975    14.5374    22.8039     8.0751    71.6903     0.0193     2.3372     0.2074
  365.0000   -23.3254    14.5374    22.5586     8.0748    72.0642     0.0214     2.3463     0.2009
  365.5000   -23.3533    14.5374    22.3245     8.0745    73.6969     0.0236     2.3569     0.1938
  366.0000   -23.3812    14.5374    22.0928     8.0742    74.0652     0.0258     2.3624     0.1890
  366.5000   -23.4091    14.5374    21.8636     8.0739    74.0764     0.0281     2.3627     0.1861
  367.0000   -23.4370    14.5404    21.6367     8.0735    74.1589     0.0281     2.3738     0.1827
  367.5000   -23.4649    14.5597    21.5808     8.0732    74.2450     0.0265     2.3901     0.1686
  368.0000   -23.4926    14.5792    22.7244     8.0729    74.3154     0.0250     2.4302     0.1514
  368.5000   -23.5123    14.5985    23.8759     8.0726    74.4697     0.0236     2.4708     0.1342
  369.0000   -23.5119    14.6181    23.8759     8.0722    73.7972     0.0221     2.5052     0.1095
  369.5000   -23.5119    14.6378    23.8759     8.0719    72.4627     0.0209     2.5058     0.1048
  370.0000   -23.5119    14.6578    23.8759     8.0716    73.1787     0.0209     2.4867     0.1194
  370.5000   -23.5119    14.6711    23.8759     8.0713    76.0685     0.0209     2.4658     0.1380
  371.0000   -23.5123    14.4983    23.8754     8.0709    77.7211     0.0209     2.4214     0.1567
  371.5000   -23.5117    14.3610    23.8728     8.0706    77.4307     0.0209     2.3886     0.1753
  372.0000   -23.5043    14.2250    23.8763     8.0703    75.8671     0.0209     2.3682     0.1939
  372.5000   -23.7459    14.1361    23.8898     8.0700    74.4473     0.0209     2.3459     0.2029
  373.0000   -24.0419    14.1205    23.2143     8.0696    73.4321     0.0209     2.3384     0.2070
  373.5000   -24.0977    14.1050    22.1171     8.0693    75.1128     0.0209     2.3312     0.2089
  374.0000   -24.0899    14.0894    21.0717     8.0690    77.5657     0.0209     2.3298     0.2105
