~VERSION INFORMATION
 VERS.                2.0:   CWLS LOG ASCII STANDARD - VERSION 2.0
 WRAP.                 NO:   ONE LINE PER DEPTH STEP
~WELL INFORMATION
#MNEM.UNIT      DATA TYPE    INFORMATION
#----------   ------------   ------------------------------
 STRT.F            7.0000:   START DEPTH
 STOP.F          480.0000:   STOP DEPTH
 STEP.F            0.1000:   STEP LENGTH
 NULL.          -999.2500:   NO VALUE
 COMP.       F D SERV INC:   COMPANY
 WELL.    67-2 SX-3 #67-3:   WELL
 FLD .          N.P.R. #3:   FIELD
 LOC .       S3 T38N R78W:   LOCATION
 CNTY.            NATRONA:   COUNTY
 STAT.            WYOMING:   STATE
 CTRY. UNITED STATES OF AMERICA:   COUNTRY
 SRVC.     Atlas Wireline:   SERVICE COMPANY
 DATE.        12-FEB-1992:   LOGDATE
 API .       490252250400:   API NUMBER
~CURVE INFORMATION
#MNEM.UNIT       API CODE    CURVE DESCRIPTION
#----------   ------------   ------------------------------
 DEPT.F                  :   
 SPR .MV     07 010 01 00:   SPONTANEOUS POTENTIAL
 GRR .GAPI   07 310 01 00:   GAMMA RAY
 RILD.OHMM   07 120 46 00:   INDUCTION LOG DEEP RESISTIVITY
 RILM.OHMM   07 120 44 00:   INDUCTION LOG MEDIUM RESISTIVITY
 RFOC.OHMM   07 220 04 00:   RESISTIVITY FOCUSED LOG
~PARAMETER INFORMATION
#MNEM.UNIT          VALUE    DESCRIPTION
#----------   ------------   ------------------------------
 PD  .                 GL:   PERMANENT DATUM
 EPD .F              5165:   ELEVATION PERMANENT DATUM
 LMF .                 KB:   LOG MEASURED FROM
 DAPD.F                10:   FEET ABOVE PERMANENT DATUM
 DMF .                 KB:   DRILLING MEASURED FROM
 EKB .F              5175:   KELLING BUSHING
 EDF .F              5174:   DRILLING FLOOR
 EGL .F              5165:   GROUND LEVEL
 DATE.        12-FEB-1992:   RUN DATE
 RUN .                  1:   RUN NUMBER
 DD  .F               487:   DEPTH DRILLER
 DL  .F               485:   DEPTH LOGGER
 BLI .F               482:   BOTTOM LOG INTERVAL
 CS  .IN            8.625:   CASING SIZE
 CBD .F               183:   CASING BOTTOM DRILLER
 CBL .F               186:   CASING BOTTOM LOGGER
 BS  .IN            7.875:   BIT SIZE
 BSD .F               487:   BIT SIZE AT DEPTH
 DFT .           CHEM GEL:   DRILLING FLUID TYPE
 DFD .               16.1:   DRILLING FLUID DENSITY
 DFV .                 43:   DRILLING FLUID VISCOSITY
 DFPH.                9.5:   DRILLING FLUID PH
 DFL .               11.8:   DRILLING FLUID LOSS
 MSS .           MUD TANK:   MUD SAMPLE SOURCE
 RMS .OHMM           2.36:   RESISTIVITY MUD SAMPLE
 MST .F                65:   MUD SAMPLE TEMPERATURE
 RMF .OHMM           1.17:   RESISTIVITY MUD FILTRATE SAMPLE
 MFST.F                65:   MUD FILTRATE SAMPLE TEMPERATURE
 RMC .OHMM           5.18:   RESISTIVITY MUD CAKE
 MCST.F                65:   MUD CAKE SAMPLE TEMPERATURE
 MFSS.               MEAS:   MUD FILTRATE SAMPLE SOURCE
 MCSS.               CALC:   MUD CAKE SAMPLE SOURCE
 RMB .OHMM           1.67:   RESISTIVITY MUD AT BHT
 BHT .F                92:   BOTTOM HOLE TEMPERATURE
 TCS .HRS               2:   TIME CURCULATED STOPPED
 MRT .F                92:   MAXIMUM RECORDED TEMPERATURE
 LUN .           HL- 6224:   LOGGING UNIT NUMBER
 LUL .             CASPER:   LOGGING UNIT LOCATION
 ENGI.        VERN RAUTIO:   RECORDING ENGINEER
 WITN.        GARY STRONG:   WITNESSED BY
 CLNT.            A2DTECH:   CLIENT CODE
 ORIG.           5" PRINT:   ORIGIN OF DATA
 UWI .       490252250400:   UNIQUE WELL ID
 DICO. A2D Technologies, Inc.:   DIGITIZING COMPANY
~OTHER INFORMATION
~A    DEPT     SPR        GRR       RILD       RILM       RFOC   
# ...
  299.8000   -38.8919    71.9147    21.0028    21.1482    19.5173
  299.9000   -38.8901    71.3588    20.9257    21.1482    19.5884
  300.0000   -38.8889    71.3625    20.8551    21.0505    19.6089
  300.1000   -38.8155    71.3670    20.8542    20.8551    19.5181
  300.2000   -38.6922    71.3715    20.8533    20.8551    19.5184
  300.3000   -38.5841    71.3760    20.8525    20.8551    19.4133
  300.4000   -38.5824    71.3804    20.8516    20.7700    19.3036
  300.5000   -38.4720    71.3849    20.8507    20.7101    19.1945
  300.6000   -38.3485    71.3894    20.8499    20.6794    19.0860
  300.7000   -38.2752    71.6377    20.8490    20.5661    18.9781
  300.8000   -38.2691    72.1336    20.8481    20.5661    18.8513
  300.9000   -38.2667    72.6434    20.8472    20.5661    18.7644
  301.0000   -38.2643    73.5059    20.8464    20.5661    18.6584
  301.1000   -38.3594    73.7153    20.8455    20.6064    18.5910
  301.2000   -38.4096    74.2693    20.8548    20.7101    18.5771
  301.3000   -38.4497    74.8152    20.9895    20.7101    18.4624
  301.4000   -38.5699    75.0652    20.9888    20.8145    18.4626
  301.5000   -38.7025    75.3255    20.9879    20.8551    18.4628
  301.6000   -38.7003    75.8013    20.9871    20.9057    18.4631
  301.7000   -38.7804    76.1154    20.9862    21.0246    18.4870
  301.8000   -38.8456    76.3654    20.9852    21.1482    18.5928
  301.9000   -38.8707    76.4676    21.0944    21.1482    18.5931
  302.0000   -38.9910    76.2455    21.2133    21.2370    18.5933
  302.1000   -38.9885    76.2507    21.3328    21.2962    18.5936
  302.2000   -39.0813    76.0423    21.4256    21.2962    18.6271
  302.3000   -39.2015    75.8007    21.4247    21.2962    18.7242
  302.4000   -39.3217    75.6630    21.5446    21.2962    18.7245
  302.5000   -39.4297    75.6172    21.5729    21.2962    18.7247
  302.6000   -39.4267    75.3716    21.6367    21.3678    18.7250
  302.7000   -39.5322    75.3757    21.7221    21.4453    18.7252
  302.8000   -39.5724    75.5678    21.7289    21.4453    18.7255
  302.9000   -39.6226    75.6840    21.8723    21.4453    18.7258
  303.0000   -39.7177    75.6882    21.8715    21.4453    18.8273
  303.1000   -39.7153    75.6924    21.8706    21.4453    18.8573
  303.2000   -39.8331    75.6970    21.7467    21.4453    18.8576
  303.3000   -39.8606    75.4829    21.8990    21.4453    18.8578
  303.4000   -39.8582    75.4051    21.8990    21.4453    18.8581
  303.5000   -39.8934    75.4093    21.8990    21.4453    18.8584
  303.6000   -40.0038    75.3575    21.9603    21.3905    18.8586
  303.7000   -40.0009    75.1178    22.0523    21.3178    18.8589
  303.8000   -40.1040    75.1220    22.0523    21.2450    18.8591
  303.9000   -40.2242    74.9323    22.0523    21.1723    18.8733
  304.0000   -40.3444    74.5507    22.0523    21.0996    18.9917
  304.1000   -40.4425    74.1491    22.1269    21.0269    18.9919
  304.2000   -40.4395    73.8756    22.2067    20.9541    18.9922
  304.3000   -40.5549    73.3443    22.2067    20.8814    18.9924
  304.4000   -40.7652    72.9003    22.2067    20.8087    18.9927
  304.5000   -40.9454    72.4127    22.3233    20.7360    19.0135
  304.6000   -41.0306    71.9252    22.3622    20.6632    19.0651
  304.7000   -41.0357    71.5616    22.4222    20.5905    19.1167
  304.8000   -41.1756    71.5898    22.5188    20.5178    19.1684
  304.9000   -41.1735    72.4704    22.5215    20.4450    19.2200
  305.0000   -41.1712    72.8736    22.6503    20.3723    19.2716
  305.1000   -41.1688    73.5154    22.6765    20.2996    19.3232
  305.2000   -41.1664    74.3491    22.7505    20.2269    19.3748
  305.3000   -41.1638    75.2610    22.8352    20.1400    19.4264
  305.4000   -41.1616    75.7892    22.8512    21.1145    19.4780
  305.5000   -41.1591    76.2529    22.9951    21.1140    19.5296
  305.6000   -41.0967    76.7488    22.9951    21.1134    19.5812
  305.7000   -41.0042    77.1228    22.9951    21.0643    19.6328
  305.8000   -41.0018    77.4408    23.0542    20.9656    19.6844
  305.9000   -40.9990    77.9228    23.1859    20.9650    19.7360
  306.0000   -40.9970    78.2136    23.3183    20.9645    19.7876
  306.1000   -40.9946    78.4230    23.3183    20.9639    19.8392
  306.2000   -40.9922    78.5211    23.3183    20.9633    19.8908
  306.3000   -40.9898    78.5253    23.3183    20.9627    19.9424
  306.4000   -40.9872    78.4855    23.3183    20.9621    19.9940
  306.5000   -40.9850    78.2341    23.3183    20.9615    20.0456
  306.6000   -40.9826    77.7664    23.3183    20.9610    20.0536
  306.7000   -41.0377    77.4607    23.3183    21.0362    20.0229
  306.8000   -41.1279    77.0910    23.3183    21.1063    19.9922
  306.9000   -41.1255    76.6774    23.3183    21.1057    19.9616
  307.0000   -41.1231    76.4157    23.3183    21.1051    19.9309
  307.1000   -41.2182    75.8608    23.3183    21.1046    19.9003
  307.2000   -41.3385    75.6526    23.3183    21.1040    19.8696
  307.3000   -41.4587    75.2530    23.3183    21.1034    19.8389
  307.4000   -41.5643    74.8694    23.3183    21.1028    19.8083
  307.5000   -41.5613    74.5777    23.2778    21.1022    19.7776
  307.6000   -41.6692    74.0822    23.1562    21.1015    19.7470
  307.7000   -41.7069    73.6026    23.1562    21.1010    19.7163
  307.8000   -41.7596    73.1150    23.0434    21.1005    19.6857
  307.9000   -41.8522    72.7614    22.9951    21.0499    19.6550
  308.0000   -41.8498    72.4399    22.9418    20.9528    19.6243
  308.1000   -41.8474    71.9782    22.8352    20.9522    19.5937
  308.2000   -41.8451    71.7090    22.8352    20.9516    19.5630
  308.3000   -41.8427    71.2769    22.8352    20.9510    19.5324
  308.4000   -41.8402    70.9533    22.7400    20.9505    19.3719
  308.5000   -41.8378    70.7117    22.6765    20.9130    19.2445
  308.6000   -41.8351    70.5259    22.6765    20.8038    19.2437
  308.7000   -41.8330    70.5341    22.6765    20.8032    19.2429
  308.8000   -41.7505    71.0301    22.6765    20.8027    19.2420
  308.9000   -41.6781    71.7198    22.6765    20.8021    19.2413
  309.0000   -41.6757    72.6016    22.6765    20.8015    19.2405
  309.1000   -41.6732    73.5895    22.6765    20.8009    19.2397
  309.2000   -41.5507    74.5772    22.6765    20.8003    19.2389
  309.3000   -41.5183    75.6531    22.6765    20.6839    19.2381
  309.4000   -41.4508    77.0002    22.6765    20.6548    19.2373
  309.5000   -41.3258    78.3097    22.6765    20.6542    19.2365
  309.6000   -41.2007    79.3115    22.6134    20.6536    19.1812
  309.7000   -41.0579    79.9294    22.5188    20.6531    19.1009
  309.8000   -40.9507    80.1796    22.5188    20.6524    19.1001
  309.9000   -40.8257    80.4763    22.5188    20.6519    19.0992
  310.0000   -40.7007    80.2799    22.4144    20.6513    19.0985
  310.1000   -40.5531    80.0382    22.3622    20.6508    19.0977
  310.2000   -40.2954    79.6126    22.3622    20.6502    19.0969
  310.3000   -40.1755    78.9171    22.3441    20.6496    19.0961
  310.4000   -39.9604    78.3979    22.2067    20.6490    19.0952
  310.5000   -39.7753    77.7121    22.0909    20.5586    19.0945
  310.6000   -39.6503    76.9786    22.0523    20.5045    19.0937
  310.7000   -39.5178    76.1233    21.9936    20.4664    19.0929
  310.8000   -39.2296    75.2121    21.8685    20.3493    19.0921
  310.9000   -39.1250    74.4786    21.7441    20.2191    19.0913
  311.0000   -39.0000    73.6259    21.6207    20.2186    19.0905
  311.1000   -38.8750    73.4235    21.5955    20.1424    19.0057
  311.2000   -38.7500    73.3337    21.5254    20.0273    18.9560
  311.3000   -38.6173    73.3379    21.4453    19.9128    18.9206
  311.4000   -38.6150    73.3421    21.4304    19.7981    18.8224
  311.5000   -38.6126    73.3465    21.2962    19.6858    18.8215
  311.6000   -38.6102    73.3505    21.1877    19.6596    18.8208
  311.7000   -38.6078    73.3547    21.1482    19.5976    18.7517
  311.8000   -38.6104    73.4868    21.1482    19.5220    18.6882
  311.9000   -38.7527    73.6630    21.1482    19.5215    18.6874
