~VERSION INFORMATION
 VERS.                2.0:   CWLS LOG ASCII STANDARD - VERSION 2.0
 WRAP.                 NO:   ONE LINE PER DEPTH STEP
~WELL INFORMATION
#MNEM.UNIT      DATA TYPE    INFORMATION
#----------   ------------   ------------------------------
 STRT.F            0.0000:   START DEPTH
 STOP.F          524.0000:   STOP DEPTH
 STEP.F            0.5000:   STEP LENGTH
 NULL.          -999.2500:   NO VALUE
 COMP.       F D SERV INC:   COMPANY
 WELL. NAVAL PETROLEUM RESERVE 3 SX-1 #83-2-10:   WELL
 FLD .             TEAPOT:   FIELD
 LOC .      S10 T38N R78W:   LOCATION
 CNTY.            NATRONA:   COUNTY
 STAT.            WYOMING:   STATE
 CTRY. UNITED STATES OF AMERICA:   COUNTRY
 SRVC.     Atlas Wireline:   SERVICE COMPANY
 DATE.        10-FEB-1993:   LOGDATE
 API .       490252258100:   API NUMBER
~CURVE INFORMATION
#MNEM.UNIT       API CODE    CURVE DESCRIPTION
#----------   ------------   ------------------------------
 DEPT.F                  :   
 RILM.OHMM   07 120 44 00:   RESITIVITY LONG MEDIUM
 RILD.OHMM   07 120 46 00:   INDUCTION LOG DEEP RESISTIVITY
 GRR .GAPI   07 310 01 00:   GAMMA RAY
 PORZ.DEC    45 890 12 00:   DENSITY POROSITY
 ZCOR.G/C3   45 356 01 00:   DENSITY CORRECTION
 ZDEN.G/C3   45 350 01 00:   BULK DENSITY
 NPHI.DEC    42 890 03 00:   NEUTRON POROSITY SANDSTONE
 C13 .IN     45 280 13 00:   CALIPER X
~PARAMETER INFORMATION
#MNEM.UNIT          VALUE    DESCRIPTION
#----------   ------------   ------------------------------
 PD  .                 GL:   PERMANENT DATUM
 EPD .F              5156:   ELEVATION PERMANENT DATUM
 LMF .                 KB:   LOG MEASURED FROM
 DAPD.F                10:   FEET ABOVE PERMANENT DATUM
 DMF .                 KB:   DRILLING MEASURED FROM
 EKB .F              5166:   KELLING BUSHING
 EDF .F              5165:   DRILLING FLOOR
 EGL .F              5156:   GROUND LEVEL
 DATE.        10-FEB-1993:   RUN DATE
 RUN .                  1:   RUN NUMBER
 DD  .F               525:   DEPTH DRILLER
 DL  .F               526:   DEPTH LOGGER
 BLI .F               518:   BOTTOM LOG INTERVAL
 CS  .IN            8.625:   CASING SIZE
 CBD .F                80:   CASING BOTTOM DRILLER
 CBL .F                81:   CASING BOTTOM LOGGER
 BS  .IN            7.875:   BIT SIZE
 BSD .F               525:   BIT SIZE AT DEPTH
 DFT .                AIR:   DRILLING FLUID TYPE
 MRT .F                70:   MAXIMUM RECORDED TEMPERATURE
 LUN .            HL 6274:   LOGGING UNIT NUMBER
 LUL .             CASPER:   LOGGING UNIT LOCATION
 ENGI.          V. RAUTIO:   RECORDING ENGINEER
 WITN.          G. STRONG:   WITNESSED BY
 CLNT.            A2DTECH:   CLIENT CODE
 ORIG.           5" PRINT:   ORIGIN OF DATA
 UWI .       490252258100:   UNIQUE WELL ID
 DICO. A2D Technologies, Inc.:   DIGITIZING COMPANY
~OTHER INFORMATION
~A    DEPT    RILM       RILD         GRR      PORZ       ZCOR       ZDEN       NPHI        C13   
# ...
  445.5000    13.3503    13.1194   105.6616     0.1212    -0.0012     2.4487     0.2581     7.9181
  446.0000    13.3485    13.2075   115.3062     0.1203    -0.0087     2.4509     0.2578     7.9174
  446.5000    13.3468    13.2065   120.4237     0.1215    -0.0147     2.4494     0.2560     7.9168
  447.0000    13.2528    13.1145   120.7190     0.1233    -0.0208     2.4486     0.2542     7.9162
  447.5000    13.0683    13.0231   119.8034     0.1227    -0.0193     2.4486     0.2539     7.9157
  448.0000    12.8868    12.8429   116.4766     0.1179    -0.0131     2.4538     0.2551     7.9150
  448.5000    12.8851    12.8421   113.1477     0.1146    -0.0044     2.4606     0.2548     7.9144
  449.0000    12.7940    12.8413   112.2342     0.1128    -0.0029     2.4635     0.2542     7.9138
  449.5000    12.7040    12.8336   112.2257     0.1110    -0.0015     2.4658     0.2533     7.9133
  450.0000    12.6146    12.6629   112.5189     0.1098    -0.0009     2.4688     0.2526     7.9152
  450.5000    12.6999    12.6611   119.1431     0.1095     0.0030     2.4695     0.2510     7.9271
  451.0000    12.4355    12.6591   120.6400     0.1131     0.0029     2.4627     0.2489     7.9262
  451.5000    12.3472    12.5701   120.0225     0.1128     0.0029     2.4619     0.2465     7.9253
  452.0000    12.3448    12.3956   119.7095     0.1107     0.0044     2.4656     0.2443     7.9246
  452.5000    12.2571    12.2235   119.0949     0.1065     0.0044     2.4724     0.2447     7.9239
  453.0000    12.1695    12.0534   118.7791     0.1038     0.0043     2.4784     0.2474     7.9383
  453.5000    12.1671    11.9687   118.4660     0.1017     0.0028     2.4806     0.2504     7.9374
  454.0000    12.0807    11.9671   118.1530     0.1002     0.0043     2.4836     0.2534     7.9367
  454.5000    12.0784    11.9655   117.5384     0.0993     0.0057     2.4858     0.2540     7.9209
  455.0000    12.0754    11.9636   114.2060     0.0979     0.0072     2.4880     0.2522     7.9202
  455.5000    11.9897    12.0456   113.5941     0.0955     0.0102     2.4903     0.2498     7.9193
  456.0000    11.9873    12.0436   115.3899     0.0916     0.0117     2.4947     0.2471     7.9186
  456.5000    12.0684    12.1257   118.3982     0.0910     0.0101     2.5000     0.2465     7.9179
  457.0000    12.1493    12.0401   122.0009     0.0961    -0.0004     2.4954     0.2484     7.9170
  457.5000    12.1469    12.0385   123.1962     0.1042     0.0071     2.4841     0.2484     7.9163
  458.0000    12.1446    12.0369   122.5816     0.1085     0.0175     2.4751     0.2469     7.9156
  458.5000    12.1422    11.9523   121.3544     0.1121     0.0205     2.4653     0.2472     7.9149
  459.0000    12.0554    11.8679   120.1428     0.1148     0.0175     2.4592     0.2484     7.9140
  459.5000    11.9698    11.7845   119.8298     0.1172     0.0114     2.4547     0.2509     7.9133
  460.0000    11.8848    11.7016   119.8184     0.1184     0.0039     2.4516     0.2535     7.9126
  460.5000    11.7900    11.6898   118.5832     0.1127     0.0009     2.4577     0.2544     7.8968
  461.0000    11.6352    11.6175   116.1730     0.1067     0.0038     2.4704     0.2554     7.8960
  461.5000    11.5526    11.5358   117.3683     0.0983     0.0038     2.4816     0.2584     7.9105
  462.0000    11.4705    11.3756   120.6752     0.0931     0.0006     2.4929     0.2608     7.9096
  462.5000    11.3099    11.2953   123.7557     0.0905     0.0008     2.5019     0.2617     7.9088
  463.0000    11.2296    11.1385   126.6829     0.0899     0.0037     2.5018     0.2623     7.9080
  463.5000    11.1498    10.9839   128.4815     0.0902     0.0067     2.5003     0.2638     7.8923
  464.0000    11.0707    10.9824   126.9619     0.0928     0.0082     2.4957     0.2671     7.9066
  464.5000    10.9915    10.8296   122.9954     0.0957     0.0081     2.4905     0.2690     7.9210
  465.0000    10.8381    10.5324   121.2048     0.0927     0.0036     2.4927     0.2699     7.9201
  465.5000    10.6130    10.3862   121.4952     0.0900     0.0006     2.4979     0.2723     7.9194
  466.0000    10.3209    10.2420   122.6908     0.0915     0.0020     2.5017     0.2729     7.9185
  466.5000    10.1060    10.0994   122.3358     0.0948     0.0080     2.4956     0.2726     7.9178
  467.0000     9.9650     9.8905   122.0616     0.0930     0.0125     2.4933     0.2738     7.9171
  467.5000     9.7580     9.6859   122.9553     0.0909     0.0095     2.4963     0.2765     7.9468
  468.0000     9.4894     9.4837   131.0887     0.0891     0.0049     2.4993     0.2805     7.9760
  468.5000     9.2277     9.1612   137.1077     0.0877     0.0094     2.5015     0.2814     7.9299
  469.0000     8.9737     8.9717   136.7947     0.0862     0.0199     2.5030     0.2808     7.9141
  469.5000     8.6663     8.5460   135.2751     0.0849     0.0198     2.5052     0.2796     7.9134
  470.0000     8.1332     8.0176   133.1521     0.0844     0.0168     2.5067     0.2805     7.9125
  470.5000     7.5414     7.2856   131.0264     0.0871     0.0123     2.5082     0.2863     7.9118
  471.0000     6.8427     6.5206   130.4117     0.0970     0.0077     2.5066     0.2962     7.9111
  471.5000     5.9559     5.6373   130.1015     0.1078     0.0047     2.4953     0.3037     7.9103
  472.0000     5.5015     5.3699   139.1371     0.1211    -0.0045     2.4735     0.3176     7.9096
  472.5000     4.8360     5.3690   161.1441     0.1395    -0.0119     2.4426     0.3413     7.9088
  473.0000     5.1460     5.3683   166.8643     0.1510     0.0016     2.4034     0.3447     7.9081
  473.5000     5.5525     5.4803   168.9645     0.1417     0.0181     2.3966     0.3179     7.9073
  474.0000     5.9681     5.5673   162.6184     0.1155     0.0076     2.4327     0.2917     7.9216
  474.5000     6.6459     5.9948   139.0748     0.0947     0.0000     2.4694     0.2688     7.9059
  475.0000     7.2710     6.5134   129.4103     0.0836    -0.0015     2.5064     0.2655     7.9050
  475.5000     7.7913     7.1756   122.1592     0.0797    -0.0013     2.5176     0.2640     7.9043
  476.0000     8.2907     8.1268   121.8462     0.0809     0.0014     2.5154     0.2689     7.9036
  476.5000     8.7616     8.8299   124.5470     0.0863     0.0074     2.5071     0.2713     7.9029
  477.0000     9.1318     9.3965   127.2505     0.0864     0.0134     2.5070     0.2701     7.9020
  477.5000     9.5177     9.8619   129.9541     0.0849     0.0149     2.5093     0.2689     7.9013
  478.0000     9.7157     9.7247   131.4631     0.0834     0.0118     2.5130     0.2695     7.9006
  478.5000     9.7134     9.7913   132.9462     0.0828     0.0043     2.5130     0.2717     7.9149
  479.0000     9.9155     9.9952   131.4265     0.0835    -0.0017     2.5077     0.2761     7.9140
  479.5000    10.0519    10.1338   129.5616     0.0879    -0.0033     2.5009     0.2765     7.9133
  480.0000    10.2606    10.3447   128.6861     0.0885     0.0027     2.5091     0.2753     7.9277
  480.5000    10.4023    10.4873   128.9792     0.0831     0.0102     2.5143     0.2750     7.9268
  481.0000    10.5454    10.6321   131.9816     0.0789     0.0147     2.5181     0.2750     7.9261
  481.5000    10.6900    10.6342   138.0007     0.0768     0.0176     2.5195     0.2750     7.9103
  482.0000    10.8371    10.8522   141.0059     0.0762     0.0206     2.5210     0.2753     7.9096
  482.5000    10.9862    10.9265   138.5813     0.0760     0.0191     2.5225     0.2747     7.8937
  483.0000    11.1373    11.0775   132.2351     0.0745     0.0175     2.5247     0.2720     7.8930
  483.5000    11.2968    11.2301   125.8861     0.0742     0.0130     2.5270     0.2696     7.9074
  484.0000    11.4454    11.3853   124.0648     0.0742     0.0055     2.5232     0.2678     7.9215
  484.5000    11.6028    11.5425   124.0535     0.0770    -0.0021     2.5179     0.2663     7.9208
  485.0000    11.7620    11.7016   125.8521     0.0832    -0.0051     2.5080     0.2648     7.9201
  485.5000    11.9237    11.9457   129.1562     0.0848    -0.0051     2.5103     0.2630     7.9194
