~VERSION INFORMATION
 VERS.                2.0:   CWLS LOG ASCII STANDARD - VERSION 2.0
 WRAP.                 NO:   ONE LINE PER DEPTH STEP
~WELL INFORMATION
#MNEM.UNIT      DATA TYPE    INFORMATION
#----------   ------------   ------------------------------
 STRT.F            0.0000:   START DEPTH
 STOP.F          666.0000:   STOP DEPTH
 STEP.F            0.1000:   STEP LENGTH
 NULL.          -999.2500:   NO VALUE
 COMP.   FLUOR DANIEL INC:   COMPANY
 WELL.   77-2 X 34 #77-34:   WELL
 FLD .             TEAPOT:   FIELD
 LOC .      S34 T39N R78W:   LOCATION
 CNTY.            NATRONA:   COUNTY
 STAT.            WYOMING:   STATE
 CTRY. UNITED STATES OF AMERICA:   COUNTRY
 SRVC.      Western Atlas:   SERVICE COMPANY
 DATE.        01-APR-1995:   LOGDATE
 API .       490252270000:   API NUMBER
~CURVE INFORMATION
#MNEM.UNIT       API CODE    CURVE DESCRIPTION
#----------   ------------   ------------------------------
 DEPT.F                  :   
 GRR .GAPI   07 310 01 00:   GAMMA RAY
 RILD.OHMM   07 120 46 00:   INDUCTION LOG DEEP RESISTIVITY
 RILM.OHMM   07 120 44 00:   INDUCTION LOG MEDIUM RESISTIVITY
~PARAMETER INFORMATION
#MNEM.UNIT          VALUE    DESCRIPTION
#----------   ------------   ------------------------------
 PD  .                 GL:   PERMANENT DATUM
 EPD .F              5106:   ELEVATION PERMANENT DATUM
 LMF .                 KB:   LOG MEASURED FROM
 DAPD.F                10:   FEET ABOVE PERMANENT DATUM
 DMF .                 KB:   DRILLING MEASURED FROM
 EKB .F              5116:   KELLING BUSHING
 EDF .F              5115:   DRILLING FLOOR
 EGL .F              5106:   GROUND LEVEL
 DATE.        01-APR-1995:   RUN DATE
 RUN .                  1:   RUN NUMBER
 DD  .F               674:   DEPTH DRILLER
 DL  .F               674:   DEPTH LOGGER
 BLI .F               666:   BOTTOM LOG INTERVAL
 TLI .F                52:   TOP LOG INTERVAL
 CS  .IN            9.625:   CASING SIZE
 CBD .F                52:   CASING BOTTOM DRILLER
 CBL .F                52:   CASING BOTTOM LOGGER
 BS  .IN             8.75:   BIT SIZE
 BSD .F               674:   BIT SIZE AT DEPTH
 DFT .                AIR:   DRILLING FLUID TYPE
 MRT .F                89:   MAXIMUM RECORDED TEMPERATURE
 LUN .            HL 6530:   LOGGING UNIT NUMBER
 LUL .             CASPER:   LOGGING UNIT LOCATION
 ENGI.      PAT RASMUSSEN:   RECORDING ENGINEER
 WITN.        GARY STRONG:   WITNESSED BY
 CLNT.            A2DTECH:   CLIENT CODE
 ORIG.           5" PRINT:   ORIGIN OF DATA
 UWI .       490252270000:   UNIQUE WELL ID
 DICO. A2D Technologies, Inc.:   DIGITIZING COMPANY
~OTHER INFORMATION
~A    DEPT      GRR      RILD       RILM   
# ...
  218.4000   141.5522     9.0724     9.2958
  218.5000   141.2881     9.1281     9.3493
  218.6000   140.8116     9.1786     9.4032
  218.7000   140.3091     9.1919     9.4573
  218.8000   139.5298     9.2214     9.5089
  218.9000   138.5241     9.2562     9.5081
  219.0000   137.5184     9.2562     9.5076
  219.1000   136.4652     9.2562     9.5433
  219.2000   135.5069     9.3595     9.5983
  219.3000   134.8804     9.4275     9.6535
  219.4000   134.3779     9.4825     9.7091
  219.5000   133.7858     9.5180     9.7723
  219.6000   133.0711     9.5355     9.7718
  219.7000   132.5472     9.6517     9.8093
  219.8000   132.0660     9.7056     9.8658
  219.9000   131.7543     9.7622     9.9226
  220.0000   131.3625     9.8192     9.9797
  220.1000   130.9506     9.8764    10.0439
  220.2000   130.6997     9.9340    10.0433
  220.3000   130.4392     9.9941    10.0827
  220.4000   130.4398    10.0502    10.1408
  220.5000   130.2484    10.1088    10.1992
  220.6000   130.1394    10.1344    10.2523
  220.7000   130.1400    10.1560    10.2514
  220.8000   130.0988    10.2053    10.3044
  220.9000   129.8395    10.2053    10.3216
  221.0000   129.8401    10.2053    10.3209
  221.1000   129.8407    10.2511    10.3386
  221.2000   129.8413    10.2767    10.3981
  221.3000   129.9351    10.2767    10.4633
  221.4000   130.2303    10.2870    10.4626
  221.5000   130.7481    10.3486    10.5055
  221.6000   131.4823    10.3486    10.5342
  221.7000   131.8488    10.3486    10.5335
  221.8000   132.1010    10.3833    10.5403
  221.9000   132.2588    10.4438    10.6055
  222.0000   132.0824    10.4940    10.6048
  222.1000   131.0534    10.4940    10.6040
  222.2000   130.3168    10.5538    10.6693
  222.3000   129.3670    10.6153    10.7721
  222.4000   128.3613    10.6772    10.8255
  222.5000   127.4510    10.7395    10.8246
  222.6000   126.6968    10.8021    10.8832
  222.7000   125.9288    10.8662    10.8987
  222.8000   125.4355    10.8662    10.9326
  222.9000   124.7361    10.9159    10.9956
  223.0000   124.1287    10.9423    11.0589
  223.1000   123.6262    10.9668    11.1254
  223.2000   123.2168    11.0307    11.1247
  223.3000   123.2175    11.0959    11.1730
  223.4000   122.9699    11.0959    11.2008
  223.5000   122.9170    11.1469    11.2000
  223.6000   122.9176    11.1736    11.2100
  223.7000   123.0162    11.1736    11.2766
  223.8000   123.2205    11.1736    11.2758
  223.9000   123.2211    11.1736    11.3258
  224.0000   123.2217    11.1736    11.3529
  224.1000   123.4216    11.2252    11.3771
  224.2000   123.5246    11.2517    11.4307
  224.3000   123.4260    11.2517    11.4298
  224.4000   123.2240    11.2517    11.4290
  224.5000   123.2247    11.2517    11.4806
  224.6000   122.9747    11.2517    11.5072
  224.7000   122.5233    11.2517    11.5064
  224.8000   122.1712    11.2517    11.5056
  224.9000   121.8198    11.2517    11.5048
  225.0000   121.3172    11.2517    11.5038
  225.1000   120.8149    11.2517    11.5032
  225.2000   120.5141    11.2517    11.5024
  225.3000   120.7164    11.2517    11.5016
  225.4000   121.2718    11.2517    11.5008
  225.5000   122.2302    11.2254    11.5000
  225.6000   123.4887    11.1736    11.4990
  225.7000   124.7472    11.1732    11.4984
  225.8000   126.2493    11.0959    11.4565
  225.9000   127.2645    11.0959    11.4171
  226.0000   128.3701    11.0569    11.4015
  226.1000   129.1714    11.0188    11.3364
  226.2000   129.6752    11.0055    11.3354
  226.3000   130.1763    10.9423    11.2804
  226.4000   130.4761    10.9423    11.2348
  226.5000   130.4766    10.9423    11.2015
  226.6000   130.4772    10.9034    11.1759
  226.7000   130.3738    10.8662    11.1751
  226.8000   130.1768    10.8662    11.1742
  226.9000   130.1736    10.8662    11.1735
  227.0000   129.8764    10.8662    11.1727
  227.1000   129.4663    10.8148    11.1720
  227.2000   129.2742    10.7907    11.1712
  227.3000   129.2748    10.7907    11.1669
  227.4000   129.2754    10.7770    11.0921
  227.5000   129.2760    10.7158    11.0914
  227.6000   129.2767    10.7158    11.0907
  227.7000   129.2772    10.7158    11.0601
  227.8000   129.2778    10.7158    11.0122
  227.9000   129.2784    10.7158    11.0115
  228.0000   129.2227    10.7019    11.0106
  228.1000   128.9718    10.6413    10.9543
  228.2000   128.6770    10.6413    10.9329
  228.3000   128.6775    10.6413    10.9321
  228.4000   128.5204    10.6413    10.9136
  228.5000   128.2695    10.6413    10.8548
  228.6000   128.0760    10.6413    10.8540
  228.7000   128.0766    10.6413    10.8533
  228.8000   128.0773    10.6413    10.8525
  228.9000   128.0778    10.6413    10.8518
  229.0000   127.9196    10.6413    10.8510
  229.1000   127.7774    10.6413    10.8503
  229.2000   127.8367    10.6413    10.8494
  229.3000   128.0889    10.6413    10.8488
  229.4000   128.3826    10.6413    10.8480
  229.5000   128.8034    10.6413    10.8473
  229.6000   129.1471    10.6413    10.8465
  229.7000   129.5093    10.6413    10.8458
  229.8000   130.0131    10.6413    10.8449
  229.9000   130.5367    10.6413    10.8442
  230.0000   131.7045    10.6413    10.8435
  230.1000   133.1844    10.6413    10.8427
  230.2000   134.1398    10.6413    10.8420
  230.3000   134.6435    10.6413    10.8412
  230.4000   135.0862    10.6413    10.8404
  230.5000   135.3494    10.6413    10.8397
  230.6000   135.9313    10.6413    10.8390
  230.7000   135.9318    10.5892    10.8382
  230.8000   136.0949    10.5674    10.8162
  230.9000   136.2347    10.5674    10.7528
  231.0000   136.1729    10.5674    10.6862
  231.1000   135.9342    10.5674    10.6855
  231.2000   135.9349    10.5674    10.6385
  231.3000   135.9355    10.5674    10.5762
  231.4000   135.6087    10.5674    10.5357
  231.5000   135.2197    10.5674    10.5254
  231.6000   134.9687    10.5519    10.4611
  231.7000   134.7043    10.4940    10.4604
  231.8000   134.1286    10.4940    10.4136
  231.9000   133.9141    10.4940    10.3525
  232.0000   133.4983    10.4940    10.2918
  232.1000   133.1105    10.4662    10.2415
  232.2000   132.7301    10.4210    10.2408
  232.3000   131.9905    10.4210    10.1824
  232.4000   131.4173    10.4210    10.1684
  232.5000   130.9854    10.3692    10.1677
  232.6000   130.4829    10.3486    10.1445
  232.7000   129.8643    10.3486    10.0958
  232.8000   129.2421    10.3486    10.0951
  232.9000   128.9752    10.3486    10.0944
  233.0000   128.4043    10.3486    10.0937
  233.1000   128.1874    10.3486    10.1279
  233.2000   128.2711    10.3486    10.1628
  233.3000   128.4060    10.3486    10.1621
  233.4000   128.4066    10.3486    10.1614
  233.5000   128.4072    10.3446    10.2314
  233.6000   128.4079    10.2767    10.2309
  233.7000   128.1898    10.2767    10.2301
  233.8000   128.1074    10.2767    10.2294
  233.9000   127.9895    10.2487    10.2287
  234.0000   127.6702    10.1893    10.2271
  234.1000   127.1859    10.1344    10.1563
  234.2000   126.9032    10.1344    10.1557
  234.3000   126.4642    10.0831    10.1184
  234.4000   125.9616    10.0640    10.0591
  234.5000   125.6983    10.0640    10.0133
  234.6000   125.6989    10.0479    10.0108
  234.7000   125.7191     9.9941     9.9424
  234.8000   126.0019     9.9941     9.9418
  234.9000   126.6655     9.9432     9.9411
  235.0000   127.2499     9.9246     9.9152
  235.1000   127.8745     9.8970     9.8708
  235.2000   128.6299     9.8557     9.8701
  235.3000   129.3438     9.8510     9.8693
  235.4000   129.6254     9.7872     9.8203
  235.5000   129.8482     9.7872     9.7997
  235.6000   129.9282     9.7872     9.7990
  235.7000   130.0509     9.7872     9.7983
  235.8000   130.2311     9.7872     9.7976
  235.9000   130.2317     9.7872     9.7968
  236.0000   130.2323     9.7872     9.8455
  236.1000   130.4563     9.7872     9.8640
  236.2000   130.5351     9.7872     9.8902
  236.3000   130.6590     9.7872     9.9314
  236.4000   130.9112     9.8038     9.9350
  236.5000   131.1866     9.8557     9.9993
