~VERSION INFORMATION
 VERS.                2.0:   CWLS LOG ASCII STANDARD - VERSION 2.0
 WRAP.                 NO:   ONE LINE PER DEPTH STEP
~WELL INFORMATION
#MNEM.UNIT      DATA TYPE    INFORMATION
#----------   ------------   ------------------------------
 STRT.F           60.0000:   START DEPTH
 STOP.F         3052.0000:   STOP DEPTH
 STEP.F            0.5000:   STEP LENGTH
 NULL.          -999.2500:   NO VALUE
 COMP.   FLUOR DANIEL INC:   COMPANY
 WELL. NAVAL PETROLEUM RESERVE 3 X-14 #57-14:   WELL
 FLD .            WILDCAT:   FIELD
 LOC .      S14 T38N R78W:   LOCATION
 CNTY.            NATRONA:   COUNTY
 STAT.            WYOMING:   STATE
 CTRY. UNITED STATES OF AMERICA:   COUNTRY
 SRVC.            Unknown:   SERVICE COMPANY
 DATE.        16-MAY-1995:   LOGDATE
 API .       490252272000:   API NUMBER
~CURVE INFORMATION
#MNEM.UNIT       API CODE    CURVE DESCRIPTION
#----------   ------------   ------------------------------
 DEPT.F                  :   
 ROP .FT/HR  91 810 01 00:   RAT OF DRILLING PENETRATION
 TGAS.TC/CC  91 830 01 00:   TOTAL GAS UNIT
~PARAMETER INFORMATION
#MNEM.UNIT          VALUE    DESCRIPTION
#----------   ------------   ------------------------------
 EKB .F              5312:   KELLING BUSHING
 EGL .F              5302:   GROUND LEVEL
 DATE.        16-MAY-1995:   RUN DATE
 RUN .                  1:   RUN NUMBER
 BLI .F              3062:   BOTTOM LOG INTERVAL
 TLI .F                60:   TOP LOG INTERVAL
 ENGI.     C.TOWER/R.HUSK:   RECORDING ENGINEER
 CLNT.            A2DTECH:   CLIENT CODE
 ORIG.           5" PRINT:   ORIGIN OF DATA
 UWI .       490252272000:   UNIQUE WELL ID
 DICO. A2D Technologies, Inc.:   DIGITIZING COMPANY
~OTHER INFORMATION
~A   DEPT        ROP       TGAS 
# ...
  667.5000     1.1024     0.8748
  668.0000     0.9818     0.8752
  668.5000     0.9916     0.8756
  669.0000     0.9919     0.8760
  669.5000     1.0016     0.8764
  670.0000     0.8887     0.8768
  670.5000     0.8885     0.8772
  671.0000     0.8879     0.8776
  671.5000     0.8874     0.8780
  672.0000     0.8868     0.8784
  672.5000     0.8862     0.8788
  673.0000     0.8857     0.8791
  673.5000     0.8851     0.8795
  674.0000     0.8845     0.8799
  674.5000     0.8840     0.8803
  675.0000     0.8834     0.8807
  675.5000     0.8829     0.8811
  676.0000     0.8638     0.8815
  676.5000     0.7602     0.8819
  677.0000     0.7606     0.8823
  677.5000     0.7608     0.8829
  678.0000     0.7611     0.8886
  678.5000     0.7615     1.0074
  679.0000     0.7617     1.0899
  679.5000     0.8375     1.0956
  680.0000     0.8755     1.1013
  680.5000     0.8758     1.1070
  681.0000     0.8760     1.1127
  681.5000     0.8763     1.1184
  682.0000     0.8766     1.1241
  682.5000     0.8769     1.1297
  683.0000     0.8772     1.1354
  683.5000     0.8775     1.1410
  684.0000     0.8777     1.1395
  684.5000     0.8780     1.1381
  685.0000     0.8783     1.1367
  685.5000     0.8786     1.1353
  686.0000     0.8789     1.1338
  686.5000     0.8792     1.1324
  687.0000     0.8794     1.1310
  687.5000     0.8797     1.1296
  688.0000     0.8800     1.1281
  688.5000     0.8803     1.1267
  689.0000     0.8146     1.1253
  689.5000     0.8148     1.1238
  690.0000     0.8151     1.1224
  690.5000     0.8154     1.1210
  691.0000     0.9006     1.1196
  691.5000     0.9103     1.1181
  692.0000     0.7029     1.1167
  692.5000     0.6939     1.1153
  693.0000     0.7036     1.1139
  693.5000     0.7133     1.1124
  694.0000     0.7124     1.1110
  694.5000     0.7116     1.1096
  695.0000     0.7108     1.1081
  695.5000     0.7100     1.1067
  696.0000     0.7092     1.1053
  696.5000     0.7084     1.1039
  697.0000     0.7076     1.1024
  697.5000     0.7068     1.1010
  698.0000     0.7060     1.0996
  698.5000     0.7052     1.0981
  699.0000     0.7044     1.0967
  699.5000     0.7036     1.0953
  700.0000     0.7029     1.0939
  700.5000     0.7021     1.0924
  701.0000     0.7013     1.0910
  701.5000     0.7005     1.0896
  702.0000     0.6997     1.0882
  702.5000     0.6945     1.0867
  703.0000     0.6844     1.0853
  703.5000     0.6849     1.0839
  704.0000     0.6852     1.0824
  704.5000     0.6856     1.0810
  705.0000     0.6860     1.0796
  705.5000     0.6864     1.0782
  706.0000     0.6868     1.0767
  706.5000     0.6872     1.0753
  707.0000     0.6875     1.0739
  707.5000     0.6879     1.0725
  708.0000     0.6883     1.0710
  708.5000     0.6886     1.0696
  709.0000     0.6890     1.0682
  709.5000     0.6894     1.0667
  710.0000     0.6897     1.0653
  710.5000     0.6901     1.0639
  711.0000     0.6905     1.0625
  711.5000     0.6908     1.0610
  712.0000     0.6912     1.0596
  712.5000     0.6917     1.0582
  713.0000     0.6920     1.0567
  713.5000     0.6924     1.0553
  714.0000     0.6928     1.0539
  714.5000     0.6931     1.0525
  715.0000     0.6935     1.0510
  715.5000     0.6939     1.0496
  716.0000     0.8718     1.0482
  716.5000     1.0871     1.0468
  717.0000     1.0875     1.0453
  717.5000     1.0879     1.0439
  718.0000     1.0882     1.0425
  718.5000     1.2101     1.0410
  719.0000     1.2105     1.0396
  719.5000     1.2109     1.0382
  720.0000     1.2113     1.0368
  720.5000     1.3238     1.0353
  721.0000     1.3242     1.0339
  721.5000     1.3245     1.0325
  722.0000     1.3249     1.0310
  722.5000     0.7832     1.0296
  723.0000     0.7555     1.0282
  723.5000     0.7560     1.0268
  724.0000     0.7563     1.0253
  724.5000     0.7286     1.0239
  725.0000     0.9907     1.0225
  725.5000     0.9910     1.0211
  726.0000     0.9914     1.0196
  726.5000     0.9918     1.0182
  727.0000     0.9921     1.0168
  727.5000     0.9926     1.0153
  728.0000     0.9930     1.0139
  728.5000     0.9933     1.0125
  729.0000     0.9937     1.0111
  729.5000     0.9941     1.0096
  730.0000     0.9944     1.0082
  730.5000     0.6302     1.0068
  731.0000     0.6307     1.0054
  731.5000     0.6310     1.0039
  732.0000     0.6314     1.0025
  732.5000     0.6318     1.0011
  733.0000     0.6321     0.9996
  733.5000     0.6325     0.9982
  734.0000     0.6330     0.9968
  734.5000     0.6427     0.9954
  735.0000     0.6430     0.9939
  735.5000     0.6434     0.9925
  736.0000     0.6438     0.9911
  736.5000     0.8124     0.9896
  737.0000     0.8127     0.9882
  737.5000     0.8131     0.9868
  738.0000     0.8228     0.9854
  738.5000     0.8232     0.9839
  739.0000     0.5432     0.9825
  739.5000     0.5436     0.9811
  740.0000     0.5533     0.9797
  740.5000     0.5443     0.9782
  741.0000     0.5447     0.9768
  741.5000     0.5451     0.9754
  742.0000     0.5454     0.9739
  742.5000     0.5458     0.9725
  743.0000     0.5462     0.9711
  743.5000     0.5465     0.9697
  744.0000     0.5469     0.9682
  744.5000     0.5473     0.9668
  745.0000     0.5477     0.9654
  745.5000     0.5481     0.9640
  746.0000     0.5485     0.9625
  746.5000     0.5488     0.9611
  747.0000     0.5492     0.9597
  747.5000     0.5496     0.9582
  748.0000     0.5499     0.9568
  748.5000     0.5503     0.9554
  749.0000     0.5507     0.9540
  749.5000     0.5511     0.9525
  750.0000     0.5420     0.9511
  750.5000     0.5424     0.9497
  751.0000     0.5426     0.9515
  751.5000     0.5429     0.9542
  752.0000     0.5432     0.9569
  752.5000     0.5435     0.9596
  753.0000     0.5438     0.9623
  753.5000     0.5441     0.9650
  754.0000     0.5443     0.9677
  754.5000     0.8250     0.9705
  755.0000     0.8346     0.9732
  755.5000     0.8349     0.9759
  756.0000     0.8351     0.9786
  756.5000     0.8355     0.9813
  757.0000     0.8357     0.9840
  757.5000     0.8360     0.9867
  758.0000     0.8363     0.9894
  758.5000     0.8366     0.9921
  759.0000     0.8368     0.9948
  759.5000     0.8371     0.9975
  760.0000     0.8374     1.0002
  760.5000     0.8377     1.0030
  761.0000     0.8380     1.0057
  761.5000     0.8383     1.0084
  762.0000     0.8385     1.0111
  762.5000     0.8295     1.0138
  763.0000     0.8297     1.0165
  763.5000     0.8300     1.0192
  764.0000     0.8396     1.0219
  764.5000     0.8399     1.0246
  765.0000     0.8402     1.0273
  765.5000     0.8405     1.0300
  766.0000     0.8408     1.0328
  766.5000     0.8411     1.0355
  767.0000     0.8413     1.0382
  767.5000     0.8416     1.0409
  768.0000     0.8419     1.0436
  768.5000     0.8422     1.0463
  769.0000     0.8424     1.0490
  769.5000     0.8428     1.0517
  770.0000     0.8430     1.0544
  770.5000     0.8433     1.0571
  771.0000     0.8436     1.0598
  771.5000     0.8439     1.0625
  772.0000     0.8441     1.0653
  772.5000     0.8444     1.0680
  773.0000     0.8447     1.0707
  773.5000     0.8450     1.0734
  774.0000     0.8453     1.0761
  774.5000     0.8456     1.0788
  775.0000     0.8458     1.0815
  775.5000     0.8742     1.0842
  776.0000     0.8744     1.0869
  776.5000     0.8747     1.0896
  777.0000     0.8750     1.0923
  777.5000     0.8753     1.0951
  778.0000     0.8755     1.0978
  778.5000     0.8758     1.1005
  779.0000     0.8761     1.1032
  779.5000     0.8764     1.1059
  780.0000     0.8767     1.1086
  780.5000     0.8770     1.1113
  781.0000     0.8772     1.1140
  781.5000     0.8775     1.1167
  782.0000     0.8778     1.1194
  782.5000     0.8780     1.1221
  783.0000     0.8783     1.1248
  783.5000     0.8786     1.1276
  784.0000     0.8789     1.1303
  784.5000     0.8792     1.1330
  785.0000     0.8795     1.1357
  785.5000     0.8797     1.1384
  786.0000     0.7492     1.1323
  786.5000     0.6934     1.1222
  787.0000     0.6936     1.1121
  787.5000     0.6939     1.1020
  788.0000     0.6943     1.0919
  788.5000     0.6945     1.0818
