~VERSION INFORMATION
 VERS.                2.0:   CWLS LOG ASCII STANDARD - VERSION 2.0
 WRAP.                 NO:   ONE LINE PER DEPTH STEP
~WELL INFORMATION
#MNEM.UNIT      DATA TYPE    INFORMATION
#----------   ------------   ------------------------------
 STRT.F            3.0000:   START DEPTH
 STOP.F          423.0000:   STOP DEPTH
 STEP.F            0.5000:   STEP LENGTH
 NULL.          -999.2500:   NO VALUE
 COMP. LAWRENCE/ALLISON INC:   COMPANY
 WELL.    53-62 STX #3-10:   WELL
 FLD .             TEAPOT:   FIELD
 LOC .      S10 T38N R78W:   LOCATION
 CNTY.            NATRONA:   COUNTY
 STAT.            WYOMING:   STATE
 CTRY. UNITED STATES OF AMERICA:   COUNTRY
 SRVC.           Gearhart:   SERVICE COMPANY
 DATE.        31-MAY-1988:   LOGDATE
 API .       490251122700:   API NUMBER
~CURVE INFORMATION
#MNEM.UNIT       API CODE    CURVE DESCRIPTION
#----------   ------------   ------------------------------
 DEPT.F                  :   
 GRR .GAPI   07 310 01 00:   GAMMA RAY
 RILD.OHMM   07 120 46 00:   INDUCTION LOG DEEP RESISTIVITY
 RILM.OHMM   07 120 44 00:   INDUCTION LOG MEDIUM RESISTIVITY
~PARAMETER INFORMATION
#MNEM.UNIT          VALUE    DESCRIPTION
#----------   ------------   ------------------------------
 PD  .                 GL:   PERMANENT DATUM
 EPD .F              5164:   ELEVATION PERMANENT DATUM
 LMF .                 KB:   LOG MEASURED FROM
 DAPD.F                10:   FEET ABOVE PERMANENT DATUM
 DMF .                 KB:   DRILLING MEASURED FROM
 EKB .F              5174:   KELLING BUSHING
 EGL .F              5164:   GROUND LEVEL
 DATE.        31-MAY-1988:   RUN DATE
 RUN .                  1:   RUN NUMBER
 DD  .F               435:   DEPTH DRILLER
 DL  .F             431.5:   DEPTH LOGGER
 BLI .F               423:   BOTTOM LOG INTERVAL
 CS  .IN            8.625:   CASING SIZE
 CBD .F                49:   CASING BOTTOM DRILLER
 CBL .F                49:   CASING BOTTOM LOGGER
 BS  .IN            7.875:   BIT SIZE
 BSD .F               435:   BIT SIZE AT DEPTH
 DFT .                AIR:   DRILLING FLUID TYPE
 TLAB.HRS            0330:   TIME LOGGER AT BOTTOM
 MRT .F                70:   MAXIMUM RECORDED TEMPERATURE
 LUN .               7597:   LOGGING UNIT NUMBER
 LUL .           GILLETTE:   LOGGING UNIT LOCATION
 ENGI.          HUCKFELDT:   RECORDING ENGINEER
 WITN.             STRONG:   WITNESSED BY
 CLNT.            A2DTECH:   CLIENT CODE
 ORIG.           5" PRINT:   ORIGIN OF DATA
 UWI .       490251122700:   UNIQUE WELL ID
 DICO. A2D Technologies, Inc.:   DIGITIZING COMPANY
~OTHER INFORMATION
~A    DEPT      GRR      RILD       RILM   
    3.0000    21.6504  -999.2500  -999.2500
    3.5000    21.3505  -999.2500  -999.2500
    4.0000    21.0521  -999.2500  -999.2500
    4.5000    20.1464  -999.2500  -999.2500
    5.0000    18.8536  -999.2500  -999.2500
    5.5000    22.8981  -999.2500  -999.2500
    6.0000    26.2527  -999.2500  -999.2500
    6.5000    29.9199  -999.2500  -999.2500
    7.0000    31.1598  -999.2500  -999.2500
    7.5000    31.7504  -999.2500  -999.2500
    8.0000    31.1474  -999.2500  -999.2500
    8.5000    30.2416  -999.2500  -999.2500
    9.0000    29.3344  -999.2500  -999.2500
    9.5000    29.3404  -999.2500  -999.2500
   10.0000    30.8685  -999.2500  -999.2500
   10.5000    35.4407  -999.2500  -999.2500
   11.0000    40.3173  -999.2500  -999.2500
   11.5000    46.1072  -999.2500  -999.2500
   12.0000    50.9838  -999.2500  -999.2500
   12.5000    53.1207  -999.2500  -999.2500
   13.0000    54.3444  -999.2500  -999.2500
   13.5000    55.8725  -999.2500  -999.2500
   14.0000    57.7050  -999.2500  -999.2500
   14.5000    59.2331  -999.2500  -999.2500
   15.0000    58.9347  -999.2500  -999.2500
   15.5000    56.5053  -999.2500  -999.2500
   16.0000    54.9773  -999.2500  -999.2500
   16.5000    53.7776  -999.2500  -999.2500
   17.0000    53.1304  -999.2500  -999.2500
   17.5000    52.5720  -999.2500  -999.2500
   18.0000    51.9692  -999.2500  -999.2500
   18.5000    51.9767  -999.2500  -999.2500
   19.0000    54.4180  -999.2500  -999.2500
   19.5000    57.7726  -999.2500  -999.2500
   20.0000    59.6051  -999.2500  -999.2500
   20.5000    62.3508  -999.2500  -999.2500
   21.0000    64.7921  -999.2500  -999.2500
   21.5000    67.8423  -999.2500  -999.2500
   22.0000    70.8924  -999.2500  -999.2500
   22.5000    72.4190  -999.2500  -999.2500
   23.0000    69.0779  -999.2500  -999.2500
   23.5000    67.8661  -999.2500  -999.2500
   24.0000    68.4811  -999.2500  -999.2500
   24.5000    70.0092  -999.2500  -999.2500
   25.0000    69.7108  -999.2500  -999.2500
   25.5000    70.3582  -999.2500  -999.2500
   26.0000    70.9407  -999.2500  -999.2500
   26.5000    71.6042  -999.2500  -999.2500
   27.0000    70.6496  -999.2500  -999.2500
   27.5000    71.2644  -999.2500  -999.2500
   28.0000    72.4881  -999.2500  -999.2500
   28.5000    74.0147  -999.2500  -999.2500
   29.0000    71.5869  -999.2500  -999.2500
   29.5000    69.7664  -999.2500  -999.2500
   30.0000    68.8577  -999.2500  -999.2500
   30.5000    72.2137  -999.2500  -999.2500
   31.0000    73.7418  -999.2500  -999.2500
   31.5000    73.7478  -999.2500  -999.2500
   32.0000    72.8406  -999.2500  -999.2500
   32.5000    70.7157  -999.2500  -999.2500
   33.0000    69.7635  -999.2500  -999.2500
   33.5000    72.2498  -999.2500  -999.2500
   34.0000    70.7337  -999.2500  -999.2500
   34.5000    68.9132  -999.2500  -999.2500
   35.0000    68.3104  -999.2500  -999.2500
   35.5000    68.3166  -999.2500  -999.2500
   36.0000    68.6271  -999.2500  -999.2500
   36.5000    69.5476  -999.2500  -999.2500
   37.0000    69.8580  -999.2500  -999.2500
   37.5000    70.7773  -999.2500  -999.2500
   38.0000    72.3053  -999.2500  -999.2500
   38.5000    73.5290  -999.2500  -999.2500
   39.0000    74.1438  -999.2500  -999.2500
   39.5000    72.9322  -999.2500  -999.2500
   40.0000    71.7205  -999.2500  -999.2500
   40.5000    70.2045  -999.2500  -999.2500
   41.0000    68.9928  -999.2500  -999.2500
   41.5000    68.6929  -999.2500  -999.2500
   42.0000    69.9181  -999.2500  -999.2500
   42.5000    70.8373  -999.2500  -999.2500
   43.0000    69.9301  -999.2500  -999.2500
   43.5000    69.6317  -999.2500  -999.2500
   44.0000    69.6377  -999.2500  -999.2500
   44.5000    69.9482  -999.2500  -999.2500
   45.0000    69.6497  -999.2500  -999.2500
   45.5000    69.3513  -999.2500  -999.2500
   46.0000    69.9677  -999.2500  -999.2500
   46.5000    70.5825  -999.2500  -999.2500
   47.0000    71.5017  -999.2500  -999.2500
   47.5000    73.0298  -999.2500  -999.2500
   48.0000    78.8197  -999.2500  -999.2500
   48.5000    84.9140  -999.2500  -999.2500
   49.0000    92.5303    19.2601   310.9243
   49.5000   105.9306     6.8558   414.1899
   50.0000   113.8513     2.2092   202.8192
   50.5000   115.9882     2.1331     3.8765
   51.0000   116.9075     3.1097     3.4514
   51.5000   116.9135     7.8862     3.8149
   52.0000   116.3107    21.0599     5.6626
   52.5000   115.4035    25.2492     7.8238
   53.0000   113.2786    17.9290    10.9460
   53.5000   110.5086    12.4677    13.1287
   54.0000   108.3633    11.3838    20.4018
   54.5000   106.5995    11.7042    17.9838
   55.0000   105.3893    12.1180    15.3078
   55.5000   104.4821    12.6343    13.3064
   56.0000   104.1822    13.8325    11.6480
   56.5000   104.4941    14.9343    10.7834
   57.0000   105.4134    16.1238    10.6324
   57.5000   107.5503    15.7869    11.8073
   58.0000   110.2960    14.1156    12.5732
   58.5000   113.6506    13.3464    12.6602
   59.0000   115.7875    12.8862    12.2227
   59.5000   114.5758    12.6169    12.0511
   60.0000   112.1465    12.3532    12.0494
   60.5000   110.9349    12.1798    11.9638
   61.0000   110.9409    12.0929    11.7958
   61.5000   110.9469    11.9231    11.6303
   62.0000   110.6485    11.9206    11.6286
   62.5000   109.7412    11.8356    11.7087
   63.0000   108.4971    11.7513    11.7070
   63.5000   107.6224    11.8321    11.7054
   64.0000   108.6391    11.8295    11.7860
   64.5000   110.0712    11.8275    12.0344
   65.0000   110.3816    11.8254    12.2024
   65.5000   109.4744    11.8234    12.1152
   66.0000   106.4362    11.7391    11.5344
   66.5000   103.7025    11.6554    11.2144
   67.0000   102.4894    11.5723    11.1346
   67.5000   104.3234    11.4099    11.0554
   68.0000   107.9824    11.2497    11.1315
   68.5000   109.8148    11.0917    10.8227
   69.0000   109.8209    10.9360    10.5964
   69.5000   109.8269    10.8581    10.5210
   70.0000   109.8329    10.7806    10.4462
   70.5000   110.1433    10.7000    10.3719
   71.0000   110.1493    10.6274    10.2982
   71.5000   108.9377    10.6255    10.2249
   72.0000   108.3309    10.5953    10.2235
   72.5000   108.3612    10.5177    10.2221
   73.0000   108.9557    10.5141    10.2207
   73.5000   107.9431    10.5104    10.2193
   74.0000   105.0118    10.5068    10.2178
   74.5000   106.2355    10.5032    10.2164
   75.0000   108.3724    10.4995    10.2150
   75.5000   108.9872    10.4959    10.1424
   76.0000   109.2976    10.4923    10.2122
   76.5000   108.6948    10.4886    10.2104
   77.0000   107.7876    10.4850    10.2090
   77.5000   107.1848    10.4814    10.2076
   78.0000   106.2775    10.4777    10.2062
   78.5000   105.6732    10.4741    10.2048
   79.0000   104.7675    10.4705    10.2034
   79.5000   103.8603    10.4668    10.2019
   80.0000   102.6484    10.3804    10.1294
   80.5000   103.8723    10.2291    10.0574
   81.0000   105.0959     9.8854     9.7783
   81.5000   107.2491     9.5419     9.3749
   82.0000   110.3320     9.2103     8.9255
   82.5000   112.1562     8.8903     8.6779
   83.0000   113.7007     8.7024     8.4964
   83.5000   115.1731     8.5185     8.3771
   84.0000   116.0924     8.4561     8.3176
   84.5000   115.4896     8.4532     8.3748
   85.0000   111.8426     8.5104     8.4917
   85.5000   110.6310     8.5672     8.6148
   86.0000   107.5928     8.7454     8.7917
   86.5000   106.9885     8.9280     8.9144
   87.0000   107.9093     8.8626     8.8507
   87.5000   108.2197     8.7977     8.7264
   88.0000   108.8345     8.6723     8.6039
   88.5000   109.7538     8.5487     8.4832
   89.0000   110.6730     8.3681     8.3058
   89.5000   111.5923     8.1912     8.1321
   90.0000   112.8159     8.1884     8.0742
   90.5000   114.9528     8.3727     8.3023
   91.0000   116.1765     9.0461     8.6572
   91.5000   114.6038     9.5418     9.0906
   92.0000   111.8376     9.7411     9.4791
   92.5000   111.0195     9.8070     9.6118
   93.0000   111.6358     9.7343     9.5431
   93.5000   112.2507     9.6630     9.5418
