~VERSION INFORMATION
 VERS.                2.0:   CWLS LOG ASCII STANDARD - VERSION 2.0
 WRAP.                 NO:   ONE LINE PER DEPTH STEP
~WELL INFORMATION
#MNEM.UNIT      DATA TYPE    INFORMATION
#----------   ------------   ------------------------------
 STRT.F           19.0000:   START DEPTH
 STOP.F          600.0000:   STOP DEPTH
 STEP.F            0.5000:   STEP LENGTH
 NULL.          -999.2500:   NO VALUE
 COMP. FENIX & SCISSON INC:   COMPANY
 WELL.       NPR-3 #18-34:   WELL
 FLD .             TEAPOT:   FIELD
 LOC .      S34 T39N R78W:   LOCATION
 CNTY.            NATRONA:   COUNTY
 STAT.            WYOMING:   STATE
 CTRY. UNITED STATES OF AMERICA:   COUNTRY
 SRVC.           BIRDWELL:   SERVICE COMPANY
 DATE.        10-AUG-1978:   LOGDATE
 API .       490251068100:   API NUMBER
~CURVE INFORMATION
#MNEM.UNIT       API CODE    CURVE DESCRIPTION
#----------   ------------   ------------------------------
 DEPT.F                  :   
 SPR .MV     05 010 01 00:   SPONTANEOUS POTENTIAL FROM RES.
 SN  .OHMM   05 040 16 00:   SHORT NORMAL 16"
 ILD .OHMM   05 120 46 00:   INDUCTION LOG DEEP
 GRD .GAPI   45 310 01 00:   GAMMA RAY FROM DENSITY LOG
 CALD.IN     45 280 60 00:   CALIPER
 CORR.G/C3   45 356 01 00:   DENSITY CORRECTION
 DPHI.DEC    45 890 12 00:   DENSITY POROSITY SANDSTONE
 DEN .G/C3   45 350 01 00:   COMPENSATED BULK DENSTIY
~PARAMETER INFORMATION
#MNEM.UNIT          VALUE    DESCRIPTION
#----------   ------------   ------------------------------
 PD  .                 GL:   PERMANENT DATUM
 EPD .F              5159:   ELEVATION PERMANENT DATUM
 LMF .                 KB:   LOG MEASURED FROM
 DAPD.F                 4:   FEET ABOVE PERMANENT DATUM
 DMF .                 KB:   DRILLING MEASURED FROM
 EKB .F              5163:   KELLING BUSHING
 EGL .F              5159:   GROUND LEVEL
 DATE.            8-10-78:   RUN DATE
 RUN .                  1:   RUN NUMBER
 DD  .F               605:   DEPTH DRILLER
 DL  .F               606:   DEPTH LOGGER
 BLI .F               600:   BOTTOM LOG INTERVAL
 TLI .F                35:   TOP LOG INTERVAL
 CS  .IN            8.625:   CASING SIZE
 CBD .F                40:   CASING BOTTOM DRILLER
 BS  .IN            7.875:   BIT SIZE
 BSD .F               605:   BIT SIZE AT DEPTH
 DFT .                KCL:   DRILLING FLUID TYPE
 DFD .                8.7:   DRILLING FLUID DENSITY
 DFV .                 33:   DRILLING FLUID VISCOSITY
 DFPH.                  9:   DRILLING FLUID PH
 MSS .          FLOW LINE:   MUD SAMPLE SOURCE
 RMS .OHMM            .14:   RESISTIVITY MUD SAMPLE
 MST .F                88:   MUD SAMPLE TEMPERATURE
 MFSS.               MEAS:   MUD FILTRATE SAMPLE SOURCE
 MCSS.               MEAS:   MUD CAKE SAMPLE SOURCE
 TCS .HRS               1:   TIME CURCULATED STOPPED
 LUN .               3006:   LOGGING UNIT NUMBER
 LUL .               CASP:   LOGGING UNIT LOCATION
 ENGI.             MILLER:   RECORDING ENGINEER
 WITN.           MCGINLEY:   WITNESSED BY
 CLNT.            A2DTECH:   CLIENT CODE
 ORIG.           5" PRINT:   ORIGIN OF DATA
 UWI .       490251068100:   UNIQUE WELL ID
 DICO. A2D Technologies, Inc.:   DIGITIZING COMPANY
~OTHER INFORMATION
~A   DEPT      SPR         SN        ILD         GRD      CALD       CORR       DPHI        DEN   
# ...
  302.5000   -42.5954     3.5713     2.7311    89.2599     8.1587     0.0467     0.2783     2.2256
  303.0000   -42.1959     3.4222     2.6909    89.5386     8.1620     0.0655     0.2500     2.2569
  303.5000   -42.1027     3.3234     2.6909    87.6841     8.1621     0.0792     0.2242     2.2993
  304.0000   -42.0320     3.3255     2.6909    86.9481     8.1150     0.0622     0.2000     2.3588
  304.5000   -41.4412     3.3251     2.6909    90.4683     8.0656     0.0394     0.1795     2.3857
  305.0000   -41.2988     3.4371     2.7208    97.4018     8.0459     0.0426     0.1589     2.3952
  305.5000   -41.0396     3.6305     2.9836   106.1548     8.1028     0.0608     0.1433     2.4365
  306.0000   -40.1897     3.9054     3.2905   114.9892     8.0126     0.0469     0.1298     2.4452
  306.5000   -39.3401     4.2238     3.6729   115.2309     8.0131     0.0319     0.1278     2.4643
  307.0000   -39.2662     4.4383     4.0996   110.3982     8.0077     0.0296     0.1252     2.4676
  307.5000   -39.1830     4.6821     4.4142   104.4105     8.0007     0.0271     0.1251     2.4677
  308.0000   -39.0972     4.9392     4.6895   102.8402     7.9939     0.0246     0.1269     2.4676
  308.5000   -39.0095     5.2105     4.9820   105.9634     7.9871     0.0217     0.1269     2.4676
  309.0000   -38.9149     5.5139     5.2287   111.7565     7.9802     0.0188     0.1262     2.4676
  309.5000   -39.1226     5.5823     5.3169   111.8804     7.9734     0.0158     0.1253     2.4677
  310.0000   -39.4312     5.6697     5.3172   104.2956     7.9668     0.0149     0.1301     2.4632
  310.5000   -39.5254     5.6598     5.2990    99.6926     7.9679     0.0149     0.1329     2.4594
  311.0000   -39.5619     5.6468     5.2837   102.4302     7.9858     0.0149     0.1289     2.4549
  311.5000   -39.5965     5.6333     5.2676   103.9774     8.0035     0.0111     0.1279     2.4504
  312.0000   -39.6315     5.6200     5.2023   105.7434     8.0213     0.0035     0.1441     2.4458
  312.5000   -39.6667     5.6067     5.1343   110.5551     8.0293    -0.0041     0.1563     2.4332
  313.0000   -39.7018     5.5935     5.0524   114.3020     8.0366    -0.0110     0.1686     2.4134
  313.5000   -39.7370     5.5803     4.8906   110.5306     8.0290    -0.0110     0.1809     2.3921
  314.0000   -39.7721     5.5665     4.7341   106.6155     7.9909    -0.0094     0.1864     2.3712
  314.5000   -39.8073     5.3901     4.5823   107.9404     7.9537     0.0048     0.1794     2.3688
  315.0000   -39.8428     5.2116     4.5266   110.2294     7.9345     0.0151     0.1709     2.3889
  315.5000   -39.8777     5.0389     4.4926   111.3533     8.0184     0.0149     0.1689     2.3994
  316.0000   -39.8982     4.8720     4.4180   106.7799     8.0293     0.0150     0.1619     2.4143
  316.5000   -39.7509     4.6722     4.3420   101.8978     8.0360     0.0149     0.1528     2.4246
  317.0000   -39.3271     4.6859     4.4129    99.3560     8.0430     0.0120     0.1461     2.4321
  317.5000   -38.9147     4.7075     4.4875    98.2992     8.0502     0.0086     0.1450     2.4408
  318.0000   -38.8551     4.8185     4.5369   100.2234     8.0572     0.0053     0.1439     2.4427
  318.5000   -38.8136     5.0017     4.7113   104.7791     8.0605     0.0029     0.1428     2.4438
  319.0000   -38.7706     5.1919     4.9335   113.0749     8.0567     0.0022     0.1417     2.4453
  319.5000   -38.7271     5.3893     5.1663   114.8184     8.0530     0.0014     0.1368     2.4502
  320.0000   -38.6801     5.5565     5.3211   108.4327     8.0493     0.0006     0.1321     2.4545
  320.5000   -38.6272     5.6659     5.4549   106.3110     8.0455    -0.0002     0.1342     2.4531
  321.0000   -38.5747     5.7775     5.5804   107.6732     8.0422    -0.0009     0.1404     2.4508
  321.5000   -38.5208     5.8913     5.6566   109.9409     8.0510     0.0029     0.1402     2.4497
  322.0000   -38.5628     6.0073     5.7338   112.1828     8.0604     0.0073     0.1359     2.4505
  322.5000   -38.6673     6.1030     5.8121   114.0650     8.0697     0.0116     0.1299     2.4576
  323.0000   -38.7728     6.0839     5.8614   112.6661     8.0791     0.0150     0.1269     2.4627
  323.5000   -38.8786     6.0680     5.9031   110.4330     8.0884     0.0149     0.1311     2.4607
  324.0000   -38.9796     6.0520     5.9371   108.5484     8.0980     0.0149     0.1371     2.4567
  324.5000   -39.0798     6.0360     5.8768   108.3982     8.0944     0.0149     0.1364     2.4536
  325.0000   -39.1804     6.0202     5.8067   108.2148     8.0828     0.0150     0.1341     2.4537
  325.5000   -39.2835     6.0043     5.6958   108.3196     8.0711     0.0179     0.1363     2.4537
  326.0000   -39.2497     5.9805     5.5875   111.0979     8.0624     0.0213     0.1308     2.4570
  326.5000   -39.1876     5.9256     5.5665   113.4631     8.0677     0.0246     0.1287     2.4598
  327.0000   -39.1241     5.8713     5.5665   112.9390     8.0728     0.0269     0.1332     2.4569
  327.5000   -39.1004     5.7970     5.4680   110.4472     8.0777     0.0233     0.1360     2.4531
  328.0000   -39.0999     5.6486     5.3099   107.1148     8.0791     0.0153     0.1461     2.4375
  328.5000   -39.1000     5.5041     5.1330   107.8892     8.0644     0.0069     0.1589     2.4294
  329.0000   -39.1000     5.3632     4.9301   108.4341     8.0502     0.0009     0.1716     2.4056
  329.5000   -39.1000     5.2259     4.7352   108.5723     8.0467     0.0015     0.1833     2.3835
  330.0000   -39.1000     5.0921     4.5885   108.9795     8.0725     0.0054     0.1827     2.3768
  330.5000   -39.1000     4.9390     4.6677   109.5574     8.2510     0.0266     0.1661     2.3771
  331.0000   -39.1007     4.9624     4.7336   106.9535     8.5139     0.0268     0.1529     2.4234
  331.5000   -39.1046     4.9911     4.8004   103.3447     7.9928     0.0238     0.1438     2.4329
  332.0000   -38.9258     5.0200     4.8684   103.4124     8.0121     0.0240     0.1351     2.4601
  332.5000   -38.7150     5.1482     4.9396   106.4464     8.0052     0.0262     0.1264     2.4667
  333.0000   -38.5026     5.4326     5.0966   109.8522     8.0068     0.0285     0.1182     2.4799
  333.5000   -38.3052     5.7328     5.3661   113.2851     8.0140     0.0306     0.1153     2.4825
  334.0000   -38.3175     6.0510     5.6498   113.9831     8.0214     0.0289     0.1137     2.4849
  334.5000   -38.3368     6.1367     5.9369   114.3545     8.0288     0.0267     0.1174     2.4838
  335.0000   -38.3553     6.1776     6.0028   114.6251     8.0362     0.0245     0.1172     2.4816
  335.5000   -38.3735     6.2181     6.0824   113.5619     8.0415     0.0226     0.1167     2.4818
  336.0000   -38.3917     6.2592     6.1594   112.2327     8.0392     0.0218     0.1165     2.4820
  336.5000   -38.4099     6.3030     6.1656   109.8793     8.0371     0.0210     0.1165     2.4823
  337.0000   -38.4282     6.3486     6.1715   105.9394     8.0350     0.0236     0.1162     2.4829
  337.5000   -38.4464     6.3945     6.1775   102.3117     8.0329     0.0266     0.1124     2.4866
  338.0000   -38.4647     6.4407     6.1834   102.1963     8.0308     0.0249     0.1098     2.4902
  338.5000   -38.4831     6.4873     6.1894   103.9281     8.0287     0.0229     0.1112     2.4912
  339.0000   -38.4982     6.5342     6.1953   106.3822     8.0266     0.0220     0.1121     2.4919
  339.5000   -38.4632     6.5692     6.2013   107.4084     8.0245     0.0211     0.1148     2.4909
  340.0000   -38.4278     6.5577     6.2072   106.8330     8.0224     0.0162     0.1211     2.4761
  340.5000   -38.3926     6.5485     6.2130   106.9275     8.0203     0.0097     0.1274     2.4624
  341.0000   -38.3574     6.5394     6.2161   107.1315     8.0182     0.0069     0.1337     2.4587
  341.5000   -38.3223     6.5303     6.1884   107.2215     8.0161     0.0050     0.1381     2.4526
  342.0000   -38.2871     6.5212     6.1695   106.5665     8.0140     0.0063     0.1356     2.4528
  342.5000   -38.2519     6.5119     6.1506   103.8630     8.0119     0.0078     0.1320     2.4530
