~VERSION INFORMATION
 VERS.                2.0:   CWLS LOG ASCII STANDARD - VERSION 2.0
 WRAP.                 NO:   ONE LINE PER DEPTH STEP
~WELL INFORMATION
#MNEM.UNIT      DATA TYPE    INFORMATION
#----------   ------------   ------------------------------
 STRT.F            2.0000:   START DEPTH
 STOP.F          500.0000:   STOP DEPTH
 STEP.F            0.1000:   STEP LENGTH
 NULL.          -999.2500:   NO VALUE
 COMP.   FLUOR DANIEL INC:   COMPANY
 WELL.   73-5 X 10 #73-10:   WELL
 FLD .             TEAPOT:   FIELD
 LOC .      S10 T38N R78W:   LOCATION
 CNTY.            NATRONA:   COUNTY
 STAT.            WYOMING:   STATE
 CTRY. UNITED STATES OF AMERICA:   COUNTRY
 SRVC.      Western Atlas:   SERVICE COMPANY
 DATE.        07-JUN-1995:   LOGDATE
 API .       490252271400:   API NUMBER
~CURVE INFORMATION
#MNEM.UNIT       API CODE    CURVE DESCRIPTION
#----------   ------------   ------------------------------
 DEPT.F                  :   
 GRR .GAPI   07 310 01 00:   GAMMA RAY
 RILD.OHMM   07 120 46 00:   INDUCTION LOG DEEP RESISTIVITY
 RILM.OHMM   07 120 44 00:   RESITIVITY LONG MEDIUM
~PARAMETER INFORMATION
#MNEM.UNIT          VALUE    DESCRIPTION
#----------   ------------   ------------------------------
 PD  .                 GL:   PERMANENT DATUM
 EPD .F              5175:   ELEVATION PERMANENT DATUM
 LMF .                 KB:   LOG MEASURED FROM
 DAPD.F                10:   FEET ABOVE PERMANENT DATUM
 DMF .                 KB:   DRILLING MEASURED FROM
 EKB .F              5185:   KELLING BUSHING
 EDF .F              5184:   DRILLING FLOOR
 EGL .F              5175:   GROUND LEVEL
 DATE.        07-JUN-1995:   RUN DATE
 RUN .                  1:   RUN NUMBER
 DD  .F               511:   DEPTH DRILLER
 DL  .F               508:   DEPTH LOGGER
 BLI .F               500:   BOTTOM LOG INTERVAL
 TLI .F                96:   TOP LOG INTERVAL
 CS  .IN            9.625:   CASING SIZE
 CBD .F                96:   CASING BOTTOM DRILLER
 CBL .F                96:   CASING BOTTOM LOGGER
 BS  .IN             8.75:   BIT SIZE
 BSD .F               511:   BIT SIZE AT DEPTH
 DFT .                AIR:   DRILLING FLUID TYPE
 MRT .F               116:   MAXIMUM RECORDED TEMPERATURE
 LUN .            HL 6530:   LOGGING UNIT NUMBER
 LUL .             CASPER:   LOGGING UNIT LOCATION
 ENGI.        VERN RAUTIO:   RECORDING ENGINEER
 WITN.        GARY STRONG:   WITNESSED BY
 CLNT.            A2DTECH:   CLIENT CODE
 ORIG.           5" PRINT:   ORIGIN OF DATA
 UWI .       490252271400:   UNIQUE WELL ID
 DICO. A2D Technologies, Inc.:   DIGITIZING COMPANY
~OTHER INFORMATION
~A    DEPT       GRR     RILD       RILM   
# ...
  402.4000    94.6249    15.9372    15.7525
  402.5000    95.2111    15.8563    15.7344
  402.6000    95.6160    15.8563    15.6438
  402.7000    95.9636    15.8563    15.6438
  402.8000    96.2120    15.7979    15.6438
  402.9000    96.4205    15.7468    15.5956
  403.0000    96.4218    15.7287    15.5360
  403.1000    96.4229    15.6381    15.5267
  403.2000    96.2450    15.5517    15.4288
  403.3000    95.8739    15.4639    15.4288
  403.4000    95.3097    15.4228    15.3707
  403.5000    94.5523    15.3962    15.3224
  403.6000    93.4170    15.3092    15.3027
  403.7000    92.7874    15.2105    15.2168
  403.8000    92.2032    15.1370    15.2168
  403.9000    91.9145    15.0516    15.1489
  404.0000    91.9157    14.9666    15.1118
  404.1000    91.9169    14.8821    15.0819
  404.2000    91.9181    14.7946    15.0076
  404.3000    91.9193    14.7146    15.0076
  404.4000    92.0538    14.6316    14.9303
  404.5000    92.3022    14.5490    14.8459
  404.6000    92.5760    14.4669    14.8013
  404.7000    93.1291    14.3802    14.7803
  404.8000    93.7856    14.1921    14.6966
  404.9000    94.3639    14.1251    14.5979
  405.0000    94.9699    14.0454    14.5979
  405.1000    95.6562    13.9357    14.5489
  405.2000    96.1518    13.7914    14.4666
  405.3000    96.6474    13.7087    14.3847
  405.4000    97.1429    13.6361    14.2980
  405.5000    97.6385    13.5047    14.2980
  405.6000    98.1342    13.3896    14.2401
  405.7000    98.6297    13.3140    14.1994
  405.8000    99.1664    13.2388    14.1772
  405.9000    99.3942    13.1504    14.1015
  406.0000    99.8153    13.1504    14.1015
  406.1000   100.1922    13.1065    14.0347
  406.2000   100.3759    13.0596    13.9553
  406.3000   100.3878    13.0490    13.9077
  406.4000   100.6797    12.9694    13.9077
  406.5000   100.8845    12.9694    13.9077
  406.6000   100.9831    12.9694    13.8322
  406.7000   101.0801    12.9694    13.8117
  406.8000   101.2868    12.9874    13.8117
  406.9000   101.2880    13.0596    13.8117
  407.0000   101.5241    13.0596    13.8117
  407.1000   101.5916    13.0596    13.8117
  407.2000   101.7197    13.0596    13.8117
  407.3000   101.9681    13.0853    13.8117
  407.4000   102.1976    13.1504    13.8117
  407.5000   102.1990    13.1504    13.8117
  407.6000   102.2000    13.2175    13.8117
  407.7000   102.3592    13.2418    13.8117
  407.8000   102.5036    13.2756    13.8117
  407.9000   102.5048    13.3339    13.8117
  408.0000   102.5060    13.3339    13.8117
  408.1000   102.5072    13.4097    13.8200
  408.2000   102.5084    13.4266    13.9077
  408.3000   102.3745    13.4266    13.9077
  408.4000   102.2096    13.4515    13.9077
  408.5000   102.1837    13.5200    13.9077
  408.6000   101.9110    13.5200    13.9077
  408.7000   101.9120    13.5200    13.9077
  408.8000   101.9133    13.5200    13.9077
  408.9000   101.9145    13.5529    13.9077
  409.0000   101.9157    13.6140    13.9077
  409.1000   101.9169    13.6140    13.9077
  409.2000   101.9181    13.6140    13.9077
  409.3000   101.9193    13.6140    13.9077
  409.4000   101.9205    13.6551    13.9077
  409.5000   101.9217    13.6969    13.9077
  409.6000   101.9229    13.6582    13.9077
  409.7000   101.9242    13.6140    13.9077
  409.8000   101.9253    13.6140    13.9077
  409.9000   101.9265    13.6140    13.9077
  410.0000   101.9277    13.6140    13.9077
  410.1000   101.9289    13.6140    13.9077
  410.2000   101.9301    13.6140    13.9077
  410.3000   101.9315    13.6140    13.8955
  410.4000   101.9325    13.6140    13.8117
  410.5000   101.9337    13.6140    13.8117
  410.6000   101.8373    13.5921    13.8117
  410.7000   101.6347    13.5200    13.8117
  410.8000   101.6362    13.5200    13.8117
  410.9000   101.6374    13.5200    13.8117
  411.0000   101.4558    13.5200    13.8117
  411.1000   101.3386    13.5200    13.8117
  411.2000   101.3398    13.5200    13.7635
  411.3000   101.3410    13.5200    13.7165
  411.4000   101.3423    13.5200    13.7027
  411.5000   101.3434    13.5200    13.6219
  411.6000   101.3446    13.5200    13.6219
  411.7000   101.3458    13.5200    13.5649
  411.8000   101.3470    13.5200    13.4882
  411.9000   101.3482    13.5200    13.4347
  412.0000   101.5944    13.5200    13.4285
  412.1000   101.6518    13.5200    13.3420
  412.2000   101.7900    13.5200    13.3420
  412.3000   101.9554    13.5200    13.3420
  412.4000   101.9856    13.5200    13.3101
  412.5000   102.2592    13.4500    13.2500
  412.6000   102.4824    13.4266    13.2500
  412.7000   102.5627    13.4266    13.2500
  412.8000   102.6779    13.4266    13.1928
  412.9000   102.8663    13.4266    13.1587
  413.0000   102.8735    13.4266    13.1587
  413.1000   103.1701    13.4266    13.1587
  413.2000   103.3703    13.4266    13.1587
  413.3000   103.6187    13.4266    13.0927
  413.4000   103.8671    13.4174    13.0679
  413.5000   104.0783    13.3339    13.0679
  413.6000   104.0796    13.3339    13.0679
  413.7000   104.5414    13.3339    13.0673
  413.8000   104.8606    13.3339    12.9934
  413.9000   105.2313    13.3339    12.9778
  414.0000   105.7269    13.3339    12.9778
  414.1000   106.2226    13.3339    12.9778
  414.2000   106.7978    13.2756    12.9778
  414.3000   107.4211    13.2418    12.9778
  414.4000   108.3174    13.2418    12.9778
  414.5000   109.3073    13.2342    12.9778
  414.6000   110.3426    13.1504    12.9778
  414.7000   111.6229    13.1504    12.9778
  414.8000   113.5330    13.1504    12.9778
  414.9000   115.3268    13.1186    12.9778
  415.0000   117.3194    13.0596    12.9778
  415.1000   119.4689    13.0596    12.9778
  415.2000   121.4471    13.0596    12.9778
  415.3000   123.6785    13.0596    12.9778
  415.4000   125.1893    13.0205    12.9778
  415.5000   126.7591    12.9694    12.9778
  415.6000   128.2434    12.9694    12.9778
  415.7000   129.7813    12.9694    12.9778
  415.8000   131.5157    12.9694    12.9778
  415.9000   132.5040    12.9231    12.9778
  416.0000   133.3012    12.8798    12.9778
  416.1000   134.0441    12.8664    12.9778
  416.2000   134.6173    12.7908    12.9778
  416.3000   134.8657    12.7908    12.9778
  416.4000   135.1375    12.7908    12.9647
  416.5000   135.1385    12.7540    12.8883
  416.6000   135.1398    12.7025    12.8883
  416.7000   135.1410    12.7025    12.8344
  416.8000   135.1422    12.7025    12.7994
  416.9000   135.1434    12.6425    12.7777
  417.0000   135.1448    12.6148    12.7112
  417.1000   135.1458    12.6148    12.7112
  417.2000   135.1470    12.6032    12.6492
  417.3000   135.2412    12.5277    12.5777
  417.4000   135.4896    12.5277    12.5365
  417.5000   135.7531    12.5277    12.5221
  417.6000   135.9864    12.4931    12.4500
  417.7000   136.4129    12.4411    12.3808
  417.8000   136.7844    12.4411    12.3642
  417.9000   137.0327    12.4411    12.3642
  418.0000   137.2651    12.4411    12.3642
  418.1000   137.2665    12.4411    12.3568
  418.2000   137.2675    12.4411    12.2789
  418.3000   137.2687    12.4411    12.2789
  418.4000   137.1687    12.4411    12.2789
  418.5000   136.9697    12.4411    12.2789
  418.6000   136.9711    12.4411    12.2789
  418.7000   136.7320    12.4411    12.2789
  418.8000   136.4860    12.4411    12.2789
  418.9000   136.2400    12.4411    12.2789
  419.0000   135.9940    12.4411    12.2789
  419.1000   135.7480    12.4411    12.2789
  419.2000   135.4724    12.4411    12.2789
  419.3000   135.4735    12.4411    12.2789
  419.4000   135.4747    12.4411    12.3426
  419.5000   135.4759    12.4411    12.3642
  419.6000   135.4771    12.4411    12.3642
  419.7000   135.4783    12.4411    12.3642
  419.8000   135.4795    12.4096    12.3642
  419.9000   135.6753    12.3552    12.3642
  420.0000   136.0643    12.3552    12.4214
  420.1000   136.4733    12.4254    12.4500
  420.2000   136.7541    12.4411    12.4500
  420.3000   137.2929    12.4411    12.4610
  420.4000   137.5196    12.4411    12.5365
  420.5000   137.7680    12.4411    12.5365
