~VERSION INFORMATION
 VERS.                2.0:   CWLS LOG ASCII STANDARD - VERSION 2.0
 WRAP.                 NO:   ONE LINE PER DEPTH STEP
~WELL INFORMATION
#MNEM.UNIT      DATA TYPE    INFORMATION
#----------   ------------   ------------------------------
 STRT.F            0.0000:   START DEPTH
 STOP.F          600.0000:   STOP DEPTH
 STEP.F            0.5000:   STEP LENGTH
 NULL.          -999.2500:   NO VALUE
 COMP.   FLUOR DANIEL INC:   COMPANY
 WELL.   16-1 X 11 #16-11:   WELL
 FLD .             TEAPOT:   FIELD
 LOC .      S11 T38N R78W:   LOCATION
 CNTY.            NATRONA:   COUNTY
 STAT.            WYOMING:   STATE
 CTRY. UNITED STATES OF AMERICA:   COUNTRY
 SRVC.      Western Atlas:   SERVICE COMPANY
 DATE.        08-MAY-1995:   LOGDATE
 API .       490252271100:   API NUMBER
~CURVE INFORMATION
#MNEM.UNIT       API CODE    CURVE DESCRIPTION
#----------   ------------   ------------------------------
 DEPT.F                  :   
 GRR .GAPI   07 310 01 00:   GAMMA RAY
 RILD.OHMM   07 120 46 00:   INDUCTION LOG DEEP RESISTIVITY
 RILM.OHMM   07 120 44 00:   INDUCTION LOG MEDIUM RESISTIVITY
~PARAMETER INFORMATION
#MNEM.UNIT          VALUE    DESCRIPTION
#----------   ------------   ------------------------------
 PD  .                 GL:   PERMANENT DATUM
 EPD .F              5203:   ELEVATION PERMANENT DATUM
 LMF .                 KB:   LOG MEASURED FROM
 DAPD.F                10:   FEET ABOVE PERMANENT DATUM
 DMF .                 KB:   DRILLING MEASURED FROM
 EKB .F              5213:   KELLING BUSHING
 EDF .F              5212:   DRILLING FLOOR
 EGL .F              5203:   GROUND LEVEL
 DATE.        08-MAY-1995:   RUN DATE
 RUN .                  1:   RUN NUMBER
 DD  .F               605:   DEPTH DRILLER
 DL  .F               608:   DEPTH LOGGER
 BLI .F               600:   BOTTOM LOG INTERVAL
 TLI .F                46:   TOP LOG INTERVAL
 CS  .IN            9.625:   CASING SIZE
 CBD .F                46:   CASING BOTTOM DRILLER
 CBL .F                46:   CASING BOTTOM LOGGER
 BS  .IN             8.75:   BIT SIZE
 BSD .F               605:   BIT SIZE AT DEPTH
 DFT .                AIR:   DRILLING FLUID TYPE
 MRT .F                89:   MAXIMUM RECORDED TEMPERATURE
 LUN .            HL 6530:   LOGGING UNIT NUMBER
 LUL .             CASPER:   LOGGING UNIT LOCATION
 ENGI.      PAT RASMUSSEN:   RECORDING ENGINEER
 WITN.        GARY STRONG:   WITNESSED BY
 CLNT.            A2DTECH:   CLIENT CODE
 ORIG.           5" PRINT:   ORIGIN OF DATA
 UWI .       490252271100:   UNIQUE WELL ID
 DICO. A2D Technologies, Inc.:   DIGITIZING COMPANY
~OTHER INFORMATION
~A    DEPT      GRR      RILD       RILM   
# ...
   91.0000   123.1713     7.8227     7.6001
   91.5000   123.4903     7.6101     7.6033
   92.0000   124.4117     7.6128     7.6059
   92.5000   125.6342     7.6149     7.6615
   93.0000   128.3628     7.6701     7.7712
   93.5000   128.6818     7.7295     7.8280
   94.0000   128.0972     7.7818     7.8307
   94.5000   128.1149     7.7301     7.7791
   95.0000   128.7351     7.6257     7.6746
   95.5000   128.1064     7.5232     7.3640
   96.0000   124.8549     7.4216     7.3156
   96.5000   126.5391     7.4237     7.3187
   97.0000   131.2202     7.3739     7.3212
   97.5000   130.6356     7.3254     7.2725
   98.0000   128.2392     7.2265     7.2246
   98.5000   128.8639     7.1786     7.2277
   99.0000   131.8937     7.1807     7.2302
   99.5000   132.8106     7.1832     7.2326
  100.0000   130.1220     7.1852     7.2351
  100.5000   127.1277     7.1872     7.1869
  101.0000   124.3582     7.1019     7.1898
  101.5000   127.7123     7.1043     7.1928
  102.0000   131.3681     7.1595     7.1952
  102.5000   131.4039     7.2168     7.1977
  103.0000   130.2331     7.2615     7.2001
  103.5000   129.6652     7.3145     7.2026
  104.0000   130.3048     7.3170     7.2050
  104.5000   131.5556     7.3194     7.2075
  105.0000   133.1527     7.2108     7.2099
  105.5000   136.4828     7.2626     7.2124
  106.0000   135.8552     7.3148     7.2651
  106.5000   131.2257     7.3670     7.3182
  107.0000   126.2648     7.4198     7.3718
  107.5000   125.6703     7.4213     7.4772
  108.0000   129.9083     7.4745     7.4517
  108.5000   132.3334     7.5281     7.5171
  109.0000   130.5352     7.5827     7.5710
  109.5000   128.4354     7.6894     7.6253
  110.0000   127.8410     7.7986     7.6268
  110.5000   129.9673     7.8002     7.7350
  111.0000   131.7891     7.8018     7.7905
  111.5000   131.4993     7.8706     7.9013
  112.0000   131.8854     7.9139     7.9580
  112.5000   135.3444     7.9704     8.1271
  113.0000   139.3808     8.0834     8.1854
  113.5000   140.5963     8.0851     8.2440
  114.0000   139.1028     8.0867     8.2457
  114.5000   137.9050     8.1446     8.3048
  115.0000   137.3135     8.1463     8.3065
  115.5000   140.3448     8.1483     8.3082
  116.0000   140.9599     8.2067     8.3099
  116.5000   136.7485     8.3229     8.3699
  117.0000   134.3471     8.4408     8.3797
  117.5000   135.9075     8.5012     8.5495
  118.0000   141.0437     8.7420     8.6708
  118.5000   141.9269     8.8658     8.8550
  119.0000   139.2238     9.0539     9.1061
  119.5000   138.0290     9.3750     9.2353
  120.0000   137.7391     9.5739     9.4972
  120.5000   134.7343     9.7204     9.7666
  121.0000   131.1263     9.9850     9.9783
  121.5000   128.7248    10.0564    10.1972
  122.0000   127.8287    10.1989    10.4030
  122.5000   126.6368    10.3433    10.4776
  123.0000   125.4420    10.4898    10.5527
  123.5000   123.6438    10.5649    10.6284
  124.0000   125.8643    10.5670    10.7040
  124.5000   127.2903    10.5691    10.6321
  125.0000   127.3021    10.5713    10.4882
  125.5000   125.8056    10.4279    10.4178
  126.0000   127.0241    10.2160    10.3478
  126.5000   128.5442    10.0774    10.2784
  127.0000   129.1593     9.9402    10.2093
  127.5000   129.7744     9.8059    10.0712
  128.0000   130.1760     9.7396     9.9937
  128.5000   128.2898     9.6080     9.9359
  129.0000   127.6903     9.5436     9.8691
  129.5000   127.7446     9.5455     9.8029
  130.0000   130.1381     9.4815     9.8054
  130.5000   132.2615     9.4835     9.7395
  131.0000   135.8933     9.4199     9.7415
  131.5000   138.9217     9.4878     9.6761
  132.0000   138.3302     9.4237     9.6111
  132.5000   136.2303     9.3605     9.5466
  133.0000   134.7339     9.3223     9.4825
  133.5000   131.4274     9.2359     9.4849
  134.0000   128.7243     9.1740     9.4868
  134.5000   127.8311     9.1758     9.4226
  135.0000   131.5434     9.1777     9.4250
  135.5000   133.6330     9.1161     9.3617
  136.0000   131.7911     9.1180     9.2989
  136.5000   129.0880     9.1199     9.2328
  137.0000   127.5885     9.1856     9.1744
  137.5000   127.6033     9.2514     9.1768
  138.0000   130.3300     9.1889     9.1147
  138.5000   133.3584     9.1912     9.1170
  139.0000   133.3702     9.1291     9.1188
  139.5000   132.7783     9.1315     9.1207
  140.0000   132.4887     9.0702     9.1861
  140.5000   135.5355     9.0721     9.1243
  141.0000   139.2458     9.0112     9.0631
  141.5000   141.5770     9.0081     8.9386
  142.0000   140.3822     8.7580     8.7504
  142.5000   139.1844     8.5309     8.5789
  143.0000   137.3893     8.2993     8.3461
  143.5000   136.1944     8.0741     8.2323
  144.0000   138.9212     7.9095     7.8985
  144.5000   143.1532     7.6948     7.7369
  145.0000   141.3581     7.5380     7.5790
  145.5000   140.1632     7.3844     7.4247
  146.0000   144.0966     7.2340     7.3238
  146.5000   147.4630     7.1855     7.3253
  147.0000   146.7029     7.2927     7.4338
  147.5000   142.9284     7.4940     7.6936
  148.0000   141.1302     7.6530     7.8570
  148.5000   141.7453     7.8697     7.9685
  149.0000   142.9638     7.9811     8.0815
  149.5000   136.3391     8.2071     8.3107
  150.0000   128.2061     8.3234     8.4286
  150.5000   128.8213     8.3830     8.5481
  151.0000   130.0397     8.4430     8.6094
  151.5000   130.3532     8.3864     8.5516
  152.0000   130.0634     8.2726     8.3771
  152.5000   127.3153     8.2172     8.2633
  153.0000   122.4696     8.1061     8.1510
  153.5000   121.6525     8.1157     8.0963
  154.0000   126.1922     8.0617     7.9867
  154.5000   128.6173     8.0088     7.9883
  155.0000   129.5341     8.0122     7.9900
  155.5000   128.9397     8.0706     8.0473
  156.0000   128.0495     8.1295     8.1614
  156.5000   128.9663     8.3031     8.3929
  157.0000   132.8997     8.4805     8.1566
  157.5000   136.2298     8.5454     8.3877
  158.0000   135.3367     8.6646     8.5061
  158.5000   132.6336     8.7285     8.6262
  159.0000   129.9025     8.7315     8.6273
  159.5000   128.7357     8.6741     8.6285
  160.0000   132.9737     8.6771     8.6297
  160.5000   134.4939     8.6194     8.6309
  161.0000   133.2991     8.5627     8.6323
  161.5000   132.7046     8.4478     8.6335
  162.0000   134.8310     8.4513     8.5747
  162.5000   135.1445     8.4542     8.5761
  163.0000   133.9497     8.4571     8.5773
  163.5000   131.8499     8.4600     8.5189
  164.0000   128.8452     8.4629     8.4611
  164.5000   125.8404     8.4073     8.3459
  165.0000   125.2388     8.4044     8.3470
  165.5000   127.7134     8.3549     8.4063
  166.0000   131.4147     8.3585     8.4074
  166.5000   136.4488     8.3613     8.4671
  167.0000   140.0806     8.3642     8.4097
  167.5000   144.3156     8.3670     8.4109
  168.0000   143.7242     8.3699     8.2963
  168.5000   141.9261     8.3142     8.1828
  169.0000   140.4296     8.2596     8.0711
  169.5000   140.1368     8.2631     8.0164
  170.0000   141.6599     8.2081     8.0177
  170.5000   144.0850     8.1548     8.0744
  171.0000   144.7341     8.0454     8.0197
  171.5000   142.2988     8.0481     8.0210
  172.0000   138.9804     8.0509     8.0221
  172.5000   139.0397     7.9980     8.0232
  173.0000   139.6223     7.9461     7.9688
  173.5000   139.6341     7.9488     7.9148
  174.0000   142.6626     7.8960     7.8611
  174.5000   146.5960     7.8441     7.8622
  175.0000   143.8929     7.7926     7.8633
  175.5000   141.4915     7.7414     7.8099
  176.0000   142.7099     7.6912     7.8113
  176.5000   145.4367     7.6938     7.7580
  177.0000   146.0489     7.6964     7.8134
  177.5000   144.5551     7.7526     7.8145
  178.0000   144.2655     7.8092     7.9248
  178.5000   144.5792     7.8662     7.9810
  179.0000   145.1946     7.9820     8.0377
  179.5000   142.7958     8.0929     8.1512
  180.0000   140.9977     8.2092     8.2091
  180.5000   138.5962     8.2120     8.3250
  181.0000   136.4964     8.2720     8.3841
  181.5000   133.1900     8.2748     8.4482
