~VERSION INFORMATION
 VERS.                2.0:   CWLS LOG ASCII STANDARD - VERSION 2.0
 WRAP.                 NO:   ONE LINE PER DEPTH STEP
~WELL INFORMATION
#MNEM.UNIT      DATA TYPE    INFORMATION
#----------   ------------   ------------------------------
 STRT.F           30.0000:   START DEPTH
 STOP.F          562.0000:   STOP DEPTH
 STEP.F            0.5000:   STEP LENGTH
 NULL.          -999.2500:   NO VALUE
 COMP. LAWRENCE/ALLISON INC:   COMPANY
 WELL. NPR 3 #53-16-SX-10:   WELL
 FLD .             TEAPOT:   FIELD
 LOC .      S10 T38N R78W:   LOCATION
 CNTY.            NATRONA:   COUNTY
 STAT.            WYOMING:   STATE
 CTRY. UNITED STATES OF AMERICA:   COUNTRY
 SRVC.      Dresser Atlas:   SERVICE COMPANY
 DATE.        27-AUG-1984:   LOGDATE
 API .       490251098200:   API NUMBER
~CURVE INFORMATION
#MNEM.UNIT       API CODE    CURVE DESCRIPTION
#----------   ------------   ------------------------------
 DEPT.F                  :   
 RILD.OHMM   07 120 46 00:   INDUCTION LOG DEEP RESISTIVITY
 RILM.OHMM   07 120 44 00:   INDUCTION LOG MEDIUM RESISTIVITY
 RFOC.OHMM   07 220 04 00:   RESISTIVITY FOCUSED LOG
 SPR .MV     07 010 01 00:   SPONTANEOUS POTENTIAL
 AC  .US/F   60 520 00 00:   ACOUSTIC SONIC
 DEN .G/C3   45 350 01 00:   COMPENSATED BULK DENSTIY
 CORR.G/C3   45 356 01 00:   DENSITY CORRECTION
 CNC .DEC    42 890 01 00:   NEUTRON POROSITY LIMESTONE
 CALD.IN     45 280 60 00:   CALIPER
 GRD .GAPI   45 310 01 00:   GAMMA RAY FROM DENSITY LOG
 PORD.DEC    45 890 10 00:   POROSITY DENSITY LIMESTONE
~PARAMETER INFORMATION
#MNEM.UNIT          VALUE    DESCRIPTION
#----------   ------------   ------------------------------
 PD  .                 GL:   PERMANENT DATUM
 EPD .F              5199:   ELEVATION PERMANENT DATUM
 LMF .                 GL:   LOG MEASURED FROM
 DMF .                 GL:   DRILLING MEASURED FROM
 EGL .F              5199:   GROUND LEVEL
 DATE.            8-27-84:   RUN DATE
 RUN .                  1:   RUN NUMBER
 DD  .F               550:   DEPTH DRILLER
 DL  .F               549:   DEPTH LOGGER
 BLI .F               547:   BOTTOM LOG INTERVAL
 TLI .F                30:   TOP LOG INTERVAL
 CS  .IN            9.625:   CASING SIZE
 CBD .F                40:   CASING BOTTOM DRILLER
 CBL .F                44:   CASING BOTTOM LOGGER
 BS  .IN            7.875:   BIT SIZE
 BSD .F               550:   BIT SIZE AT DEPTH
 DFT .          KCL/WATER:   DRILLING FLUID TYPE
 MSS .           MUD TANK:   MUD SAMPLE SOURCE
 RMS .OHMM            .28:   RESISTIVITY MUD SAMPLE
 MST .F                78:   MUD SAMPLE TEMPERATURE
 TCS .HRS               4:   TIME CURCULATED STOPPED
 LUN .               4082:   LOGGING UNIT NUMBER
 LUL .          ROOSEVELT:   LOGGING UNIT LOCATION
 ENGI.            FRANCIS:   RECORDING ENGINEER
 WITN.              FIVAS:   WITNESSED BY
 CLNT.            A2DTECH:   CLIENT CODE
 ORIG.       2", 5" PRINT:   ORIGIN OF DATA
 UWI .       490251098200:   UNIQUE WELL ID
 DICO. A2D Technologies, Inc.:   DIGITIZING COMPANY
~OTHER INFORMATION
~A   DEPT     RILD       RILM       RFOC        SPR         AC        DEN       CORR          CNC     CALD         GRD      PORD   
# ...
  365.5000    23.1221    22.5002    22.0544    -2.8183    97.8499     2.3661     0.0773     0.2268     8.5050    76.6498     0.1855
  366.0000    23.1456    22.5521    21.9452    -2.5238    97.9417     2.3696     0.0747     0.2260     8.5050    78.5961     0.1839
  366.5000    23.1692    22.4913    21.8361    -2.2270    98.0321     2.3718     0.0637     0.2048     8.5050    79.3618     0.1843
  367.0000    23.1846    22.4421    21.7276    -1.9289    97.9737     2.3711     0.0532     0.2027     8.5050    79.1792     0.1847
  367.5000    22.9150    22.3931    21.6196    -1.9823    97.8242     2.3703     0.0428     0.2128     8.5050    78.4901     0.1863
  368.0000    22.6765    22.3447    21.4779    -2.0598    97.6762     2.3679     0.0323     0.2219     8.5050    77.0625     0.1880
  368.5000    22.4415    21.9357    21.2040    -2.1352    97.5282     2.3639     0.0186     0.2252     8.5050    76.7698     0.1878
  369.0000    22.2056    21.5359    20.9337    -2.2102    97.3378     2.3695    -0.0096     0.2105     8.5050    76.9198     0.1796
  369.5000    21.8125    21.1443    20.6667    -2.2853    97.0511     2.3853     0.0003     0.2090     8.5050    77.0109     0.1717
  370.0000    21.3552    20.7602    20.4030    -2.3603    96.5331     2.3965     0.0242     0.2141     8.5050    75.7320     0.1684
  370.5000    20.9090    20.3830    20.1429    -2.4351    96.0621     2.3956     0.0479     0.2123     8.5050    75.3767     0.1698
  371.0000    20.4722    20.0126    19.8133    -2.5054    95.8737     2.3953     0.0664     0.2095     8.5050    79.1420     0.1706
  371.5000    20.0446    19.6477    19.4005    -2.6951    95.7011     2.3989     0.0809     0.2115     8.5050    83.2321     0.1672
  372.0000    19.6259    19.2744    18.9963    -2.8974    95.3290     2.4028     0.0837     0.2183     8.5050    87.3333     0.1652
  372.5000    19.2160    19.0796    18.7476    -3.0999    94.8973     2.3969     0.0717     0.2200     8.5050    87.2042     0.1694
  373.0000    18.8146    18.8766    18.7476    -3.3019    94.4656     2.3894     0.0470     0.2134     8.5050    83.9157     0.1730
  373.5000    18.4216    18.6758    18.7476    -3.4979    94.1468     2.3896     0.0229     0.2057     8.5050    80.9104     0.1738
  374.0000    18.0368    18.4771    18.7476    -3.7330    94.1070     2.3996     0.0128     0.1979     8.5050    83.6905     0.1661
  374.5000    17.6600    18.2805    18.5842    -3.9666    94.0671     2.4139     0.0119     0.1970     8.5050    87.5819     0.1588
  375.0000    17.4364    18.0860    18.3619    -4.2005    94.2299     2.4286     0.0112     0.2011     8.5050    86.1577     0.1515
  375.5000    17.2593    17.8938    18.1423    -4.4338    94.4519     2.4289     0.0165     0.2028     8.5050    83.3004     0.1497
  376.0000    17.0840    17.7018    17.9253    -4.6712    94.6739     2.4030     0.0273     0.1978     8.5050    80.4073     0.1683
  376.5000    16.9105    17.5406    17.7109    -4.6810    94.8959     2.3802     0.0478     0.1914     8.5050    80.3790     0.1796
  377.0000    16.7387    17.4354    17.5177    -4.6015    94.9230     2.3655     0.0690     0.1915     8.5050    81.6132     0.1874
  377.5000    16.5687    17.3308    17.3603    -4.5202    94.8712     2.3686     0.0751     0.2024     8.5050    82.6666     0.1871
  378.0000    16.3910    17.2268    17.2044    -4.4392    94.5073     2.3769     0.0746     0.2104     8.5050    82.1180     0.1806
  378.5000    16.2032    17.1235    17.0933    -4.3584    94.1366     2.3861     0.0740     0.2131     8.5050    82.2330     0.1740
  379.0000    16.0176    16.9364    17.2922    -4.2770    94.0424     2.3979     0.0729     0.2091     8.5050    83.1115     0.1665
  379.5000    15.8340    16.7168    17.4490    -4.1964    93.9483     2.4101     0.0624     0.2013     8.5050    83.8965     0.1605
  380.0000    15.6526    16.5000    17.5736    -4.1594    93.8541     2.4211     0.0515     0.1897     8.5050    83.8829     0.1554
  380.5000    15.4733    16.2861    17.1455    -4.3141    93.7575     2.4184     0.0509     0.1850     8.5050    85.0139     0.1557
  381.0000    15.2960    16.0749    16.7999    -4.4642    93.5244     2.4142     0.0542     0.1861     8.5050    86.5233     0.1587
  381.5000    15.1207    15.8664    16.4613    -4.7649    93.2881     2.4103     0.0498     0.1930     8.5050    85.5595     0.1618
  382.0000    14.9474    15.6607    16.1295    -5.2031    92.9551     2.4091     0.0416     0.1999     8.5050    84.1539     0.1622
  382.5000    14.7762    15.4576    15.8568    -5.6408    92.5285     2.4133     0.0447     0.2038     8.5050    84.1831     0.1579
  383.0000    14.6069    15.2571    15.7793    -6.0822    92.1076     2.4212     0.0485     0.2031     8.5050    86.7792     0.1513
  383.5000    14.4394    15.0592    15.7008    -6.5321    91.7724     2.4354     0.0519     0.2039     8.5050    90.3772     0.1440
  384.0000    14.2741    14.8640    15.6230    -6.5766    91.4372     2.4545     0.0626     0.2051     8.5050    91.5374     0.1326
  384.5000    14.1105    14.7399    15.5454    -6.5957    91.1035     2.4741     0.0835     0.1977     8.5050    90.8618     0.1211
  385.0000    14.0630    14.7155    15.4682    -6.6176    90.7713     2.4852     0.1121     0.1903     8.5050    89.5041     0.1155
  385.5000    14.0431    14.6911    15.3914    -6.6400    90.4390     2.4855     0.1195     0.1894     8.5050    88.1209     0.1169
  386.0000    14.0232    14.6667    15.3149    -6.6623    90.1842     2.4843     0.1169     0.1878     8.5050    88.5564     0.1185
  386.5000    14.0034    14.6424    15.2389    -6.6847    89.9499     2.4789     0.1032     0.1844     8.5050    89.3616     0.1209
  387.0000    13.9836    14.6181    15.1632    -6.7069    89.9753     2.4708     0.0716     0.1834     8.5050    89.1591     0.1263
  387.5000    13.9638    14.5939    15.0879    -6.7294    90.0013     2.4606     0.0660     0.1870     8.5050    88.4526     0.1317
  388.0000    13.9440    14.5697    15.0196    -6.7490    90.0272     2.4608     0.0608     0.1911     8.5050    86.8512     0.1317
  388.5000    13.9243    14.5455    15.0196    -6.8903    90.0286     2.4779     0.0589     0.1924     8.5050    85.2722     0.1209
  389.0000    13.9046    14.5214    15.0195    -7.0825    89.8402     2.4944     0.0761     0.1936     8.5050    83.8574     0.1130
  389.5000    13.8849    14.4973    15.0196    -7.2757    89.6518     2.4989     0.0956     0.1958     8.5050    85.1748     0.1083
  390.0000    13.8653    14.4758    15.0196    -7.4687    89.4635     2.4988     0.1020     0.1995     8.5050    87.4435     0.1086
  390.5000    13.8457    14.5022    15.0196    -7.6617    89.2751     2.4962     0.0779     0.1954     8.5050    88.4792     0.1100
  391.0000    13.8261    14.5279    15.0196    -7.8546    89.2114     2.4902     0.0482     0.1853     8.5050    87.9150     0.1123
  391.5000    13.7679    14.5534    15.0200    -8.0476    89.1683     2.4853     0.0393     0.1770     8.5050    88.0877     0.1149
  392.0000    13.6974    14.5795    15.0208    -8.2409    89.1251     2.4844     0.0451     0.1779     8.5050    89.8257     0.1164
  392.5000    13.6272    14.6077    15.0211    -8.4331    89.0813     2.4870     0.0615     0.1836     8.5050    91.2101     0.1162
  393.0000    13.5574    14.4044    14.8228    -8.5711    89.0483     2.4854     0.0776     0.1851     8.5050    91.3483     0.1161
  393.5000    13.4880    14.1760    14.6687    -8.5686    89.1958     2.4736     0.0740     0.1840     8.5050    91.5272     0.1190
  394.0000    13.4190    13.9504    14.5160    -8.5687    89.3416     2.4613     0.0663     0.1827     8.5050    90.9281     0.1265
  394.5000    13.3502    13.7284    14.3649    -8.5686    89.4866     2.4494     0.0584     0.1858     8.5050    90.0897     0.1365
  395.0000    13.2819    13.6942    14.3416    -8.5686    89.6317     2.4440     0.0559     0.1856     8.5050    89.2371     0.1401
  395.5000    13.2139    13.6942    14.3414    -8.5686    89.6879     2.4414     0.0630     0.1848     8.5050    88.3754     0.1413
