~VERSION INFORMATION
 VERS.                2.0:   CWLS LOG ASCII STANDARD - VERSION 2.0
 WRAP.                 NO:   ONE LINE PER DEPTH STEP
~WELL INFORMATION
#MNEM.UNIT      DATA TYPE    INFORMATION
#----------   ------------   ------------------------------
 STRT.F            8.0000:   START DEPTH
 STOP.F          473.0000:   STOP DEPTH
 STEP.F            0.5000:   STEP LENGTH
 NULL.          -999.2500:   NO VALUE
 COMP.   LAWRENCE-ALLISON:   COMPANY
 WELL. NPR 3 #58-55SX3OB1:   WELL
 FLD .             TEAPOT:   FIELD
 LOC .       S3 T38N R78W:   LOCATION
 CNTY.            NATRONA:   COUNTY
 STAT.            WYOMING:   STATE
 CTRY. UNITED STATES OF AMERICA:   COUNTRY
 SRVC.      Dresser Atlas:   SERVICE COMPANY
 DATE.        17-DEC-1984:   LOGDATE
 API .       490251100600:   API NUMBER
~CURVE INFORMATION
#MNEM.UNIT       API CODE    CURVE DESCRIPTION
#----------   ------------   ------------------------------
 DEPT.F                  :   
 AC  .US/F   60 520 00 00:   ACCOUSTIC
 PORD.DEC    45 890 12 00:   POROSITY DENSITY SANDSTONE
 CNC .DEC    42 890 03 00:   NEUTRON POROSITY SANDSTONE
 CALD.IN     45 280 60 00:   CALIPER FROM DENSITY
 GRD .GAPI   45 310 01 00:   GAMMA RAY FROM DENSITY LOG
 CORR.G/C3   45 356 01 00:   DENSITY CORRECTION
 DEN .G/C3   45 350 01 00:   COMPENSATED BULK DENSTIY
~PARAMETER INFORMATION
#MNEM.UNIT          VALUE    DESCRIPTION
#----------   ------------   ------------------------------
 PD  .                 GL:   PERMANENT DATUM
 EPD .F              5194:   ELEVATION PERMANENT DATUM
 LMF .                 GL:   LOG MEASURED FROM
 DMF .                 GL:   DRILLING MEASURED FROM
 EGL .F              5194:   GROUND LEVEL
 DATE.        17-DEC-1984:   RUN DATE
 RUN .                  1:   RUN NUMBER
 DD  .F               480:   DEPTH DRILLER
 DL  .F               475:   DEPTH LOGGER
 BLI .F               473:   BOTTOM LOG INTERVAL
 TLI .F                20:   TOP LOG INTERVAL
 CS  .IN            8.625:   CASING SIZE
 CBD .F                20:   CASING BOTTOM DRILLER
 CBL .F                20:   CASING BOTTOM LOGGER
 BS  .IN             6.25:   BIT SIZE
 BSD .F               480:   BIT SIZE AT DEPTH
 DFT .          KCL WATER:   DRILLING FLUID TYPE
 MSS .           FLOWLINE:   MUD SAMPLE SOURCE
 RMS .OHMM          0.134:   RESISTIVITY MUD SAMPLE
 MST .F                72:   MUD SAMPLE TEMPERATURE
 RMF .OHMM           0.10:   RESISTIVITY MUD FILTRATE SAMPLE
 MFST.F                72:   MUD FILTRATE SAMPLE TEMPERATURE
 RMC .OHMM           0.17:   RESISTIVITY MUD CAKE
 MCST.F                72:   MUD CAKE SAMPLE TEMPERATURE
 MFSS.               CALC:   MUD FILTRATE SAMPLE SOURCE
 MCSS.               CALC:   MUD CAKE SAMPLE SOURCE
 TCS .HRS               2:   TIME CURCULATED STOPPED
 MRT .F               100:   MAXIMUM RECORDED TEMPERATURE
 LUN .               6270:   LOGGING UNIT NUMBER
 ENGI.            LEBSOCK:   RECORDING ENGINEER
 WITN.          DAN LUERS:   WITNESSED BY
 CLNT.            A2DTECH:   CLIENT CODE
 ORIG.           5" PRINT:   ORIGIN OF DATA
 UWI .       490251100600:   UNIQUE WELL ID
 DICO. A2D Technologies, Inc.:   DIGITIZING COMPANY
~OTHER INFORMATION
~A    DEPT      AC       PORD        CNC       CALD        GRD       CORR        DEN   
# ...
  417.5000    90.6157     0.1138     0.2410     6.2065    90.5922     0.0421     2.4874
  418.0000    90.9081     0.1202     0.2575     6.1909    95.8430     0.0405     2.4753
  418.5000    91.1270     0.1229     0.2641     6.1903   104.3971     0.0375     2.4723
  419.0000    91.4958     0.1196     0.2647     6.1747   111.9001     0.0435     2.4737
  419.5000    92.0895     0.1133     0.2621     6.1741   115.6494     0.0570     2.4887
  420.0000    92.7582     0.1090     0.2609     6.1736   116.9962     0.0870     2.4970
  420.5000    93.2770     0.1100     0.2597     6.1730   117.2921     0.0704     2.4946
  421.0000    94.0206     0.1121     0.2594     6.1724   121.1915     0.0433     2.4901
  421.5000    94.2410     0.1130     0.2634     6.1869   123.4393     0.0402     2.4918
  422.0000    94.4584     0.1085     0.2712     6.1861   122.2336     0.0522     2.4994
  422.5000    94.6773     0.1061     0.2788     6.2007   118.0249     0.0602     2.4998
  423.0000    96.5454     0.1123     0.2773     6.1999   114.4168     0.0401     2.4802
  423.5000    99.2381     0.1247     0.2764     6.2144   111.5594     0.0205     2.4598
  424.0000   104.0297     0.1455     0.2773     6.2137   115.7592     0.0325     2.4357
  424.5000   105.2231     0.1624     0.2936     6.1981   117.4074     0.0339     2.3965
  425.0000   104.9173     0.1694     0.2985     6.1975   114.0985     0.0188     2.3897
  425.5000   101.9878     0.1727     0.2994     6.1820   109.5895     0.0037     2.4205
  426.0000    97.6750     0.1489     0.2901     6.1664   102.0776     0.0022     2.4679
  426.5000    93.4296     0.1289     0.2805     6.1658    98.6196     0.0038     2.4799
  427.0000    91.9244     0.1199     0.2733     6.1652    96.9635     0.0115     2.4844
  427.5000    91.3936     0.1160     0.2639     6.1496    95.6076     0.0201     2.4799
  428.0000    91.6875     0.1172     0.2540     6.1490    95.9035     0.0185     2.4783
  428.5000    91.9814     0.1190     0.2492     6.1484    98.0011     0.0140     2.4805
  429.0000    92.1268     0.1193     0.2471     6.1478   100.0987     0.0200     2.4956
  429.5000    92.1958     0.1118     0.2505     6.1473   101.2954     0.0455     2.5068
  430.0000    92.0384     0.1024     0.2608     6.1467    99.9396     0.0741     2.5173
  430.5000    91.8075     0.0967     0.2738     6.1461    98.8840     0.0620     2.5105
  431.0000    91.5017     0.0970     0.2735     6.1455   100.3810     0.0454     2.5075
  431.5000    91.1209     0.1004     0.2682     6.1449   103.6799     0.0423     2.5104
  432.0000    90.7401     0.1016     0.2638     6.1443   102.3240     0.0453     2.5126
  432.5000    90.4343     0.1009     0.2627     6.1437    99.3165     0.0453     2.5134
  433.0000    90.1284     0.0995     0.2630     6.1431    99.1630     0.0452     2.5118
  433.5000    89.8226     0.0999     0.2582     6.1425   101.1094     0.0406     2.5095
  434.0000    89.5168     0.1008     0.2441     6.1419   102.6064     0.0316     2.5065
  434.5000    89.2109     0.1020     0.2447     6.1413   100.6499     0.0255     2.5042
  435.0000    88.7552     0.1038     0.2471     6.1407    98.2430     0.0224     2.5019
  435.5000    88.5243     0.1054     0.2429     6.1401    97.0374     0.0299     2.5026
  436.0000    88.2934     0.1036     0.2439     6.1395    95.5314     0.0434     2.5071
  436.5000    87.9876     0.1015     0.2596     6.1389    94.6260     0.0479     2.5086
  437.0000    87.6818     0.1018     0.2569     6.1383    94.3212     0.0388     2.5093
  437.5000    87.5259     0.1051     0.2482     6.1377    94.6170     0.0328     2.5009
  438.0000    87.6713     0.1076     0.2403     6.1371    95.8137     0.0297     2.4994
  438.5000    87.8887     0.1085     0.2361     6.1365    97.4609     0.0266     2.4978
  439.0000    88.2575     0.1085     0.2356     6.1359    99.4084     0.0266     2.4971
  439.5000    88.3280     0.1067     0.2404     6.1353    98.3528     0.0266     2.5023
  440.0000    88.2456     0.1043     0.2480     6.1347    96.9970     0.0310     2.5068
  440.5000    88.2396     0.1031     0.2510     6.1341    96.3919     0.0447     2.5067
  441.0000    88.2336     0.1041     0.2435     6.1335    97.0080     0.0583     2.5037
  441.5000    88.2276     0.1053     0.2366     6.1329    99.4384     0.0670     2.4999
  442.0000    88.3716     0.1043     0.2381     6.1174   101.3334     0.0625     2.5051
  442.5000    88.5157     0.1011     0.2424     6.1155    97.5500     0.0624     2.5089
  443.0000    88.8094     0.0999     0.2425     6.0862    97.6306     0.0624     2.5103
  443.5000    88.8784     0.1005     0.2391     6.0856    99.7031     0.0623     2.5110
  444.0000    88.2727     0.1042     0.2370     6.0850   100.1143     0.0457     2.5050
  444.5000    87.9669     0.1072     0.2355     6.0845    96.1156     0.0321     2.4997
  445.0000    87.9609     0.1093     0.2353     6.0839    94.0490     0.0140     2.4974
  445.5000    88.4796     0.1109     0.2375     6.0833    92.5105    -0.0101     2.4943
  446.0000    89.2233     0.1115     0.2481     6.0825    91.8381     0.0019     2.4920
  446.5000    89.6671     0.1115     0.2564     6.0819    93.3340     0.0199     2.4912
  447.0000    89.6611     0.1100     0.2601     6.0813    95.2814     0.0319     2.4912
  447.5000    89.7301     0.1070     0.2561     6.0807    97.2289     0.0439     2.4942
  448.0000    89.9490     0.1034     0.2502     6.0801    98.5758     0.0439     2.5047
  448.5000    90.3928     0.1004     0.2490     6.0947    99.9226     0.0559     2.5107
  449.0000    90.9115     0.0980     0.2490     6.1089   101.8701     0.0709     2.5136
  449.5000    91.4303     0.0986     0.2499     6.1083   104.7185     0.0754     2.5121
  450.0000    92.0240     0.1020     0.2588     6.1228   107.1164     0.0648     2.5060
  450.5000    92.4693     0.1047     0.2676     6.1221   107.7136     0.0497     2.5030
  451.0000    92.7617     0.1035     0.2763     6.1215   107.7080     0.0421     2.5059
  451.5000    92.7556     0.1020     0.2765     6.1209   107.7035     0.0435     2.5082
  452.0000    92.8996     0.1018     0.2732     6.1203   107.0984     0.0435     2.5081
  452.5000    93.1222     0.1024     0.2690     6.1197   106.3432     0.0419     2.5058
  453.0000    93.3418     0.1042     0.2656     6.1191   105.8883     0.0419     2.5028
  453.5000    93.7812     0.1079     0.2629     6.1185   105.1330     0.0388     2.4997
  454.0000    94.0060     0.1109     0.2726     6.1179   105.4288     0.0358     2.4952
  454.5000    94.3756     0.1128     0.2783     6.1173   108.2772     0.0327     2.4899
  455.0000    94.7451     0.1134     0.2687     6.1167   114.1286     0.0297     2.4891
  455.5000    94.8817     0.1122     0.2599     6.1161   115.3264     0.0266     2.4928
  456.0000    94.7256     0.1056     0.2602     6.1005   114.7202     0.0251     2.5048
  456.5000    94.6447     0.1005     0.2638     6.0999   115.3163     0.0297     2.5093
  457.0000    94.6282     0.0993     0.2668     6.0993   117.7142     0.0342     2.5123
  457.5000    94.3966     0.1014     0.2699     6.0987   120.4124     0.0337     2.5070
  458.0000    94.3148     0.1045     0.2714     6.0981   121.8798     0.0309     2.5017
  458.5000    94.3211     0.1054     0.2714     6.0975  -999.2500     0.0324     2.4994
  459.0000    94.4303     0.1048     0.2711     6.0970  -999.2500     0.0353     2.5046
  459.5000    94.9088     0.1034     0.2693     6.0964  -999.2500     0.0398     2.5068
  460.0000    95.3511     0.1025     0.2674     6.0958  -999.2500     0.0428     2.5053
  460.5000    95.5700     0.1052     0.2668     6.0952  -999.2500     0.0472     2.4962
  461.0000    95.7904     0.1092     0.2720     6.0946  -999.2500     0.0487     2.4947
  461.5000    96.0828     0.1119     0.2746     6.0940  -999.2500     0.0547     2.4969
  462.0000    96.3767     0.1077     0.2801     6.0784  -999.2500     0.0516     2.5029
  462.5000    96.6705     0.1035     0.2876     6.0628  -999.2500     0.0425     2.5045
