~VERSION INFORMATION
 VERS.                2.0:   CWLS LOG ASCII STANDARD - VERSION 2.0
 WRAP.                 NO:   ONE LINE PER DEPTH STEP
~WELL INFORMATION
#MNEM.UNIT      DATA TYPE    INFORMATION
#----------   ------------   ------------------------------
 STRT.F          534.0000:   START DEPTH
 STOP.F         1820.0000:   STOP DEPTH
 STEP.F            0.5000:   STEP LENGTH
 NULL.          -999.2500:   NO VALUE
 COMP.   FLUOR DANIEL INC:   COMPANY
 WELL. NAVAL PETROLEUM RESERVE 3 X-29 #45-29:   WELL
 FLD .             TEAPOT:   FIELD
 LOC .      S29 T39N R78W:   LOCATION
 CNTY.            NATRONA:   COUNTY
 STAT.            WYOMING:   STATE
 CTRY. UNITED STATES OF AMERICA:   COUNTRY
 SRVC.            Unknown:   SERVICE COMPANY
 DATE.        30-SEP-1994:   LOGDATE
 API .       490252265100:   API NUMBER
~CURVE INFORMATION
#MNEM.UNIT       API CODE    CURVE DESCRIPTION
#----------   ------------   ------------------------------
 DEPT.F                  :   
 ROP .FT/HR  91 810 01 00:   RAT OF DRILLING PENETRATION
 TGAS.TC/CC  91 830 01 00:   TOTAL GAS UNIT
~PARAMETER INFORMATION
#MNEM.UNIT          VALUE    DESCRIPTION
#----------   ------------   ------------------------------
 EKB .F              5023:   KELLING BUSHING
 EGL .F              5013:   GROUND LEVEL
 DATE.        30-SEP-1994:   RUN DATE
 RUN .                  1:   RUN NUMBER
 BLI .F              1820:   BOTTOM LOG INTERVAL
 TLI .F               540:   TOP LOG INTERVAL
 WITN.     C.TOWER/R.HUSK:   WITNESSED BY
 CLNT.            A2DTECH:   CLIENT CODE
 ORIG.           5" PRINT:   ORIGIN OF DATA
 UWI .       490252265100:   UNIQUE WELL ID
 DICO. A2D Technologies, Inc.:   DIGITIZING COMPANY
~OTHER INFORMATION
~A   DEPT        ROP       TGAS 
# ...
 1749.0000     0.5136     1.4351
 1749.5000     0.5116     1.4261
 1750.0000     0.5038     1.4181
 1750.5000     0.5035     1.4731
 1751.0000     0.5033     1.5908
 1751.5000     0.4936     1.6665
 1752.0000     0.4934     1.7622
 1752.5000     0.4932     1.7537
 1753.0000     0.4953     1.7452
 1753.5000     0.5021     1.7353
 1754.0000     0.5018     1.9172
 1754.5000     0.5016     1.9087
 1755.0000     0.5014     1.9002
 1755.5000     0.5011     1.8917
 1756.0000     0.4915     1.8826
 1756.5000     0.4956     1.8747
 1757.0000     0.5005     1.8651
 1757.5000     0.5002     1.6670
 1758.0000     0.5000     1.6601
 1758.5000     0.4998     1.6503
 1759.0000     0.4995     1.5513
 1759.5000     0.4993     1.4455
 1760.0000     0.4991     1.2471
 1760.5000     0.4988     1.2387
 1761.0000     0.4986     1.0413
 1761.5000     0.4984     1.0329
 1762.0000     0.4981     1.0248
 1762.5000     0.4978     1.2067
 1763.0000     0.4976     1.1968
 1763.5000     0.4974     1.1879
 1764.0000     0.4972     1.1798
 1764.5000     0.4969     1.1713
 1765.0000     0.4967     1.1628
 1765.5000     0.4965     1.3442
 1766.0000     0.5056     1.4858
 1766.5000     0.5054     1.5656
 1767.0000     0.5052     1.7531
 1767.5000     0.5049     1.8766
 1768.0000     0.5097     2.2462
 1768.5000     0.5233     2.4268
 1769.0000     0.5244     2.2290
 1769.5000     0.5323     2.2206
 1770.0000     0.5414     2.4013
 1770.5000     0.5412     2.3923
 1771.0000     0.5409     2.3842
 1771.5000     0.5407     2.1867
 1772.0000     0.5405     2.1767
 1772.5000     0.5409     2.1684
 1773.0000     0.5494     2.1611
 1773.5000     0.5492     2.1526
 1774.0000     0.5490     2.1433
 1774.5000     0.5393     2.1342
 1775.0000     0.5391     2.1271
 1775.5000     0.5388     2.1182
 1776.0000     0.5386     2.1101
 1776.5000     0.5383     2.1015
 1777.0000     0.5287     2.0931
 1777.5000     0.5285     2.0846
 1778.0000     0.5218     1.8870
 1778.5000     0.5186     1.6894
 1779.0000     0.5184     1.6802
 1779.5000     0.5087     1.4833
 1780.0000     0.5178     1.3560
 1780.5000     0.5364     1.2762
 1781.0000     0.5362     1.2686
 1781.5000     0.5360     1.2602
 1782.0000     0.5358     1.0614
 1782.5000     0.5355     0.8650
 1783.0000     0.5353     0.8565
 1783.5000     0.5351     0.8465
 1784.0000     0.5348     0.6504
 1784.5000     0.5346     0.6408
 1785.0000     0.5344     0.6334
 1785.5000     0.5341     0.6812
 1786.0000     0.5339     0.8061
 1786.5000     0.5337     0.7970
 1787.0000     0.5334     0.7884
 1787.5000     0.5426     0.9690
 1788.0000     0.5464     0.9605
 1788.5000     0.5516     0.9520
 1789.0000     0.5513     0.9430
 1789.5000     0.5511     0.9346
 1790.0000     0.5508     0.9265
 1790.5000     0.5565     0.9180
 1791.0000     0.5598     0.9095
 1791.5000     0.5596     0.7119
 1792.0000     0.5593     0.7034
 1792.5000     0.5591     0.8845
 1793.0000     0.5494     1.0645
 1793.5000     0.5492     1.0547
 1794.0000     0.5369     1.4245
 1794.5000     0.5299     1.4162
 1795.0000     0.5297     1.8086
 1795.5000     0.5200     1.9660
 1796.0000     0.5198     2.1479
 1796.5000     0.5195     2.1394
 1797.0000     0.5193     2.1293
 1797.5000     0.5191     2.1216
 1798.0000     0.5188     2.1139
 1798.5000     0.5280     2.1054
 1799.0000     0.5277     2.0952
 1799.5000     0.5275     1.8993
 1800.0000     0.5273     1.8908
 1800.5000     0.5176     1.6919
 1801.0000     0.5174     1.6836
 1801.5000     0.5266     1.6762
 1802.0000     0.5264     1.6676
 1802.5000     0.5261     1.6585
 1803.0000     0.5259     1.6506
 1803.5000     0.5257     1.6418
 1804.0000     0.5254     1.4443
 1804.5000     0.5252     1.4360
 1805.0000     0.5250     1.6181
 1805.5000     0.5247     1.6081
 1806.0000     0.5245     1.5979
 1806.5000     0.5242     1.5911
 1807.0000     0.5240     1.5507
 1807.5000     0.5238     1.1947
 1808.0000     0.5235     1.1863
 1808.5000     0.5233     1.1789
 1809.0000     0.5231     1.1704
 1809.5000     0.5228     1.1612
 1810.0000     0.5226     0.9643
 1810.5000     0.5224     0.9554
 1811.0000     0.5221     0.7580
 1811.5000     0.5219     0.7497
 1812.0000     0.5217     0.8408
 1812.5000     0.5214     0.9217
 1813.0000     0.5212     1.1027
 1813.5000     0.5209     1.0938
 1814.0000     0.5207     1.0853
 1814.5000     0.5205     1.3048
 1815.0000     0.5108     1.4474
 1815.5000     0.5106     1.6282
 1816.0000     0.5104     1.8089
 1816.5000     0.5101     1.9875
 1817.0000     0.5099     2.5464
 1817.5000     0.5002     8.2103
 1818.0000     0.5055    10.4708
 1818.5000     0.5092    19.9163
 1819.0000     0.5089    23.0401
 1819.5000     0.5087    28.2671
 1820.0000     0.5085    28.9547
