~VERSION INFORMATION
 VERS.                2.0:   CWLS LOG ASCII STANDARD - VERSION 2.0
 WRAP.                 NO:   ONE LINE PER DEPTH STEP
~WELL INFORMATION
#MNEM.UNIT      DATA TYPE    INFORMATION
#----------   ------------   ------------------------------
 STRT.F           10.0000:   START DEPTH
 STOP.F          756.0000:   STOP DEPTH
 STEP.F            0.1000:   STEP LENGTH
 NULL.          -999.2500:   NO VALUE
 COMP. BROWN JOHN E&C INC:   COMPANY
 WELL. N P R 3 SHX- #31-1-X-14:   WELL
 FLD .             TEAPOT:   FIELD
 LOC .      S14 T38N R78W:   LOCATION
 CNTY.            NATRONA:   COUNTY
 STAT.            WYOMING:   STATE
 CTRY. UNITED STATES OF AMERICA:   COUNTRY
 SRVC.     Atlas Wireline:   SERVICE COMPANY
 DATE.        07-JAN-1992:   LOGDATE
 API .       490252249700:   API NUMBER
~CURVE INFORMATION
#MNEM.UNIT       API CODE    CURVE DESCRIPTION
#----------   ------------   ------------------------------
 DEPT.F                  :   
 GRR .GAPI   07 310 01 00:   GAMMA RAY
 RFOC.OHMM   07 220 04 00:   RESISTIVITY FOCUSED LOG RES.
 RILD.OHMM   07 120 46 00:   INDUCTION LOG DEEP RESISTIVITY
 RILM.OHMM   07 120 44 00:   INDUCTION LOG MEDIUM  RESISTIVITY
~PARAMETER INFORMATION
#MNEM.UNIT          VALUE    DESCRIPTION
#----------   ------------   ------------------------------
 PD  .                 GL:   PERMANENT DATUM
 EPD .F              5210:   ELEVATION PERMANENT DATUM
 LMF .                 KB:   LOG MEASURED FROM
 DAPD.F                10:   FEET ABOVE PERMANENT DATUM
 DMF .                 KB:   DRILLING MEASURED FROM
 EKB .F              5220:   KELLING BUSHING
 EDF .F              5219:   DRILLING FLOOR
 EGL .F              5210:   GROUND LEVEL
 DATE.        07-JAN-1992:   RUN DATE
 RUN .                  1:   RUN NUMBER
 DD  .F               762:   DEPTH DRILLER
 DL  .F               760:   DEPTH LOGGER
 BLI .F               758:   BOTTOM LOG INTERVAL
 CS  .IN            9.625:   CASING SIZE
 CBD .F                48:   CASING BOTTOM DRILLER
 CBL .F                50:   CASING BOTTOM LOGGER
 BS  .IN             8.75:   BIT SIZE
 BSD .F               762:   BIT SIZE AT DEPTH
 DFT .    FORMATION FLUID:   DRILLING FLUID TYPE
 MRT .F                90:   MAXIMUM RECORDED TEMPERATURE
 LUN .            HL-6274:   LOGGING UNIT NUMBER
 LUL .             CASPER:   LOGGING UNIT LOCATION
 ENGI.             RAUTIC:   RECORDING ENGINEER
 WITN.        GARY STRONG:   WITNESSED BY
 CLNT.            A2DTECH:   CLIENT CODE
 ORIG.           5" PRINT:   ORIGIN OF DATA
 UWI .       490252249700:   UNIQUE WELL ID
 DICO. A2D Technologies, Inc.:   DIGITIZING COMPANY
~OTHER INFORMATION
~A   DEPT       GRR      RFOC       RILD       RILM   
# ...
  740.0000  -999.2500    11.1373     9.7676     9.7390
  740.1000  -999.2500    11.0654     9.7270     9.7393
  740.2000  -999.2500    11.0083     9.7223     9.7032
  740.3000  -999.2500    10.9444     9.6599     9.6727
  740.4000  -999.2500    10.8809     9.6600     9.6585
  740.5000  -999.2500    10.8177     9.6213     9.6065
  740.6000  -999.2500    10.7625     9.5934     9.6070
  740.7000  -999.2500    10.7628     9.5768     9.6074
  740.8000  -999.2500    10.7631     9.5272     9.5698
  740.9000  -999.2500    10.7634     9.5273     9.5417
  741.0000  -999.2500    10.7637     9.4773     9.5421
  741.1000  -999.2500    10.7640     9.4616     9.5425
  741.2000  -999.2500    10.7643     9.4334     9.5429
  741.3000  -999.2500    10.7646     9.3963     9.4930
  741.4000  -999.2500    10.7649     9.3964     9.4776
  741.5000  -999.2500    10.7652     9.3966     9.4780
  741.6000  -999.2500    10.7655     9.3967     9.4784
  741.7000  -999.2500    10.7658     9.4369     9.4788
  741.8000  -999.2500    10.7661     9.4625     9.4792
  741.9000  -999.2500    10.7664     9.4626     9.4796
  742.0000  -999.2500    10.7667     9.4628     9.4800
  742.1000  -999.2500    10.7670     9.4629     9.4804
  742.2000  -999.2500    10.7673     9.5153     9.4808
  742.3000  -999.2500    10.7676     9.5292     9.4904
  742.4000  -999.2500    10.7679     9.5293     9.5476
  742.5000  -999.2500    10.7645     9.5096     9.5480
  742.6000  -999.2500    10.6937     9.4635     9.5484
  742.7000  -999.2500    10.6940     9.4637     9.5488
  742.8000  -999.2500    10.6943     9.4638     9.5274
  742.9000  -999.2500    10.6946     9.4217     9.4835
  743.0000  -999.2500    10.6949     9.3985     9.4839
  743.1000  -999.2500    10.6888     9.3781     9.4844
  743.2000  -999.2500    10.6212     9.3239     9.4399
  743.3000  -999.2500    10.6214     9.2692     9.3855
  743.4000  -999.2500    10.5772     9.2164     9.3314
  743.5000  -999.2500    10.5157     9.1631     9.2776
  743.6000  -999.2500    10.4752     9.0790     9.2219
  743.7000  -999.2500    10.4579     9.0155     9.0995
  743.8000  -999.2500    10.3308     9.0051     9.0551
  743.9000  -999.2500    10.2736     8.9533     9.0029
  744.0000  -999.2500    10.2596     8.9534     8.9750
  744.1000  -999.2500    10.2257     8.9535     8.9754
  744.2000  -999.2500    10.1888     8.9219     8.9758
  744.3000  -999.2500    10.1891     8.8918     8.9762
  744.4000  -999.2500    10.1894     8.8919     8.9765
  744.5000  -999.2500    10.1897     8.8920     8.9769
  744.6000  -999.2500    10.1900     8.8922     8.9773
  744.7000  -999.2500    10.1903     8.8923     8.9777
  744.8000  -999.2500    10.1905     8.8924     8.9780
  744.9000  -999.2500    10.1908     8.8925     8.9784
  745.0000  -999.2500    10.1911     8.8926     8.9788
  745.1000  -999.2500    10.1914     8.8927     8.9791
  745.2000  -999.2500    10.1917     8.8929     8.9795
  745.3000  -999.2500    10.1920     8.8930     8.9799
  745.4000  -999.2500    10.1922     8.8931     8.9803
  745.5000  -999.2500    10.1925     8.8932     8.9807
  745.6000  -999.2500    10.1928     8.8934     8.9810
  745.7000  -999.2500    10.1931     8.8967     8.9814
  745.8000  -999.2500    10.1934     8.9557     8.9818
  745.9000  -999.2500    10.1937     8.9558     8.9821
  746.0000  -999.2500    10.1940     8.9559     8.9825
  746.1000  -999.2500    10.1942     8.9560     8.9829
  746.2000  -999.2500    10.2020     8.9561     8.9833
  746.3000  -999.2500    10.2662     8.9563     8.9836
  746.4000  -999.2500    10.2664     8.9564     9.0152
  746.5000  -999.2500    10.2667     8.9565     9.0470
  746.6000  -999.2500    10.2670     8.9926     9.0474
  746.7000  -999.2500    10.2673     9.0192     9.0478
  746.8000  -999.2500    10.2777     9.0194     9.0482
  746.9000  -999.2500    10.3397     9.0195     9.0485
  747.0000  -999.2500    10.3400     9.0196     9.0821
  747.1000  -999.2500    10.3403     9.0673     9.1123
  747.2000  -999.2500    10.3406     9.0828     9.1127
  747.3000  -999.2500    10.3653     9.0829     9.1105
  747.4000  -999.2500    10.4135     9.0830     9.0505
  747.5000  -999.2500    10.4138     9.0769     9.0508
  747.6000  -999.2500    10.4141     9.0204     9.0512
  747.7000  -999.2500    10.4650     9.0205     9.0515
  747.8000  -999.2500    10.4875     9.0206     9.0375
  747.9000  -999.2500    10.4878     8.9930     8.9896
  748.0000  -999.2500    10.4881     8.9584     8.9900
  748.1000  -999.2500    10.4884     8.9513     8.9904
  748.2000  -999.2500    10.4887     8.8966     8.9908
  748.3000  -999.2500    10.4890     8.8967     8.9650
  748.4000  -999.2500    10.4893     8.8968     8.9293
  748.5000  -999.2500    10.4896     8.8970     8.9296
  748.6000  -999.2500    10.4899     8.8788     8.9300
  748.7000  -999.2500    10.4902     8.8356     8.9304
  748.8000  -999.2500    10.4905     8.8357     8.9308
  748.9000  -999.2500    10.4907     8.7866     8.9311
  749.0000  -999.2500    10.4910     8.7747     8.9138
  749.1000  -999.2500    10.4588     8.7459     8.8700
  749.2000  -999.2500    10.4187     8.7142     8.8704
  749.3000  -999.2500    10.4190     8.7143     8.8708
  749.4000  -999.2500    10.4193     8.7144     8.8712
  749.5000  -999.2500    10.3614     8.6650     8.8423
  749.6000  -999.2500    10.3475     8.6543     8.7913
  749.7000  -999.2500    10.3131     8.6544     8.7498
  749.8000  -999.2500    10.2762     8.6349     8.7502
  749.9000  -999.2500    10.2764     8.5947     8.7004
  750.0000  -999.2500    10.2767     8.5948     8.6503
  750.1000  -999.2500    10.2057     8.5354     8.6004
  750.2000  -999.2500    10.2059     8.5355     8.5712
  750.3000  -999.2500    10.2062     8.5056     8.5608
  750.4000  -999.2500    10.2065     8.4766     8.5115
  750.5000  -999.2500    10.2068     8.4662     8.4541
  750.6000  -999.2500    10.2045     8.4182     8.4137
  750.7000  -999.2500    10.1364     8.4183     8.3962
  750.8000  -999.2500    10.0864     8.4184     8.4182
  750.9000  -999.2500    10.0665     8.3880     8.4554
  751.0000  -999.2500    10.0393     8.3603     8.4586
  751.1000  -999.2500     9.9810     8.3491     8.5151
  751.2000  -999.2500     9.9279     8.3026     8.5583
  751.3000  -999.2500     9.9283     8.3028     8.6087
  751.4000  -999.2500     9.8767     8.3847     8.6593
  751.5000  -999.2500     9.8598     8.4829     8.7102
  751.6000  -999.2500     9.8307     8.5596     8.7614
  751.7000  -999.2500     9.7919     8.6224     8.8182
  751.8000  -999.2500     9.7848     8.7232     8.8647
  751.9000  -999.2500     9.7244     8.8395     8.9168
  752.0000  -999.2500     9.7246     8.8840     8.9693
  752.1000  -999.2500     9.6826     8.9359     9.0220
  752.2000  -999.2500     9.6576     8.9881     9.0685
  752.3000  -999.2500     9.6579     9.0406     9.0689
  752.4000  -999.2500     9.6485     9.0934     9.1185
  752.5000  -999.2500     9.5913     9.1529     9.1721
  752.6000  -999.2500     9.5916     9.1530     9.1969
  752.7000  -999.2500     9.5918     9.1897     9.2161
  752.8000  -999.2500     9.5587     9.2171     9.2618
  752.9000  -999.2500     9.5257     9.2172     9.2622
  753.0000  -999.2500     9.5260     9.2174     9.2626
  753.1000  -999.2500     9.5250     9.2175     9.2630
  753.2000  -999.2500     9.4604     9.2176     9.2324
  753.3000  -999.2500     9.4606     9.2178     9.1996
  753.4000  -999.2500     9.4255     9.1908     9.1899
  753.5000  -999.2500     9.3954     9.1542     9.1367
  753.6000  -999.2500     9.3816     9.1543     9.0739
  753.7000  -999.2500     9.3306     9.1544     9.0742
  753.8000  -999.2500     9.3309     9.1545     9.0425
  753.9000  -999.2500     9.2836     9.1547     9.0121
  754.0000  -999.2500     9.2666     9.1269     9.0009
  754.1000  -999.2500     9.2668     9.0915     8.9505
  754.2000  -999.2500     9.2509     9.0846     8.9509
  754.3000  -999.2500     9.2029     9.0288     8.9079
  754.4000  -999.2500     9.2032     9.0289     8.8897
  754.5000  -999.2500     9.2035     9.0290     8.8900
