~VERSION INFORMATION
 VERS.                2.0:   CWLS LOG ASCII STANDARD - VERSION 2.0
 WRAP.                 NO:   ONE LINE PER DEPTH STEP
~WELL INFORMATION
#MNEM.UNIT      DATA TYPE    INFORMATION
#----------   ------------   ------------------------------
 STRT.F          484.0000:   START DEPTH
 STOP.F         2291.5000:   STOP DEPTH
 STEP.F            0.5000:   STEP LENGTH
 NULL.          -999.2500:   NO VALUE
 COMP. FENIX & SCISSON INC:   COMPANY
 WELL.     45 SHX 3 #45-3:   WELL
 FLD .             TEAPOT:   FIELD
 LOC .       S3 T38N R78W:   LOCATION
 CNTY.            NATRONA:   COUNTY
 STAT.            WYOMING:   STATE
 CTRY. UNITED STATES OF AMERICA:   COUNTRY
 SRVC.              Welex:   SERVICE COMPANY
 DATE.        20-APR-1980:   LOGDATE
 API .       490251080400:   API NUMBER
~CURVE INFORMATION
#MNEM.UNIT       API CODE    CURVE DESCRIPTION
#----------   ------------   ------------------------------
 DEPT.F                  :   
 CALD.IN     45 280 60 00:   CALIPER
 GRD .GAPI   45 310 01 00:   GAMMA RAY FROM DENSITY LOG
 CORR.G/C3   45 356 01 00:   DENSITY CORRECTION
 RHOB.G/C3   45 350 01 00:   BULK DENSITY
 DPHI.DEC    45 890 12 00:   DENSITY POROSITY SANDSTONE
~PARAMETER INFORMATION
#MNEM.UNIT          VALUE    DESCRIPTION
#----------   ------------   ------------------------------
 PD  .                 GL:   PERMANENT DATUM
 EPD .F              5186:   ELEVATION PERMANENT DATUM
 LMF .                 KB:   LOG MEASURED FROM
 DAPD.F                10:   FEET ABOVE PERMANENT DATUM
 DMF .                 KB:   DRILLING MEASURED FROM
 EKB .F              5196:   KELLING BUSHING
 EGL .F              5186:   GROUND LEVEL
 DATE.            4-20-80:   RUN DATE
 RUN .                  1:   RUN NUMBER
 DD  .F              2341:   DEPTH DRILLER
 DL  .F              2293:   DEPTH LOGGER
 BLI .F              2291:   BOTTOM LOG INTERVAL
 TLI .F               500:   TOP LOG INTERVAL
 CS  .IN            9.625:   CASING SIZE
 BS  .IN             8.75:   BIT SIZE
 BSD .F              2341:   BIT SIZE AT DEPTH
 DFT .                OIL:   DRILLING FLUID TYPE
 TCS .HRS               2:   TIME CURCULATED STOPPED
 MRT .F               218:   MAXIMUM RECORDED TEMPERATURE
 ENGI.            TOTHILL:   RECORDING ENGINEER
 WITN.           DINSMORE:   WITNESSED BY
 CLNT.            A2DTECH:   CLIENT CODE
 ORIG.           5" PRINT:   ORIGIN OF DATA
 UWI .       490251080400:   UNIQUE WELL ID
 DICO. A2D Technologies, Inc.:   DIGITIZING COMPANY
~OTHER INFORMATION
~A   DEPT     CALD         GRD      CORR       RHOB       DPHI   
# ...
  728.0000     9.4417    75.1427     0.0312     2.4798     0.0925
  728.5000     9.3931    75.1110     0.0335     2.4856     0.0907
  729.0000     9.3773    75.0790     0.0342     2.4884     0.0890
  729.5000     9.3772    75.0476     0.0348     2.4926     0.0873
  730.0000     9.3774    75.0155     0.0412     2.5014     0.0790
  730.5000     9.3638    75.1377     0.0401     2.5077     0.0766
  731.0000     9.2454    75.4096     0.0393     2.5095     0.0755
  731.5000     9.1234    75.6815     0.0404     2.5116     0.0742
  732.0000     9.0794    75.9544     0.0389     2.5095     0.0757
  732.5000     9.1251    76.2288     0.0330     2.5094     0.0757
  733.0000     9.1704    76.4968     0.0364     2.5154     0.0724
  733.5000     9.2132    76.3999     0.0356     2.5164     0.0726
  734.0000     9.1765    76.2754     0.0328     2.5159     0.0727
  734.5000     9.1365    75.8603     0.0307     2.5159     0.0723
  735.0000     9.1348    74.9400     0.0298     2.5183     0.0716
  735.5000     9.1347    74.1141     0.0333     2.5210     0.0686
  736.0000     9.1490    73.4224     0.0382     2.5236     0.0663
  736.5000     9.1549    72.7301     0.0402     2.5220     0.0692
  737.0000     9.1498    72.0416     0.0360     2.5203     0.0720
  737.5000     9.1444    71.3433     0.0359     2.5156     0.0692
  738.0000     9.1392    70.2011     0.0290     2.5092     0.0756
  738.5000     9.1338    69.0696     0.0364     2.5145     0.0730
  739.0000     9.1066    67.9428     0.0349     2.5192     0.0716
  739.5000     9.0796    66.8115     0.0270     2.5109     0.0752
  740.0000     9.0531    65.9949     0.0246     2.5125     0.0744
  740.5000     9.0336    65.4866     0.0222     2.5070     0.0772
  741.0000     9.0526    64.9520     0.0211     2.5024     0.0801
  741.5000     9.0776    64.3564     0.0208     2.5005     0.0811
  742.0000     9.0950    63.8589     0.0182     2.4948     0.0838
  742.5000     9.0947    64.1767     0.0111     2.4864     0.0891
  743.0000     9.0948    64.4848     0.0147     2.4909     0.0865
  743.5000     9.0946    64.7907     0.0191     2.4990     0.0823
  744.0000     9.1089    65.0949     0.0220     2.5071     0.0776
  744.5000     9.1332    65.3362     0.0338     2.5152     0.0712
  745.0000     9.1577    65.2569     0.0369     2.5216     0.0691
  745.5000     9.1821    65.1829     0.0299     2.5124     0.0742
  746.0000     9.2067    65.1111     0.0234     2.5023     0.0784
  746.5000     9.2112    65.0354     0.0397     2.5141     0.0711
  747.0000     9.1890    65.4933     0.0546     2.5294     0.0639
  747.5000     9.1671    66.1961     0.0572     2.5298     0.0647
  748.0000     9.1453    66.8155     0.0586     2.5251     0.0661
  748.5000     9.1234    66.2536     0.0659     2.5319     0.0621
  749.0000     9.1011    65.6741     0.0776     2.5439     0.0555
  749.5000     9.0972    65.1132     0.0838     2.5547     0.0490
  750.0000     9.1431    64.7049     0.0710     2.5540     0.0562
  750.5000     9.1743    64.4115     0.0533     2.5280     0.0651
  751.0000     9.1593    64.3471     0.0412     2.5192     0.0718
  751.5000     9.1450    64.2761     0.0372     2.5128     0.0740
  752.0000     9.1349    64.2025     0.0257     2.5064     0.0802
  752.5000     9.1351    64.1514     0.0151     2.4911     0.0881
  753.0000     9.1350    65.0242     0.0020     2.4764     0.0959
  753.5000     9.1345    65.9809    -0.0104     2.4629     0.1038
  754.0000     9.1589    66.9585    -0.0164     2.4545     0.1101
  754.5000     9.1900    67.0768    -0.0262     2.4472     0.1146
  755.0000     9.2164    66.5941    -0.0321     2.4416     0.1171
  755.5000     9.2158    66.1083    -0.0180     2.4641     0.1053
  756.0000     9.2157    65.6324    -0.0044     2.4844     0.0941
  756.5000     9.2160    65.4826     0.0092     2.4957     0.0840
  757.0000     9.1915    66.2948     0.0132     2.5045     0.0788
  757.5000     9.1522    67.0898     0.0074     2.4997     0.0828
  758.0000     9.1125    67.8833    -0.0067     2.4850     0.0891
  758.5000     9.0755    68.6855    -0.0175     2.4701     0.1006
  759.0000     9.0714    68.9991    -0.0151     2.4737     0.0984
  759.5000     9.0681    69.0945    -0.0094     2.4806     0.0954
  760.0000     9.0647    69.1853    -0.0038     2.4866     0.0922
  760.5000     9.0611    69.2503     0.0003     2.4835     0.0932
  761.0000     9.0577    68.9442    -0.0053     2.4774     0.0975
  761.5000     9.0549    68.6554    -0.0114     2.4715     0.1006
  762.0000     9.0391    68.4562    -0.0051     2.4743     0.0943
  762.5000     9.0217    68.2657     0.0083     2.4864     0.0877
  763.0000     9.0042    68.0757     0.0213     2.4983     0.0812
  763.5000     8.9868    67.8856     0.0309     2.5103     0.0747
  764.0000     8.9693    67.6953     0.0312     2.5140     0.0753
  764.5000     8.9518    67.5038     0.0296     2.5079     0.0788
  765.0000     8.9344    67.3138     0.0223     2.4991     0.0841
  765.5000     8.9381    67.2094     0.0151     2.4913     0.0883
  766.0000     8.9401    67.6498     0.0080     2.4847     0.0914
  766.5000     8.9996    68.0817     0.0031     2.4806     0.0925
  767.0000     9.0700    68.3153     0.0062     2.4834     0.0907
  767.5000     9.1422    68.1706     0.0112     2.4876     0.0890
  768.0000     9.1075    67.9612     0.0110     2.4913     0.0873
  768.5000     9.0262    67.3978     0.0139     2.4937     0.0856
  769.0000     8.9974    66.8390     0.0233     2.5030     0.0810
  769.5000     9.0132    66.2808     0.0320     2.5144     0.0731
  770.0000     9.0293    65.7215     0.0386     2.5238     0.0688
  770.5000     9.0451    65.1660     0.0366     2.5185     0.0705
  771.0000     9.0421    64.7751     0.0303     2.5130     0.0733
  771.5000     9.0128    65.0185     0.0240     2.5075     0.0762
  772.0000     8.9832    65.2480     0.0200     2.5092     0.0754
  772.5000     8.9995    65.4762     0.0254     2.5148     0.0724
  773.0000     9.0347    65.6842     0.0237     2.5155     0.0736
  773.5000     8.9991    65.8471     0.0258     2.5208     0.0701
  774.0000     8.9584    66.0068     0.0298     2.5268     0.0660
  774.5000     8.9601    66.1639     0.0335     2.5275     0.0639
  775.0000     8.9695    66.0889     0.0252     2.5250     0.0700
  775.5000     8.9790    65.7675     0.0258     2.5245     0.0659
  776.0000     8.9885    65.4478     0.0298     2.5313     0.0649
  776.5000     8.9979    65.1113     0.0348     2.5386     0.0587
  777.0000     9.0074    65.2365     0.0373     2.5407     0.0586
  777.5000     9.0169    65.5027     0.0276     2.5243     0.0637
  778.0000     9.0263    65.7687     0.0241     2.5185     0.0686
  778.5000     9.0345    65.8995     0.0208     2.5156     0.0724
  779.0000     9.0343    65.7523     0.0073     2.4991     0.0810
  779.5000     9.0345    65.6103    -0.0057     2.4840     0.0905
  780.0000     9.0264    65.4675     0.0019     2.4897     0.0871
  780.5000     9.0163    65.3247    -0.0036     2.4845     0.0896
  781.0000     9.0060    65.1814    -0.0020     2.4869     0.0901
  781.5000     8.9954    65.0441     0.0026     2.4985     0.0831
  782.0000     9.0062    65.0375     0.0103     2.5100     0.0761
  782.5000     9.0214    65.0263     0.0215     2.5212     0.0692
  783.0000     9.0369    65.5542     0.0264     2.5200     0.0699
  783.5000     9.0521    66.1795     0.0252     2.5164     0.0715
  784.0000     9.0451    66.8078     0.0272     2.5131     0.0734
  784.5000     8.9997    67.2911     0.0151     2.5047     0.0812
  785.0000     8.9553    67.5940     0.0041     2.4967     0.0844
  785.5000     8.9108    67.8955    -0.0047     2.4923     0.0873
  786.0000     8.8689    67.9399    -0.0037     2.4936     0.0861
  786.5000     8.8088    67.6843     0.0060     2.4992     0.0833
  787.0000     8.8555    67.4293     0.0177     2.5048     0.0773
  787.5000     8.9036    67.1668     0.0277     2.5105     0.0744
  788.0000     8.9521    67.1979     0.0258     2.5114     0.0779
  788.5000     9.0026    67.2521     0.0108     2.4989     0.0844
