~VERSION INFORMATION
 VERS.                2.0:   CWLS LOG ASCII STANDARD - VERSION 2.0
 WRAP.                 NO:   ONE LINE PER DEPTH STEP
~WELL INFORMATION
#MNEM.UNIT      DATA TYPE    INFORMATION
#----------   ------------   ------------------------------
 STRT.F         1379.5000:   START DEPTH
 STOP.F         2168.0000:   STOP DEPTH
 STEP.F            0.5000:   STEP LENGTH
 NULL.          -999.2500:   NO VALUE
 COMP.   FLUOR DANIEL INC:   COMPANY
 WELL. NAVAL PETROLEUM RESERVE 3  83-5-STX-10 #83-5-10:   WELL
 FLD .            WILDCAT:   FIELD
 LOC .      S10 T38N R78W:   LOCATION
 CNTY.            NATRONA:   COUNTY
 STAT.            WYOMING:   STATE
 CTRY. UNITED STATES OF AMERICA:   COUNTRY
 SRVC.            Unknown:   SERVICE COMPANY
 DATE.        20-JAN-1995:   LOGDATE
 API .       490252265500:   API NUMBER
~CURVE INFORMATION
#MNEM.UNIT       API CODE    CURVE DESCRIPTION
#----------   ------------   ------------------------------
 DEPT.F                  :   
 C1  .VF     91 831 01 00:   METHANE
 C2  .VF     91 832 01 00:   ETHANE
 ROP .FT/HR  91 810 01 00:   RAT OF DRILLING PENETRATION
 TGAS.TC/CC  91 830 01 00:   TOTAL GAS UNIT
~PARAMETER INFORMATION
#MNEM.UNIT          VALUE    DESCRIPTION
#----------   ------------   ------------------------------
 DATE.        20-JAN-1995:   RUN DATE
 BLI .F              2165:   BOTTOM LOG INTERVAL
 TLI .F              1380:   TOP LOG INTERVAL
 CLNT.            A2DTECH:   CLIENT CODE
 ORIG.         2.5" PRINT:   ORIGIN OF DATA
 UWI .       490252265500:   UNIQUE WELL ID
 DICO. A2D Technologies, Inc.:   DIGITIZING COMPANY
~OTHER INFORMATION
~A  DEPT        C1         C2        ROP        TGAS  
# ...
 1525.5000  -999.2500  -999.2500     0.4768  1211.5653
 1526.0000  -999.2500  -999.2500     0.4779  1211.4590
 1526.5000  -999.2500  -999.2500     0.4789  1218.7299
 1527.0000  -999.2500  -999.2500     0.4800  1218.6060
 1527.5000  -999.2500  -999.2500     0.4811  1225.8811
 1528.0000  -999.2500  -999.2500     0.4822  1225.7527
 1528.5000  -999.2500  -999.2500     0.4833  1225.6598
 1529.0000  -999.2500  -999.2500     0.4843  1225.5403
 1529.5000  -999.2500  -999.2500     0.4854  1225.4164
 1530.0000  -999.2500  -999.2500     0.4865  1225.3102
 1530.5000  -999.2500  -999.2500     0.4876  1224.2943
 1531.0000  -999.2500  -999.2500     0.4886  1217.7295
 1531.5000  -999.2500  -999.2500     0.4897  1217.5968
 1532.0000  -999.2500  -999.2500     0.4908  1217.4906
 1532.5000  -999.2500  -999.2500     0.4919  1210.0072
 1533.0000  -999.2500  -999.2500     0.4929  1209.9010
 1533.5000  -999.2500  -999.2500     0.4940  1209.7771
 1534.0000  -999.2500  -999.2500     0.7509  1217.0833
 1534.5000  -999.2500  -999.2500     0.7875  1224.3540
 1535.0000  -999.2500  -999.2500     0.7875  1224.2124
 1535.5000  -999.2500  -999.2500     0.7875  1231.5010
 1536.0000  -999.2500  -999.2500     0.5128  1231.3593
 1536.5000  -999.2500  -999.2500     0.5128  1231.2531
 1537.0000  -999.2500  -999.2500     0.5128  1231.1469
 1537.5000  -999.2500  -999.2500     0.5128  1231.0406
 1538.0000  -999.2500  -999.2500     0.5128  1230.9166
 1538.5000  -999.2500  -999.2500     0.5128  1230.8237
 1539.0000  -999.2500  -999.2500     0.5128  1230.7042
 1539.5000  -999.2500  -999.2500     0.5128  1230.5803
 1540.0000  -999.2500  -999.2500     0.5128  1230.4918
 1540.5000  -999.2500  -999.2500     0.5128  1230.3678
 1541.0000  -999.2500  -999.2500     0.5128  1230.2616
 1541.5000  -999.2500  -999.2500     0.5128  1230.1377
 1542.0000  -999.2500  -999.2500     0.5128  1230.0315
 1542.5000  -999.2500  -999.2500     0.5128  1229.9252
 1543.0000  -999.2500  -999.2500     0.5128  1229.8190
 1543.5000  -999.2500  -999.2500     0.5128  1229.7128
 1544.0000  -999.2500  -999.2500     0.5128  1229.5889
 1544.5000  -999.2500  -999.2500     0.5128  1236.8950
 1545.0000  -999.2500  -999.2500     0.5128  1236.7534
 1545.5000  -999.2500  -999.2500     0.5128  1236.6472
 1546.0000  -999.2500  -999.2500     0.5128  1229.1462
 1546.5000  -999.2500  -999.2500     0.5128  1229.0399
 1547.0000  -999.2500  -999.2500     0.5128  1228.9426
 1547.5000  -999.2500  -999.2500     0.5128  1228.8098
 1548.0000  -999.2500  -999.2500     0.5128  1228.7213
 1548.5000  -999.2500  -999.2500     0.5128  1228.6106
 1549.0000  -999.2500  -999.2500     0.5128  1228.4911
 1549.5000  -999.2500  -999.2500     0.5495  1228.3672
 1550.0000  -999.2500  -999.2500     0.7875  1220.8839
 1550.5000  -999.2500  -999.2500     0.7875  1221.7137
 1551.0000  -999.2500  -999.2500     0.7875  1228.0662
 1551.5000  -999.2500  -999.2500     0.7875  1227.9246
 1552.0000  -999.2500  -999.2500     0.8059  1227.8184
 1552.5000  -999.2500  -999.2500     0.9890  1227.7122
 1553.0000  -999.2500  -999.2500     0.9890  1227.6058
 1553.5000  -999.2500  -999.2500     0.9890  1227.4819
 1554.0000  -999.2500  -999.2500     0.9890  1227.3757
 1554.5000  -999.2500  -999.2500     0.9890  1227.2695
 1555.0000  -999.2500  -999.2500     1.0073  1227.1721
 1555.5000  -999.2500  -999.2500     1.0073  1227.0570
 1556.0000  -999.2500  -999.2500     1.0073  1226.9508
 1556.5000  -999.2500  -999.2500     1.0073  1226.8269
 1557.0000  -999.2500  -999.2500     1.0073  1226.7206
 1557.5000  -999.2500  -999.2500     1.0256  1226.6144
 1558.0000  -999.2500  -999.2500     0.7875  1226.4905
 1558.5000  -999.2500  -999.2500     0.7875  1219.0072
 1559.0000  -999.2500  -999.2500     0.7875  1218.9009
 1559.5000  -999.2500  -999.2500     0.7875  1218.7991
 1560.0000  -999.2500  -999.2500     0.5675  1218.6708
 1560.5000  -999.2500  -999.2500     0.5660  1218.5646
 1561.0000  -999.2500  -999.2500     0.5645  1218.4583
 1561.5000  -999.2500  -999.2500     0.5630  1218.3344
 1562.0000  -999.2500  -999.2500     0.5615  1218.2281
 1562.5000  -999.2500  -999.2500     0.5600  1218.1219
 1563.0000  -999.2500  -999.2500     0.5585  1218.0245
 1563.5000  -999.2500  -999.2500     0.5570  1217.9094
 1564.0000  -999.2500  -999.2500     0.5555  1217.7855
 1564.5000  -999.2500  -999.2500     0.5540  1217.6793
 1565.0000  -999.2500  -999.2500     0.5525  1224.9679
 1565.5000  -999.2500  -999.2500     0.5510  1224.8262
 1566.0000  -999.2500  -999.2500     0.5495  1224.7200
 1566.5000  -999.2500  -999.2500     0.5480  1224.6138
 1567.0000  -999.2500  -999.2500     0.5466  1224.5076
 1567.5000  -999.2500  -999.2500     0.5451  1224.4056
 1568.0000  -999.2500  -999.2500     0.5436  1224.2950
 1568.5000  -999.2500  -999.2500     0.5421  1224.1843
 1569.0000  -999.2500  -999.2500     0.5406  1224.0737
 1569.5000  -999.2500  -999.2500     0.5391  1223.9630
 1570.0000  -999.2500  -999.2500     0.5376  1223.8524
 1570.5000  -999.2500  -999.2500     0.5361  1223.7417
 1571.0000  -999.2500  -999.2500     0.5346  1223.6311
 1571.5000  -999.2500  -999.2500     0.5331  1223.5204
 1572.0000  -999.2500  -999.2500     0.5316  1223.4098
 1572.5000  -999.2500  -999.2500     0.5301  1223.2991
 1573.0000  -999.2500  -999.2500     0.5286  1223.1885
 1573.5000  -999.2500  -999.2500     0.5271  1223.0778
 1574.0000  -999.2500  -999.2500     0.5256  1222.9672
 1574.5000  -999.2500  -999.2500     0.5241  1222.8564
 1575.0000  -999.2500  -999.2500     0.5226  1222.7458
 1575.5000  -999.2500  -999.2500     0.5211  1222.6351
 1576.0000  -999.2500  -999.2500     0.5196  1222.5245
 1576.5000  -999.2500  -999.2500     0.5181  1222.4138
 1577.0000  -999.2500  -999.2500     0.5167  1222.3032
 1577.5000  -999.2500  -999.2500     0.5152  1222.1925
 1578.0000  -999.2500  -999.2500     0.5137  1222.0819
 1578.5000  -999.2500  -999.2500     0.7692  1221.9712
 1579.0000  -999.2500  -999.2500     0.7692  1221.8606
 1579.5000  -999.2500  -999.2500     0.7692  1221.7499
 1580.0000  -999.2500  -999.2500     0.7692  1221.6216
 1580.5000  -999.2500  -999.2500     0.7692  1221.5287
 1581.0000  -999.2500  -999.2500     0.7692  1221.4092
 1581.5000  -999.2500  -999.2500     0.7875  1221.3030
 1582.0000  -999.2500  -999.2500     0.9890  1221.1790
 1582.5000  -999.2500  -999.2500     0.9890  1221.0728
 1583.0000  -999.2500  -999.2500     0.9890  1220.9666
 1583.5000  -999.2500  -999.2500     0.9890  1220.8427
 1584.0000  -999.2500  -999.2500     1.0806  1220.7363
 1584.5000  -999.2500  -999.2500     1.3187  1220.6301
 1585.0000  -999.2500  -999.2500     1.3187  1220.5239
 1585.5000  -999.2500  -999.2500     1.3187  1220.4000
 1586.0000  -999.2500  -999.2500     1.2271  1220.2937
 1586.5000  -999.2500  -999.2500     1.0073  1220.1875
 1587.0000  -999.2500  -999.2500     1.0073  1220.0813
 1587.5000  -999.2500  -999.2500     1.0073  1219.9795
 1588.0000  -999.2500  -999.2500     0.7875  1219.8688
 1588.5000  -999.2500  -999.2500     0.7875  1219.7449
 1589.0000  -999.2500  -999.2500     0.7875  1219.6387
 1589.5000  -999.2500  -999.2500     0.7875  1219.5148
 1590.0000  -999.2500  -999.2500     0.7875  1212.0314
 1590.5000  -999.2500  -999.2500     0.7875  1211.9252
 1591.0000  -999.2500  -999.2500     0.7875  1211.8190
 1591.5000  -999.2500  -999.2500     0.7875  1211.7128
 1592.0000  -999.2500  -999.2500     0.8059  1211.6066
 1592.5000  -999.2500  -999.2500     0.9524  1204.1056
 1593.0000  -999.2500  -999.2500     0.9524  1196.6312
 1593.5000  -999.2500  -999.2500     0.9524  1196.4984
 1594.0000  -999.2500  -999.2500     1.2454  1196.3922
 1594.5000  -999.2500  -999.2500     1.2454  1196.2859
 1595.0000  -999.2500  -999.2500     1.2821  1196.1797
 1595.5000  -999.2500  -999.2500     1.2821  1188.6787
 1596.0000  -999.2500  -999.2500     1.2821  1188.5725
 1596.5000  -999.2500  -999.2500     1.2821  1188.4662
 1597.0000  -999.2500  -999.2500     1.2821  1195.7371
 1597.5000  -999.2500  -999.2500     1.3004  1195.6309
 1598.0000  -999.2500  -999.2500     0.6593  1195.5070
