~VERSION INFORMATION
 VERS.                2.0:   CWLS LOG ASCII STANDARD - VERSION 2.0
 WRAP.                 NO:   ONE LINE PER DEPTH STEP
~WELL INFORMATION
#MNEM.UNIT      DATA TYPE    INFORMATION
#----------   ------------   ------------------------------
 STRT.F           28.0000:   START DEPTH
 STOP.F          856.0000:   STOP DEPTH
 STEP.F            0.5000:   STEP LENGTH
 NULL.          -999.2500:   NO VALUE
 COMP. FENIX & SCISSON INC:   COMPANY
 WELL. NPR 3  76 SX #76-27:   WELL
 FLD .             TEAPOT:   FIELD
 LOC .      S27 T39N R78W:   LOCATION
 CNTY.            NATRONA:   COUNTY
 STAT.            WYOMING:   STATE
 CTRY. UNITED STATES OF AMERICA:   COUNTRY
 SRVC.            Unknown:   SERVICE COMPANY
 DATE.        06-SEP-1978:   LOGDATE
 API .       490251069600:   API NUMBER
~CURVE INFORMATION
#MNEM.UNIT       API CODE    CURVE DESCRIPTION
#----------   ------------   ------------------------------
 DEPT.F                  :   
 SPR .MV     05 010 01 00:   SPONTANEOUS POTENTIAL FROM RES.
 SN  .OHMM   05 040 16 00:   SHORT NORMAL 16"
 ILD .OHMM   05 120 46 00:   INDUCTION LOG DEEP
 NPHI.DEC    42 890 03 00:   NEUTRON POROSITY SANDSTONE
 GRD .GAPI   45 310 01 00:   GAMMA RAY FROM DENSITY LOG
 CALD.IN     45 280 60 00:   CALIPER
 RHOB.G/C3   45 350 01 00:   BULK DENSITY
 DPHI.DEC    45 890 12 00:   DENSITY POROSITY SANDSTONE
 CORR.G/C3   45 356 01 00:   DENSITY CORRECTION
~PARAMETER INFORMATION
#MNEM.UNIT          VALUE    DESCRIPTION
#----------   ------------   ------------------------------
 PD  .                 GL:   PERMANENT DATUM
 EPD .F              5062:   ELEVATION PERMANENT DATUM
 LMF .                 KB:   LOG MEASURED FROM
 DAPD.F                 4:   FEET ABOVE PERMANENT DATUM
 DMF .                 KB:   DRILLING MEASURED FROM
 EKB .F              5066:   KELLING BUSHING
 EGL .F              5062:   GROUND LEVEL
 DATE.             9-6-78:   RUN DATE
 RUN .                  1:   RUN NUMBER
 DD  .F               865:   DEPTH DRILLER
 DL  .F               857:   DEPTH LOGGER
 BLI .F               851:   BOTTOM LOG INTERVAL
 TLI .F                40:   TOP LOG INTERVAL
 CS  .IN            8.625:   CASING SIZE
 CBD .F                43:   CASING BOTTOM DRILLER
 CBL .F                43:   CASING BOTTOM LOGGER
 BS  .IN            7.875:   BIT SIZE
 BSD .F               865:   BIT SIZE AT DEPTH
 DFT .                KCL:   DRILLING FLUID TYPE
 DFD .                8.4:   DRILLING FLUID DENSITY
 DFV .                 40:   DRILLING FLUID VISCOSITY
 DFPH.                  9:   DRILLING FLUID PH
 DFL .                  6:   DRILLING FLUID LOSS
 MSS .           FLOWLINE:   MUD SAMPLE SOURCE
 RMS .OHMM            .14:   RESISTIVITY MUD SAMPLE
 MST .F                84:   MUD SAMPLE TEMPERATURE
 RMF .OHMM             .1:   RESISTIVITY MUD FILTRATE SAMPLE
 MFST.F                94:   MUD FILTRATE SAMPLE TEMPERATURE
 RMC .OHMM            .18:   RESISTIVITY MUD CAKE
 MCST.F                92:   MUD CAKE SAMPLE TEMPERATURE
 MFSS.               MEAS:   MUD FILTRATE SAMPLE SOURCE
 MCSS.               MEAS:   MUD CAKE SAMPLE SOURCE
 RMB .OHMM           .145:   RESISTIVITY MUD AT BHT
 BHT .F                82:   BOTTOM HOLE TEMPERATURE
 TCS .HRS               3:   TIME CURCULATED STOPPED
 MRT .F                82:   MAXIMUM RECORDED TEMPERATURE
 LUN .               2958:   LOGGING UNIT NUMBER
 LUL .               CASP:   LOGGING UNIT LOCATION
 ENGI.           REYNOLDS:   RECORDING ENGINEER
 WITN.           MCGINLEY:   WITNESSED BY
 CLNT.            A2DTECH:   CLIENT CODE
 ORIG.           5" PRINT:   ORIGIN OF DATA
 UWI .       490251069600:   UNIQUE WELL ID
 DICO. A2D Technologies, Inc.:   DIGITIZING COMPANY
~OTHER INFORMATION
~A   DEPT      SPR         SN        ILD       NPHI         GRD      CALD       RHOB       DPHI       CORR   
# ...
  283.5000   -90.3786     5.7907     4.1817  -999.2500    81.7176     7.6383     2.5177     0.1271     0.0050
  284.0000   -90.3961     5.8319     4.2241  -999.2500    84.1856     7.6521     2.4945     0.1412     0.0030
  284.5000   -90.4135     5.8766     4.4732  -999.2500    87.0329     7.6512     2.4752     0.1412     0.0029
  285.0000   -90.4310     5.9506     4.8029  -999.2500    86.7638     7.6509     2.4553     0.1349     0.0067
  285.5000   -90.4484     6.0321     4.6922  -999.2500    85.3795     7.6856     2.4507     0.1281     0.0100
  286.0000   -90.4659     6.1142     4.6299  -999.2500    83.9811     7.7047     2.4592     0.1221     0.0132
  286.5000   -90.4833     6.2096     5.3129  -999.2500    82.5834     7.7294     2.4679     0.1227     0.0110
  287.0000   -90.5007     6.2399     4.7591  -999.2500    82.1844     7.7512     2.4766     0.1292     0.0081
  287.5000   -90.5182     6.2812     4.7500  -999.2500    82.8721     7.7506     2.4786     0.1314     0.0062
  288.0000   -90.5356     6.3246     4.7378  -999.2500    83.5993     7.7442     2.4717     0.1320     0.0043
  288.5000   -90.5530     6.3246     4.7257  -999.2500    82.7076     7.7256     2.4649     0.1325     0.0025
  289.0000   -90.5703     6.3246     4.7136  -999.2500    81.4392     7.7072     2.4651     0.1340     0.0008
  289.5000   -90.5882     6.3246     4.7016  -999.2500    82.0573     7.6888     2.4648     0.1390     0.0032
  290.0000   -90.6035     6.3245     4.6895  -999.2500    80.2976     7.6704     2.4592     0.1390     0.0044
  290.5000   -90.8072     6.3167     4.6775  -999.2500    78.3683     7.6516     2.4546     0.1373     0.0055
  291.0000   -91.1370     6.2724     4.6486  -999.2500    77.8141     7.6257     2.4552     0.1397     0.0095
  291.5000   -91.4684     6.2287     4.5876  -999.2500    79.0437     7.5993     2.4558     0.1412     0.0163
  292.0000   -91.7984     6.1853     4.5553  -999.2500    80.6753     7.5730     2.4476     0.1406     0.0226
  292.5000   -92.0277     6.1422     4.5226  -999.2500    82.9473     7.5466     2.4447     0.1402     0.0205
  293.0000   -92.0995     6.0994     4.4741  -999.2500    84.7211     7.5202     2.4462     0.1467     0.0181
  293.5000   -92.1735     6.0569     4.3295  -999.2500    83.6119     7.4940     2.4475     0.1577     0.0157
  294.0000   -92.2470     5.9565     4.1907  -999.2500    82.5490     7.4789     2.4444     0.1635     0.0133
  294.5000   -92.3206     5.8237     4.0564  -999.2500    82.1101     7.5090     2.4217     0.1618     0.0110
  295.0000   -92.3943     5.6938     3.9264  -999.2500    81.6834     7.5381     2.4145     0.1653     0.0110
  295.5000   -92.4679     5.5668     3.8006  -999.2500    82.1393     7.5670     2.4152     0.1746     0.0120
  296.0000   -92.5416     5.4426     3.6788  -999.2500    83.0470     7.5960     2.4125     0.1840     0.0129
  296.5000   -92.6152     5.3212     3.5609  -999.2500    84.3060     7.6249     2.3966     0.1890     0.0139
  297.0000   -92.6889     5.2025     3.4468  -999.2500    86.9189     7.6539     2.3811     0.1827     0.0149
  297.5000   -92.7625     5.0864     3.3363  -999.2500    89.2503     7.6828     2.3698     0.1707     0.0159
  298.0000   -92.8362     4.9730     3.2369  -999.2500    88.6983     7.7118     2.3999     0.1595     0.0168
  298.5000   -92.9098     4.9241     3.1841  -999.2500    88.0872     7.7409     2.4272     0.1482     0.0169
  299.0000   -92.9835     4.9052     3.1493  -999.2500    88.0797     7.7690     2.4471     0.1424     0.0169
  299.5000   -93.0572     4.8919     3.1491  -999.2500    88.1051     7.7760     2.4463     0.1424     0.0169
  300.0000   -93.1299     4.9235     3.3129  -999.2500    87.1762     7.7581     2.4457     0.1346     0.0169
  300.5000   -93.1859     4.9694     3.4695  -999.2500    84.7123     7.7450     2.4520     0.1330     0.0169
  301.0000   -93.1954     5.0157     3.6365  -999.2500    80.4460     7.7317     2.4609     0.1341     0.0167
  301.5000   -93.2061     5.2084     3.7584  -999.2500    79.3302     7.7184     2.4681     0.1325     0.0149
  302.0000   -93.2166     5.4664     3.9090  -999.2500    78.4914     7.7050     2.4666     0.1297     0.0131
  302.5000   -93.2271     5.7372     4.0719  -999.2500    77.7905     7.6917     2.4660     0.1289     0.0112
  303.0000   -93.2376     6.0214     4.5407  -999.2500    77.9416     7.6784     2.4691     0.1299     0.0094
  303.5000   -93.2481     6.3246     5.0459  -999.2500    78.0741     7.6650     2.4715     0.1310     0.0076
  304.0000   -93.2586     6.3761     5.4098  -999.2500    78.2159     7.6524     2.4705     0.1310     0.0058
  304.5000   -93.2691     6.4424     5.5690  -999.2500    78.9294     7.6386     2.4695     0.1305     0.0071
  305.0000   -93.2796     6.5090     5.5803  -999.2500    80.3419     7.6225     2.4685     0.1315     0.0075
  305.5000   -93.2901     6.5766     5.5916  -999.2500    80.2732     7.6062     2.4676     0.1328     0.0105
  306.0000   -93.3006     6.6447     5.6028  -999.2500    80.0487     7.5900     2.4666     0.1341     0.0133
  306.5000   -93.3111     6.6824     5.6135  -999.2500    81.8034     7.5738     2.4657     0.1284     0.0160
  307.0000   -93.3216     6.6658     5.6827  -999.2500    83.5844     7.5575     2.4656     0.1287     0.0165
  307.5000   -93.3321     6.6544     5.7491  -999.2500    84.5135     7.5413     2.4690     0.1309     0.0113
  308.0000   -93.3426     6.6429     5.8234  -999.2500    82.2248     7.5251     2.4729     0.1379     0.0078
  308.5000   -93.3531     6.6316     5.7348  -999.2500    78.1721     7.5089     2.4644     0.1434     0.0042
  309.0000   -93.3636     6.6214     5.6398  -999.2500    77.0621     7.4926     2.4554     0.1464     0.0006
  309.5000   -93.3750     6.6214     5.5318  -999.2500    78.1481     7.4764     2.4463     0.1505    -0.0031
  310.0000   -93.4288     6.5820     5.4258  -999.2500    80.0196     7.4601     2.4391     0.1559    -0.0068
  310.5000   -93.5288     6.4662     5.3219  -999.2500    81.8785     7.4439     2.4339     0.1574    -0.0071
  311.0000   -93.6283     6.3525     5.2199  -999.2500    82.4810     7.4276     2.4286     0.1591    -0.0071
  311.5000   -93.7276     6.2407     5.1199  -999.2500    83.0375     7.4140     2.4233     0.1701    -0.0047
  312.0000   -93.9613     6.1310     5.0219  -999.2500    82.7745     7.4169     2.4151     0.1819     0.0000
  312.5000   -94.3109     6.0233     4.9825  -999.2500    82.3381     7.4198     2.4005     0.1938     0.0047
  313.0000   -94.6595     5.9168     4.9825  -999.2500    83.1416     7.4226     2.3861     0.2018     0.0090
  313.5000   -95.0110     5.7666     4.8937  -999.2500    83.9409     7.4253     2.3716     0.2001     0.0132
  314.0000   -95.1832     5.5903     4.5119  -999.2500    83.5869     7.4281     2.3568     0.1804     0.0135
  314.5000   -95.2332     5.4199     4.1599  -999.2500    80.6562     7.4309     2.3532     0.1558     0.0084
  315.0000   -95.2808     5.2547     3.7153  -999.2500    77.4684     7.4338     2.3909     0.1357     0.0055
  315.5000   -95.3273     5.0946     3.3277  -999.2500    76.3101     7.4229     2.4371     0.1341     0.0027
  316.0000   -95.3269     4.9394     3.3277  -999.2500    78.7810     7.7827     2.4648     0.1359     0.0017
  316.5000   -95.2544     4.7156     3.3277  -999.2500    77.8040     7.2470     2.4630     0.1373     0.0034
  317.0000   -95.1847     4.7487     3.3277  -999.2500    77.1732     7.3741     2.4614     0.1364     0.0050
  317.5000   -95.0344     4.8153     3.3277  -999.2500    77.5920     7.4222     2.4598     0.1313     0.0067
  318.0000   -94.8457     4.9367     3.3277  -999.2500    80.1508     7.4636     2.4590     0.1250     0.0084
  318.5000   -94.6556     5.1116     3.3277  -999.2500    82.6026     7.4981     2.4671     0.1217     0.0101
  319.0000   -94.4657     5.2927     3.4579  -999.2500    82.5464     7.5318     2.4810     0.1245     0.0117
  319.5000   -94.3751     5.4725     3.8284  -999.2500    82.5316     7.5667     2.4802     0.1274     0.0130
