~VERSION INFORMATION
 VERS.                2.0:   CWLS LOG ASCII STANDARD - VERSION 2.0
 WRAP.                 NO:   ONE LINE PER DEPTH STEP
~WELL INFORMATION
#MNEM.UNIT      DATA TYPE    INFORMATION
#----------   ------------   ------------------------------
 STRT.F           20.0000:   START DEPTH
 STOP.F          626.0000:   STOP DEPTH
 STEP.F            0.5000:   STEP LENGTH
 NULL.          -999.2500:   NO VALUE
 COMP. FENIX & SCISSON INC:   COMPANY
 WELL. NPR-3  38-S-34 #38-34:   WELL
 FLD .             TEAPOT:   FIELD
 LOC .      S34 T39N R78W:   LOCATION
 CNTY.            NATRONA:   COUNTY
 STAT.            WYOMING:   STATE
 CTRY. UNITED STATES OF AMERICA:   COUNTRY
 SRVC.           BIRDWELL:   SERVICE COMPANY
 DATE.        08-AUG-1978:   LOGDATE
 API .       490251068300:   API NUMBER
~CURVE INFORMATION
#MNEM.UNIT       API CODE    CURVE DESCRIPTION
#----------   ------------   ------------------------------
 DEPT.F                  :   
 SPR .MV     05 010 01 00:   SPONTANEOUS POTENTIAL FROM RES.
 SN  .OHMM   05 040 16 00:   SHORT NORMAL 16"
 IL  .OHMM   05 120 00 00:   INDUCTION LOG
 RHOB.G/C3   45 350 01 00:   BULK DENSITY
 DPHI.DEC    45 890 12 00:   DENSITY POROSITY SANDSTONE
 CORR.G/C3   45 356 01 00:   DENSITY CORRECTION
 GRD .GAPI   45 310 01 00:   GAMMA RAY FROM DENSITY LOG
 CALD.IN     45 280 60 00:   CALIPER
~PARAMETER INFORMATION
#MNEM.UNIT          VALUE    DESCRIPTION
#----------   ------------   ------------------------------
 PD  .                 GL:   PERMANENT DATUM
 EPD .F              5213:   ELEVATION PERMANENT DATUM
 LMF .                 KB:   LOG MEASURED FROM
 DAPD.F                 4:   FEET ABOVE PERMANENT DATUM
 DMF .                 KB:   DRILLING MEASURED FROM
 EKB .F              5217:   KELLING BUSHING
 EGL .F              5213:   GROUND LEVEL
 DATE.             8-8-78:   RUN DATE
 RUN .                  1:   RUN NUMBER
 DD  .F               620:   DEPTH DRILLER
 DL  .F               632:   DEPTH LOGGER
 BLI .F               626:   BOTTOM LOG INTERVAL
 TLI .F                35:   TOP LOG INTERVAL
 CS  .IN            8.625:   CASING SIZE
 CBL .F                35:   CASING BOTTOM LOGGER
 BS  .IN            7.875:   BIT SIZE
 BSD .F               620:   BIT SIZE AT DEPTH
 DFT .                KCL:   DRILLING FLUID TYPE
 DFD .                8.7:   DRILLING FLUID DENSITY
 DFV .                 33:   DRILLING FLUID VISCOSITY
 DFPH.                  9:   DRILLING FLUID PH
 DFL .                  5:   DRILLING FLUID LOSS
 MSS .          FLOW LINE:   MUD SAMPLE SOURCE
 RMS .OHMM            .12:   RESISTIVITY MUD SAMPLE
 MST .F                80:   MUD SAMPLE TEMPERATURE
 RMF .OHMM            .13:   RESISTIVITY MUD FILTRATE SAMPLE
 MFST.F                83:   MUD FILTRATE SAMPLE TEMPERATURE
 RMC .OHMM            .16:   RESISTIVITY MUD CAKE
 MCST.F                84:   MUD CAKE SAMPLE TEMPERATURE
 MFSS.               MEAS:   MUD FILTRATE SAMPLE SOURCE
 TCS .HRS               1:   TIME CURCULATED STOPPED
 LUN .               3006:   LOGGING UNIT NUMBER
 LUL .               CASP:   LOGGING UNIT LOCATION
 ENGI.             MILLER:   RECORDING ENGINEER
 WITN.           MCGINLEY:   WITNESSED BY
 CLNT.            A2DTECH:   CLIENT CODE
 ORIG.           5" PRINT:   ORIGIN OF DATA
 UWI .       490251068300:   UNIQUE WELL ID
 DICO. A2D Technologies, Inc.:   DIGITIZING COMPANY
~OTHER INFORMATION
~A   DEPT      SPR         SN         IL       RHOB       DPHI       CORR         GRD      CALD   
# ...
  344.0000   -35.7000     6.1384     5.7865     2.4730     0.1208     0.0239   103.8302     7.4971
  344.5000   -35.6999     6.0721     5.7422     2.4737     0.1181     0.0291   102.3123     7.5016
  345.0000   -35.6991     5.9951     5.7032     2.4796     0.1156     0.0344    99.1646     7.5061
  345.5000   -35.6993     5.9189     5.6456     2.4855     0.1136     0.0312    95.9979     7.5106
  346.0000   -35.7633     5.8438     5.5838     2.4899     0.1144     0.0238    95.2467     7.5150
  346.5000   -36.1166     5.7695     5.5226     2.4799     0.1219     0.0163    96.3490     7.5195
  347.0000   -36.4573     5.6963     5.4622     2.4647     0.1272     0.0199    97.3849     7.5240
  347.5000   -36.6781     5.6240     5.4024     2.4632     0.1201     0.0251    96.4036     7.5284
  348.0000   -36.5846     5.5526     5.3432     2.4872     0.1136     0.0304    92.5300     7.5329
  348.5000   -36.5078     5.4821     5.2847     2.5057     0.1071     0.0351    91.4536     7.5419
  349.0000   -36.6917     5.4124     5.1911     2.5242     0.1000     0.0169    94.1077     7.5540
  349.5000   -36.8882     5.3478     5.0486     2.5282     0.1071     0.0077    99.8247     7.5662
  350.0000   -37.0835     5.2143     4.9100     2.4860     0.1156     0.0175   102.6123     7.5783
  350.5000   -37.2787     5.0914     4.7753     2.4677     0.1241     0.0197   100.3488     7.5905
  351.0000   -37.4741     4.9712     4.6459     2.4530     0.1326     0.0176    97.4602     7.6027
  351.5000   -37.6709     4.8561     4.3036     2.4390     0.1411     0.0152    96.2789     7.6140
  352.0000   -37.7006     4.5796     3.9357     2.4299     0.1491     0.0129    98.5831     7.6127
  352.5000   -37.7008     4.2894     3.5987     2.4197     0.1560     0.0106   101.4751     7.6109
  353.0000   -37.7021     4.0170     3.2908     2.4063     0.1629     0.0083   102.2544     7.6093
  353.5000   -37.7224     3.8054     3.0201     2.3943     0.1698     0.0060    97.2529     7.6076
  354.0000   -36.8464     3.6166     2.8250     2.3867     0.1767     0.0035    95.2055     7.6060
  354.5000   -35.8103     3.4371     2.6425     2.3774     0.1839     0.0068   100.6590     7.6043
  355.0000   -35.6962     3.3307     2.5075     2.3593     0.1966     0.0116   106.5065     7.6027
  355.5000   -35.7049     3.2554     2.4708     2.3409     0.2100     0.0219   106.1305     7.6010
  356.0000   -35.4390     3.3059     2.4643     2.3226     0.2233     0.0319   105.3092     7.5994
  356.5000   -35.1088     3.3615     2.4552     2.3044     0.2366     0.0430   104.5060     7.5974
  357.0000   -34.7781     3.4181     2.4482     2.2861     0.2500     0.0583   101.1899     7.5942
  357.5000   -34.4868     3.4718     2.5954     2.2677     0.2550     0.0818    95.4696     7.6042
  358.0000   -34.4578     3.6422     2.7938     2.2508     0.2550     0.0924    94.0130     8.0246
  358.5000   -34.4224     3.8095     3.1981     2.2490     0.2478     0.0848    94.7919     7.7367
  359.0000   -34.3864     3.9844     3.6686     2.2685     0.2339     0.0700    96.5038     7.6081
  359.5000   -34.3506     4.2131     3.9088     2.2900     0.2200     0.0548    98.1933     7.7715
  360.0000   -34.3136     4.5527     4.1688     2.3532     0.2061     0.0474    99.9016     7.8734
  360.5000   -34.3702     4.9196     4.4461     2.3646     0.1915     0.0897   101.6880     7.6477
  361.0000   -34.4851     5.1328     4.7455     2.4227     0.1665     0.1261   102.1971     7.7295
  361.5000   -34.6012     5.1820     4.7893     2.4564     0.1403     0.0515   100.0452     7.4950
  362.0000   -34.7173     5.2319     4.8081     2.4482     0.1216     0.0170    97.3357     8.3147
  362.5000   -34.8334     5.2819     4.8323     2.4612     0.1281     0.0040    96.7670     7.5798
  363.0000   -34.9494     5.2992     4.8567     2.4638     0.1332     0.0120    98.5446     7.5879
  363.5000   -35.0673     5.2989     4.8781     2.4521     0.1310     0.0213   100.5428     7.5943
  364.0000   -35.0810     5.2568     4.8485     2.4545     0.1276     0.0294   102.5358     7.6055
  364.5000   -35.0548     5.1802     4.7944     2.4616     0.1268     0.0243   104.5256     7.6167
  365.0000   -35.0278     5.1071     4.7403     2.4662     0.1284     0.0184   106.5150     7.6279
  365.5000   -35.0009     5.1080     4.6635     2.4629     0.1312     0.0125   108.5289     7.6390
  366.0000   -34.9742     5.0615     4.5159     2.4589     0.1361     0.0067   109.8388     7.6505
  366.5000   -34.9474     4.9936     4.3748     2.4502     0.1409     0.0006   109.3453     7.6437
  367.0000   -34.9214     4.8686     4.2379     2.4370     0.1448     0.0033   105.9765     7.6283
  367.5000   -34.8955     4.7470     4.1336     2.4321     0.1455     0.0084   102.8102     7.6126
  368.0000   -34.7867     4.6590     4.1344     2.4321     0.1465     0.0135   105.0699     7.5968
  368.5000   -34.6761     4.6161     4.1341     2.4322     0.1476     0.0185   108.7114     7.5944
  369.0000   -34.5661     4.5742     4.1343     2.4307     0.1543     0.0236   110.3203     7.5944
  369.5000   -34.4562     4.5919     4.1337     2.4106     0.1661     0.0350   111.8626     7.5943
  370.0000   -34.3463     4.6945     4.2236     2.3853     0.1723     0.0722   110.3853     7.5939
  370.5000   -34.2363     4.7993     4.3774     2.4149     0.1514     0.0853   107.8220     7.5913
  371.0000   -34.1222     4.9065     4.5369     2.4437     0.1364     0.0338   110.8425     7.8607
  371.5000   -34.1388     5.0160     4.7022     2.4476     0.1353     0.0292   113.8374     7.9342
  372.0000   -34.1898     5.1281     4.8781     2.4519     0.1357     0.0239   115.6590     7.5760
  372.5000   -34.2416     5.2426     4.9877     2.4509     0.1361     0.0188   111.3285     7.5510
  373.0000   -34.2930     5.3597     5.1028     2.4493     0.1364     0.0153   105.8154     7.5361
  373.5000   -34.3443     5.4794     5.2205     2.4480     0.1360     0.0148   100.8121     7.5438
  374.0000   -34.3957     5.6016     5.3410     2.4488     0.1330     0.0143   100.7664     7.5507
  374.5000   -34.4470     5.7554     5.4310     2.4522     0.1302     0.0138   105.7872     7.5577
  375.0000   -34.4984     5.7345     5.5481     2.4618     0.1280     0.0136   109.8879     7.5646
  375.5000   -34.5497     5.7077     5.5142     2.4628     0.1276     0.0187   105.6206     7.5716
  376.0000   -34.6011     5.6803     5.4725     2.4674     0.1241     0.0235    99.6105     7.5756
  376.5000   -34.6521     5.6533     5.4311     2.4760     0.1201     0.0235    97.3058     7.5775
  377.0000   -34.7024     5.6264     5.3901     2.4741     0.1198     0.0236   100.3727     7.5793
  377.5000   -34.7697     5.5996     5.3493     2.4721     0.1232     0.0200   100.5509     7.5812
  378.0000   -34.8353     5.5729     5.3089     2.4791     0.1267     0.0156   100.2573     7.5830
  378.5000   -34.9005     5.5464     5.2689     2.4608     0.1296     0.0150   103.7712     7.5849
  379.0000   -34.9663     5.5202     5.2289     2.4609     0.1296     0.0178   107.6209     7.5868
  379.5000   -35.0350     5.4855     5.1562     2.4602     0.1296     0.0205   107.0543     7.5886
  380.0000   -35.0869     5.3990     5.0187     2.4590     0.1316     0.0178   107.0522     7.5905
  380.5000   -34.4330     5.3137     4.8848     2.4527     0.1358     0.0116   107.3009     7.5924
  381.0000   -34.3004     5.2298     4.7545     2.4456     0.1379     0.0160   107.1072     7.5942
  381.5000   -34.2935     5.1473     4.6277     2.4456     0.1367     0.0221   105.2688     7.5944
  382.0000   -34.0639     5.0655     4.4497     2.4494     0.1356     0.0275   105.0031     7.5944
  382.5000   -33.5928     5.0138     4.4832     2.4535     0.1344     0.0232   111.6592     7.5944
  383.0000   -33.2764     5.0147     4.5447     2.4546     0.1413     0.0171   118.1934     7.5944
  383.5000   -33.2242     5.0146     4.6071     2.4394     0.1486     0.0109   119.6240     7.5944
  384.0000   -33.1685     5.0519     4.6703     2.4237     0.1559     0.0060   116.3373     7.5944
