~VERSION INFORMATION
 VERS.                2.0:   CWLS LOG ASCII STANDARD - VERSION 2.0
 WRAP.                 NO:   ONE LINE PER DEPTH STEP
~WELL INFORMATION
#MNEM.UNIT      DATA TYPE    INFORMATION
#----------   ------------   ------------------------------
 STRT.F           20.0000:   START DEPTH
 STOP.F         2420.0000:   STOP DEPTH
 STEP.F            0.5000:   STEP LENGTH
 NULL.          -999.2500:   NO VALUE
 COMP. FENIX & SCISSON INC:   COMPANY
 WELL.    SHX 15 #71-1-15:   WELL
 FLD .             TEAPOT:   FIELD
 LOC .      S15 T38N R78W:   LOCATION
 CNTY.            NATRONA:   COUNTY
 STAT.            WYOMING:   STATE
 CTRY. UNITED STATES OF AMERICA:   COUNTRY
 SRVC.           BIRDWELL:   SERVICE COMPANY
 DATE.        03-SEP-1978:   LOGDATE
 API .       490251081800:   API NUMBER
~CURVE INFORMATION
#MNEM.UNIT       API CODE    CURVE DESCRIPTION
#----------   ------------   ------------------------------
 DEPT.F                  :   
 CALD.IN     45 280 60 00:   CALIPER
 GRD .GAPI   45 310 01 00:   GAMMA RAY FROM DENSITY LOG
 RHOB.G/C3   45 350 01 00:   BULK DENSITY
 DPHI.DEC    45 890 12 00:   DENSITY POROSITY SANDSTONE
 CORR.G/C3   45 356 01 00:   DENSITY CORRECTION
 NPHI.DEC    42 890 03 00:   NEUTRON POROSITY
~PARAMETER INFORMATION
#MNEM.UNIT          VALUE    DESCRIPTION
#----------   ------------   ------------------------------
 PD  .                 GL:   PERMANENT DATUM
 EPD .F              5249:   ELEVATION PERMANENT DATUM
 LMF .                 KB:   LOG MEASURED FROM
 DAPD.F                10:   FEET ABOVE PERMANENT DATUM
 DMF .                 KB:   DRILLING MEASURED FROM
 EKB .F              5259:   KELLING BUSHING
 EGL .F              5249:   GROUND LEVEL
 DATE.             9-3-78:   RUN DATE
 RUN .                  1:   RUN NUMBER
 DD  .F              2450:   DEPTH DRILLER
 DL  .F              2422:   DEPTH LOGGER
 BLI .F              2420:   BOTTOM LOG INTERVAL
 TLI .F                50:   TOP LOG INTERVAL
 CS  .IN            9.625:   CASING SIZE
 CBD .F               650:   CASING BOTTOM DRILLER
 CBL .F               676:   CASING BOTTOM LOGGER
 BS  .IN             8.75:   BIT SIZE
 BSD .F              2450:   BIT SIZE AT DEPTH
 DFT .           AIR MIST:   DRILLING FLUID TYPE
 LUN .               2958:   LOGGING UNIT NUMBER
 LUL .               CASP:   LOGGING UNIT LOCATION
 ENGI.             MILLER:   RECORDING ENGINEER
 WITN.           MCGINLEY:   WITNESSED BY
 CLNT.            A2DTECH:   CLIENT CODE
 ORIG.         2.5" PRINT:   ORIGIN OF DATA
 UWI .       490251081800:   UNIQUE WELL ID
 DICO. A2D Technologies, Inc.:   DIGITIZING COMPANY
~OTHER INFORMATION
~A   DEPT     CALD        GRD       RHOB       DPHI       CORR         NPHI 
# ...
 1476.0000    12.1000   120.0831     2.5231     0.0905     0.0498  -999.2500
 1476.5000    12.1000   119.7712     2.5004     0.0944     0.0421  -999.2500
 1477.0000    12.1000   119.4350     2.4866     0.0965     0.0421  -999.2500
 1477.5000    12.1000   119.0771     2.4987     0.0984     0.0419  -999.2500
 1478.0000    12.1000   119.0332     2.4959     0.0996     0.0420  -999.2500
 1478.5000    12.1000   119.7351     2.4875     0.0982     0.0420  -999.2500
 1479.0000    12.1000   120.5006     2.4898     0.0961     0.0419  -999.2500
 1479.5000    12.1000   120.6286     2.4964     0.0939     0.0420  -999.2500
 1480.0000    12.1000   118.8961     2.5028     0.0917     0.0426  -999.2500
 1480.5000    12.1000   114.4638     2.5047     0.0899     0.0494  -999.2500
 1481.0000    12.1000   113.8159     2.5061     0.0892     0.0618  -999.2500
 1481.5000    12.1000   114.8745     2.5103     0.0864     0.0740  -999.2500
 1482.0000    12.1001   115.4824     2.5165     0.0832     0.0850  -999.2500
 1482.5000    12.1000   115.9882     2.5189     0.0813     0.0788  -999.2500
 1483.0000    12.1000   116.5753     2.5120     0.0798     0.0724  -999.2500
 1483.5000    12.1007   117.1263     2.5311     0.0782     0.0695  -999.2500
 1484.0000    12.0917   118.3932     2.5376     0.0785     0.0723  -999.2500
 1484.5000    12.0661   120.0288     2.5325     0.0813     0.0732  -999.2500
 1485.0000    12.0411   119.6258     2.5325     0.0827     0.0712  -999.2500
 1485.5000    12.0157   118.4232     2.5303     0.0843     0.0695  -999.2500
 1486.0000    11.9913   117.2299     2.5117     0.0860     0.0752  -999.2500
 1486.5000    11.9647   115.2513     2.5102     0.0876     0.0872  -999.2500
 1487.0000    11.9365   113.3537     2.5118     0.0875     0.0984  -999.2500
 1487.5000    11.9089   111.0628     2.5143     0.0829     0.1015  -999.2500
 1488.0000    11.8813   110.7070     2.5275     0.0772     0.0840  -999.2500
 1488.5000    11.8603   110.4354     2.5356     0.0733     0.0697  -999.2500
 1489.0000    11.8602   110.4003     2.5346     0.0733     0.0573  -999.2500
 1489.5000    11.8598   111.3283     2.5349     0.0785     0.0475  -999.2500
 1490.0000    11.8600   111.7890     2.5357     0.0834     0.0417  -999.2500
 1490.5000    11.8600   110.8491     2.5366     0.0809     0.0377  -999.2500
 1491.0000    11.8599   110.1200     2.5247     0.0759     0.0380  -999.2500
 1491.5000    11.8600   110.0562     2.5124     0.0734     0.0394  -999.2500
 1492.0000    11.8600   110.6220     2.5031     0.0762     0.0447  -999.2500
 1492.5000    11.8600   112.5257     2.5433     0.0790     0.0403  -999.2500
 1493.0000    11.8600   114.6150     2.5359     0.0819     0.0313  -999.2500
 1493.5000    11.8600   115.7578     2.5237     0.0837     0.0255  -999.2500
 1494.0000    11.8600   115.9128     2.5250     0.0856     0.0261  -999.2500
 1494.5000    11.8600   115.5425     2.5199     0.0861     0.0261  -999.2500
 1495.0000    11.8600   115.3330     2.5124     0.0836     0.0265  -999.2500
 1495.5000    11.8599   114.6796     2.5113     0.0810     0.0351  -999.2500
 1496.0000    11.8600   113.7548     2.5122     0.0789     0.0420  -999.2500
 1496.5000    11.8601   113.2113     2.5322     0.0800     0.0493  -999.2500
 1497.0000    11.8594   113.3333     2.5267     0.0814     0.0440  -999.2500
 1497.5000    11.8676   114.1873     2.5096     0.0829     0.0387  -999.2500
 1498.0000    11.8907   116.3306     2.5303     0.0829     0.0381  -999.2500
 1498.5000    11.9125   118.6718     2.5245     0.0782     0.0496  -999.2500
 1499.0000    11.9349   118.4461     2.5298     0.0739     0.0657  -999.2500
 1499.5000    11.9403   118.6031     2.5362     0.0750     0.0743  -999.2500
 1500.0000    11.9401   118.6450     2.5351     0.0762     0.0605  -999.2500
 1500.5000    11.9399   118.7848     2.5270     0.0773     0.0532  -999.2500
 1501.0000    11.9400   118.7937     2.5208     0.0712     0.0563  -999.2500
 1501.5000    11.9401   118.3281     2.5230     0.0731     0.0591  -999.2500
 1502.0000    11.9398   115.3208     2.5365     0.0769     0.0604  -999.2500
 1502.5000    11.9402   113.4554     2.5322     0.0807     0.0404  -999.2500
 1503.0000    11.9414   114.1452     2.5218     0.0837     0.0309  -999.2500
 1503.5000    11.9569   115.4466     2.5151     0.0834     0.0259  -999.2500
 1504.0000    11.9710   118.3696     2.5147     0.0831     0.0236  -999.2500
 1504.5000    11.9857   118.3530     2.5158     0.0829     0.0419  -999.2500
 1505.0000    11.9978   118.8190     2.5169     0.0837     0.0533  -999.2500
 1505.5000    12.0181   119.4911     2.5167     0.0875     0.0547  -999.2500
 1506.0000    11.9880   120.1239     2.5079     0.0932     0.0591  -999.2500
 1506.5000    11.9688   120.7613     2.4944     0.0929     0.0652  -999.2500
 1507.0000    11.9521   119.8873     2.5130     0.0924     0.0698  -999.2500
 1507.5000    11.9386   118.9225     2.5135     0.0916     0.0700  -999.2500
 1508.0000    11.9224   117.9382     2.5171     0.0834     0.0700  -999.2500
 1508.5000    11.9066   117.5182     2.5372     0.0751     0.0701  -999.2500
 1509.0000    11.8994   117.4140     2.5413     0.0685     0.0699  -999.2500
 1509.5000    11.9000   117.5168     2.5483     0.0694     0.0701  -999.2500
 1510.0000    11.9000   115.0640     2.5393     0.0701     0.0712  -999.2500
 1510.5000    11.8999   111.8851     2.5351     0.0708     0.0850  -999.2500
 1511.0000    11.9000   111.3627     2.5394     0.0717     0.0934  -999.2500
 1511.5000    11.9000   111.4916     2.5344     0.0731     0.0975  -999.2500
 1512.0000    11.9000   111.5937     2.5314     0.0749     0.0908  -999.2500
 1512.5000    11.9000   112.5384     2.5294     0.0766     0.0765  -999.2500
 1513.0000    11.9000   113.6518     2.5327     0.0773     0.0666  -999.2500
 1513.5000    11.9000   114.4779     2.5295     0.0741     0.0672  -999.2500
 1514.0000    11.9000   114.8264     2.5288     0.0789     0.0722  -999.2500
 1514.5000    11.9000   116.9253     2.5238     0.0837     0.0505  -999.2500
 1515.0000    11.9000   116.7534     2.5163     0.0832     0.0461  -999.2500
 1515.5000    11.9000   114.3220     2.5151     0.0827     0.0453  -999.2500
 1516.0000    11.9000   109.4678     2.5234     0.0821     0.0463  -999.2500
 1516.5000    11.9000   106.2530     2.5261     0.0821     0.0468  -999.2500
 1517.0000    11.9001   108.4715     2.5221     0.0805     0.0495  -999.2500
 1517.5000    11.9000   113.1677     2.5200     0.0778     0.0520  -999.2500
 1518.0000    11.9002   119.0146     2.5168     0.0757     0.0545  -999.2500
 1518.5000    11.9000   118.0863     2.5285     0.0789     0.0570  -999.2500
 1519.0000    11.8998   118.3027     2.5215     0.0789     0.0595  -999.2500
 1519.5000    11.9013   118.4536     2.5236     0.0781     0.0620  -999.2500
 1520.0000    11.8851   118.8753     2.5254     0.0756     0.0647  -999.2500
 1520.5000    11.8476   117.7012     2.5290     0.0731     0.0656  -999.2500
 1521.0000    11.8112   115.6440     2.5309     0.0701     0.0640  -999.2500
 1521.5000    11.7757   113.4455     2.5401     0.0692     0.0627  -999.2500
 1522.0000    11.7416   112.5249     2.5472     0.0689     0.0614  -999.2500
 1522.5000    11.7404   115.0963     2.5488     0.0685     0.0600  -999.2500
 1523.0000    11.7395   119.5076     2.5478     0.0682     0.0586  -999.2500
 1523.5000    11.7401   120.2391     2.5475     0.0678     0.0573  -999.2500
 1524.0000    11.7399   120.0711     2.5468     0.0669     0.0559  -999.2500
 1524.5000    11.7399   119.9130     2.5459     0.0753     0.0543  -999.2500
 1525.0000    11.7400   118.5490     2.5330     0.0837     0.0563  -999.2500
 1525.5000    11.7400   115.6734     2.5197     0.0833     0.0606  -999.2500
 1526.0000    11.7398   112.8944     2.5187     0.0829     0.0666  -999.2500
 1526.5000    11.7404   110.9207     2.5136     0.0733     0.0705  -999.2500
 1527.0000    11.7397   111.1024     2.5308     0.0767     0.0773  -999.2500
 1527.5000    11.7380   114.2437     2.5356     0.0823     0.0763  -999.2500
