~VERSION INFORMATION
 VERS.                2.0:   CWLS LOG ASCII STANDARD - VERSION 2.0
 WRAP.                 NO:   ONE LINE PER DEPTH STEP
~WELL INFORMATION
#MNEM.UNIT      DATA TYPE    INFORMATION
#----------   ------------   ------------------------------
 STRT.F           30.0000:   START DEPTH
 STOP.F          626.0000:   STOP DEPTH
 STEP.F            0.5000:   STEP LENGTH
 NULL.          -999.2500:   NO VALUE
 COMP.       F D SERV INC:   COMPANY
 WELL.    63-2 SX-3 #63-3:   WELL
 FLD .             TEAPOT:   FIELD
 LOC .       S3 T38N R78W:   LOCATION
 CNTY.            NATRONA:   COUNTY
 STAT.            WYOMING:   STATE
 CTRY. UNITED STATES OF AMERICA:   COUNTRY
 SRVC.     Atlas Wireline:   SERVICE COMPANY
 DATE.        29-APR-1992:   LOGDATE
 API .       490252251900:   API NUMBER
~CURVE INFORMATION
#MNEM.UNIT       API CODE    CURVE DESCRIPTION
#----------   ------------   ------------------------------
 DEPT.F                  :   
 CALD.IN     45 280 60 00:   CALIPER FROM DENSITY
 CORR.G/C3   45 356 01 00:   DENSITY CORRECTION
 DEN .G/C3   45 350 01 00:   COMPENSATED BULK DENSTIY
 GRD .GAPI   45 310 01 00:   GAMMA RAY FROM DENSITY LOG
 PORD.DEC    45 890 12 00:   POROSITY DENSITY SANDSTONE
 RILD.OHMM   07 120 46 00:   INDUCTION LOG DEEP RESISTIVITY
 RILM.OHMM   07 120 44 00:   INDUCTION LOG MEDIUM RESISTIVITY
~PARAMETER INFORMATION
#MNEM.UNIT          VALUE    DESCRIPTION
#----------   ------------   ------------------------------
 PD  .                 GL:   PERMANENT DATUM
 EPD .F              5160:   ELEVATION PERMANENT DATUM
 LMF .                 KB:   LOG MEASURED FROM
 DAPD.F                 5:   FEET ABOVE PERMANENT DATUM
 DMF .                 KB:   DRILLING MEASURED FROM
 EKB .F              5165:   KELLING BUSHING
 EGL .F              5160:   GROUND LEVEL
 DATE.        29-APR-1992:   RUN DATE
 RUN .                  1:   RUN NUMBER
 DD  .F               630:   DEPTH DRILLER
 DL  .F               629:   DEPTH LOGGER
 BLI .F               626:   BOTTOM LOG INTERVAL
 CS  .IN            8.625:   CASING SIZE
 CBD .F                45:   CASING BOTTOM DRILLER
 CBL .F                45:   CASING BOTTOM LOGGER
 BS  .IN            7.875:   BIT SIZE
 BSD .F               630:   BIT SIZE AT DEPTH
 DFT .                AIR:   DRILLING FLUID TYPE
 LUN .            HL-6212:   LOGGING UNIT NUMBER
 LUL .             CASPER:   LOGGING UNIT LOCATION
 ENGI.             ZIEGEN:   RECORDING ENGINEER
 WITN.             STRONG:   WITNESSED BY
 CLNT.            A2DTECH:   CLIENT CODE
 ORIG.           5" PRINT:   ORIGIN OF DATA
 UWI .       490252251900:   UNIQUE WELL ID
 DICO. A2D Technologies, Inc.:   DIGITIZING COMPANY
~OTHER INFORMATION
~A   DEPT     CALD       CORR        DEN        GRD       PORD       RILD       RILM   
# ...
  439.5000     8.3839     0.0147     2.4553   157.6558     0.1176    14.1071    13.6693
  440.0000     8.3680     0.0102     2.4485   158.2881     0.1206    14.0085    13.3865
  440.5000     8.3673     0.0072     2.4470   159.4418     0.1176    13.9107    13.2929
  441.0000     8.3513     0.0026     2.4598   160.9405     0.1140    13.6231    13.0178
  441.5000     8.3506     0.0011     2.4704   163.0434     0.1104    13.2491    12.8374
  442.0000     8.3498     0.0107     2.4786   165.7506     0.1077    12.8855    12.5717
  442.5000     8.3491     0.0147     2.4809   168.1557     0.1044    12.6191    12.3116
  443.0000     8.3483     0.0087     2.4824   169.6544     0.1029    12.4442    11.9734
  443.5000     8.3627    -0.0004     2.4816   169.6425     0.1023    12.1027    11.8074
  444.0000     8.3619    -0.0079     2.4809   167.8180     0.1023    11.8525    11.5631
  444.5000     8.3612    -0.0109     2.4824   165.9934     0.1008    11.7697    11.4028
  445.0000     8.3755     0.0011     2.4846   164.1689     0.0995    11.5263    11.2447
  445.5000     8.3899     0.0102     2.4854   164.4592     0.0989    11.5255    11.2440
  446.0000     8.4042     0.0132     2.4854   164.7494     0.0998    11.5247    11.2432
  446.5000     8.4202     0.0041     2.4846   161.5979     0.1014    11.5239    11.2424
  447.0000     8.4329    -0.0034     2.4823   159.2847     0.1008    11.5231    11.2416
  447.5000     8.4320    -0.0004     2.4786   159.8770     0.1014    11.7650    11.5575
  448.0000     8.4313    -0.0035     2.4630   161.6779     0.1059    12.1794    11.8823
  448.5000     8.4458    -0.0096     2.4333   161.0618     0.1119    12.8739    12.4735
  449.0000     8.4449    -0.0154     2.3519   152.2886     0.1586    15.2063    13.8422
  449.5000     8.4441     0.0026     2.3203   142.0048     0.2165    17.1094    16.9300
  450.0000     8.4455     0.0072     2.2707   135.1819     0.2394    19.4099    19.7258
  450.5000     8.4576     0.0041     2.2487   133.2229     0.2417    21.9557    21.3860
  451.0000     8.4720     0.0011     2.2260   132.9119     0.2533    24.5015    23.6179
  451.5000     8.4709     0.0086     2.2215   132.9029     0.2594    26.8989    29.4904
  452.0000     8.4700     0.0146     2.2238   133.1961     0.2563    32.2087    33.1798
  452.5000     8.4842     0.0178     2.2599   139.2294     0.2388    35.2252    37.0722
  453.0000     8.4833     0.0131     2.2863   145.5649     0.2204    37.4987    39.7305
  453.5000     8.4824     0.0101     2.3104   153.7612     0.2054    39.2912    39.1743
  454.0000     8.4815     0.0101     2.3179   157.9337     0.2023    38.1510    33.8503
  454.5000     8.4804     0.0161     2.3126   155.3746     0.2029    36.1059    30.9212
  455.0000     8.4644     0.0207     2.2983   150.6629     0.2132    34.3520    29.6529
  455.5000     8.4635     0.0221     2.2930   148.2370     0.2156    32.5165    28.2397
  456.0000     8.4626     0.0158     2.2931   145.5090     0.2159    31.4327    28.0385
  456.5000     8.4316     0.0145     2.2975   140.3641     0.2132    31.1714    29.6344
  457.0000     8.4307     0.0205     2.2879   138.2404     0.2192    30.5594    30.4632
  457.5000     8.4147     0.0205     2.2756   138.8357     0.2240    30.3404    30.2459
  458.0000     8.4138     0.0160     2.2741   143.6606     0.2262    30.3341    29.6160
  458.5000     8.4129     0.0114     2.3064   145.1644     0.2168    29.7029    28.9992
  459.0000     8.4120     0.0069     2.3260   142.7363     0.2011    28.8836    28.5932
  459.5000     8.4262     0.0039     2.3486   140.6126     0.1843    28.0869    27.0421
  460.0000     8.4555     0.0023     2.3509   144.5311     0.1803    27.1233    25.5751
  460.5000     8.4395     0.0068     2.3433   142.4074     0.1818    26.5588    24.6941
  461.0000     8.3934     0.0113     2.3343   138.4709     0.1895    26.3697    23.8435
  461.5000     8.3623     0.0159     2.3282   139.9726     0.1948    25.8209    23.0222
  462.0000     8.3463     0.0189     2.3267   143.2869     0.1966    25.1087    22.2190
  462.5000     8.3452     0.0203     2.3252   143.5800     0.1966    24.0795    21.7763
  463.0000     8.3596     0.0203     2.3244   142.6324     0.1966    23.7427    21.9236
  463.5000     8.3736     0.0203     2.3251   141.1126     0.1957    23.7377    22.2436
  464.0000     8.3727     0.0128     2.3259   142.0905     0.1930    23.7328    22.3759
  464.5000     8.3718     0.0007     2.3327   144.7505     0.1909    23.7279    22.2162
  465.0000     8.3709    -0.0038     2.3364   147.4606     0.1903    23.5589    21.8799
  465.5000     8.3701     0.0007     2.3311   147.4517     0.1927    23.5540    21.7491
  466.0000     8.3692     0.0082     2.3371   144.7259     0.1921    23.0638    21.5931
  466.5000     8.3683     0.0067     2.3439   145.3212     0.1852    23.0590    21.5886
  467.0000     8.3674     0.0021     2.3507   145.0079     0.1809    23.0542    21.5841
  467.5000     8.3665    -0.0025     2.3491   144.0926     0.1843    23.0495    21.7312
  468.0000     8.3505    -0.0041     2.3122   139.8541     0.1939    23.3668    22.3388
  468.5000     8.3496     0.0008     2.2986   139.2409     0.2105    23.6897    23.1223
  469.0000     8.3487     0.0069     2.2903   140.1383     0.2186    23.6836    23.4421
  469.5000     8.3328     0.0111     2.2873   141.3378     0.2204    23.6787    23.4360
  470.0000     8.3316     0.0126     2.3129   142.8394     0.2089    23.6738    22.3191
  470.5000     8.3157     0.0080     2.3490   144.3411     0.1899    23.6689    21.5528
  471.0000     8.3148     0.0065     2.3641   146.1448     0.1737    23.3377    20.5257
  471.5000     8.3290     0.0035     2.3679   149.1570     0.1710    23.0112    20.3794
  472.0000     8.3281     0.0020     2.3603   148.5399     0.1722    22.6893    20.2341
  472.5000     8.3272    -0.0011     2.3527   145.4532     0.1779    22.3719    20.2299
  473.0000     8.3262    -0.0041     2.3466   142.7131     0.1812    21.9063    20.3678
  473.5000     8.3407    -0.0056     2.3452   140.9113     0.1839    21.5998    20.3625
  474.0000     8.3245    -0.0026     2.3535   140.3487     0.1815    21.1503    20.5012
  474.5000     8.3236    -0.0011     2.3640   142.4546     0.1746    20.9997    20.0732
  475.0000     8.3227    -0.0026     2.3790   147.2795     0.1671    20.5627    19.3840
  475.5000     8.3218    -0.0057     2.3873   150.8959     0.1601    19.9955    18.8490
  476.0000     8.3210    -0.0042     2.3888   152.7019     0.1568    19.5794    18.3287
  476.5000     8.3201     0.0018     2.3828   150.8780     0.1616    19.4399    17.8227
  477.0000     8.3192     0.0018     2.3790   150.8691     0.1631    18.9037    17.3308
  477.5000     8.3183    -0.0012     2.3850   152.3707     0.1598    18.6393    17.3272
  478.0000     8.3172    -0.0042     2.3925   152.0596     0.1550    18.3785    17.2037
  478.5000     8.3163    -0.0088     2.3812   150.5401     0.1581    18.3747    17.3209
  479.0000     8.3003    -0.0088     2.3669   149.6248     0.1667    18.3709    17.3164
  479.5000     8.3147    -0.0043     2.3578   149.2578     0.1752    18.6238    17.3128
  480.0000     8.3136     0.0018     2.3525   152.0239     0.1794    18.8802    17.4299
  480.5000     8.3127     0.0062     2.3616   153.8276     0.1740    18.8763    17.5486
  481.0000     8.3118     0.0032     2.3699   156.2356     0.1686    18.7418    17.5441
  481.5000     8.3109    -0.0013     2.3783   159.2720     0.1662    18.4796    17.2984
  482.0000     8.3100    -0.0044     2.3819   160.1452     0.1641    18.2211    17.1751
  482.5000     8.3092    -0.0029     2.3796   157.9409     0.1616    17.3534    16.8175
  483.0000     8.3083     0.0031     2.3811   156.5015     0.1601    16.8747    16.3532
  483.5000     8.2923     0.0077     2.3841   156.1886     0.1556    16.0711    15.6825
  484.0000     8.2914     0.0091     2.4006   155.8776     0.1493    15.5197    15.2496
  484.5000     8.2754     0.0001     2.4217   155.2644     0.1372    15.1968    14.3225
