~VERSION INFORMATION
 VERS.                2.0:   CWLS LOG ASCII STANDARD - VERSION 2.0
 WRAP.                 NO:   ONE LINE PER DEPTH STEP
~WELL INFORMATION
#MNEM.UNIT      DATA TYPE    INFORMATION
#----------   ------------   ------------------------------
 STRT.F           12.0000:   START DEPTH
 STOP.F         2336.0000:   STOP DEPTH
 STEP.F            0.5000:   STEP LENGTH
 NULL.          -999.2500:   NO VALUE
 COMP. BROWN JOHN E&C INC:   COMPANY
 WELL.       STX 82 #51-3:   WELL
 FLD .          N.P.R. #3:   FIELD
 LOC .       S3 T38N R78W:   LOCATION
 CNTY.            NATRONA:   COUNTY
 STAT.            WYOMING:   STATE
 CTRY. UNITED STATES OF AMERICA:   COUNTRY
 SRVC.            Unknown:   SERVICE COMPANY
 DATE.        14-SEP-1992:   LOGDATE
 API .       490251125600:   API NUMBER
~CURVE INFORMATION
#MNEM.UNIT       API CODE    CURVE DESCRIPTION
#----------   ------------   ------------------------------
 DEPT.F                  :   
 GR  .GAPI   81 310 01 00:   GAMMA RAY
 DT  .US/F   81 520 00 00:   DELTA SONIC
 ROP .MIN/FT 91 810 01 00:   RATE OF DRILLING PENETRATION
 TGAS.UNITS  91 830 01 00:   TOTAL GAS FROM HOTWIRE
~PARAMETER INFORMATION
#MNEM.UNIT          VALUE    DESCRIPTION
#----------   ------------   ------------------------------
 PD  .                 GL:   PERMANENT DATUM
 EPD .F              5109:   ELEVATION PERMANENT DATUM
 LMF .                 KB:   LOG MEASURED FROM
 DMF .                 KB:   DRILLING MEASURED FROM
 EKB .F              5119:   KELLING BUSHING
 EGL .F              5109:   GROUND LEVEL
 DATE.            9-14-92:   RUN DATE
 RUN .                  1:   RUN NUMBER
 DD  .F               710:   DEPTH DRILLER
 DL  .F               622:   DEPTH LOGGER
 BLI .F               616:   BOTTOM LOG INTERVAL
 BS  .IN             10.5:   BIT SIZE
 BSD .F               710:   BIT SIZE AT DEPTH
 TCS .HRS            0930:   TIME CURCULATED STOPPED
 TLAB.HRS            1045:   TIME LOGGER AT BOTTOM
 LUN .                509:   LOGGING UNIT NUMBER
 LUL .           GILLETTE:   LOGGING UNIT LOCATION
 ENGI.         D. METCALF:   RECORDING ENGINEER
 WITN.     BRUCE ANDERSON:   WITNESSED BY
 CLNT.            A2DTECH:   CLIENT CODE
 ORIG.           5" PRINT:   ORIGIN OF DATA
 UWI .       490251125600:   UNIQUE WELL ID
 DICO. A2D Technologies, Inc.:   DIGITIZING COMPANY
~OTHER INFORMATION
~A   DEPT        GR        DT        ROP       TGAS   
# ...
 2056.0000  -999.2500  -999.2500     0.5299     9.3295
 2056.5000  -999.2500  -999.2500     0.5299    10.9901
 2057.0000  -999.2500  -999.2500     0.5299    10.2473
 2057.5000  -999.2500  -999.2500     0.5299    60.0647
 2058.0000  -999.2500  -999.2500     0.5299    64.1164
 2058.5000  -999.2500  -999.2500     0.5299    61.9965
 2059.0000  -999.2500  -999.2500     0.5299    55.8870
 2059.5000  -999.2500  -999.2500     0.5299    49.8393
 2060.0000  -999.2500  -999.2500     0.5299    43.7982
 2060.5000  -999.2500  -999.2500     0.5299    37.7573
 2061.0000  -999.2500  -999.2500     0.5299    31.4897
 2061.5000  -999.2500  -999.2500     0.5299    27.7785
 2062.0000  -999.2500  -999.2500     0.5299    24.0026
 2062.5000  -999.2500  -999.2500     0.5302    20.4351
 2063.0000  -999.2500  -999.2500     0.5324    18.8135
 2063.5000  -999.2500  -999.2500     0.5346    17.1710
 2064.0000  -999.2500  -999.2500     0.5368    15.5455
 2064.5000  -999.2500  -999.2500     0.5389    14.2252
 2065.0000  -999.2500  -999.2500     0.5411    13.7286
 2065.5000  -999.2500  -999.2500     0.5424    13.2249
 2066.0000  -999.2500  -999.2500     0.5424    12.7233
 2066.5000  -999.2500  -999.2500     0.5424    12.1783
 2067.0000  -999.2500  -999.2500     0.5424    12.1962
 2067.5000  -999.2500  -999.2500     0.5424    12.2823
 2068.0000  -999.2500  -999.2500     0.5424    12.3704
 2068.5000  -999.2500  -999.2500     0.5424    12.3757
 2069.0000  -999.2500  -999.2500     0.5424    12.3751
 2069.5000  -999.2500  -999.2500     0.5424    12.3750
 2070.0000  -999.2500  -999.2500     0.5424    12.3750
 2070.5000  -999.2500  -999.2500     0.5424    12.3750
 2071.0000  -999.2500  -999.2500     0.5424    12.3750
 2071.5000  -999.2500  -999.2500     0.5424    12.3750
 2072.0000  -999.2500  -999.2500     0.5424    12.3750
 2072.5000  -999.2500  -999.2500     0.5424    12.3750
 2073.0000  -999.2500  -999.2500     0.5424    12.3750
 2073.5000  -999.2500  -999.2500     0.5424    12.3750
 2074.0000  -999.2500  -999.2500     0.5424    12.3750
 2074.5000  -999.2500  -999.2500     0.5424    12.3746
 2075.0000  -999.2500  -999.2500     0.5424    12.3738
 2075.5000  -999.2500  -999.2500     0.5423    12.3883
 2076.0000  -999.2500  -999.2500     0.5400    12.6226
 2076.5000  -999.2500  -999.2500     0.5375    12.8498
 2077.0000  -999.2500  -999.2500     0.5354    13.0899
 2077.5000  -999.2500  -999.2500     0.5348    13.3037
 2078.0000  -999.2500  -999.2500     0.5150    15.1723
 2078.5000  -999.2500  -999.2500     0.7936    20.5737
 2079.0000  -999.2500  -999.2500     0.7657    34.4841
 2079.5000  -999.2500  -999.2500     0.7616    65.3294
 2080.0000  -999.2500  -999.2500     0.8704    60.3723
 2080.5000  -999.2500  -999.2500     1.0121    51.8521
 2081.0000  -999.2500  -999.2500     1.0123    43.3473
 2081.5000  -999.2500  -999.2500     1.0046    34.8357
 2082.0000  -999.2500  -999.2500     0.8180    26.3904
 2082.5000  -999.2500  -999.2500     0.5357    19.8364
 2083.0000  -999.2500  -999.2500     0.5318    17.5271
 2083.5000  -999.2500  -999.2500     0.5342    15.4120
 2084.0000  -999.2500  -999.2500     0.5364    13.1671
 2084.5000  -999.2500  -999.2500     0.5381    12.5127
 2085.0000  -999.2500  -999.2500     0.5399    12.8464
 2085.5000  -999.2500  -999.2500     0.5417    14.2267
 2086.0000  -999.2500  -999.2500     0.5419     6.9110
 2086.5000  -999.2500  -999.2500     0.5412    13.2848
 2087.0000  -999.2500  -999.2500     0.5404    15.4112
 2087.5000  -999.2500  -999.2500     0.5396    28.9286
 2088.0000  -999.2500  -999.2500     0.5388    86.3194
 2088.5000  -999.2500  -999.2500     0.5380   187.7083
 2089.0000  -999.2500  -999.2500     0.5372   229.7917
 2089.5000  -999.2500  -999.2500     0.5365   248.1250
 2090.0000  -999.2500  -999.2500     0.5357   247.4346
 2090.5000  -999.2500  -999.2500     0.5349   246.9835
 2091.0000  -999.2500  -999.2500     0.5341   246.3985
 2091.5000  -999.2500  -999.2500     0.5333   245.8216
 2092.0000  -999.2500  -999.2500     0.5326   243.2791
 2092.5000  -999.2500  -999.2500     0.5318   240.0286
 2093.0000  -999.2500  -999.2500     0.5310   236.7338
 2093.5000  -999.2500  -999.2500     0.5302   233.4375
 2094.0000  -999.2500  -999.2500     0.5305   230.1436
 2094.5000  -999.2500  -999.2500     0.5333   226.8497
 2095.0000  -999.2500  -999.2500     0.5362   223.5557
 2095.5000  -999.2500  -999.2500     0.5390   220.2618
 2096.0000  -999.2500  -999.2500     0.5418   216.9679
 2096.5000  -999.2500  -999.2500     0.5419   213.6740
 2097.0000  -999.2500  -999.2500     0.5413   210.3801
 2097.5000  -999.2500  -999.2500     0.5406   207.0867
 2098.0000  -999.2500  -999.2500     0.5400   203.7898
 2098.5000  -999.2500  -999.2500     0.5394   200.4677
 2099.0000  -999.2500  -999.2500     0.5387   197.0549
 2099.5000  -999.2500  -999.2500     0.5381   196.8485
 2100.0000  -999.2500  -999.2500     0.5375   196.8690
 2100.5000  -999.2500  -999.2500     0.5368   196.8750
 2101.0000  -999.2500  -999.2500     0.5362   196.8750
 2101.5000  -999.2500  -999.2500     0.5356   196.8750
 2102.0000  -999.2500  -999.2500     0.5349   196.8750
 2102.5000  -999.2500  -999.2500     0.5343   196.8750
 2103.0000  -999.2500  -999.2500     0.5337   196.8750
 2103.5000  -999.2500  -999.2500     0.5330   196.8750
 2104.0000  -999.2500  -999.2500     0.5324   196.8750
 2104.5000  -999.2500  -999.2500     0.5318   196.8750
 2105.0000  -999.2500  -999.2500     0.5308   196.8750
 2105.5000  -999.2500  -999.2500     0.5284   196.8750
 2106.0000  -999.2500  -999.2500     0.5436   196.8750
 2106.5000  -999.2500  -999.2500     0.7929   196.8750
 2107.0000  -999.2500  -999.2500     0.7895   196.8749
 2107.5000  -999.2500  -999.2500     0.7895   196.8745
 2108.0000  -999.2500  -999.2500     0.7883   196.8754
 2108.5000  -999.2500  -999.2500     0.7872   196.9139
 2109.0000  -999.2500  -999.2500     0.7862   197.0891
 2109.5000  -999.2500  -999.2500     0.7851   197.2584
 2110.0000  -999.2500  -999.2500     0.7841   197.4275
 2110.5000  -999.2500  -999.2500     0.7830   197.5965
 2111.0000  -999.2500  -999.2500     0.7820   197.7656
 2111.5000  -999.2500  -999.2500     0.7786   197.9347
 2112.0000  -999.2500  -999.2500     0.7844   198.1038
 2112.5000  -999.2500  -999.2500     0.4992   198.2729
 2113.0000  -999.2500  -999.2500     0.5113   198.4420
 2113.5000  -999.2500  -999.2500     0.5091   198.6111
 2114.0000  -999.2500  -999.2500     0.5050   198.7801
 2114.5000  -999.2500  -999.2500     0.5012   198.9492
 2115.0000  -999.2500  -999.2500     0.4974   199.1183
 2115.5000  -999.2500  -999.2500     0.4934   199.2874
 2116.0000  -999.2500  -999.2500     0.4940   199.4565
 2116.5000  -999.2500  -999.2500     0.4959   199.6256
 2117.0000  -999.2500  -999.2500     0.4980   199.7946
 2117.5000  -999.2500  -999.2500     0.5000   199.9637
 2118.0000  -999.2500  -999.2500     0.5020   200.1328
 2118.5000  -999.2500  -999.2500     0.5040   200.2933
 2119.0000  -999.2500  -999.2500     0.5060   200.4323
 2119.5000  -999.2500  -999.2500     0.5081   200.8840
 2120.0000  -999.2500  -999.2500     0.5101   206.0421
 2120.5000  -999.2500  -999.2500     0.5121   211.0761
 2121.0000  -999.2500  -999.2500     0.5141   216.1263
 2121.5000  -999.2500  -999.2500     0.5161   221.6173
 2122.0000  -999.2500  -999.2500     0.5174   241.8343
 2122.5000  -999.2500  -999.2500     0.5187   261.0817
 2123.0000  -999.2500  -999.2500     0.5203   280.3679
 2123.5000  -999.2500  -999.2500     0.5220   299.6321
 2124.0000  -999.2500  -999.2500     0.5237   318.8920
 2124.5000  -999.2500  -999.2500     0.5253   338.0338
 2125.0000  -999.2500  -999.2500     0.5270   358.6616
 2125.5000  -999.2500  -999.2500     0.5286   361.7379
 2126.0000  -999.2500  -999.2500     0.5300   364.6299
 2126.5000  -999.2500  -999.2500     0.5299   367.4392
 2127.0000  -999.2500  -999.2500     0.5299   369.3371
 2127.5000  -999.2500  -999.2500     0.5299   369.3699
 2128.0000  -999.2500  -999.2500     0.5299   369.3929
 2128.5000  -999.2500  -999.2500     0.5299   369.4789
