~VERSION INFORMATION
 VERS.                2.0:   CWLS LOG ASCII STANDARD - VERSION 2.0
 WRAP.                 NO:   ONE LINE PER DEPTH STEP
~WELL INFORMATION
#MNEM.UNIT      DATA TYPE    INFORMATION
#----------   ------------   ------------------------------
 STRT.F            8.0000:   START DEPTH
 STOP.F          598.0000:   STOP DEPTH
 STEP.F            0.5000:   STEP LENGTH
 NULL.          -999.2500:   NO VALUE
 COMP. FENIX & SCISSON INC:   COMPANY
 WELL.    16-SX-11 #16-11:   WELL
 FLD .             TEAPOT:   FIELD
 LOC .      S11 T38N R78W:   LOCATION
 CNTY.            NATRONA:   COUNTY
 STAT.            WYOMING:   STATE
 CTRY. UNITED STATES OF AMERICA:   COUNTRY
 SRVC.            Unknown:   SERVICE COMPANY
 DATE.        13-DEC-1978:   LOGDATE
 API .       490251078400:   API NUMBER
~CURVE INFORMATION
#MNEM.UNIT       API CODE    CURVE DESCRIPTION
#----------   ------------   ------------------------------
 DEPT.F                  :   
 RHOB.G/C3   45 350 01 00:   BULK DENSITY
 CORR.G/C3   45 356 01 00:   DENSITY CORRECTION
 SN  .OHMM   05 040 16 00:   SHORT NORMAL 16"
 ILD .OHMM   05 120 46 00:   INDUCTION LOG DEEP
 SPR .MV     05 010 01 00:   SPONTANEOUS POTENTIAL FROM RES.
 DPHI.DEC    45 890 12 00:   DENSITY POROSITY SANDSTONE
 CALD.IN     45 280 60 00:   CALIPER
 GRD .GAPI   45 310 01 00:   GAMMA RAY FROM DENSITY LOG
~PARAMETER INFORMATION
#MNEM.UNIT          VALUE    DESCRIPTION
#----------   ------------   ------------------------------
 PD  .                 GL:   PERMANENT DATUM
 EPD .F              5209:   ELEVATION PERMANENT DATUM
 LMF .                 KB:   LOG MEASURED FROM
 DAPD.F                 4:   FEET ABOVE PERMANENT DATUM
 DMF .                 KB:   DRILLING MEASURED FROM
 EKB .F              5213:   KELLING BUSHING
 EGL .F              5209:   GROUND LEVEL
 DATE.           12-13-78:   RUN DATE
 RUN .                  1:   RUN NUMBER
 DD  .F               590:   DEPTH DRILLER
 DL  .F               598:   DEPTH LOGGER
 BLI .F               591:   BOTTOM LOG INTERVAL
 TLI .F                40:   TOP LOG INTERVAL
 CS  .IN            8.625:   CASING SIZE
 CBD .F                40:   CASING BOTTOM DRILLER
 CBL .F                25:   CASING BOTTOM LOGGER
 BS  .IN            7.875:   BIT SIZE
 BSD .F               590:   BIT SIZE AT DEPTH
 DFT .                KCL:   DRILLING FLUID TYPE
 DFD .                8.8:   DRILLING FLUID DENSITY
 DFV .                 37:   DRILLING FLUID VISCOSITY
 DFPH.                8.9:   DRILLING FLUID PH
 MSS .           FLOWLINE:   MUD SAMPLE SOURCE
 RMS .OHMM             .3:   RESISTIVITY MUD SAMPLE
 MST .F                56:   MUD SAMPLE TEMPERATURE
 RMF .OHMM            .26:   RESISTIVITY MUD FILTRATE SAMPLE
 MFST.F                66:   MUD FILTRATE SAMPLE TEMPERATURE
 RMC .OHMM            .24:   RESISTIVITY MUD CAKE
 MCST.F                66:   MUD CAKE SAMPLE TEMPERATURE
 MFSS.           MEASURED:   MUD FILTRATE SAMPLE SOURCE
 MCSS.           MEASURED:   MUD CAKE SAMPLE SOURCE
 RMB .OHMM            .29:   RESISTIVITY MUD AT BHT
 BHT .F                58:   BOTTOM HOLE TEMPERATURE
 TCS .HRS               3:   TIME CURCULATED STOPPED
 MRT .F                58:   MAXIMUM RECORDED TEMPERATURE
 LUN .               2958:   LOGGING UNIT NUMBER
 LUL .             CASPER:   LOGGING UNIT LOCATION
 ENGI.            ROLLINS:   RECORDING ENGINEER
 WITN.         RICHARDSON:   WITNESSED BY
 CLNT.            A2DTECH:   CLIENT CODE
 ORIG.       2", 5" PRINT:   ORIGIN OF DATA
 UWI .       490251078400:   UNIQUE WELL ID
 DICO. A2D Technologies, Inc.:   DIGITIZING COMPANY
~OTHER INFORMATION
~A    DEPT    RHOB       CORR         SN        ILD        SPR       DPHI       CALD         GRD  
# ...
  210.5000     2.4719     0.0131     8.5011     7.9695    -2.1084     0.1365     7.9389   113.2090
  211.0000     2.4729     0.0105     8.5785     8.0482    -2.1084     0.1355     7.9378   114.5724
  211.5000     2.4734     0.0096     8.6565     8.1275    -2.1084     0.1355     7.9368   114.2511
  212.0000     2.4743     0.0091     8.7353     8.2077    -2.1084     0.1338     7.9358   114.6486
  212.5000     2.4794     0.0086     8.8148     8.2886    -2.1084     0.1316     7.9348   115.8838
  213.0000     2.4823     0.0081     8.8950     8.3704    -2.1084     0.1295     7.9337   113.8247
  213.5000     2.4790     0.0076     8.9760     8.4529    -2.1084     0.1286     7.9327   111.4417
  214.0000     2.4746     0.0070     9.0577     8.5363    -2.1084     0.1315     7.9317   109.0553
  214.5000     2.4704     0.0065     9.1401     8.6205    -2.1084     0.1363     7.9306   109.0538
  215.0000     2.4726     0.0060     9.2233     8.7055    -2.1084     0.1351     7.9296   109.1599
  215.5000     2.4754     0.0065     9.3072     8.7416    -2.1084     0.1336     7.9286   109.0182
  216.0000     2.4753     0.0069     9.3262     8.7416    -2.1084     0.1327     7.9275   106.7611
  216.5000     2.4749     0.0073     9.2916     8.7416    -2.1084     0.1333     7.9265   104.9303
  217.0000     2.4761     0.0078     9.2664     8.7416    -2.1084     0.1339     7.9255   105.6380
  217.5000     2.4823     0.0077     9.2414     8.7212    -2.1084     0.1309     7.9245   103.5807
  218.0000     2.4892     0.0071     9.2164     8.7001    -2.1084     0.1275     7.9230   104.5625
  218.5000     2.4937     0.0065     9.1914     8.6791    -2.1086     0.1212     7.9006   104.6307
  219.0000     2.4892     0.0058     9.1666     8.6580    -2.1085     0.1201     7.8889   101.7310
  219.5000     2.4849     0.0052     9.1418     8.6371    -2.1070     0.1233     7.9330    98.9346
  220.0000     2.4821     0.0046     9.1170     8.6162    -2.0286     0.1273     7.9582   100.2693
  220.5000     2.4821     0.0040     9.0924     8.5953    -1.8542     0.1283     7.9433   106.5926
  221.0000     2.4832     0.0033     9.0678     8.5745    -1.6810     0.1275     7.9410   109.7846
  221.5000     2.4822     0.0027     9.0432     8.5537    -1.5072     0.1270     7.8354   109.7871
  222.0000     2.4762     0.0020     9.0188     8.5330    -1.3339     0.1290     7.7751   112.4771
  222.5000     2.4702     0.0038     8.9944     8.5124    -1.2294     0.1330     7.8514   113.0268
  223.0000     2.4669     0.0058     8.9700     8.4242    -1.1385     0.1367     7.9285   111.6533
  223.5000     2.4653     0.0078     8.9458     8.4242    -1.0479     0.1368     7.9265   110.2676
  224.0000     2.4654     0.0074     8.9216     8.5452    -0.9579     0.1371     7.8982   109.5720
  224.5000     2.4652     0.0066     8.9048     8.7875    -0.9032     0.1385     7.8689   113.8228
  225.0000     2.4646     0.0058     9.0396     9.0366    -0.9024     0.1388     7.8636   114.8164
  225.5000     2.4640     0.0049     9.1442     9.2929    -0.8173     0.1397     7.8647   105.9404
  226.0000     2.4634     0.0041     9.2502     9.5564    -0.5937     0.1417     7.7959   104.3679
  226.5000     2.4642     0.0045     9.3573     9.8273    -0.3723     0.1413     7.8079   108.3324
  227.0000     2.4667     0.0050     9.4656     9.9750    -0.1504     0.1399     8.0177   111.5370
  227.5000     2.4679     0.0055     9.5753    10.1063     0.0714     0.1374     8.0030   111.5010
  228.0000     2.4714     0.0065     9.6776    10.2400     0.2932     0.1347     7.8293   106.8323
  228.5000     2.4791     0.0105     9.8603    10.3757     0.5151     0.1319     7.9211   103.6747
  229.0000     2.4794     0.0146    10.0332    10.5131     0.7368     0.1315     7.9247   103.1393
  229.5000     2.4793     0.0181    10.2091    10.6523     0.9561     0.1312     7.9288   102.7264
  230.0000     2.4847     0.0181    10.3880    10.7934     1.1237     0.1302     7.9331   101.1727
  230.5000     2.4918     0.0181    10.5701    11.0376     1.2461     0.1242     7.9374    99.4672
  231.0000     2.4972     0.0181    10.7554    11.3043     1.3726     0.1178     7.9425    97.7457
  231.5000     2.4983     0.0132    10.9440    11.5775     1.4999     0.1172     7.9051    97.2748
  232.0000     2.4978     0.0067    11.1358    11.8573     1.5070     0.1162     7.8500    99.1933
  232.5000     2.4926     0.0002    11.3310    12.1438     1.5062     0.1194     7.7942    99.8938
  233.0000     2.4840    -0.0024    11.5297    12.3104     1.5060     0.1261     7.7440    97.4291
  233.5000     2.4784    -0.0030    11.6437    12.2190     1.5063     0.1322     7.7434    95.7161
  234.0000     2.4820    -0.0001    11.5515    12.1320     1.4937     0.1309     7.7630    94.1436
  234.5000     2.4983     0.0009    11.4419    12.0461     1.4765     0.1228     8.0093    91.1161
  235.0000     2.5011     0.0018    11.3329    11.9610     1.4591     0.1148     8.0250    90.0467
  235.5000     2.4926     0.0034    11.2250    11.8766     1.4416     0.1130     8.0224    88.7179
  236.0000     2.4842     0.0052    11.1182    11.7236     1.4242     0.1226     7.8580    86.6530
  236.5000     2.4773     0.0069    11.0125    11.5573     1.4068     0.1283     7.8252    86.9429
  237.0000     2.4780     0.0078    10.9077    11.3933     1.3894     0.1286     7.9054    94.7095
  237.5000     2.4783     0.0073    10.8039    11.2316     1.3720     0.1289     7.9432    96.7737
  238.0000     2.4742     0.0068    10.7010    11.0722     1.3546     0.1303     7.9023    97.0198
  238.5000     2.4739     0.0063    10.5996    10.9138     1.3371     0.1315     7.6263    96.3670
  239.0000     2.4733     0.0058    10.5167    10.9138     1.3197     0.1310     7.6098    96.1936
  239.5000     2.4672     0.0053    10.5175    10.9138     1.3023     0.1325     7.5843    94.9987
  240.0000     2.4578     0.0047    10.5175    10.9467     1.2849     0.1376     7.5663    93.7275
  240.5000     2.4483     0.0042    10.5175    10.9888     1.2675     0.1453     7.6026    92.9109
  241.0000     2.4388     0.0037    10.5175    11.0311     1.2500     0.1530     7.6418    92.9898
  241.5000     2.4382     0.0032    10.5176    11.0740     1.2326     0.1562     7.6806    94.2097
  242.0000     2.4431     0.0027    10.5177    11.1173     1.2152     0.1539     7.7043    95.8676
  242.5000     2.4479     0.0022    10.5181    11.0245     1.1978     0.1503     7.7042    98.1692
  243.0000     2.4527     0.0014    10.4417    10.9278     1.1804     0.1493     7.7124    99.6571
  243.5000     2.4543     0.0005    10.3428    10.8324     1.1630     0.1454     7.7563    98.4284
  244.0000     2.4522     0.0002    10.2446    10.7377     1.1455     0.1435     7.7992    95.7407
  244.5000     2.4497     0.0007    10.1475    10.6404     1.1281     0.1474     7.8233    90.7883
  245.0000     2.4487     0.0012    10.0513    10.5428     1.1107     0.1483     7.8074    91.3186
  245.5000     2.4507     0.0016     9.9508    10.4462     1.0933     0.1479     7.7915    91.0733
  246.0000     2.4527     0.0021     9.8720    10.3548     1.0759     0.1489     7.7756    90.3487
  246.5000     2.4523     0.0026     9.7681    10.2658     1.0584     0.1471     7.7629    90.2058
  247.0000     2.4508     0.0031     9.6648    10.1775     1.0410     0.1443     7.7926    92.1895
  247.5000     2.4493     0.0036     9.5623    10.0900     1.0236     0.1465     7.8259    92.9565
  248.0000     2.4477     0.0041     9.4622    10.0033     1.0062     0.1498     7.8439    93.7459
  248.5000     2.4478     0.0045     9.4022     9.9172     0.9888     0.1514     7.8337    96.7673
  249.0000     2.4486     0.0050     9.3816     9.8532     0.9714     0.1511     7.8196    99.7200
  249.5000     2.4494     0.0055     9.3610     9.8369     0.9539     0.1508     7.8053   101.6855
  250.0000     2.4502     0.0060     9.3403     9.8206     0.9363     0.1501     7.7910   100.1454
  250.5000     2.4494     0.0056     9.3238     9.8044     0.9189     0.1489     7.7859    97.7857
