~VERSION INFORMATION
 VERS.                2.0:   CWLS LOG ASCII STANDARD - VERSION 2.0
 WRAP.                 NO:   ONE LINE PER DEPTH STEP
~WELL INFORMATION
#MNEM.UNIT      DATA TYPE    INFORMATION
#----------   ------------   ------------------------------
 STRT.F           40.0000:   START DEPTH
 STOP.F          950.5000:   STOP DEPTH
 STEP.F            0.5000:   STEP LENGTH
 NULL.          -999.2500:   NO VALUE
 COMP. FENIX & SCISSON INC:   COMPANY
 WELL.       NPR 3 #44-14:   WELL
 FLD .             TEAPOT:   FIELD
 LOC .      S14 T38N R78W:   LOCATION
 CNTY.            NATRONA:   COUNTY
 STAT.            WYOMING:   STATE
 CTRY. UNITED STATES OF AMERICA:   COUNTRY
 SRVC.            Unknown:   SERVICE COMPANY
 DATE.        05-JAN-1979:   LOGDATE
 API .       490251076100:   API NUMBER
~CURVE INFORMATION
#MNEM.UNIT       API CODE    CURVE DESCRIPTION
#----------   ------------   ------------------------------
 DEPT.F                  :   
 SPR .MV     05 010 01 00:   SPONTANEOUS POTENTIAL FROM RES.
 SN  .OHMM   05 040 16 00:   SHORT NORMAL 16"
 IL  .OHMM   05 120 00 00:   INDUCTION LOG
 CALD.IN     45 280 60 00:   CALIPER
 GRD .GAPI   45 310 01 00:   GAMMA RAY FROM DENSITY LOG
 RHOB.G/C3   45 350 01 00:   BULK DENSITY
 DPHI.DEC    45 890 12 00:   DENSITY POROSITY SANDSTONE
 CORR.G/C3   45 356 01 00:   DENSITY CORRECTION
~PARAMETER INFORMATION
#MNEM.UNIT          VALUE    DESCRIPTION
#----------   ------------   ------------------------------
 PD  .                 GL:   PERMANENT DATUM
 EPD .F              5266:   ELEVATION PERMANENT DATUM
 LMF .                 KB:   LOG MEASURED FROM
 DAPD.F                 4:   FEET ABOVE PERMANENT DATUM
 DMF .                 KB:   DRILLING MEASURED FROM
 EKB .F              5270:   KELLING BUSHING
 EGL .F              5266:   GROUND LEVEL
 DATE.             1-5-79:   RUN DATE
 RUN .                  1:   RUN NUMBER
 DD  .F               950:   DEPTH DRILLER
 DL  .F               943:   DEPTH LOGGER
 BLI .F               937:   BOTTOM LOG INTERVAL
 TLI .F                40:   TOP LOG INTERVAL
 CS  .IN            8.625:   CASING SIZE
 CBL .F                40:   CASING BOTTOM LOGGER
 BS  .IN            7.875:   BIT SIZE
 BSD .F               950:   BIT SIZE AT DEPTH
 DFT .                KCL:   DRILLING FLUID TYPE
 DFV .                 42:   DRILLING FLUID VISCOSITY
 DFL .               10.5:   DRILLING FLUID LOSS
 MSS .           FLOWLINE:   MUD SAMPLE SOURCE
 RMS .OHMM            .23:   RESISTIVITY MUD SAMPLE
 RMF .OHMM            .23:   RESISTIVITY MUD FILTRATE SAMPLE
 RMC .OHMM             .2:   RESISTIVITY MUD CAKE
 MFSS.           MEASURED:   MUD FILTRATE SAMPLE SOURCE
 MCSS.           MEASURED:   MUD CAKE SAMPLE SOURCE
 RMB .OHMM             .2:   RESISTIVITY MUD AT BHT
 BHT .F                70:   BOTTOM HOLE TEMPERATURE
 TCS .HRS               5:   TIME CURCULATED STOPPED
 MRT .F                70:   MAXIMUM RECORDED TEMPERATURE
 LUL .             CASPER:   LOGGING UNIT LOCATION
 ENGI.             MILLER:   RECORDING ENGINEER
 WITN.           DINSMORE:   WITNESSED BY
 CLNT.            A2DTECH:   CLIENT CODE
 ORIG.           5" PRINT:   ORIGIN OF DATA
 UWI .       490251076100:   UNIQUE WELL ID
 DICO. A2D Technologies, Inc.:   DIGITIZING COMPANY
~OTHER INFORMATION
~A   DEPT      SPR           SN         IL     CALD        GRD       RHOB       DPHI       CORR   
# ...
  607.0000   -33.8690     7.0690     7.4260     7.9390   100.5170     2.4310     0.1530    -0.0030
  607.5000   -34.4850     7.0850     7.4830     7.9350    96.8520     2.4420     0.1450    -0.0020
  608.0000   -35.1060     7.1010     7.5390     7.9320    91.2950     2.4520     0.1450     0.0000
  608.5000   -35.0800     7.1180     7.5950     7.9280    89.9340     2.4530     0.1440     0.0020
  609.0000   -34.7950     7.1340     7.6510     7.9250    92.3570     2.4510     0.1440     0.0040
  609.5000   -34.5080     7.1510     7.7080     7.9210    96.3490     2.4490     0.1450     0.0050
  610.0000   -34.2360     7.1670     7.7640     7.9180   100.3310     2.4560     0.1390     0.0080
  610.5000   -34.4900     7.1840     7.8200     7.9140   101.4500     2.4670     0.1330     0.0120
  611.0000   -34.3780     7.2000     7.8770     7.9110   100.7640     2.4770     0.1270     0.0150
  611.5000   -33.9640     7.2160     7.9330     7.9070    98.1570     2.4830     0.1240     0.0170
  612.0000   -33.5410     7.2330     7.9890     7.9040    94.6760     2.4640     0.1350     0.0100
  612.5000   -33.3850     7.2490     8.0460     7.9020    96.8980     2.4480     0.1470     0.0040
  613.0000   -33.3100     7.2660     8.1020     7.9020   103.4200     2.4490     0.1420     0.0020
  613.5000   -33.2370     7.2820     8.1580     7.9020   108.5400     2.4610     0.1360     0.0060
  614.0000   -33.1660     7.2980     8.2140     7.9020   113.2010     2.4730     0.1290     0.0120
  614.5000   -33.0950     7.3150     8.2570     7.9020   111.7630     2.4800     0.1270     0.0130
  615.0000   -33.0400     7.3310     8.2360     7.9020   109.2580     2.4760     0.1300     0.0130
  615.5000   -33.1480     7.3480     8.2190     7.9020   107.4930     2.4710     0.1320     0.0120
  616.0000   -33.7210     7.3640     8.2020     7.9040   103.7640     2.4660     0.1350     0.0090
  616.5000   -34.2980     7.3810     8.1850     7.9120   100.1110     2.4660     0.1340     0.0060
  617.0000   -34.3170     7.3950     8.1680     7.9210    99.2640     2.4680     0.1330     0.0020
  617.5000   -34.1420     7.4320     8.1510     7.9290   101.4720     2.4700     0.1310     0.0000
  618.0000   -33.6110     7.4710     8.1340     7.9380   104.6100     2.4730     0.1290     0.0040
  618.5000   -33.0660     7.5100     8.1170     7.9460   107.7640     2.4760     0.1290     0.0070
  619.0000   -33.2710     7.5490     8.1000     7.9550   110.8980     2.4700     0.1330     0.0100
  619.5000   -34.0000     7.5880     8.0820     7.9630   110.2540     2.4560     0.1410     0.0080
  620.0000   -33.9260     7.6010     8.0650     7.9720   107.0030     2.4530     0.1420     0.0060
  620.5000   -33.8330     7.5680     8.0480     7.9800   100.1740     2.4550     0.1440     0.0030
  621.0000   -33.7380     7.5370     8.0310     7.9890   104.4010     2.4530     0.1470     0.0010
  621.5000   -33.6330     7.5060     8.0140     7.9970   109.5180     2.4460     0.1510    -0.0010
  622.0000   -34.0620     7.4740     7.9970     8.0060   114.1640     2.4390     0.1500    -0.0030
  622.5000   -34.5880     7.4430     7.9800     8.0140   114.3580     2.4400     0.1490     0.0010
  623.0000   -34.7570     7.4120     7.9630     8.0220   112.0620     2.4430     0.1460     0.0040
  623.5000   -34.6650     7.3810     7.9460     8.0310   107.8400     2.4510     0.1440     0.0070
  624.0000   -34.4700     7.3500     7.9290     8.0400   103.6390     2.4590     0.1390     0.0110
  624.5000   -34.0570     7.3180     7.9120     8.0370    99.4310     2.4670     0.1340     0.0120
  625.0000   -34.2910     7.2870     7.8950     8.0330   101.9590     2.4680     0.1380     0.0110
  625.5000   -34.3480     7.2560     7.8380     8.0290   106.0840     2.4530     0.1460     0.0040
  626.0000   -34.2100     7.2250     7.7390     8.0250   111.6010     2.4490     0.1400     0.0040
  626.5000   -34.0730     7.1940     7.6410     8.0210   112.7520     2.4610     0.1350     0.0110
  627.0000   -33.9370     7.1620     7.5430     8.0170   110.9730     2.4710     0.1330     0.0140
  627.5000   -33.8650     7.1310     7.4440     8.0130   107.7150     2.4700     0.1340     0.0120
  628.0000   -34.0620     7.1000     7.3460     8.0080   104.4420     2.4680     0.1340     0.0110
  628.5000   -34.2430     7.0690     7.2280     8.0040   101.0660     2.4650     0.1360     0.0090
  629.0000   -34.3320     6.9550     7.1050     8.0000   101.6120     2.4600     0.1390     0.0070
  629.5000   -34.4240     6.8190     6.9820     7.9960   102.4260     2.4550     0.1400     0.0070
  630.0000   -34.5150     6.6830     6.8590     7.9920   102.7050     2.4530     0.1400     0.0100
  630.5000   -34.6260     6.5480     6.7360     7.9880   101.0690     2.4550     0.1410     0.0120
  631.0000   -35.3740     6.4120     6.6130     7.9840    99.3230     2.4550     0.1430     0.0110
  631.5000   -36.0790     6.2760     6.4900     7.9850   100.9780     2.4450     0.1480     0.0110
  632.0000   -36.6000     6.1400     6.3670     7.9930   104.4080     2.4360     0.1540     0.0100
  632.5000   -36.5590     6.0040     6.2440     8.0010   103.3650     2.4260     0.1600     0.0090
  633.0000   -35.9330     5.9840     6.1520     8.0090   102.2700     2.4190     0.1640     0.0060
  633.5000   -35.3110     6.1100     6.2950     8.0170   102.9520     2.4220     0.1600     0.0030
  634.0000   -35.3020     6.2310     6.4330     8.0260   103.5790     2.4270     0.1580    -0.0050
  634.5000   -35.3860     6.3520     6.5700     8.0340   101.0230     2.4320     0.1560    -0.0090
  635.0000   -34.9480     6.4720     6.7070     8.0400    99.4250     2.4370     0.1540    -0.0020
  635.5000   -34.4880     6.5930     6.8440     8.0370   102.3830     2.4420     0.1510     0.0050
  636.0000   -34.0310     6.7140     6.9430     8.0340   104.3180     2.4440     0.1490     0.0070
  636.5000   -33.6730     6.7660     6.9700     8.0310   105.7910     2.4460     0.1470     0.0060
  637.0000   -33.9580     6.8280     6.9970     8.0280   107.3210     2.4470     0.1460     0.0050
  637.5000   -34.2520     6.8910     7.0240     8.0250   105.7140     2.4450     0.1470     0.0040
  638.0000   -34.5440     6.9530     7.0520     8.0220   105.4230     2.4510     0.1430     0.0110
  638.5000   -34.7740     7.0150     7.0790     8.0190   106.1380     2.4610     0.1380     0.0110
  639.0000   -34.1210     7.0620     7.1060     8.0160   101.6040     2.4620     0.1360     0.0100
  639.5000   -34.2130     7.0620     7.1330     8.0130   102.1810     2.4550     0.1420     0.0090
  640.0000   -34.4220     7.0290     7.1600     8.0100   104.8510     2.4480     0.1470     0.0080
  640.5000   -34.6390     6.9970     7.1930     8.0070   108.6350     2.4420     0.1500     0.0060
  641.0000   -34.9110     6.9660     7.1390     8.0040   105.3070     2.4520     0.1440     0.0070
  641.5000   -34.8970     6.9330     7.0480     7.9990   102.9110     2.4600     0.1380     0.0080
  642.0000   -34.5970     6.8120     6.9570     7.9860   105.1260     2.4600     0.1390     0.0090
  642.5000   -34.2800     6.6870     6.8670     7.9720   107.9770     2.4580     0.1410     0.0100
  643.0000   -34.7360     6.5610     6.7760     7.9590   110.8310     2.4600     0.1370     0.0110
  643.5000   -35.2470     6.4500     6.6850     7.9450   113.6350     2.4650     0.1360     0.0120
  644.0000   -35.3470     6.3510     6.5580     7.9320   113.7200     2.4600     0.1390     0.0110
  644.5000   -35.2840     6.2530     6.3450     7.9220   110.5350     2.4550     0.1420     0.0090
  645.0000   -35.0450     6.1540     6.1320     7.9270   106.7540     2.4500     0.1450     0.0080
  645.5000   -35.4960     6.0550     5.9180     7.9310   103.4860     2.4450     0.1470     0.0060
  646.0000   -36.0560     5.9020     5.7050     7.9350   107.6290     2.4430     0.1480     0.0070
  646.5000   -36.5080     5.6850     5.4910     7.9390   105.7330     2.4400     0.1510     0.0080
  647.0000   -36.7960     5.4680     5.2780     7.9430   103.7760     2.4360     0.1560     0.0100
