~VERSION INFORMATION
 VERS.                2.0:   CWLS LOG ASCII STANDARD - VERSION 2.0
 WRAP.                 NO:   ONE LINE PER DEPTH STEP
~WELL INFORMATION
#MNEM.UNIT      DATA TYPE    INFORMATION
#----------   ------------   ------------------------------
 STRT.F           30.5000:   START DEPTH
 STOP.F          674.0000:   STOP DEPTH
 STEP.F            0.5000:   STEP LENGTH
 NULL.          -999.2500:   NO VALUE
 COMP. FENIX & SCISSON INC:   COMPANY
 WELL. NPR 3 #37 SX 34-34:   WELL
 FLD .        TEAPOT DOME:   FIELD
 LOC .      S34 T39N R78W:   LOCATION
 CNTY.            NATRONA:   COUNTY
 STAT.            WYOMING:   STATE
 CTRY. UNITED STATES OF AMERICA:   COUNTRY
 SRVC.           BIRDWELL:   SERVICE COMPANY
 DATE.        21-JAN-1979:   LOGDATE
 API .       490251074400:   API NUMBER
~CURVE INFORMATION
#MNEM.UNIT       API CODE    CURVE DESCRIPTION
#----------   ------------   ------------------------------
 DEPT.F                  :   
 SPR .MV     05 010 01 00:   SPONTANEOUS POTENTIAL FROM RES.
 SN  .OHMM   05 040 16 00:   SHORT NORMAL 16"
 IL  .OHMM   05 120 00 00:   INDUCTION LOG
 CALD.IN     45 280 60 00:   CALIPER
 GRD .GAPI   45 310 01 00:   GAMMA RAY FROM DENSITY LOG
 RHOB.G/C3   45 350 01 00:   BULK DENSITY
 DPHI.DEC    45 890 12 00:   DENSITY POROSITY SANDSTONE
 CORR.G/C3   45 356 01 00:   DENSITY CORRECTION
~PARAMETER INFORMATION
#MNEM.UNIT          VALUE    DESCRIPTION
#----------   ------------   ------------------------------
 PD  .                 GL:   PERMANENT DATUM
 EPD .F              5175:   ELEVATION PERMANENT DATUM
 LMF .                 KB:   LOG MEASURED FROM
 DAPD.F                 4:   FEET ABOVE PERMANENT DATUM
 DMF .                 KB:   DRILLING MEASURED FROM
 EKB .F              5179:   KELLING BUSHING
 EGL .F              5175:   GROUND LEVEL
 DATE.            1-21-79:   RUN DATE
 RUN .                  1:   RUN NUMBER
 DD  .F               674:   DEPTH DRILLER
 DL  .F               673:   DEPTH LOGGER
 BLI .F               666:   BOTTOM LOG INTERVAL
 TLI .F                40:   TOP LOG INTERVAL
 CS  .IN            8.625:   CASING SIZE
 CBD .F                40:   CASING BOTTOM DRILLER
 CBL .F                30:   CASING BOTTOM LOGGER
 BS  .IN            7.875:   BIT SIZE
 BSD .F               674:   BIT SIZE AT DEPTH
 DFT .                KCL:   DRILLING FLUID TYPE
 DFD .                8.8:   DRILLING FLUID DENSITY
 DFV .                 60:   DRILLING FLUID VISCOSITY
 DFPH.                9.5:   DRILLING FLUID PH
 DFL .                  8:   DRILLING FLUID LOSS
 MSS .           FLOWLINE:   MUD SAMPLE SOURCE
 RMS .OHMM            .23:   RESISTIVITY MUD SAMPLE
 MST .F                56:   MUD SAMPLE TEMPERATURE
 MFSS.           MEASURED:   MUD FILTRATE SAMPLE SOURCE
 MCSS.           MEASURED:   MUD CAKE SAMPLE SOURCE
 RMB .OHMM            .22:   RESISTIVITY MUD AT BHT
 BHT .F                60:   BOTTOM HOLE TEMPERATURE
 TCS .HRS               4:   TIME CURCULATED STOPPED
 MRT .F                60:   MAXIMUM RECORDED TEMPERATURE
 LUN .               3006:   LOGGING UNIT NUMBER
 LUL .             CASPER:   LOGGING UNIT LOCATION
 ENGI.            ROLLINS:   RECORDING ENGINEER
 WITN.           DINSMORE:   WITNESSED BY
 CLNT.            A2DTECH:   CLIENT CODE
 ORIG.       2", 5" PRINT:   ORIGIN OF DATA
 UWI .       490251074400:   UNIQUE WELL ID
 DICO. A2D Technologies, Inc.:   DIGITIZING COMPANY
~OTHER INFORMATION
~A   DEPT      SPR         SN         IL       CALD        GRD       RHOB       DPHI       CORR   
# ...
  314.0000   -49.6980     7.3030     7.0560     8.0810   108.1210     2.4600     0.1310     0.0170
  314.5000   -49.7120     7.3420     7.0560     8.0850   108.2350     2.4600     0.1300     0.0190
  315.0000   -49.7260     7.3800     7.0560     8.1000   106.3100     2.4590     0.1270     0.0200
  315.5000   -49.7400     7.4190     7.0560     8.1160   102.4130     2.4640     0.1260     0.0200
  316.0000   -49.7540     7.4570     7.0560     8.1330   102.7270     2.4690     0.1230     0.0190
  316.5000   -49.7680     7.4960     7.0560     8.1370   103.2080     2.4680     0.1210     0.0180
  317.0000   -49.7820     7.5340     7.0560     8.1370   101.8470     2.4730     0.1200     0.0180
  317.5000   -49.7950     7.5920     7.0560     8.1360   100.2290     2.4790     0.1220     0.0170
  318.0000   -49.8090     7.5810     7.0560     8.1360    99.2800     2.4780     0.1240     0.0170
  318.5000   -49.8230     7.5400     7.0510     8.1350   103.8230     2.4720     0.1240     0.0160
  319.0000   -49.8370     7.4980     7.0380     8.1340   109.9970     2.4720     0.1240     0.0160
  319.5000   -49.8510     7.4570     7.0250     8.1340   114.1060     2.4720     0.1230     0.0150
  320.0000   -49.8650     7.4160     7.0120     8.1330   114.3630     2.4720     0.1230     0.0140
  320.5000   -49.8790     7.3750     7.0000     8.1320   114.4910     2.4720     0.1240     0.0130
  321.0000   -49.8930     7.3340     6.9870     8.1320   114.4150     2.4720     0.1250     0.0120
  321.5000   -49.9070     7.2930     6.9740     8.1310   114.4930     2.4700     0.1310     0.0110
  322.0000   -49.9210     7.2520     6.9610     8.1310   115.0880     2.4670     0.1360     0.0110
  322.5000   -49.9350     7.2100     6.9480     8.1300   113.9500     2.4580     0.1370     0.0100
  323.0000   -49.9490     7.1690     6.9350     8.1290   111.5430     2.4500     0.1370     0.0090
  323.5000   -49.9630     7.1280     6.9200     8.1290   107.3140     2.4500     0.1370     0.0080
  324.0000   -49.9770     7.0870     6.9020     8.1280   102.8920     2.4500     0.1380     0.0090
  324.5000   -49.9910     7.0560     6.8840     8.1270   102.5810     2.4490     0.1360     0.0100
  325.0000   -50.0050     7.0650     6.8660     8.1270   102.5810     2.4490     0.1310     0.0120
  325.5000   -50.0190     7.0720     6.8470     8.1260    98.7370     2.4510     0.1310     0.0130
  326.0000   -50.0330     7.0790     6.8290     8.1250   100.5530     2.4570     0.1310     0.0140
  326.5000   -50.0470     7.0860     6.8110     8.1250   105.2110     2.4600     0.1310     0.0150
  327.0000   -50.0610     7.0930     6.7920     8.1240   109.6090     2.4600     0.1320     0.0160
  327.5000   -50.0750     7.1000     6.7740     8.1240   109.5680     2.4590     0.1290     0.0170
  328.0000   -50.0890     7.1070     6.7560     8.1230   107.3220     2.4580     0.1240     0.0170
  328.5000   -50.1030     7.1140     6.7370     8.1220   106.8280     2.4640     0.1210     0.0130
  329.0000   -50.1170     7.1210     6.7190     8.1220   106.6700     2.4730     0.1210     0.0090
  329.5000   -50.1310     7.0800     6.7010     8.1210   105.8030     2.4760     0.1220     0.0050
  330.0000   -50.1450     7.0260     6.6830     8.1200   104.9280     2.4750     0.1240     0.0060
  330.5000   -50.1590     6.9720     6.6280     8.1200   105.0330     2.4730     0.1260     0.0070
  331.0000   -50.1730     6.9190     6.5550     8.1190   104.5300     2.4700     0.1310     0.0090
  331.5000   -50.1870     6.8640     6.4830     8.1190   103.6500     2.4630     0.1360     0.0100
  332.0000   -50.2000     6.7480     6.4100     8.1180   102.9270     2.4560     0.1380     0.0120
  332.5000   -50.2080     6.6280     6.3380     8.1020   103.4400     2.4490     0.1390     0.0140
  333.0000   -50.2170     6.5090     6.2660     8.0780   103.9250     2.4460     0.1390     0.0130
  333.5000   -50.2260     6.3890     6.1930     8.3140   104.9060     2.4440     0.1380     0.0110
  334.0000   -50.2350     6.2700     6.1110     8.1940   109.3820     2.4460     0.1350     0.0090
  334.5000   -50.2440     6.1500     6.0100     8.1970   111.9030     2.4500     0.1310     0.0080
  335.0000   -50.2540     6.0330     5.9100     8.1980   110.0070     2.4570     0.1290     0.0080
  335.5000   -50.2630     5.9740     5.8140     8.1980   104.2340     2.4600     0.1280     0.0070
  336.0000   -50.2720     5.9220     5.8570     8.1980    98.0190     2.4630     0.1270     0.0070
  336.5000   -50.2810     5.9920     5.8970     8.1980    96.9970     2.4650     0.1270     0.0070
  337.0000   -50.2900     6.0700     5.9370     8.1980   101.0580     2.4650     0.1270     0.0060
  337.5000   -50.2990     6.1490     5.9770     8.1980   104.7220     2.4650     0.1270     0.0060
  338.0000   -50.3090     6.2270     6.0450     8.1980   108.4220     2.4650     0.1270     0.0040
  338.5000   -50.3180     6.3050     6.1290     8.1980   111.4060     2.4650     0.1250     0.0020
  339.0000   -50.3270     6.3830     6.2130     8.1980   109.7060     2.4650     0.1240    -0.0010
  339.5000   -50.3360     6.4350     6.3170     8.1980   106.2080     2.4670     0.1270    -0.0020
  340.0000   -50.3450     6.4050     6.2940     8.1980   103.8380     2.4690     0.1320    -0.0020
  340.5000   -50.3540     6.3820     6.2640     8.1980   101.0570     2.4660     0.1350    -0.0030
  341.0000   -50.3630     6.3600     6.2340     8.1980   103.8960     2.4590     0.1350    -0.0030
  341.5000   -50.3730     6.3370     6.2030     8.1980   105.9730     2.4530     0.1350    -0.0030
  342.0000   -50.3820     6.3140     6.1730     8.1980   105.6000     2.4530     0.1370    -0.0040
  342.5000   -50.3910     6.2880     6.1430     8.1980   104.3810     2.4520     0.1390    -0.0040
  343.0000   -50.4000     6.2620     6.1120     8.1980   104.6020     2.4500     0.1420    -0.0010
  343.5000   -50.4090     6.2360     6.0650     8.1980   105.2780     2.4460     0.1480     0.0040
  344.0000   -50.4180     6.2100     5.9610     8.1980   105.5070     2.4400     0.1510     0.0090
  344.5000   -50.4280     6.0940     5.8140     8.1980   105.6690     2.4300     0.1510     0.0140
  345.0000   -50.4370     5.9360     5.6490     8.1980   105.2260     2.4250     0.1510     0.0190
  345.5000   -50.4460     5.7770     5.4660     8.1980   104.6860     2.4250     0.1500     0.0190
  346.0000   -50.4550     5.6190     5.2840     8.1980   103.7440     2.4240     0.1520     0.0170
  346.5000   -50.4640     5.4600     5.1100     8.1980   101.6610     2.4220     0.1550     0.0160
  347.0000   -50.4730     5.3020     5.0190     8.1980    98.3840     2.4190     0.1560     0.0140
  347.5000   -50.4820     5.2290     4.9250     8.1980    95.1240     2.4180     0.1520     0.0120
  348.0000   -50.4920     5.1930     4.9600     8.1980    94.7820     2.4200     0.1450     0.0110
  348.5000   -50.5010     5.1580     4.9980     8.1980   101.9860     2.4270     0.1370     0.0090
  349.0000   -50.5100     5.3540     5.0350     8.1980   103.4060     2.4390     0.1300     0.0080
  349.5000   -50.5190     5.5530     5.1440     8.1810   104.5600     2.4520     0.1240     0.0060
  350.0000   -50.5280     5.7510     5.4610     8.1520   105.6480     2.4660     0.1230     0.0080
  350.5000   -50.5370     5.9520     5.7770     8.1380   106.7620     2.4700     0.1260     0.0100
  351.0000   -50.5470     6.1700     6.0300     8.1380   107.2380     2.4670     0.1290     0.0110
  351.5000   -50.5560     6.3890     6.1710     8.1380   107.1260     2.4630     0.1290     0.0120
  352.0000   -50.5650     6.6070     6.3130     8.1380   107.0140     2.4610     0.1270     0.0140
  352.5000   -50.5740     6.7080     6.4550     8.1380   106.9290     2.4620     0.1230     0.0150
  353.0000   -50.5830     6.7550     6.5260     8.1380   107.8700     2.4670     0.1230     0.0160
  353.5000   -50.5920     6.8010     6.5700     8.1380   108.8790     2.4710     0.1240     0.0180
  354.0000   -50.6040     6.8470     6.6140     8.1380   108.9810     2.4700     0.1220     0.0210
