~VERSION INFORMATION
 VERS.                2.0:   CWLS LOG ASCII STANDARD - VERSION 2.0
 WRAP.                 NO:   ONE LINE PER DEPTH STEP
~WELL INFORMATION
#MNEM.UNIT      DATA TYPE    INFORMATION
#----------   ------------   ------------------------------
 STRT.F            7.0000:   START DEPTH
 STOP.F          480.0000:   STOP DEPTH
 STEP.F            0.1000:   STEP LENGTH
 NULL.          -999.2500:   NO VALUE
 COMP.       F D SERV INC:   COMPANY
 WELL.    67-2 SX-3 #67-3:   WELL
 FLD .          N.P.R. #3:   FIELD
 LOC .       S3 T38N R78W:   LOCATION
 CNTY.            NATRONA:   COUNTY
 STAT.            WYOMING:   STATE
 CTRY. UNITED STATES OF AMERICA:   COUNTRY
 SRVC.     Atlas Wireline:   SERVICE COMPANY
 DATE.        12-FEB-1992:   LOGDATE
 API .       490252250400:   API NUMBER
~CURVE INFORMATION
#MNEM.UNIT       API CODE    CURVE DESCRIPTION
#----------   ------------   ------------------------------
 DEPT.F                  :   
 SPR .MV     07 010 01 00:   SPONTANEOUS POTENTIAL
 GRR .GAPI   07 310 01 00:   GAMMA RAY
 RILD.OHMM   07 120 46 00:   INDUCTION LOG DEEP RESISTIVITY
 RILM.OHMM   07 120 44 00:   INDUCTION LOG MEDIUM RESISTIVITY
 RFOC.OHMM   07 220 04 00:   RESISTIVITY FOCUSED LOG
~PARAMETER INFORMATION
#MNEM.UNIT          VALUE    DESCRIPTION
#----------   ------------   ------------------------------
 PD  .                 GL:   PERMANENT DATUM
 EPD .F              5165:   ELEVATION PERMANENT DATUM
 LMF .                 KB:   LOG MEASURED FROM
 DAPD.F                10:   FEET ABOVE PERMANENT DATUM
 DMF .                 KB:   DRILLING MEASURED FROM
 EKB .F              5175:   KELLING BUSHING
 EDF .F              5174:   DRILLING FLOOR
 EGL .F              5165:   GROUND LEVEL
 DATE.        12-FEB-1992:   RUN DATE
 RUN .                  1:   RUN NUMBER
 DD  .F               487:   DEPTH DRILLER
 DL  .F               485:   DEPTH LOGGER
 BLI .F               482:   BOTTOM LOG INTERVAL
 CS  .IN            8.625:   CASING SIZE
 CBD .F               183:   CASING BOTTOM DRILLER
 CBL .F               186:   CASING BOTTOM LOGGER
 BS  .IN            7.875:   BIT SIZE
 BSD .F               487:   BIT SIZE AT DEPTH
 DFT .           CHEM GEL:   DRILLING FLUID TYPE
 DFD .               16.1:   DRILLING FLUID DENSITY
 DFV .                 43:   DRILLING FLUID VISCOSITY
 DFPH.                9.5:   DRILLING FLUID PH
 DFL .               11.8:   DRILLING FLUID LOSS
 MSS .           MUD TANK:   MUD SAMPLE SOURCE
 RMS .OHMM           2.36:   RESISTIVITY MUD SAMPLE
 MST .F                65:   MUD SAMPLE TEMPERATURE
 RMF .OHMM           1.17:   RESISTIVITY MUD FILTRATE SAMPLE
 MFST.F                65:   MUD FILTRATE SAMPLE TEMPERATURE
 RMC .OHMM           5.18:   RESISTIVITY MUD CAKE
 MCST.F                65:   MUD CAKE SAMPLE TEMPERATURE
 MFSS.               MEAS:   MUD FILTRATE SAMPLE SOURCE
 MCSS.               CALC:   MUD CAKE SAMPLE SOURCE
 RMB .OHMM           1.67:   RESISTIVITY MUD AT BHT
 BHT .F                92:   BOTTOM HOLE TEMPERATURE
 TCS .HRS               2:   TIME CURCULATED STOPPED
 MRT .F                92:   MAXIMUM RECORDED TEMPERATURE
 LUN .           HL- 6224:   LOGGING UNIT NUMBER
 LUL .             CASPER:   LOGGING UNIT LOCATION
 ENGI.        VERN RAUTIO:   RECORDING ENGINEER
 WITN.        GARY STRONG:   WITNESSED BY
 CLNT.            A2DTECH:   CLIENT CODE
 ORIG.           5" PRINT:   ORIGIN OF DATA
 UWI .       490252250400:   UNIQUE WELL ID
 DICO. A2D Technologies, Inc.:   DIGITIZING COMPANY
~OTHER INFORMATION
~A    DEPT     SPR        GRR       RILD       RILM       RFOC   
# ...
  336.4000   -37.1135    74.9913    14.0115    13.5905    13.6792
  336.5000   -37.1111    74.9957    14.0115    13.5901    13.6952
  336.6000   -37.1087    74.9997    14.0115    13.5898    13.6946
  336.7000   -37.0487    75.0039    14.0115    13.5783    13.6941
  336.8000   -36.9537    75.1360    14.0115    13.4946    13.6935
  336.9000   -36.9514    75.3861    13.9774    13.4236    13.6928
  337.0000   -36.9490    75.6563    13.9141    13.3469    13.6240
  337.1000   -36.9466    76.2207    13.9141    13.3068    13.5964
  337.2000   -36.9441    76.4362    13.9141    13.2870    13.5630
  337.3000   -36.9417    76.8441    13.9141    13.2137    13.5006
  337.4000   -36.9243    77.3401    13.9141    13.2132    13.5000
  337.5000   -36.7865    77.8861    13.9141    13.2129    13.4250
  337.6000   -36.7844    78.6399    13.9141    13.2126    13.3483
  337.7000   -36.7820    79.1277    13.9141    13.1843    13.3110
  337.8000   -36.7796    79.4359    13.9141    13.1201    13.2885
  337.9000   -36.7772    79.6860    13.9141    13.1197    13.2124
  338.0000   -36.7748    79.7761    13.8818    13.1194    13.1245
  338.1000   -36.6497    79.5344    13.8173    13.1190    13.1241
  338.2000   -36.6198    79.2653    13.8173    13.1187    13.0781
  338.3000   -36.5498    78.8332    13.8173    13.0986    13.0033
  338.4000   -36.4648    78.5096    13.8173    13.0268    12.9403
  338.5000   -36.4500    78.1579    13.8173    13.0264    12.9397
  338.6000   -36.3096    77.7823    13.8173    12.9653    12.8710
  338.7000   -36.1999    77.7865    13.8173    12.9353    12.8485
  338.8000   -36.0748    77.5428    13.8173    12.9350    12.8480
  338.9000   -35.9498    77.4950    13.8173    12.9346    12.8294
  339.0000   -35.7998    77.6392    13.8173    12.9342    12.7575
  339.1000   -35.5471    77.8892    13.8173    12.9339    12.7569
  339.2000   -35.4246    78.1712    13.8173    12.9335    12.7564
  339.3000   -35.2996    78.7116    13.8173    12.9332    12.7559
  339.4000   -35.1746    78.9394    13.8173    12.9328    12.7553
  339.5000   -35.0495    79.6992    13.8173    12.9289    12.7548
  339.6000   -34.9244    80.5708    13.8173    12.8422    12.7542
  339.7000   -34.7816    81.3127    13.8173    12.8419    12.7537
  339.8000   -34.6744    82.0466    13.8205    12.8416    12.7532
  339.9000   -34.6270    82.6353    13.9141    12.8412    12.7841
  340.0000   -34.6246    83.0385    13.9141    12.8409    12.8415
  340.1000   -34.6222    83.2426    13.9141    12.8405    12.8410
  340.2000   -34.6197    83.3387    13.9141    12.8401    12.9122
  340.3000   -34.7350    83.5502    13.9141    12.8398    12.9300
  340.4000   -34.8552    83.2554    13.9141    12.8761    12.9681
  340.5000   -34.9754    83.0295    13.9141    12.9085    13.0416
  340.6000   -35.0606    82.6120    13.9141    12.8387    13.1103
  340.7000   -35.0657    82.0024    13.9515    12.8383    13.1097
  340.8000   -35.2056    81.2688    14.0115    12.8380    13.1723
  340.9000   -35.2036    80.5494    14.0132    12.8376    13.2006
  341.0000   -35.2763    79.9827    14.0933    12.8660    13.2293
  341.1000   -35.3489    79.3685    14.1096    12.9267    13.2921
  341.2000   -35.3465    78.6351    14.1096    12.9263    13.2914
  341.3000   -35.3440    77.9016    14.1096    12.9260    13.2909
  341.4000   -35.3418    77.2122    14.1195    12.9256    13.3441
  341.5000   -35.3393    76.7048    14.2084    12.9626    13.3830
  341.6000   -35.3369    76.4730    14.2084    13.0152    13.4018
  341.7000   -35.3346    76.4132    14.2631    13.0195    13.4757
  341.8000   -35.3321    76.5454    14.3446    13.1054    13.4752
  341.9000   -35.3293    76.7954    14.4081    13.2317    13.5362
  342.0000   -35.3273    77.0454    14.4081    13.3357    13.5685
  342.1000   -35.3249    77.3301    14.4905    13.3812    13.5947
  342.2000   -35.3675    77.5456    14.5090    13.3808    13.6718
  342.3000   -35.4706    77.7957    14.5547    13.3804    13.7577
  342.4000   -35.4677    77.9418    14.6105    13.3801    13.8273
  342.5000   -35.5781    77.9960    14.6190    13.4358    13.8531
  342.6000   -35.6132    78.2501    14.7128    13.4729    13.8871
  342.7000   -35.6108    78.2543    14.7128    13.4948    13.9490
  342.8000   -35.6385    78.2585    14.7678    13.5716    13.9484
  342.9000   -35.7562    77.9949    14.8522    13.6607    14.0263
  343.0000   -35.7538    77.5872    14.9196    13.7266    14.0451
  343.1000   -35.7514    77.2934    14.9196    13.8047    14.0870
  343.2000   -35.6789    76.4766    14.9196    13.8513    14.1669
  343.3000   -35.5964    76.0446    14.9196    13.8653    14.2410
  343.4000   -35.5940    75.5571    14.9196    13.9473    14.2403
  343.5000   -35.5913    75.0695    14.9196    13.9470    14.2398
  343.6000   -35.4791    74.5819    14.9196    14.0056    14.2392
  343.7000   -35.4366    74.0944    14.9196    14.0437    14.2386
  343.8000   -35.4342    73.6068    14.9196    14.0433    14.2516
  343.9000   -35.4043    73.3131    14.8660    14.0429    14.3372
  344.0000   -35.2793    73.6312    14.8159    14.0424    14.3366
  344.1000   -35.2769    74.2871    14.8159    14.0421    14.2780
  344.2000   -35.3695    74.7831    14.8159    14.0417    14.2356
  344.3000   -35.4222    75.3233    14.7351    14.0413    14.2350
  344.4000   -35.4599    75.7748    14.7128    14.0409    14.2318
  344.5000   -35.5801    76.4407    14.7128    14.0405    14.1346
  344.6000   -35.7150    76.9507    14.6889    14.0402    14.0695
  344.7000   -35.9281    77.2008    14.6105    14.0398    13.9890
  344.8000   -36.0909    77.4509    14.6105    13.9975    13.9090
  344.9000   -36.2112    77.7477    14.6105    13.9415    13.8293
  345.0000   -36.3063    77.7511    14.6105    13.9411    13.7421
  345.1000   -36.3039    77.7553    14.6105    13.9407    13.6716
  345.2000   -36.3015    77.7595    14.5970    13.8722    13.6453
  345.3000   -36.2991    77.7637    14.5090    13.8432    13.6448
  345.4000   -36.2967    77.7682    14.5090    13.8100    13.6442
  345.5000   -36.2943    77.0824    14.5090    13.7463    13.6436
  345.6000   -36.2818    76.7008    14.4686    13.7459    13.6431
  345.7000   -36.1390    76.0933    14.3864    13.6694    13.6425
  345.8000   -36.1370    75.3180    14.3079    13.5913    13.6419
  345.9000   -36.0570    75.0900    14.3079    13.5546    13.6413
  346.0000   -35.9820    75.0951    14.2416    13.5542    13.6408
  346.1000   -35.9570    75.3045    14.2084    13.5471    13.6401
  346.2000   -35.8269    75.7065    14.1788    13.4593    13.6396
  346.3000   -35.8246    76.3005    14.1096    13.4590    13.6391
  346.4000   -35.7321    77.0423    14.1096    13.4093    13.6385
  346.5000   -35.6697    77.8143    14.0360    13.3326    13.6244
  346.6000   -35.6323    78.5258    13.9563    13.2564    13.5423
  346.7000   -35.5073    79.2676    13.9141    13.1791    13.5418
  346.8000   -35.3618    80.0096    13.8947    13.1787    13.4859
  346.9000   -35.2572    80.6775    13.8156    13.1215    13.4464
  347.0000   -35.1321    81.1535    13.7372    13.0465    13.4255
  347.1000   -35.0546    81.4381    13.6592    12.9720    13.3487
  347.2000   -35.0322    81.8654    13.5816    12.9047    13.2580
  347.3000   -34.8996    82.2035    13.5311    12.9043    13.1964
  347.4000   -34.7822    82.4536    13.5217    12.8400    13.1210
  347.5000   -34.7447    82.6537    13.4370    12.7666    13.0459
  347.6000   -34.6823    82.6579    13.3685    12.7247    12.9712
  347.7000   -34.5898    82.6621    13.3436    12.6943    12.8899
  347.8000   -34.5824    82.6663    13.3096    12.5480    12.8232
  347.9000   -34.4344    82.6705    13.2339    12.5476    12.7991
  348.0000   -34.4325    82.6747    13.1587    12.4927    12.7659
  348.1000   -34.4300    82.6789    13.0839    12.4598    12.6928
  348.2000   -34.3825    82.6835    13.0672    12.4595    12.6199
  348.3000   -34.2751    82.6873    13.0263    12.4591    12.6193
  348.4000   -34.2725    82.6915    12.9763    12.4587    12.5637
  348.5000   -34.2703    82.8056    12.9688    12.4584    12.4919
