~VERSION INFORMATION
 VERS.                2.0:   CWLS LOG ASCII STANDARD - VERSION 2.0
 WRAP.                 NO:   ONE LINE PER DEPTH STEP
~WELL INFORMATION
#MNEM.UNIT      DATA TYPE    INFORMATION
#----------   ------------   ------------------------------
 STRT.F           17.0000:   START DEPTH
 STOP.F          634.0000:   STOP DEPTH
 STEP.F            0.5000:   STEP LENGTH
 NULL.          -999.2500:   NO VALUE
 COMP. FENIX & SCISSON INC:   COMPANY
 WELL.        NPR 3 #72-3:   WELL
 FLD .             TEAPOT:   FIELD
 LOC .       S3 T38N R78W:   LOCATION
 CNTY.            NATRONA:   COUNTY
 STAT.            WYOMING:   STATE
 CTRY. UNITED STATES OF AMERICA:   COUNTRY
 SRVC.           BIRDWELL:   SERVICE COMPANY
 DATE.        24-SEP-1978:   LOGDATE
 API .       490251069100:   API NUMBER
~CURVE INFORMATION
#MNEM.UNIT       API CODE    CURVE DESCRIPTION
#----------   ------------   ------------------------------
 DEPT.F                  :   
 SPR .MV     05 010 01 00:   SPONTANEOUS POTENTIAL FROM RES.
 SN  .OHMM   05 040 16 00:   SHORT NORMAL 16"
 ILD .OHMM   05 120 46 00:   INDUCTION LOG DEEP
 GRD .GAPI   45 310 01 00:   GAMMA RAY FROM DENSITY LOG
 CALD.IN     45 280 60 00:   CALIPER
 DEN .G/C3   45 350 01 00:   COMPENSATED BULK DENSTIY
 DPHI.DEC    45 890 12 00:   DENSITY POROSITY SANDSTONE
 CORR.G/C3   45 356 01 00:   DENSITY CORRECTION
~PARAMETER INFORMATION
#MNEM.UNIT          VALUE    DESCRIPTION
#----------   ------------   ------------------------------
 PD  .                 GL:   PERMANENT DATUM
 EPD .F              5155:   ELEVATION PERMANENT DATUM
 LMF .                 KB:   LOG MEASURED FROM
 DAPD.F                 4:   FEET ABOVE PERMANENT DATUM
 DMF .                 KB:   DRILLING MEASURED FROM
 EKB .F              5159:   KELLING BUSHING
 EGL .F              5155:   GROUND LEVEL
 DATE.            9-24-78:   RUN DATE
 RUN .                  1:   RUN NUMBER
 DD  .F               635:   DEPTH DRILLER
 DL  .F               634:   DEPTH LOGGER
 BLI .F               627:   BOTTOM LOG INTERVAL
 TLI .F                30:   TOP LOG INTERVAL
 CS  .IN            8.625:   CASING SIZE
 CBD .F                34:   CASING BOTTOM DRILLER
 CBL .F                34:   CASING BOTTOM LOGGER
 BS  .IN            7.875:   BIT SIZE
 BSD .F               635:   BIT SIZE AT DEPTH
 DFT .                KCL:   DRILLING FLUID TYPE
 DFD .                8.7:   DRILLING FLUID DENSITY
 DFV .                 36:   DRILLING FLUID VISCOSITY
 DFPH.                9.5:   DRILLING FLUID PH
 DFL .                8.2:   DRILLING FLUID LOSS
 MSS .          FLOW LINE:   MUD SAMPLE SOURCE
 RMS .OHMM             .2:   RESISTIVITY MUD SAMPLE
 MST .F                68:   MUD SAMPLE TEMPERATURE
 RMF .OHMM            .18:   RESISTIVITY MUD FILTRATE SAMPLE
 MFST.F                76:   MUD FILTRATE SAMPLE TEMPERATURE
 RMC .OHMM            .32:   RESISTIVITY MUD CAKE
 MCST.F                76:   MUD CAKE SAMPLE TEMPERATURE
 MFSS.               MEAS:   MUD FILTRATE SAMPLE SOURCE
 RMB .OHMM             .2:   RESISTIVITY MUD AT BHT
 BHT .F                70:   BOTTOM HOLE TEMPERATURE
 TCS .HRS               3:   TIME CURCULATED STOPPED
 MRT .F                70:   MAXIMUM RECORDED TEMPERATURE
 LUN .               2958:   LOGGING UNIT NUMBER
 LUL .               CASP:   LOGGING UNIT LOCATION
 ENGI.           REYNOLDS:   RECORDING ENGINEER
 WITN.              AMEND:   WITNESSED BY
 CLNT.            A2DTECH:   CLIENT CODE
 ORIG.           5" PRINT:   ORIGIN OF DATA
 UWI .       490251069100:   UNIQUE WELL ID
 DICO. A2D Technologies, Inc.:   DIGITIZING COMPANY
~OTHER INFORMATION
~A   DEPT      SPR         SN        ILD         GRD      CALD        DEN       DPHI       CORR   
# ...
   57.5000   -65.3682     6.8396     6.5727   130.3257     7.7993     2.4701     0.1258     0.0205
   58.0000   -65.5033     6.8847     6.6126   130.4373     7.7987     2.4693     0.1268     0.0194
   58.5000   -65.6370     6.9292     6.7035   131.2183     7.7988     2.4692     0.1272     0.0159
   59.0000   -65.7692     6.9741     6.7956   134.4617     7.7990     2.4704     0.1272     0.0145
   59.5000   -65.9026     7.0192     6.8891   134.6260     7.7976     2.4716     0.1268     0.0145
   60.0000   -65.9110     7.0646     6.9029   130.7037     7.7738     2.4728     0.1258     0.0145
   60.5000   -65.8154     7.1102     6.9029   126.2971     7.7499     2.4741     0.1230     0.0145
   61.0000   -65.7187     7.1566     6.9029   125.4940     7.7395     2.4750     0.1208     0.0145
   61.5000   -65.6232     7.1822     6.9029   125.7609     7.7549     2.4741     0.1228     0.0145
   62.0000   -65.6038     7.2128     6.9212   126.8290     7.7792     2.4729     0.1248     0.0147
   62.5000   -65.7187     7.2433     6.9381   129.4232     7.8057     2.4720     0.1248     0.0155
   63.0000   -65.8316     7.2740     6.9551   133.2317     7.8323     2.4736     0.1247     0.0163
   63.5000   -65.9453     7.3048     6.9721   135.3333     7.8587     2.4754     0.1237     0.0171
   64.0000   -65.9332     7.3355     6.9891   131.5412     7.8790     2.4770     0.1232     0.0179
   64.5000   -65.8595     7.3624     7.0062   125.9099     7.8773     2.4760     0.1239     0.0187
   65.0000   -65.7911     7.3433     7.0311   120.4392     7.8758     2.4697     0.1251     0.0195
   65.5000   -65.4890     7.3263     7.0153   117.7157     7.8744     2.4667     0.1289     0.0203
   66.0000   -65.0827     7.3093     6.9856   117.1943     7.8730     2.4686     0.1268     0.0211
   66.5000   -64.9240     7.2923     6.9562   118.3028     7.8715     2.4708     0.1240     0.0219
   67.0000   -64.8692     7.2754     6.9268   120.4337     7.8701     2.4702     0.1240     0.0225
   67.5000   -64.8168     7.2586     6.8977   121.1312     7.8687     2.4693     0.1250     0.0222
   68.0000   -64.7582     7.2417     6.8686   121.9725     7.8672     2.4684     0.1276     0.0218
   68.5000   -64.5232     7.2249     6.8398   124.4583     7.8658     2.4686     0.1274     0.0214
   69.0000   -64.2673     7.2082     6.8357   126.9468     7.8644     2.4699     0.1268     0.0210
   69.5000   -64.1585     7.1915     6.8292   127.5023     7.8629     2.4710     0.1266     0.0205
   70.0000   -64.1565     7.1747     6.8228   123.3344     7.8615     2.4710     0.1264     0.0201
   70.5000   -64.1564     7.1615     6.8163   121.2896     7.8601     2.4710     0.1257     0.0197
   71.0000   -64.1566     7.1482     6.8099   121.0743     7.8587     2.4710     0.1244     0.0193
   71.5000   -64.1570     7.1350     6.8034   120.9041     7.8602     2.4732     0.1237     0.0189
   72.0000   -64.1590     7.1218     6.7970   120.9399     7.8621     2.4791     0.1196     0.0184
   72.5000   -64.0628     7.1086     6.7905   121.0444     7.8639     2.4850     0.1168     0.0176
   73.0000   -63.9565     7.0967     6.7840   120.9787     7.8657     2.4864     0.1156     0.0168
   73.5000   -63.9187     7.1074     6.7775   121.7689     7.8675     2.4869     0.1137     0.0160
   74.0000   -63.8839     7.1205     6.8078   122.6442     7.8693     2.4897     0.1113     0.0152
   74.5000   -63.8489     7.1334     6.8428   123.2654     7.8712     2.4929     0.1096     0.0150
   75.0000   -63.8140     7.1464     6.8782   123.5429     7.8730     2.4962     0.1096     0.0167
   75.5000   -63.7789     7.1595     6.9138   123.7368     7.8748     2.4949     0.1152     0.0172
   76.0000   -63.7217     7.1725     6.9668   122.6994     7.8767     2.4778     0.1221     0.0176
   76.5000   -63.6139     7.1856     6.9571   118.8692     7.8782     2.4779     0.1218     0.0181
   77.0000   -63.5071     7.1987     6.9387   117.4409     7.8683     2.4779     0.1215     0.0185
   77.5000   -63.3993     7.2118     6.9203   121.6002     7.8575     2.4779     0.1212     0.0189
   78.0000   -63.3651     7.2279     6.9020   125.7954     7.8468     2.4805     0.1167     0.0193
   78.5000   -63.3834     7.2108     6.8837   125.8593     7.8361     2.4838     0.1146     0.0197
   79.0000   -63.4025     7.1878     6.8655   124.2156     7.8254     2.4850     0.1149     0.0201
   79.5000   -63.4218     7.1648     6.8397   122.7237     7.8148     2.4812     0.1156     0.0207
   80.0000   -63.4409     7.1419     6.8495   122.4905     7.8040     2.4753     0.1200     0.0243
   80.5000   -63.4601     7.1191     6.8675   126.4166     7.8027     2.4707     0.1243     0.0279
   81.0000   -63.4793     7.0963     6.8855   131.0255     7.8100     2.4700     0.1264     0.0305
   81.5000   -63.4985     7.0627     6.9027   130.4901     7.8175     2.4693     0.1266     0.0301
   82.0000   -63.5180     7.0292     6.8450   127.5661     7.8249     2.4712     0.1241     0.0297
   82.5000   -63.5385     6.9958     6.7871   124.7885     7.8323     2.4754     0.1216     0.0293
   83.0000   -63.5435     6.9625     6.7301   124.7664     7.8398     2.4791     0.1200     0.0290
   83.5000   -63.3344     6.9295     6.6735   124.8602     7.8472     2.4790     0.1207     0.0287
   84.0000   -63.1289     6.8966     6.6173   124.5706     7.8545     2.4772     0.1226     0.0261
   84.5000   -62.9257     6.8638     6.5616   123.9029     7.8480     2.4731     0.1245     0.0230
   85.0000   -62.7429     6.8396     6.5315   124.0187     7.8246     2.4691     0.1252     0.0203
   85.5000   -62.7241     6.8505     6.5368   123.9505     7.8057     2.4691     0.1252     0.0195
   86.0000   -62.7016     6.8592     6.5408   123.9092     7.7871     2.4694     0.1254     0.0186
   86.5000   -62.6785     6.8680     6.5448   123.7944     7.7687     2.4696     0.1251     0.0177
   87.0000   -62.6554     6.8767     6.5488   124.0686     7.7505     2.4699     0.1247     0.0169
   87.5000   -62.6324     6.8855     6.5528   127.4356     7.7442     2.4701     0.1243     0.0160
   88.0000   -62.6093     6.8942     6.5568   131.4168     7.7582     2.4703     0.1241     0.0151
   88.5000   -62.5862     6.9030     6.5608   133.1832     7.7719     2.4706     0.1243     0.0143
   89.0000   -62.5629     6.9118     6.5648   126.4043     7.7856     2.4708     0.1245     0.0134
   89.5000   -62.5353     6.9206     6.5688   124.4497     7.7993     2.4694     0.1247     0.0125
   90.0000   -62.5013     6.9294     6.5728   124.1778     7.8131     2.4657     0.1248     0.0119
   90.5000   -62.4675     6.9382     6.5768   123.0209     7.8268     2.4620     0.1264     0.0113
   91.0000   -62.4336     6.9471     6.5808   122.3505     7.8377     2.4583     0.1326     0.0106
   91.5000   -62.3997     6.9559     6.5848   124.2845     7.8279     2.4545     0.1360     0.0107
   92.0000   -62.3660     6.9646     6.5889   124.4618     7.8183     2.4516     0.1346     0.0109
   92.5000   -62.3668     6.9918     6.5995   122.3789     7.8088     2.4614     0.1288     0.0111
   93.0000   -62.4237     7.0244     6.6421   122.7420     7.7992     2.4725     0.1248     0.0113
   93.5000   -62.4801     7.0570     6.6848   124.3962     7.7896     2.4790     0.1198     0.0115
   94.0000   -62.5366     7.0899     6.7277   125.3331     7.7799     2.4842     0.1158     0.0117
   94.5000   -62.5931     7.1129     6.7710   123.3997     7.7875     2.4813     0.1203     0.0120
   95.0000   -62.6497     7.1337     6.8144   120.8740     7.7975     2.4775     0.1221     0.0122
   95.5000   -62.7062     7.1618     6.8396   120.0928     7.8075     2.4736     0.1244     0.0124
   96.0000   -62.7508     7.1449     6.8114   120.1052     7.8175     2.4697     0.1281     0.0133
   96.5000   -62.7051     7.1181     6.7917   122.1903     7.8275     2.4678     0.1295     0.0155
   97.0000   -62.6586     7.0914     6.7720   126.2127     7.8375     2.4669     0.1291     0.0176
   97.5000   -62.6120     7.0647     6.7523   129.6468     7.8475     2.4670     0.1287     0.0237
