~VERSION INFORMATION
 VERS.                2.0:   CWLS LOG ASCII STANDARD - VERSION 2.0
 WRAP.                 NO:   ONE LINE PER DEPTH STEP
~WELL INFORMATION
#MNEM.UNIT      DATA TYPE    INFORMATION
#----------   ------------   ------------------------------
 STRT.F           12.0000:   START DEPTH
 STOP.F          563.5000:   STOP DEPTH
 STEP.F            0.5000:   STEP LENGTH
 NULL.          -999.2500:   NO VALUE
 COMP.       F D SERV INC:   COMPANY
 WELL. N P R 3 SX-3 #52-3:   WELL
 FLD .             TEAPOT:   FIELD
 LOC .       S3 T38N R78W:   LOCATION
 CNTY.            NATRONA:   COUNTY
 STAT.            WYOMING:   STATE
 CTRY. UNITED STATES OF AMERICA:   COUNTRY
 SRVC.     Atlas Wireline:   SERVICE COMPANY
 DATE.        27-APR-1992:   LOGDATE
 API .       490252252000:   API NUMBER
~CURVE INFORMATION
#MNEM.UNIT       API CODE    CURVE DESCRIPTION
#----------   ------------   ------------------------------
 DEPT.F                  :   
 PORZ.DEC    45 890 12 00:   DENSITY POROSITY
 CNC .DEC    42 890 03 00:   NEUTRON POROSITY SANDSTONE
 CALD.IN     45 280 60 00:   CALIPER FROM DENSITY
 GRD .GAPI   45 310 01 00:   GAMMA RAY FROM DENSITY LOG
 ZCOR.G/C3   45 356 01 00:   DENSITY CORRECTION
 ZDEN.G/C3   45 350 01 00:   BULK DENSITY
 RILD.OHMM   07 120 46 00:   INDUCTION LOG DEEP RESISTIVITY
 RILM.OHMM   07 120 44 00:   INDUCTION LOG MEDIUM RESISTIVITY
 RFOC.OHMM   07 220 04 00:   RESISTIVITY FOCUSED LOG
~PARAMETER INFORMATION
#MNEM.UNIT          VALUE    DESCRIPTION
#----------   ------------   ------------------------------
 PD  .                 GL:   PERMANENT DATUM
 EPD .F              5145:   ELEVATION PERMANENT DATUM
 LMF .                 KB:   LOG MEASURED FROM
 DAPD.F                 5:   FEET ABOVE PERMANENT DATUM
 DMF .                 KB:   DRILLING MEASURED FROM
 EKB .F              5150:   KELLING BUSHING
 EDF .F              5149:   DRILLING FLOOR
 EGL .F              5145:   GROUND LEVEL
 DATE.        27-APR-1992:   RUN DATE
 RUN .                  1:   RUN NUMBER
 DD  .F               565:   DEPTH DRILLER
 DL  .F               565:   DEPTH LOGGER
 BLI .F               563:   BOTTOM LOG INTERVAL
 CS  .IN            8.625:   CASING SIZE
 CBD .F                48:   CASING BOTTOM DRILLER
 CBL .F                51:   CASING BOTTOM LOGGER
 BS  .IN            7.875:   BIT SIZE
 BSD .F               565:   BIT SIZE AT DEPTH
 DFT .              WATER:   DRILLING FLUID TYPE
 TCS .HRS            0200:   TIME CURCULATED STOPPED
 MRT .F                88:   MAXIMUM RECORDED TEMPERATURE
 LUN .           HL- 6274:   LOGGING UNIT NUMBER
 LUL .             CASPER:   LOGGING UNIT LOCATION
 ENGI.             RAUTIO:   RECORDING ENGINEER
 WITN.        GARY STRONG:   WITNESSED BY
 CLNT.            A2DTECH:   CLIENT CODE
 ORIG.           5" PRINT:   ORIGIN OF DATA
 UWI .       490252252000:   UNIQUE WELL ID
 DICO. A2D Technologies, Inc.:   DIGITIZING COMPANY
~OTHER INFORMATION
~A   DEPT     PORZ        CNC       CALD        GRD       ZCOR       ZDEN       RILD       RILM       RFOC   
# ...
  304.0000     0.1344     0.4062     8.2477   128.0041     0.0137     2.4476     5.8098     4.7134     7.1652
  304.5000     0.1542     0.4379     8.2475   129.7784     0.0243     2.4070     5.8084     4.9479     5.3646
  305.0000     0.1551     0.4613     8.2474   125.9006     0.0305     2.3942     5.8072     5.2742     4.7016
  305.5000     0.1482     0.4532     8.2472   122.9211     0.0321     2.4003     5.8872     5.5287     4.7340
  306.0000     0.1313     0.4164     8.2470   122.0374     0.0337     2.4206     6.0097     5.6447     5.3202
  306.5000     0.1179     0.3949     8.2469   121.4531     0.0338     2.4581     6.3074     5.8034     6.7906
  307.0000     0.1094     0.3943     8.2318   119.9705     0.0324     2.4832     6.4878     6.0921     7.4314
  307.5000     0.1009     0.3928     8.2316   120.5838     0.0235     2.4893     6.7107     6.4398     7.3283
  308.0000     0.0985     0.3889     8.2315   121.8363     0.0070     2.4855     7.1415     6.8380     7.2268
  308.5000     0.1003     0.3755     8.2313   124.5086     0.0071     2.4811     7.3413     7.3984     7.2264
  309.0000     0.1012     0.3696     8.2312   127.2177     0.0147     2.4819     7.3909     7.4496     7.2259
  309.5000     0.1012     0.3681     8.2310   126.9328     0.0254     2.4864     7.3380     7.2954     7.2253
  310.0000     0.0976     0.3650     8.2309   124.5521     0.0332     2.4932     7.1226     6.9971     7.2248
  310.5000     0.0906     0.3593     8.2307   119.4768     0.0346     2.5016     6.6100     6.7071     7.2746
  311.0000     0.0846     0.3578     8.2306   114.7008     0.0272     2.5084     6.1659     6.0047     8.2421
  311.5000     0.0867     0.3605     8.2304   114.4159     0.0213     2.5076     5.5556     5.0122     8.1280
  312.0000     0.0982     0.3786     8.2153   120.7215     0.0229     2.4670     5.5544     4.7410     7.0128
  312.5000     0.1264     0.4154     8.2151   122.5323     0.0381     2.4332     5.4768     4.7737     4.6966
  313.0000     0.1445     0.4564     8.2000   120.7504     0.0397     2.4106     5.3627     4.8067     4.6317
  313.5000     0.1451     0.4538     8.1998   120.7649     0.0413     2.4167     5.3992     5.0181     4.9298
  314.0000     0.1288     0.4214     8.1997   123.1746     0.0414     2.4412     5.5884     5.3709     5.3576
  314.5000     0.1084     0.4024     8.1995   127.6801     0.0385     2.4740     5.8652     5.7969     5.9084
  315.0000     0.0990     0.3936     8.1994   129.1916     0.0266     2.4906     6.3289     6.3004     6.4609
  315.5000     0.0926     0.3740     8.1992   127.6297     0.0236     2.4989     6.8331     6.8476     6.8293
  316.0000     0.0872     0.3570     8.1991   125.6314     0.0328     2.5065     7.2673     7.1883     7.1689
  316.5000     0.0860     0.3517     8.1989   124.4483     0.0359     2.5043     7.5223     7.5108     7.5777
  317.0000     0.0899     0.3496     8.1988   123.2615     0.0345     2.4990     7.6789     7.8664     7.8447
  317.5000     0.0908     0.3487     8.1986   121.1838     0.0301     2.5006     7.8391     8.2006     8.1250
  318.0000     0.0890     0.3444     8.1985   113.7133     0.0226     2.5045     8.0577     8.3729     8.2915
  318.5000     0.0869     0.3408     8.1983   111.9112     0.0258     2.5059     8.1731     8.3722     8.3487
  319.0000     0.0860     0.3411     8.1982   114.1416     0.0304     2.5067     8.3963     8.3716     8.4063
  319.5000     0.0863     0.3429     8.1980   121.5448     0.0305     2.5067     8.5118     8.4882     8.4643
  320.0000     0.0889     0.3471     8.1979   123.9545     0.0231     2.5030     8.6290     8.6062     8.5819
  320.5000     0.0938     0.3568     8.1977   121.8732     0.0202     2.4978     8.6878     8.6658     8.6411
  321.0000     0.0947     0.3635     8.2126   116.1991     0.0308     2.4948     8.7460     8.7256     8.6404
  321.5000     0.0946     0.3652     8.2124   115.0123     0.0340     2.4926     8.7443     8.7857     8.6398
  322.0000     0.0949     0.3649     8.2123   115.6292     0.0235     2.4904     8.7421     8.7243     8.5795
  322.5000     0.0968     0.3655     8.2121   117.7395     0.0131     2.4881     8.7404     8.6632     8.5789
  323.0000     0.0997     0.3670     8.2120   121.0879     0.0071     2.4852     8.6782     8.6026     8.5190
  323.5000     0.0994     0.3688     8.2118   122.2631     0.0042     2.4860     8.6765     8.6021     8.4595
  324.0000     0.0958     0.3721     8.2117   120.7806     0.0074     2.4928     8.6748     8.5419     8.4588
  324.5000     0.0949     0.3754     8.2265   118.1005     0.0135     2.4943     8.6730     8.4823     8.4583
  325.0000     0.0955     0.3811     8.2264   113.9234     0.0241     2.4921     8.7317     8.4815     8.4577
  325.5000     0.0955     0.3821     8.2262   113.3354     0.0318     2.4921     8.7295     8.4810     8.4571
  326.0000     0.0952     0.3789     8.2261   113.9523     0.0319     2.4929     8.7889     8.5990     8.3392
  326.5000     0.0949     0.3694     8.2259   113.0489     0.0320     2.4945     8.9095     8.7189     7.7263
  327.0000     0.0939     0.3585     8.2108   111.8891     0.0321     2.4968     9.0321     8.9018     7.8338
  327.5000     0.0918     0.3522     8.2106   113.1012     0.0292     2.5036     9.0932     8.9632     7.9428
  328.0000     0.0782     0.3476     8.2105   115.2115     0.0248     2.5255     8.9657     8.9004     8.3376
  328.5000     0.0728     0.3433     8.2103   113.4296     0.0219     2.5315     8.8404     8.7163     8.6916
  329.0000     0.0746     0.3410     8.1952   111.3483     0.0129     2.5222     8.5968     8.3021     9.1976
  329.5000     0.0900     0.3431     8.1950   111.6622     0.0055     2.4887     8.1878     7.8528     9.9153
  330.0000     0.1029     0.3515     8.1799   117.3653     0.0056     2.4435     7.3638     7.4279     9.8461
  330.5000     0.1541     0.3841     8.1798   125.3245     0.0072     2.4089     6.4649     6.4750     9.3785
  331.0000     0.1869     0.4455     8.1796   129.6733     0.0195     2.3623     5.9888     4.8956     7.8840
  331.5000     0.1932     0.4622     8.1794   126.6938     0.0486     2.3284     5.8643     4.9637     5.9724
  332.0000     0.1814     0.4538     8.1793   115.3310     0.0497     2.3390     5.9043     5.2470     4.1053
  332.5000     0.1260     0.4236     8.1792   107.5611     0.0393     2.3970     6.0689     5.7425     4.9168
  333.0000     0.0920     0.3792     8.1940   105.7756     0.0349     2.4845     6.3397     6.3285     6.5804
  333.5000     0.0803     0.3301     8.1947   106.0931     0.0335     2.5183     7.1152     7.0718     7.4556
  334.0000     0.0800     0.3165     8.2087   107.0060     0.0336     2.5191     7.8937     7.8479     7.9356
  334.5000     0.0806     0.3150     8.2236   107.0239     0.0307     2.5162     8.6368     8.9544     8.6844
  335.0000     0.0824     0.3141     8.2234   106.1365     0.0215     2.5154     9.4498    10.0063     9.8577
  335.5000     0.0836     0.3137     8.2232   107.0528     0.0188     2.5140     9.9870    10.2875    10.1157
  336.0000     0.0852     0.3137     8.2231   109.4625     0.0250     2.5102    10.1949    10.2156    10.1149
  336.5000     0.0868     0.3180     8.2229   111.5728     0.0371     2.5072    10.1923    10.2148    10.1142
  337.0000     0.0865     0.3318     8.2228   110.3897     0.0418     2.5058    10.2617    10.3570     9.9741
  337.5000     0.0838     0.3357     8.2226   109.5060     0.0373     2.5111    10.5478    10.5014     9.6333
  338.0000     0.0808     0.3358     8.2225   111.3973     0.0284     2.5172    10.9938    11.2558     9.5658
  338.5000     0.0811     0.3342     8.2073   110.7362     0.0209     2.5142    11.7028    12.4045     9.6320
  339.0000     0.0871     0.3270     8.2072   107.1579     0.0271     2.4999    12.9790    13.2248     9.7658
  339.5000     0.1024     0.3149     8.1921    96.0945     0.0453     2.4781    14.2008    14.1524    10.3946
  340.0000     0.1076     0.2887     8.1919    80.2407     0.0590     2.4714    15.1124    14.9600    12.6235
