~VERSION INFORMATION
 VERS.                2.0:   CWLS LOG ASCII STANDARD - VERSION 2.0
 WRAP.                 NO:   ONE LINE PER DEPTH STEP
~WELL INFORMATION
#MNEM.UNIT      DATA TYPE    INFORMATION
#----------   ------------   ------------------------------
 STRT.F            4.0000:   START DEPTH
 STOP.F          614.0000:   STOP DEPTH
 STEP.F            0.1000:   STEP LENGTH
 NULL.          -999.2500:   NO VALUE
 COMP.   FLUOR DANIEL INC:   COMPANY
 WELL.     63-4 X 3 #63-3:   WELL
 FLD .          N.P.R. #3:   FIELD
 LOC .       S3 T38N R78W:   LOCATION
 CNTY.            NATRONA:   COUNTY
 STAT.            WYOMING:   STATE
 CTRY. UNITED STATES OF AMERICA:   COUNTRY
 SRVC.      Western Atlas:   SERVICE COMPANY
 DATE.        01-JUN-1995:   LOGDATE
 API .       490252271300:   API NUMBER
~CURVE INFORMATION
#MNEM.UNIT       API CODE    CURVE DESCRIPTION
#----------   ------------   ------------------------------
 DEPT.F                  :   
 GRR .GAPI   07 310 01 00:   GAMMA RAY
 RILD.OHMM   07 120 46 00:   INDUCTION LOG DEEP RESISTIVITY
 RILM.OHMM   07 120 44 00:   INDUCTION LOG MEDIUM RESISTIVITY
~PARAMETER INFORMATION
#MNEM.UNIT          VALUE    DESCRIPTION
#----------   ------------   ------------------------------
 PD  .                 GL:   PERMANENT DATUM
 EPD .F              5173:   ELEVATION PERMANENT DATUM
 LMF .                 KB:   LOG MEASURED FROM
 DAPD.F                10:   FEET ABOVE PERMANENT DATUM
 DMF .                 KB:   DRILLING MEASURED FROM
 EKB .F              5183:   KELLING BUSHING
 EDF .F              5182:   DRILLING FLOOR
 EGL .F              5173:   GROUND LEVEL
 DATE.        01-JUN-1995:   RUN DATE
 RUN .                  1:   RUN NUMBER
 DD  .F               626:   DEPTH DRILLER
 DL  .F               622:   DEPTH LOGGER
 BLI .F               614:   BOTTOM LOG INTERVAL
 TLI .F                95:   TOP LOG INTERVAL
 CS  .IN            9.625:   CASING SIZE
 CBD .F                95:   CASING BOTTOM DRILLER
 CBL .F                95:   CASING BOTTOM LOGGER
 BS  .IN             8.75:   BIT SIZE
 BSD .F               626:   BIT SIZE AT DEPTH
 DFT .                AIR:   DRILLING FLUID TYPE
 MRT .F               147:   MAXIMUM RECORDED TEMPERATURE
 LUN .            HL 6530:   LOGGING UNIT NUMBER
 LUL .             CASPER:   LOGGING UNIT LOCATION
 ENGI.        VERN RAUTIO:   RECORDING ENGINEER
 WITN.        STEVE HARDY:   WITNESSED BY
 CLNT.            A2DTECH:   CLIENT CODE
 ORIG.           5" PRINT:   ORIGIN OF DATA
 UWI .       490252271300:   UNIQUE WELL ID
 DICO. A2D Technologies, Inc.:   DIGITIZING COMPANY
~OTHER INFORMATION
~A    DEPT       GRR     RILD       RILM   
# ...
  204.2000   114.2648    11.3757    11.1070
  204.3000   113.7462    11.4524    11.1688
  204.4000   113.1488    11.4527    11.1859
  204.5000   112.9291    11.5507    11.2270
  204.6000   112.3137    11.6134    11.2952
  204.7000   111.8077    11.6401    11.3446
  204.8000   111.4546    11.7100    11.3540
  204.9000   110.9360    11.7768    11.4254
  205.0000   110.4173    11.7771    11.5058
  205.1000   109.8348    11.8396    11.5066
  205.2000   109.6076    11.9106    11.5523
  205.3000   109.3486    11.9427    11.6225
  205.4000   108.9460    11.9706    11.6698
  205.5000   108.5289    12.0265    11.6830
  205.6000   108.2699    12.0309    11.7528
  205.7000   108.0109    12.1110    11.7539
  205.8000   107.7274    12.1113    11.8152
  205.9000   107.7279    12.1117    11.8374
  206.0000   107.5354    12.1120    11.8384
  206.1000   107.2764    12.1123    11.8393
  206.2000   107.1264    12.1292    11.8403
  206.3000   107.1270    12.1974    11.8460
  206.4000   107.1276    12.1977    11.9246
  206.5000   107.1282    12.1980    11.9255
  206.6000   107.1288    12.1984    11.9265
  206.7000   107.1294    12.1577    11.9275
  206.8000   107.1300    12.1147    11.9594
  206.9000   107.1306    12.1150    12.0123
  207.0000   107.1312    12.1153    12.0133
  207.1000   107.1318    12.1157    12.0143
  207.2000   107.1325    12.1160    12.0153
  207.3000   107.4348    12.0632    12.0163
  207.4000   107.6432    11.9919    12.0173
  207.5000   107.7376    11.9211    12.0183
  207.6000   107.8620    11.8677    11.9961
  207.7000   108.0404    11.8626    11.9372
  207.8000   108.0410    11.7863    11.9384
  207.9000   108.0416    11.7866    11.9395
  208.0000   108.0423    11.7347    11.8800
  208.1000   107.8275    11.7057    11.8590
  208.2000   107.7418    11.7060    11.8600
  208.3000   107.6111    11.7063    11.8610
  208.4000   107.3520    11.7008    11.8467
  208.5000   107.1402    11.6260    11.7811
  208.6000   107.1356    11.6263    11.7822
  208.7000   106.8399    11.6267    11.7200
  208.8000   106.8404    11.6270    11.7028
  208.9000   106.6602    11.5982    11.6632
  209.0000   106.5400    11.5472    11.6241
  209.1000   106.6373    11.5413    11.6066
  209.2000   106.9523    11.4680    11.5457
  209.3000   107.4848    11.4683    11.5468
  209.4000   108.3524    11.4686    11.5477
  209.5000   109.5043    11.4285    11.1413
  209.6000   110.4265    11.3609    11.0882
  209.7000   110.9136    11.3115    11.0660
  209.8000   111.1739    11.3052    11.0349
  209.9000   111.3719    11.2339    10.9912
  210.0000   111.3726    11.2341    10.9819
  210.1000   111.3732    11.2345    10.9169
  210.2000   111.3738    11.1947    10.9178
  210.3000   111.1787    11.1574    10.9184
  210.4000   110.9196    11.1577    10.9192
  210.5000   110.4374    11.1580    10.9199
  210.6000   109.5895    11.1583    10.9207
  210.7000   108.5241    11.1586    10.9214
  210.8000   107.1542    11.1077    10.9222
  210.9000   106.4193    11.0420    10.8478
  211.0000   105.8441    10.9768    10.8484
  211.1000   105.1644    10.9119    10.8064
  211.2000   104.3861    10.8546    10.7432
  211.3000   103.7619    10.8549    10.6803
  211.4000   103.5029    10.7942    10.6283
  211.5000   103.2368    10.7804    10.6292
  211.6000   103.5392    10.7807    10.6300
  211.7000   103.7502    10.7810    10.6306
  211.8000   104.3475    10.7813    10.6314
  211.9000   105.0005    10.7816    10.6321
  212.0000   105.6048    10.7819    10.6329
  212.1000   106.4267    10.7822    10.6336
  212.2000   107.4655    10.7825    10.6343
  212.3000   108.3699    10.7430    10.5618
  212.4000   109.0244    10.6795    10.5096
  212.5000   109.8040    10.6164    10.4903
  212.6000   110.4495    10.5614    10.4591
  212.7000   110.8774    10.5618    10.3979
  212.8000   111.0878    10.5621    10.3482
  212.9000   111.0963    10.5624    10.3490
  213.0000   111.3907    10.5627    10.3498
  213.1000   111.3913    10.5629    10.3505
  213.2000   111.2085    10.5632    10.3512
  213.3000   110.9494    10.5635    10.3519
  213.4000   110.4917    10.5638    10.3526
  213.5000   109.7707    10.5642    10.3533
  213.6000   109.2368    10.5644    10.3540
  213.7000   108.3783    10.5647    10.3549
  213.8000   107.9131    10.5650    10.3555
  213.9000   107.0128    10.5653    10.3562
  214.0000   106.1237    10.5656    10.3569
  214.1000   105.1318    10.5659    10.3576
  214.2000   103.8991    10.5662    10.3583
  214.3000   102.8838    10.5665    10.3591
  214.4000   102.0477    10.5668    10.3599
  214.5000   101.3273    10.5671    10.3605
  214.6000   100.9456    10.5673    10.3612
  214.7000   100.5303    10.5676    10.3619
  214.8000   100.1259    10.5679    10.3855
  214.9000    99.9391    10.6419    10.4353
  215.0000   100.0604    10.6421    10.4360
  215.1000   101.1469    10.6424    10.4369
  215.2000   102.6340    10.6736    10.4375
  215.3000   104.1925    10.7171    10.4382
  215.4000   105.4234    10.7174    10.4389
  215.5000   106.4625    10.7177    10.4396
  215.6000   107.5017    10.7181    10.4404
  215.7000   108.5408    10.6660    10.4411
  215.8000   109.5976    10.6445    10.4419
  215.9000   110.5033    10.6137    10.4425
  216.0000   110.9301    10.5715    10.4433
  216.1000   111.4500    10.5617    10.4100
  216.2000   111.8407    10.4989    10.3727
  216.3000   112.0139    10.4993    10.3734
  216.4000   112.0145    10.4478    10.3741
  216.5000   112.0091    10.3861    10.3749
  216.6000   111.4125    10.3247    10.3756
  216.7000   111.1924    10.2840    10.3319
  216.8000   110.7547    10.2843    10.2715
  216.9000   110.3726    10.2846    10.2351
  217.0000   110.0191    10.2849    10.2086
  217.1000   109.6054    10.2341    10.0958
  217.2000   109.5852    10.2143    10.0966
  217.3000   109.0034    10.1839    10.0438
  217.4000   108.5478    10.1442    10.0283
  217.5000   108.0292    10.1445     9.9955
  217.6000   107.5105    10.1448     9.9370
  217.7000   107.0938    10.0749     9.8789
  217.8000   106.7749    10.0247     9.8249
  217.9000   106.2741    10.0057     9.8257
  218.0000   105.9910    10.0060     9.7739
  218.1000   105.5206    10.0063     9.7592
  218.2000   105.0019    10.0066     9.7599
  218.3000   104.6347    10.0069     9.7606
  218.4000   104.3756    10.0072     9.7612
  218.5000   104.0493    10.0074     9.7576
  218.6000   103.5812    10.0077     9.6953
  218.7000   103.5819    10.0080     9.6959
  218.8000   103.3396    10.0082     9.6966
  218.9000   103.2814     9.9973     9.6973
  219.0000   103.7587     9.9396     9.6979
  219.1000   105.1222     9.9399     9.6986
  219.2000   106.9755     9.9401     9.6993
  219.3000   108.2416     9.9404     9.7000
  219.4000   109.3177     9.9407     9.7006
  219.5000   110.5250     9.9409     9.7013
  219.6000   111.1506     9.9412     9.7358
  219.7000   111.7637     9.9415     9.7700
  219.8000   112.5321     9.9418     9.7707
  219.9000   113.4067     9.9421     9.7714
  220.0000   113.9266     9.9423     9.7721
  220.1000   114.4501     9.9426     9.7727
  220.2000   115.3558     9.9429     9.7734
  220.3000   115.5721     9.9432     9.7399
  220.4000   115.6585     9.9434     9.7073
  220.5000   115.6591     9.9437     9.7080
  220.6000   115.5701     9.8925     9.7087
  220.7000   115.2157     9.8755     9.7094
  220.8000   114.4317     9.8441     9.6566
  220.9000   113.2483     9.7859     9.6437
  221.0000   112.3560     9.7402     9.6103
  221.1000   111.8617     9.7404     9.5786
  221.2000   111.3243     9.7407     9.5641
  221.3000   110.5460     9.6902     9.5138
  221.4000   109.8228     9.6329     9.5145
  221.5000   109.3042     9.5760     9.4624
  221.6000   108.7277     9.5410     9.4502
  221.7000   108.4976     9.5413     9.4508
  221.8000   108.4271     9.5387     9.4515
  221.9000   108.4277     9.4759     9.4521
  222.0000   108.5329     9.4761     9.4528
  222.1000   108.7306     9.4764     9.4535
  222.2000   108.7517     9.4766     9.4541
  222.3000   109.0335     9.4989     9.4548
