~VERSION INFORMATION
 VERS.                2.0:   CWLS LOG ASCII STANDARD - VERSION 2.0
 WRAP.                 NO:   ONE LINE PER DEPTH STEP
~WELL INFORMATION
#MNEM.UNIT      DATA TYPE    INFORMATION
#----------   ------------   ------------------------------
 STRT.F            4.0000:   START DEPTH
 STOP.F          572.0000:   STOP DEPTH
 STEP.F            0.5000:   STEP LENGTH
 NULL.          -999.2500:   NO VALUE
 COMP. FENIX & SCISSON INC:   COMPANY
 WELL.       NPR#3 #33-10:   WELL
 FLD .             TEAPOT:   FIELD
 LOC .      S10 T38N R78W:   LOCATION
 CNTY.            NATRONA:   COUNTY
 STAT.            WYOMING:   STATE
 CTRY. UNITED STATES OF AMERICA:   COUNTRY
 SRVC.              Welex:   SERVICE COMPANY
 DATE.        05-MAY-1980:   LOGDATE
 API .       490251080800:   API NUMBER
~CURVE INFORMATION
#MNEM.UNIT       API CODE    CURVE DESCRIPTION
#----------   ------------   ------------------------------
 DEPT.F                  :   
 SGRD.OHMM   07 220 05 00:   SHALLOW GUARD RESISTIVITY
 ILD .OHMM   07 120 46 00:   INDUCTION LOG DEEP RESISTIVITY
 ILM .OHMM   07 120 44 00:   INDUCTION LOG MEDIUM
 SPR .MV     07 010 01 00:   SPONTANEOUS POTENTIAL
 CALD.IN     45 280 60 00:   CALIPER
 GRD .GAPI   45 310 01 00:   GAMMA RAY FROM DENSITY LOG
 RHOB.G/C3   45 350 01 00:   BULK DENSITY
 CORR.G/C3   45 356 01 00:   DENSITY CORRECTION
 DPHI.DEC    45 890 12 00:   DENSITY POROSITY SANDSTONE
~PARAMETER INFORMATION
#MNEM.UNIT          VALUE    DESCRIPTION
#----------   ------------   ------------------------------
 PD  .                 GL:   PERMANENT DATUM
 EPD .F              5228:   ELEVATION PERMANENT DATUM
 LMF .                 KB:   LOG MEASURED FROM
 DAPD.F                 5:   FEET ABOVE PERMANENT DATUM
 DMF .                 KB:   DRILLING MEASURED FROM
 EKB .F              5233:   KELLING BUSHING
 EGL .F              5228:   GROUND LEVEL
 DATE.             5-5-80:   RUN DATE
 RUN .                  1:   RUN NUMBER
 DD  .F               572:   DEPTH DRILLER
 DL  .F               572:   DEPTH LOGGER
 BLI .F               570:   BOTTOM LOG INTERVAL
 TLI .F                30:   TOP LOG INTERVAL
 BS  .IN            7.875:   BIT SIZE
 BSD .F               572:   BIT SIZE AT DEPTH
 DFT .            KCL MUD:   DRILLING FLUID TYPE
 DFD .                8.9:   DRILLING FLUID DENSITY
 DFV .                 36:   DRILLING FLUID VISCOSITY
 DFL .               12.6:   DRILLING FLUID LOSS
 MSS .           FLOWLINE:   MUD SAMPLE SOURCE
 RMS .OHMM           1.08:   RESISTIVITY MUD SAMPLE
 MST .F                60:   MUD SAMPLE TEMPERATURE
 RMF .OHMM            .86:   RESISTIVITY MUD FILTRATE SAMPLE
 MFST.F                60:   MUD FILTRATE SAMPLE TEMPERATURE
 RMC .OHMM           1.29:   RESISTIVITY MUD CAKE
 MCST.F                60:   MUD CAKE SAMPLE TEMPERATURE
 MFSS.           MEASURED:   MUD FILTRATE SAMPLE SOURCE
 MCSS.           MEASURED:   MUD CAKE SAMPLE SOURCE
 TCS .HRS               2:   TIME CURCULATED STOPPED
 MRT .F               100:   MAXIMUM RECORDED TEMPERATURE
 LUN .               1892:   LOGGING UNIT NUMBER
 LUL .             CASPER:   LOGGING UNIT LOCATION
 ENGI.               REIN:   RECORDING ENGINEER
 WITN.              AMEND:   WITNESSED BY
 CLNT.            A2DTECH:   CLIENT CODE
 ORIG.           5" PRINT:   ORIGIN OF DATA
 UWI .       490251080800:   UNIQUE WELL ID
 DICO. A2D Technologies, Inc.:   DIGITIZING COMPANY
~OTHER INFORMATION
~A    DEPT    SGRD        ILD        ILM        SPR       CALD         GRD        RHOB       CORR     DPHI   
# ...
  186.5000    12.7076    10.3800     9.2587   -31.9606     7.9166    90.3671     2.5224    -0.0104     0.0964
  187.0000    12.7302    10.3269     9.4080   -31.5755     7.9321    91.0774     2.5116    -0.0184     0.1008
  187.5000    12.0451    10.2740     9.5596   -31.3870     7.9476    91.1145     2.5004    -0.0277     0.1051
  188.0000    12.2676    10.2204     9.7137   -31.1952     7.9630    91.1069     2.4991    -0.0377     0.1092
  188.5000    12.2747    10.0523     9.8702   -31.0031     7.9785    91.1019     2.5081    -0.0364     0.0996
  189.0000    11.9063     9.8210     9.9249   -30.8109     7.9857    90.5966     2.5105    -0.0321     0.1019
  189.5000    11.6090     9.5969     9.8614   -30.6352     7.9765    89.5687     2.5044    -0.0314     0.1068
  190.0000    11.7057     9.3778     9.7879   -30.5923     7.9677    89.7039     2.4976    -0.0375     0.1117
  190.5000    11.7165     9.2069     9.7148   -30.5513     7.9588    89.9213     2.4980    -0.0434     0.1144
  191.0000    11.2341     9.1606     9.6423   -30.5095     7.9500    90.1392     2.5101    -0.0312     0.1080
  191.5000    11.0860     9.1128     9.5704   -30.4671     7.9412    90.2718     2.5197    -0.0143     0.1020
  192.0000    11.2923     9.0661     9.4989   -30.4398     7.9324    89.2410     2.5293     0.0016     0.0960
  192.5000    11.1887     9.0198     9.4278   -30.6989     7.9235    88.2427     2.5390     0.0145     0.0900
  193.0000    11.7786     8.9677     9.3907   -30.9891     7.9147    87.2535     2.5470     0.0278     0.0844
  193.5000    11.9345     9.0150     9.3906   -31.2793     7.9059    86.2338     2.5482     0.0262     0.0914
  194.0000    11.5463     9.0693     9.3907   -31.5692     7.8970    85.9735     2.5484     0.0298     0.0952
  194.5000    11.5024     9.1244     9.3908   -31.8590     7.8878    85.9650     2.5352     0.0300     0.0968
  195.0000    11.7165     9.1801     9.3908   -32.1511     7.8834    85.9672     2.5224     0.0240     0.0984
  195.5000    11.3969     9.2192     9.3908   -32.3126     7.8780    85.9684     2.5137     0.0182     0.0999
  196.0000    11.6090     9.1135     9.3908   -32.4243     7.8729    85.9684     2.5308     0.0263     0.0970
  196.5000    10.9842     9.0169     9.3908   -32.5351     7.8677    85.9683     2.5447     0.0364     0.0901
  197.0000    11.3526     8.9213     9.1582   -32.6460     7.8889    85.9659     2.5509     0.0448     0.0852
  197.5000    11.5024     8.8267     9.0646   -32.7563     7.8849    85.9574     2.5428     0.0308     0.0889
  198.0000    11.0740     8.7331     8.9864   -32.8274     7.8827    86.0231     2.5367     0.0165     0.0918
  198.5000    10.6118     8.6405     8.9089   -32.7963     7.8808    87.2648     2.5309     0.0192     0.0944
  199.0000    10.2977     8.5489     8.8321   -32.7668     7.8789    88.3220     2.5380     0.0273     0.0919
  199.5000    10.5323     8.4583     8.7560   -32.7374     7.8769    88.1081     2.5468     0.0355     0.0884
  200.0000    10.8784     8.3686     8.6805   -32.7081     7.8749    87.9353     2.5555     0.0438     0.0849
  200.5000    10.9842     8.2799     8.6208   -32.6788     7.8729    87.7882     2.5574     0.0513     0.0824
  201.0000    10.6377     8.1697     8.5767   -32.6498     7.8710    87.6262     2.5421     0.0530     0.0901
  201.5000    10.3788     8.1428     8.5328   -32.5516     7.8690    87.8904     2.5302     0.0446     0.0971
  202.0000    10.1551     8.1160     8.4891   -32.3104     7.8670    87.4803     2.5183     0.0187     0.1041
  202.5000    10.1096     8.0892     8.4457   -31.8910     7.8650    87.1640     2.5064    -0.0064     0.1111
  203.0000    10.3155     8.0626     8.4033   -31.4737     7.8631    87.4028     2.4944    -0.0271     0.1164
  203.5000    10.3950     8.0360     8.3681   -31.0580     7.8611    87.6393     2.4825    -0.0331     0.1202
  204.0000     9.9278     7.9922     8.3330   -30.6403     7.8591    87.8827     2.4731    -0.0345     0.1254
  204.5000     9.9900     7.9222     8.2981   -30.2700     7.8572    87.9245     2.4791    -0.0347     0.1243
  205.0000    10.1096     7.8528     8.2633   -29.9342     7.8552    87.4772     2.4915    -0.0298     0.1195
  205.5000     9.9715     7.7840     8.2287   -29.5991     7.8532    87.1413     2.5035    -0.0188     0.1092
  206.0000     9.7436     7.7378     8.1942   -29.4440     7.8512    87.4067     2.5156    -0.0083     0.0985
  206.5000     9.7981     7.7376     8.1599   -29.4402     7.8493    87.7746     2.5076    -0.0019     0.1038
  207.0000     9.8338     7.7377     8.1257   -29.6310     7.8479    88.1397     2.5015    -0.0075     0.1076
  207.5000     9.4207     7.7378     8.0917   -29.9907     7.8487    88.2186     2.5150    -0.0104     0.1008
  208.0000     9.2214     7.7378     8.0578   -30.3506     7.8494    87.6942     2.5282    -0.0040     0.0954
  208.5000    10.1150     7.7378     8.0287   -30.7102     7.8500    87.5567     2.5413     0.0016     0.0901
  209.0000     9.7164     7.7378     8.0736   -31.0710     7.8507    87.3267     2.5530    -0.0015     0.0848
  209.5000     9.4778     7.7378     8.1137   -31.3885     7.8514    87.0034     2.5601    -0.0026     0.0776
  210.0000    10.3979     7.7374     8.1540   -31.6767     7.8521    86.7908     2.5695     0.0056     0.0799
  210.5000    11.1439     7.7907     8.1944   -31.9680     7.8528    86.9634     2.5579     0.0177     0.0848
  211.0000    11.5024     7.8632     8.2536   -32.2313     7.8534    87.1302     2.5399     0.0195     0.0897
  211.5000    10.6277     7.9548     8.2066   -32.4952     7.8541    87.6398     2.5306     0.0196     0.0943
  212.0000     9.5566     7.8289     8.1209   -32.7608     7.8548    88.7130     2.5541     0.0238     0.0845
  212.5000     9.2192     7.6038     8.0361   -33.0196     7.8555    90.2961     2.5793     0.0325     0.0751
  213.0000     9.5655     7.3852     7.9521   -32.8468     7.8562    90.4962     2.5861     0.0377     0.0676
  213.5000     8.4072     7.1729     7.8149   -32.6451     7.8569    90.6626     2.5760     0.0272     0.0780
  214.0000     8.4868     6.9666     7.3952   -32.4455     7.8575    90.2832     2.5532     0.0169     0.0879
  214.5000     8.1548     6.7663     7.0503   -32.2311     7.8582    89.6318     2.5290    -0.0033     0.0977
  215.0000     7.4699     6.5718     7.0314   -31.6431     7.8589    89.0938     2.5044    -0.0234     0.1076
  215.5000     8.1002     6.3758     7.0096   -31.1820     7.8596    89.7538     2.4807    -0.0420     0.1213
  216.0000     9.2192     6.3758     6.9915   -31.0438     7.8602    90.4806     2.5059    -0.0333     0.1158
  216.5000     8.8854     6.3758     6.9915   -30.8994     7.8609    91.2358     2.4992    -0.0117     0.1096
  217.0000     9.0762     6.3758     7.0269   -30.7571     7.8616    91.0647     2.4875    -0.0141     0.1205
  217.5000     9.1346     6.3758     7.0529   -30.6475     7.8623    91.1043     2.4957    -0.0223     0.1181
  218.0000     8.5748     6.4396     7.0790   -30.7280     7.8630    91.0826     2.5015    -0.0210     0.1124
  218.5000     8.4851     6.5060     7.1052   -30.8051     7.8636    90.8471     2.4942    -0.0310     0.1192
  219.0000     9.0408     6.5732     7.1502   -30.9293     7.8643    91.4608     2.4989    -0.0243     0.1121
  219.5000     9.2192     6.6410     7.2268   -31.0869     7.8650    91.9486     2.5097    -0.0168     0.1052
  220.0000     8.8854     6.7095     7.3043   -31.2448     7.8657    92.2509     2.5203    -0.0093     0.0982
  220.5000     9.2192     6.7533     7.3826   -31.4028     7.8664    90.5740     2.5263    -0.0018     0.0959
  221.0000     8.6430     6.7924     7.4615   -31.5607     7.8671    90.8135     2.5142    -0.0025     0.1012
  221.5000     8.9677     6.8317     7.5265   -31.7190     7.8676    91.0487     2.5262    -0.0123     0.0970
  222.0000     8.8854     6.8713     7.5404   -31.8787     7.8676    91.3208     2.5385    -0.0069     0.0918
  222.5000     9.3188     6.9110     7.5578   -32.0255     7.8676    91.8337     2.5508     0.0071     0.0867
