~VERSION INFORMATION
 VERS.                2.0:   CWLS LOG ASCII STANDARD - VERSION 2.0
 WRAP.                 NO:   ONE LINE PER DEPTH STEP
~WELL INFORMATION
#MNEM.UNIT      DATA TYPE    INFORMATION
#----------   ------------   ------------------------------
 STRT.F            1.0000:   START DEPTH
 STOP.F          755.5000:   STOP DEPTH
 STEP.F            0.5000:   STEP LENGTH
 NULL.          -999.2500:   NO VALUE
 COMP. FENIX & SCISSON INC:   COMPANY
 WELL.       25-SX #25-14:   WELL
 FLD .        TEAPOT DOME:   FIELD
 LOC .      S14 T38N R78W:   LOCATION
 CNTY.            NATRONA:   COUNTY
 STAT.            WYOMING:   STATE
 CTRY. UNITED STATES OF AMERICA:   COUNTRY
 SRVC.           BIRDWELL:   SERVICE COMPANY
 DATE.        29-DEC-1978:   LOGDATE
 API .       490251076000:   API NUMBER
~CURVE INFORMATION
#MNEM.UNIT       API CODE    CURVE DESCRIPTION
#----------   ------------   ------------------------------
 DEPT.F                  :   
 SPR .MV     05 010 01 00:   SPONTANEOUS POTENTIAL FROM RES.
 SN  .OHMM   05 040 16 00:   SHORT NORMAL 16"
 IL  .OHMM   05 120 00 00:   INDUCTION LOG
 CALD.IN     45 280 60 00:   CALIPER
 GRD .GAPI   45 310 01 00:   GAMMA RAY FROM DENSITY LOG
 CORR.G/C3   45 356 01 00:   DENSITY CORRECTION
 DPHI.DEC    45 890 12 00:   DENSITY POROSITY SANDSTONE
 RHOB.G/C3   45 350 01 00:   BULK DENSITY
~PARAMETER INFORMATION
#MNEM.UNIT          VALUE    DESCRIPTION
#----------   ------------   ------------------------------
 PD  .                 GL:   PERMANENT DATUM
 EPD .F              5214:   ELEVATION PERMANENT DATUM
 LMF .                 KB:   LOG MEASURED FROM
 DAPD.F                 4:   FEET ABOVE PERMANENT DATUM
 DMF .                 KB:   DRILLING MEASURED FROM
 EKB .F              5218:   KELLING BUSHING
 EGL .F              5214:   GROUND LEVEL
 DATE.           12-29-79:   RUN DATE
 RUN .                  1:   RUN NUMBER
 DD  .F               765:   DEPTH DRILLER
 DL  .F               747:   DEPTH LOGGER
 BLI .F               740:   BOTTOM LOG INTERVAL
 TLI .F                40:   TOP LOG INTERVAL
 CS  .IN            8.625:   CASING SIZE
 CBD .F                40:   CASING BOTTOM DRILLER
 CBL .F                40:   CASING BOTTOM LOGGER
 BS  .IN            7.875:   BIT SIZE
 BSD .F               765:   BIT SIZE AT DEPTH
 DFT .                KCL:   DRILLING FLUID TYPE
 DFD .                8.8:   DRILLING FLUID DENSITY
 DFV .                 48:   DRILLING FLUID VISCOSITY
 DFPH.                9.2:   DRILLING FLUID PH
 MSS .           FLOWLINE:   MUD SAMPLE SOURCE
 RMS .OHMM            .17:   RESISTIVITY MUD SAMPLE
 MST .F                56:   MUD SAMPLE TEMPERATURE
 RMF .OHMM            .15:   RESISTIVITY MUD FILTRATE SAMPLE
 MFST.F                56:   MUD FILTRATE SAMPLE TEMPERATURE
 RMC .OHMM            .23:   RESISTIVITY MUD CAKE
 MCST.F                64:   MUD CAKE SAMPLE TEMPERATURE
 MFSS.           MEASURED:   MUD FILTRATE SAMPLE SOURCE
 MCSS.           MEASURED:   MUD CAKE SAMPLE SOURCE
 RMB .OHMM            .16:   RESISTIVITY MUD AT BHT
 BHT .F                59:   BOTTOM HOLE TEMPERATURE
 TCS .HRS              12:   TIME CURCULATED STOPPED
 MRT .F                59:   MAXIMUM RECORDED TEMPERATURE
 LUN .               2958:   LOGGING UNIT NUMBER
 LUL .             CASPER:   LOGGING UNIT LOCATION
 ENGI.            ROLLINS:   RECORDING ENGINEER
 WITN.         RICHARDSON:   WITNESSED BY
 CLNT.            A2DTECH:   CLIENT CODE
 ORIG.           5" PRINT:   ORIGIN OF DATA
 UWI .       490251076000:   UNIQUE WELL ID
 DICO. A2D Technologies, Inc.:   DIGITIZING COMPANY
~OTHER INFORMATION
~A    DEPT     SPR         SN         IL       CALD         GRD      CORR       DPHI       RHOB   
# ...
  244.0000   -61.1610     5.6980     4.7380     7.4830   108.0990     0.0240     0.1110     2.4950
  244.5000   -61.1540     5.6940     4.7660     7.4770   108.0390     0.0230     0.1110     2.4950
  245.0000   -61.1470     5.6890     4.8050     7.4710   107.9770     0.0220     0.1110     2.4930
  245.5000   -61.1400     5.6830     4.7890     7.4650   107.9060     0.0220     0.1110     2.4920
  246.0000   -61.1330     5.6780     4.7660     7.4590   108.2710     0.0210     0.1110     2.4920
  246.5000   -61.1250     5.6720     4.7430     7.4530   108.6890     0.0240     0.1110     2.4920
  247.0000   -61.1180     5.6670     4.7200     7.4470   109.1040     0.0260     0.1100     2.4920
  247.5000   -61.1110     5.6610     4.6970     7.4410   110.7240     0.0290     0.1090     2.4920
  248.0000   -61.1040     5.6560     4.6730     7.4320   113.4960     0.0290     0.1080     2.4930
  248.5000   -61.0960     5.6500     4.6500     7.4190   113.4070     0.0280     0.1060     2.4950
  249.0000   -61.0890     5.6450     4.6430     7.4640   110.5870     0.0280     0.1030     2.4970
  249.5000   -61.0820     5.6390     4.6430     7.4970   107.4860     0.0270     0.1010     2.4990
  250.0000   -61.0750     5.6340     4.6430     7.4930   106.1030     0.0270     0.0990     2.5050
  250.5000   -61.0680     5.6280     4.6430     7.4900   106.7850     0.0270     0.1010     2.5130
  251.0000   -61.0600     5.6230     4.6430     7.4870   107.3920     0.0260     0.1030     2.5140
  251.5000   -61.0530     5.6170     4.6430     7.4840   107.7050     0.0260     0.1060     2.5110
  252.0000   -61.0460     5.6120     4.6720     7.4820   107.7070     0.0250     0.1070     2.5060
  252.5000   -61.0380     5.6060     4.7280     7.4790   107.8620     0.0250     0.1080     2.5010
  253.0000   -61.0310     5.6020     4.7850     7.4760   107.0300     0.0250     0.1100     2.4960
  253.5000   -61.0260     5.6510     4.8460     7.4730   106.9190     0.0240     0.1120     2.4920
  254.0000   -60.9040     5.6950     4.9100     7.4700   107.5900     0.0240     0.1160     2.4890
  254.5000   -60.7380     5.7380     4.9810     7.4670   109.8610     0.0230     0.1150     2.4870
  255.0000   -60.5720     5.7820     5.0570     7.4640   113.0260     0.0230     0.1150     2.4860
  255.5000   -60.4230     5.8470     5.0500     7.4610   113.8340     0.0220     0.1140     2.4860
  256.0000   -60.4210     5.8300     5.0420     7.4580   112.1930     0.0210     0.1140     2.4860
  256.5000   -60.4210     5.7990     5.0340     7.4550   110.3860     0.0190     0.1140     2.4910
  257.0000   -60.4210     5.7680     5.0260     7.4520   109.6880     0.0180     0.1110     2.4960
  257.5000   -60.4210     5.7400     5.0180     7.4490   109.6080     0.0170     0.1080     2.5000
  258.0000   -60.4210     5.7160     4.9740     7.4470   109.5120     0.0180     0.1050     2.5030
  258.5000   -60.4210     5.6930     4.8990     7.4440   110.1230     0.0180     0.1050     2.5040
  259.0000   -60.4210     5.6690     4.8240     7.4410   110.8820     0.0190     0.1060     2.5050
  259.5000   -60.4210     5.6460     4.7780     7.4380   111.2920     0.0200     0.1060     2.5050
  260.0000   -60.4210     5.6230     4.7420     7.4410   111.7110     0.0210     0.1060     2.5040
  260.5000   -60.4210     5.6040     4.7060     7.4490   112.0820     0.0210     0.1060     2.5030
  261.0000   -60.4210     5.6150     4.6700     7.4570   110.9170     0.0210     0.1070     2.5020
  261.5000   -60.4210     5.6260     4.6350     7.4640   108.8220     0.0210     0.1080     2.5020
  262.0000   -60.4210     5.6380     4.6040     7.4720   107.6330     0.0210     0.1100     2.4980
  262.5000   -60.4210     5.6490     4.6450     7.4800   107.3170     0.0210     0.1130     2.4930
  263.0000   -60.4210     5.6600     4.6800     7.4870   107.4490     0.0210     0.1150     2.4860
  263.5000   -60.4210     5.6710     4.7160     7.4950   107.7790     0.0220     0.1170     2.4800
  264.0000   -60.4210     5.6820     4.7520     7.5030   110.3930     0.0240     0.1200     2.4750
  264.5000   -60.4210     5.6940     4.7870     7.5100   113.4450     0.0250     0.1220     2.4720
  265.0000   -60.4200     5.7050     4.8230     7.5170   116.1200     0.0270     0.1240     2.4720
  265.5000   -60.4200     5.7160     4.8490     7.5150   116.0710     0.0280     0.1240     2.4720
  266.0000   -60.4200     5.7270     4.8560     7.5130   115.9770     0.0300     0.1240     2.4710
  266.5000   -60.3130     5.7380     4.8640     7.5120   115.6540     0.0320     0.1230     2.4670
  267.0000   -60.0980     5.7500     4.8710     7.5100   114.5250     0.0330     0.1230     2.4670
  267.5000   -59.8780     5.7610     4.8790     7.5080   113.6020     0.0350     0.1230     2.4690
  268.0000   -59.8200     5.7720     4.8870     7.5070   113.9910     0.0360     0.1230     2.4730
  268.5000   -59.8120     5.7830     4.8940     7.5050   114.4860     0.0370     0.1230     2.4760
  269.0000   -59.8070     5.7970     4.9020     7.5030   114.4800     0.0360     0.1240     2.4750
  269.5000   -59.8010     5.7930     4.9090     7.5010   113.2210     0.0360     0.1240     2.4740
  270.0000   -59.7960     5.7880     4.9170     7.4990   110.0480     0.0360     0.1250     2.4720
  270.5000   -59.7910     5.7830     4.9280     7.4980   108.7570     0.0350     0.1250     2.4710
  271.0000   -59.7860     5.7780     4.9210     7.4820   112.0980     0.0350     0.1250     2.4690
  271.5000   -59.7800     5.7730     4.8980     7.4490   113.5460     0.0340     0.1260     2.4660
  272.0000   -59.7750     5.7680     4.8760     7.4160   113.7380     0.0330     0.1240     2.4630
  272.5000   -59.7700     5.7630     4.8530     7.3970   114.6660     0.0330     0.1220     2.4650
  273.0000   -59.7650     5.7580     4.8310     7.4090   112.5910     0.0320     0.1200     2.4780
  273.5000   -59.7600     5.7530     4.8090     7.4670   108.6140     0.0310     0.1170     2.4870
  274.0000   -59.7540     5.7480     4.7860     7.4800   108.0000     0.0300     0.1150     2.4870
  274.5000   -59.7490     5.7480     4.7640     7.4830   107.9410     0.0290     0.1140     2.4870
  275.0000   -59.7440     5.7480     4.7680     7.4870   108.5120     0.0280     0.1140     2.4870
  275.5000   -59.7390     5.7480     4.7720     7.4900   108.7000     0.0280     0.1140     2.4870
  276.0000   -59.7340     5.7480     4.7760     7.4940   108.8550     0.0270     0.1150     2.4870
  276.5000   -59.7280     5.7480     4.7800     7.4970   110.6180     0.0290     0.1160     2.4870
  277.0000   -59.7230     5.7480     4.7840     7.4930   113.4540     0.0310     0.1170     2.4870
  277.5000   -59.7180     5.7480     4.7880     7.4900   116.2410     0.0330     0.1160     2.4870
  278.0000   -59.7130     5.7480     4.7920     7.4870   116.2320     0.0350     0.1140     2.4870
  278.5000   -59.7070     5.7480     4.7960     7.4840   115.2650     0.0360     0.1140     2.4850
  279.0000   -59.7020     5.7480     4.8000     7.4810   113.8710     0.0370     0.1150     2.4830
  279.5000   -59.6970     5.7610     4.8040     7.4780   113.3320     0.0360     0.1160     2.4830
  280.0000   -59.6920     5.7730     4.8190     7.4750   113.3440     0.0320     0.1160     2.4840
  280.5000   -59.6870     5.7860     4.8420     7.4710   113.3470     0.0280     0.1170     2.4850
  281.0000   -59.6810     5.7990     4.8650     7.4680   113.9590     0.0270     0.1180     2.4850
  281.5000   -59.6760     5.8120     4.8870     7.4650   115.1330     0.0270     0.1170     2.4830
  282.0000   -59.6710     5.8240     4.8970     7.4620   115.5300     0.0280     0.1160     2.4810
  282.5000   -59.6660     5.8370     4.9050     7.4590   115.3980     0.0280     0.1150     2.4840
  283.0000   -59.6600     5.8700     4.9140     7.4540   114.8940     0.0290     0.1140     2.4870
  283.5000   -59.6550     5.9720     4.9230     7.4420   113.2360     0.0290     0.1150     2.4880
  284.0000   -59.6500     6.0510     4.9320     7.4490   112.5380     0.0300     0.1170     2.4870
