~VERSION INFORMATION
 VERS.                2.0:   CWLS LOG ASCII STANDARD - VERSION 2.0
 WRAP.                 NO:   ONE LINE PER DEPTH STEP
~WELL INFORMATION
#MNEM.UNIT      DATA TYPE    INFORMATION
#----------   ------------   ------------------------------
 STRT.F            2.0000:   START DEPTH
 STOP.F          602.0000:   STOP DEPTH
 STEP.F            0.1000:   STEP LENGTH
 NULL.          -999.2500:   NO VALUE
 COMP.       F D SERV INC:   COMPANY
 WELL.    63-1 SX-3 #63-3:   WELL
 FLD .             TEAPOT:   FIELD
 LOC .       S3 T38N R78W:   LOCATION
 CNTY.            NATRONA:   COUNTY
 STAT.            WYOMING:   STATE
 CTRY. UNITED STATES OF AMERICA:   COUNTRY
 SRVC.     Atlas Wireline:   SERVICE COMPANY
 DATE.        20-APR-1992:   LOGDATE
 API .       490252251300:   API NUMBER
~CURVE INFORMATION
#MNEM.UNIT       API CODE    CURVE DESCRIPTION
#----------   ------------   ------------------------------
 DEPT.F                  :   
 GRR .GAPI   07 310 01 00:   GAMMA RAY
 RILD.OHMM   07 120 46 00:   INDUCTION LOG DEEP RESISTIVITY
 RILM.OHMM   07 120 44 00:   INDUCTION LOG MEDIUM RESISTIVITY
~PARAMETER INFORMATION
#MNEM.UNIT          VALUE    DESCRIPTION
#----------   ------------   ------------------------------
 PD  .                 GL:   PERMANENT DATUM
 EPD .F              5176:   ELEVATION PERMANENT DATUM
 LMF .                 KB:   LOG MEASURED FROM
 DAPD.F                 5:   FEET ABOVE PERMANENT DATUM
 DMF .                 KB:   DRILLING MEASURED FROM
 EKB .F              5181:   KELLING BUSHING
 EDF .F              5180:   DRILLING FLOOR
 EGL .F              5176:   GROUND LEVEL
 DATE.        20-APR-1992:   RUN DATE
 RUN .                  1:   RUN NUMBER
 DD  .F               608:   DEPTH DRILLER
 DL  .F               608:   DEPTH LOGGER
 BLI .F               602:   BOTTOM LOG INTERVAL
 CS  .IN            8.625:   CASING SIZE
 CBD .F                48:   CASING BOTTOM DRILLER
 CBL .F                50:   CASING BOTTOM LOGGER
 BS  .IN            7.875:   BIT SIZE
 BSD .F               608:   BIT SIZE AT DEPTH
 DFT .                AIR:   DRILLING FLUID TYPE
 TCS .HRS               2:   TIME CURCULATED STOPPED
 MRT .F                85:   MAXIMUM RECORDED TEMPERATURE
 LUN .           HL- 6274:   LOGGING UNIT NUMBER
 LUL .             CASPER:   LOGGING UNIT LOCATION
 ENGI.             RAUTIO:   RECORDING ENGINEER
 WITN.        GARY STRONG:   WITNESSED BY
 CLNT.            A2DTECH:   CLIENT CODE
 ORIG.           5" PRINT:   ORIGIN OF DATA
 UWI .       490252251300:   UNIQUE WELL ID
 DICO. A2D Technologies, Inc.:   DIGITIZING COMPANY
~OTHER INFORMATION
~A    DEPT      GRR      RILD       RILM   
# ...
   74.8000   122.3787     7.6470     7.9791
   74.9000   123.3949     7.6991     7.9790
   75.0000   124.0826     7.6993     7.9789
   75.1000   124.5865     7.6995     7.9787
   75.2000   125.0672     7.6998     7.9786
   75.3000   125.5594     7.6999     7.9785
   75.4000   125.9242     7.7002     7.9784
   75.5000   126.0996     7.7003     7.9731
   75.6000   126.0855     7.7006     7.9226
   75.7000   125.8005     7.7008     7.9225
   75.8000   125.3921     7.7010     7.9224
   75.9000   125.0508     7.7012     7.9019
   76.0000   124.8064     7.7014     7.8670
   76.1000   124.5983     7.7017     7.8669
   76.2000   124.5998     7.7019     7.8668
   76.3000   124.6009     7.6873     7.8667
   76.4000   124.6021     7.6486     7.8413
   76.5000   124.6033     7.6489     7.7964
   76.6000   124.7195     7.6490     7.7572
   76.7000   125.2134     7.6493     7.7571
   76.8000   125.9510     7.6306     7.7570
   76.9000   126.6891     7.5874     7.7269
   77.0000   127.2922     7.5437     7.6827
   77.1000   127.7844     7.5439     7.6490
   77.2000   128.2317     7.5441     7.6483
   77.3000   128.2330     7.5443     7.6046
   77.4000   127.8101     7.5314     7.5612
   77.5000   127.3203     7.4886     7.5424
   77.6000   126.9302     7.4402     7.5273
   77.7000   126.6420     7.4403     7.4843
   77.8000   126.1274     7.3873     7.4374
   77.9000   125.6623     7.3205     7.4373
   78.0000   125.1724     7.2791     7.4082
   78.1000   123.8365     7.2359     7.3853
   78.2000   122.2105     7.2361     7.3750
   78.3000   122.2031     7.1766     7.3337
   78.4000   121.9115     7.1360     7.3335
   78.5000   121.9125     7.1250     7.3001
   78.6000   122.0557     7.0846     7.2823
   78.7000   122.5602     7.0375     7.2674
   78.8000   123.6325     7.0377     7.2314
   78.9000   125.5374     7.0379     7.2313
   79.0000   127.0728     7.0381     7.2312
   79.1000   127.9775     7.0382     7.2310
   79.2000   128.2558     7.0385     7.2310
   79.3000   128.2570     7.0387     7.2309
   79.4000   128.2582     7.0389     7.2308
   79.5000   128.2594     7.0391     7.2307
   79.6000   128.4449     7.0492     7.2306
   79.7000   127.6666     7.0897     7.2305
   79.8000   126.0212     7.1305     7.2304
   79.9000   124.6284     7.1390     7.2303
   80.0000   124.3441     7.1861     7.2302
   80.1000   124.5504     7.2400     7.2682
   80.2000   124.6479     7.2401     7.2806
   80.3000   124.8354     7.2404     7.3004
   80.4000   125.2537     7.2777     7.3315
   80.5000   125.2550     7.2916     7.3314
   80.6000   125.9356     7.2918     7.3313
   80.7000   126.5030     7.3011     7.3312
   80.8000   127.3380     7.3434     7.3560
   80.9000   128.8581     7.3436     7.3824
   81.0000   131.3039     7.3438     7.3885
   81.1000   132.5334     7.3668     7.4340
   81.2000   132.9962     7.4092     7.4338
   81.3000   133.2430     7.4478     7.4337
   81.4000   133.3313     7.4481     7.4337
   81.5000   133.0870     7.4482     7.4447
   81.6000   132.8098     7.4485     7.4856
   81.7000   132.5983     7.4487     7.4855
   81.8000   132.0410     7.4488     7.4854
   81.9000   131.2051     7.4491     7.4853
   82.0000   130.0917     7.4493     7.4852
   82.1000   128.2908     7.4495     7.4851
   82.2000   126.8900     7.4497     7.4850
   82.3000   125.7728     7.4499     7.4848
   82.4000   124.9133     7.4501     7.5153
   82.5000   124.3087     7.4504     7.5372
   82.6000   124.0643     7.4505     7.5371
   82.7000   123.7734     7.4507     7.5369
   82.8000   124.3705     7.4510     7.5368
   82.9000   125.2510     7.4511     7.5367
   83.0000   125.8884     7.4514     7.5366
   83.1000   125.8895     7.4516     7.5365
   83.2000   125.8909     7.4821     7.5364
   83.3000   126.1119     7.5251     7.5363
   83.4000   126.1949     7.5572     7.5362
   83.5000   126.3036     7.5588     7.5361
   83.6000   126.4474     7.6107     7.5574
   83.7000   126.1985     7.6461     7.5887
   83.8000   126.1997     7.6645     7.5909
   83.9000   126.0161     7.6803     7.6417
   84.0000   125.9004     7.7187     7.6416
   84.1000   125.7563     7.7189     7.6415
   84.2000   125.2667     7.7592     7.6584
   84.3000   124.6976     7.7736     7.7022
   84.4000   124.2868     7.7738     7.7487
   84.5000   124.0965     7.7841     7.7486
   84.6000   123.9102     7.8288     7.7485
   84.7000   123.4954     7.8740     7.7708
   84.8000   123.4969     7.8841     7.8152
   84.9000   123.9521     7.8843     7.8572
   85.0000   124.1026     7.8846     7.8571
   85.1000   124.2186     7.8848     7.8948
   85.2000   124.4066     7.8850     7.9120
   85.3000   124.4078     7.9247     7.9298
   85.4000   124.4090     7.9408     7.9673
   85.5000   124.6024     7.9603     7.9671
   85.6000   124.5772     7.9969     8.0106
   85.7000   124.4127     7.9972     8.0228
   85.8000   124.3901     7.9974     8.0461
   85.9000   124.1136     7.9976     8.0789
   86.0000   123.6882     7.9978     8.0787
   86.1000   123.1983     7.9981     8.0786
   86.2000   122.6075     7.9983     8.1176
   86.3000   122.0064     7.9986     8.1350
   86.4000   122.3096     7.9987     8.1537
   86.5000   122.7795     7.9990     8.1919
   86.6000   123.2717     7.9992     8.1917
   86.7000   124.0081     7.9994     8.1916
   86.8000   124.9917     7.9997     8.2261
   86.9000   125.9747     8.0432     8.2489
   87.0000   127.1435     8.0894     8.2488
   87.1000   127.9417     8.1130     8.2520
   87.2000   128.9252     8.1133     8.3063
   87.3000   129.7345     8.1135     8.3062
   87.4000   130.2267     8.1137     8.3061
   87.5000   130.7693     8.1139     8.3060
   87.6000   131.2113     8.1141     8.3059
   87.7000   131.3750     8.1144     8.3057
   87.8000   131.3761     8.1146     8.3056
   87.9000   131.3774     8.1148     8.3055
   88.0000   131.3786     8.1150     8.3054
   88.1000   131.6213     8.1473     8.3053
   88.2000   131.6826     8.1725     8.3052
   88.3000   131.8132     8.1616     8.3050
   88.4000   132.2796     8.1160     8.3049
   88.5000   133.2290     8.1162     8.3351
   88.6000   133.7993     8.1164     8.3630
   88.7000   134.2135     8.1166     8.3629
   88.8000   134.4048     8.1169     8.3627
   88.9000   134.4060     8.1171     8.3626
   89.0000   134.4072     8.1173     8.3625
   89.1000   134.4085     8.1587     8.3624
   89.2000   134.4096     8.1748     8.3622
   89.3000   134.4109     8.1750     8.3621
   89.4000   134.4121     8.1752     8.3620
   89.5000   134.4133     8.1754     8.3619
   89.6000   134.4177     8.1756     8.3926
   89.7000   134.6646     8.1759     8.4203
   89.8000   134.9112     8.1761     8.4202
   89.9000   135.0214     8.1907     8.4201
   90.0000   135.0226     8.2339     8.4199
   90.1000   135.0238     8.2342     8.4198
   90.2000   135.0252     8.2344     8.4197
   90.3000   135.0263     8.2347     8.4196
   90.4000   135.0275     8.2349     8.4195
   90.5000   135.0287     8.2351     8.4193
   90.6000   135.0298     8.2353     8.4192
   90.7000   135.0311     8.2355     8.4505
   90.8000   134.3276     8.2358     8.4780
   90.9000   133.4132     8.2360     8.4779
   91.0000   132.3094     8.2363     8.4778
   91.1000   131.0166     8.2365     8.4777
   91.2000   129.5650     8.2368     8.5147
   91.3000   128.4020     8.2369     8.5369
   91.4000   127.8031     8.2371     8.5368
   91.5000   127.0677     8.2551     8.5367
   91.6000   126.4201     8.3026     8.5365
   91.7000   125.9932     8.3539     8.5364
   91.8000   125.9947     8.3541     8.5684
   91.9000   125.5536     8.3544     8.5960
   92.0000   124.7339     8.3773     8.5959
   92.1000   123.9706     8.4135     8.5958
   92.2000   123.5334     8.4148     8.6445
   92.3000   123.2857     8.4632     8.6558
   92.4000   123.5291     8.4732     8.6557
   92.5000   124.1479     8.5291     8.6718
   92.6000   124.8858     8.5931     8.7162
   92.7000   125.6976     8.5933     8.7160
   92.8000   126.6807     8.5936     8.7159
   92.9000   127.8180     8.6379     8.7489
