~VERSION INFORMATION
 VERS.                2.0:   CWLS LOG ASCII STANDARD - VERSION 2.0
 WRAP.                 NO:   ONE LINE PER DEPTH STEP
~WELL INFORMATION
#MNEM.UNIT      DATA TYPE    INFORMATION
#----------   ------------   ------------------------------
 STRT.F           50.0000:   START DEPTH
 STOP.F         1152.0000:   STOP DEPTH
 STEP.F            0.5000:   STEP LENGTH
 NULL.          -999.2500:   NO VALUE
 COMP. FENIX & SCISSON INC:   COMPANY
 WELL.  NPR 3 #65 SX14-14:   WELL
 FLD .             TEAPOT:   FIELD
 LOC .      S14 T38N R78W:   LOCATION
 CNTY.            NATRONA:   COUNTY
 STAT.            WYOMING:   STATE
 CTRY. UNITED STATES OF AMERICA:   COUNTRY
 SRVC.              Welex:   SERVICE COMPANY
 DATE.        13-JAN-1979:   LOGDATE
 API .       490251073800:   API NUMBER
~CURVE INFORMATION
#MNEM.UNIT       API CODE    CURVE DESCRIPTION
#----------   ------------   ------------------------------
 DEPT.F                  :   
 SPR .MV     07 010 01 00:   SPONTANEOUS POTENTIAL
 SGRD.OHMM   07 220 05 00:   SHALLOW GUARD RESISTIVITY
 ILD .OHMM   07 120 46 00:   INDUCTION LOG DEEP
 ILM .OHMM   07 120 44 00:   INDUCTION LOG MEDIUM
 CALD.IN     45 280 60 00:   CALIPER
 GRD .GAPI   45 310 01 00:   GAMMA RAY FROM DENSITY LOG
 RHOB.G/C3   45 350 01 00:   BULK DENSITY
 DPHI.DEC    45 890 12 00:   DENSITY POROSITY SANDSTONE
 CORR.G/C3   45 356 01 00:   DENSITY CORRECTION
~PARAMETER INFORMATION
#MNEM.UNIT          VALUE    DESCRIPTION
#----------   ------------   ------------------------------
 PD  .                 GL:   PERMANENT DATUM
 EPD .F              5312:   ELEVATION PERMANENT DATUM
 LMF .                 KB:   LOG MEASURED FROM
 DAPD.F                 4:   FEET ABOVE PERMANENT DATUM
 DMF .                 KB:   DRILLING MEASURED FROM
 EKB .F              5316:   KELLING BUSHING
 EGL .F              5312:   GROUND LEVEL
 DATE.            1-13-79:   RUN DATE
 RUN .                  1:   RUN NUMBER
 DD  .F              1167:   DEPTH DRILLER
 DL  .F              1154:   DEPTH LOGGER
 BLI .F              1152:   BOTTOM LOG INTERVAL
 TLI .F                50:   TOP LOG INTERVAL
 CS  .IN            8.625:   CASING SIZE
 CBD .F                40:   CASING BOTTOM DRILLER
 CBL .F                60:   CASING BOTTOM LOGGER
 BS  .IN            7.875:   BIT SIZE
 BSD .F              1167:   BIT SIZE AT DEPTH
 DFT .            KCL MUD:   DRILLING FLUID TYPE
 DFD .                8.8:   DRILLING FLUID DENSITY
 DFV .                 42:   DRILLING FLUID VISCOSITY
 DFPH.                8.2:   DRILLING FLUID PH
 DFL .                7.7:   DRILLING FLUID LOSS
 MSS .                PIT:   MUD SAMPLE SOURCE
 RMS .OHMM            .29:   RESISTIVITY MUD SAMPLE
 MST .F                40:   MUD SAMPLE TEMPERATURE
 RMF .OHMM            .19:   RESISTIVITY MUD FILTRATE SAMPLE
 MFST.F                40:   MUD FILTRATE SAMPLE TEMPERATURE
 RMC .OHMM            .87:   RESISTIVITY MUD CAKE
 MCST.F                40:   MUD CAKE SAMPLE TEMPERATURE
 MFSS.           MEASURED:   MUD FILTRATE SAMPLE SOURCE
 MCSS.           MEASURED:   MUD CAKE SAMPLE SOURCE
 RMB .OHMM           .119:   RESISTIVITY MUD AT BHT
 BHT .F                97:   BOTTOM HOLE TEMPERATURE
 TCS .HRS              30:   TIME CURCULATED STOPPED
 MRT .F                97:   MAXIMUM RECORDED TEMPERATURE
 LUN .               8611:   LOGGING UNIT NUMBER
 LUL .             CASPER:   LOGGING UNIT LOCATION
 ENGI.            BENTSEN:   RECORDING ENGINEER
 WITN.              AMEND:   WITNESSED BY
 CLNT.            A2DTECH:   CLIENT CODE
 ORIG.       2", 5" PRINT:   ORIGIN OF DATA
 UWI .       490251073800:   UNIQUE WELL ID
 DICO. A2D Technologies, Inc.:   DIGITIZING COMPANY
~OTHER INFORMATION
~A   DEPT      SPR       SGRD        ILD        ILM       CALD        GRD       RHOB       DPHI       CORR   
# ...
  415.0000   -29.1000     9.0020     8.0962     8.6517     7.9398   114.6886     2.4985     0.1073    -0.0107
  415.5000   -29.2922     9.2880     7.9391     8.5349     7.9404   114.4213     2.5155     0.0951    -0.0016
  416.0000   -29.4844     9.6917     7.7850     8.4197     7.9409   112.8187     2.5293     0.0906     0.0016
  416.5000   -29.6767     8.5170     7.6340     8.3060     7.9415   115.6868     2.5111     0.0987    -0.0049
  417.0000   -29.8689     8.6757     7.4847     8.1939     7.9420   117.7074     2.5053     0.1030    -0.0113
  417.5000   -30.0611     8.3497     7.4442     8.0833     7.9425   116.7050     2.5003     0.1062    -0.0177
  418.0000   -30.2533     7.9842     7.4036     7.9741     7.9419   115.7287     2.4951     0.1102    -0.0179
  418.5000   -30.4531     8.4655     7.3631     7.8665     7.9389   114.8949     2.4992     0.1058    -0.0141
  419.0000   -30.5182     9.0526     7.3229     7.7603     7.9359   116.4031     2.5118     0.0996     0.0006
  419.5000   -30.5441     9.6805     7.2830     7.6555     7.9330   118.0975     2.5220     0.0933     0.0063
  420.0000   -30.5688    10.3385     7.2432     7.5541     7.9301   119.1299     2.5155     0.0935     0.0031
  420.5000   -30.5941    10.4343     7.1808     7.4625     7.9271   119.3812     2.5003     0.1064    -0.0002
  421.0000   -30.6194     8.3105     7.0510     7.3737     7.9242   117.3721     2.4923     0.1110    -0.0034
  421.5000   -30.6447     8.0450     6.9235     7.2859     7.9212   115.6893     2.4958     0.1073    -0.0061
  422.0000   -30.6696     8.0194     6.7983     7.1992     7.9183   117.5393     2.4991     0.1078    -0.0068
  422.5000   -30.6904     7.9938     6.6754     7.1135     7.9154   119.3091     2.5025     0.1045    -0.0076
  423.0000   -30.8993     7.7969     6.5547     7.0289     7.9124   117.3456     2.5059     0.1013    -0.0085
  423.5000   -31.1428     7.4287     6.4362     6.9444     7.9095   115.3516     2.5093     0.0987    -0.0092
  424.0000   -31.3888     7.5120     6.3198     6.8829     7.9065   114.6337     2.5122     0.0967    -0.0082
  424.5000   -31.4036     7.6542     6.2232     6.8326     7.9036   117.0024     2.5190     0.0921    -0.0002
  425.0000   -31.2337     7.7981     6.2659     6.7833     7.9007   119.0621     2.5378     0.0858     0.0080
  425.5000   -31.0992     7.9143     6.3105     6.7343     7.8977   117.1846     2.5203     0.0913     0.0141
  426.0000   -31.1126     7.7650     6.3555     6.6858     7.8948   116.5918     2.5031     0.0992     0.0101
  426.5000   -31.1233     7.4654     6.4007     6.6375     7.8918   118.2910     2.5017     0.1054     0.0062
  427.0000   -31.1339     7.2150     6.4573     6.5896     7.8889   119.8678     2.4999     0.1062     0.0105
  427.5000   -31.1443     7.6206     6.4237     6.5421     7.8860   119.2654     2.4966     0.1046     0.0079
  428.0000   -31.1548     7.9945     6.3799     6.4949     7.8830   117.7173     2.4882     0.1117     0.0017
  428.5000   -31.1653     8.3613     6.3364     6.4481     7.8801   116.1727     2.4799     0.1187    -0.0047
  429.0000   -31.1758     8.2028     6.2932     6.4015     7.8771   114.5502     2.4797     0.1196    -0.0077
  429.5000   -31.1863     7.8897     6.2503     6.3554     7.8742   116.3531     2.4850     0.1138    -0.0098
  430.0000   -31.1968     7.5850     6.2077     6.3095     7.8713   118.9845     2.4886     0.1121    -0.0119
  430.5000   -31.2073     7.2937     6.1653     6.2640     7.8682   120.8675     2.4888     0.1126    -0.0141
  431.0000   -31.2177     7.0816     6.1233     6.2187     7.8651   119.3214     2.4890     0.1124    -0.0159
  431.5000   -31.2282     7.1844     6.0815     6.1737     7.8381   117.2922     2.4892     0.1117    -0.0082
  432.0000   -31.2387     7.2846     6.0401     6.1094     7.7872   115.1902     2.4903     0.1106     0.0005
  432.5000   -31.2492     7.3469     5.9989     6.1382     7.7364   113.7166     2.5038     0.1047     0.0091
  433.0000   -31.2597     7.0180     5.9580     6.1909     7.6841   112.4337     2.4992     0.1023     0.0178
  433.5000   -31.2701     7.2250     5.9173     6.2441     7.7052   111.9878     2.5197     0.0934     0.0268
  434.0000   -31.2804     7.4892     5.8770     6.2977     7.7645   112.3461     2.5144     0.0968     0.0198
  434.5000   -31.2909     7.6458     5.8369     6.3518     7.8264   113.7871     2.5029     0.1050     0.0101
  435.0000   -31.3152     7.6890     5.7977     6.3979     7.8435   115.9397     2.4965     0.1083     0.0002
  435.5000   -31.4195     7.7325     5.7438     6.3429     7.8273   115.5849     2.4898     0.1118    -0.0097
  436.0000   -31.5236     7.7662     5.6514     6.2862     7.7984   114.6291     2.4846     0.1145    -0.0195
  436.5000   -31.6274     7.2819     5.5597     6.2300     7.7923   113.6305     2.4844     0.1151    -0.0170
  437.0000   -31.7312     6.9098     5.4696     6.1743     7.8440   113.6746     2.4847     0.1126    -0.0138
  437.5000   -31.8351     6.5566     5.3811     6.1191     7.8962   115.9583     2.5014     0.1058    -0.0106
  438.0000   -31.9390     6.2218     5.2939     6.0644     7.9228   118.3643     2.4966     0.1010    -0.0075
  438.5000   -32.0419     6.2220     5.2082     6.0102     7.9229   118.9994     2.4891     0.1110    -0.0043
  439.0000   -32.0740     6.3706     5.1238     5.9565     7.9231   117.3844     2.4943     0.1066    -0.0011
  439.5000   -32.0141     6.4783     5.0331     5.8874     7.9231   115.4906     2.5044     0.1019    -0.0004
  440.0000   -31.9550     6.5863     5.0322     5.8883     7.9231   113.5845     2.5106     0.0974    -0.0009
  440.5000   -31.8955     6.7598     5.0326     5.8879     7.9231   111.6520     2.5114     0.0990    -0.0015
  441.0000   -31.8361     6.6345     5.0635     5.8879     7.9231   112.5639     2.5092     0.1010    -0.0019
  441.5000   -31.7768     6.4790     5.0950     5.8880     7.9231   115.0201     2.5027     0.1030     0.0002
  442.0000   -31.7123     6.3392     5.1266     5.8880     7.9231   117.4237     2.5043     0.1011     0.0025
  442.5000   -31.8374     6.6385     5.1583     5.9523     7.9231   116.3175     2.5071     0.0991     0.0026
  443.0000   -32.0308     6.5736     5.1903     6.0120     7.9231   115.2000     2.4948     0.1070    -0.0023
  443.5000   -32.2275     6.4573     5.2225     6.0723     7.9231   116.3039     2.4812     0.1184    -0.0069
  444.0000   -32.2991     6.6368     5.2549     6.1332     7.9231   115.6523     2.4705     0.1236    -0.0115
  444.5000   -32.3004     6.9354     5.2875     6.1661     7.9231   115.6305     2.4707     0.1212    -0.0120
  445.0000   -32.3001     7.2109     5.3202     6.1115     7.9231   118.7780     2.4816     0.1158    -0.0079
  445.5000   -32.3000     6.9587     5.3532     6.0690     7.9231   120.0684     2.4769     0.1209    -0.0041
  446.0000   -32.3000     6.8275     5.3864     6.0268     7.9231   118.1326     2.4714     0.1238    -0.0039
  446.5000   -32.3000     7.1490     5.4187     5.9848     7.9231   119.1456     2.4731     0.1226    -0.0040
  447.0000   -32.3003     6.7642     5.3585     5.9431     7.9231   120.7983     2.4664     0.1274    -0.0060
  447.5000   -32.3017     6.9057     5.2877     5.9018     7.9231   118.7700     2.4524     0.1339    -0.0198
  448.0000   -32.2957     7.0165     5.2178     5.8607     7.9231   116.6908     2.4375     0.1410    -0.0335
  448.5000   -32.1464     6.4774     5.1488     5.8199     7.9231   115.2394     2.4340     0.1443    -0.0322
  449.0000   -32.0198     6.1116     5.0808     5.7803     7.9231   113.6897     2.4331     0.1459    -0.0194
  449.5000   -31.9465     6.2833     5.0135     5.6560     7.9231   114.4607     2.4126     0.1576    -0.0063
  450.0000   -31.8699     6.1352     4.9420     5.5098     7.9231   116.5790     2.3810     0.1777    -0.0082
  450.5000   -31.7921     5.9242     4.7935     5.3674     7.9231   122.0479     2.3527     0.1933    -0.0122
  451.0000   -31.7037     5.7803     4.6319     5.2287     7.9231   127.4908     2.3473     0.1992    -0.0169
