~VERSION INFORMATION
 VERS.                2.0:   CWLS LOG ASCII STANDARD - VERSION 2.0
 WRAP.                 NO:   ONE LINE PER DEPTH STEP
~WELL INFORMATION
#MNEM.UNIT      DATA TYPE    INFORMATION
#----------   ------------   ------------------------------
 STRT.F           24.5000:   START DEPTH
 STOP.F          506.0000:   STOP DEPTH
 STEP.F            0.5000:   STEP LENGTH
 NULL.          -999.2500:   NO VALUE
 COMP. FENIX & SCISSON INC:   COMPANY
 WELL.    NPR 3 SX #44-10:   WELL
 FLD .        TEAPOT DOME:   FIELD
 LOC .      S10 T38N R78W:   LOCATION
 CNTY.            NATRONA:   COUNTY
 STAT.            WYOMING:   STATE
 CTRY. UNITED STATES OF AMERICA:   COUNTRY
 SRVC.           BIRDWELL:   SERVICE COMPANY
 DATE.        14-NOV-1978:   LOGDATE
 API .       490251074700:   API NUMBER
~CURVE INFORMATION
#MNEM.UNIT       API CODE    CURVE DESCRIPTION
#----------   ------------   ------------------------------
 DEPT.F                  :   
 SPR .MV     05 010 01 00:   SPONTANEOUS POTENTIAL FROM RES.
 IL  .OHMM   05 120 00 00:   INDUCTION LOG
 SN  .OHMM   05 040 16 00:   SHORT NORMAL 16"
 CALD.IN     45 280 60 00:   CALIPER
 GRD .GAPI   45 310 01 00:   GAMMA RAY FROM DENSITY LOG
 RHOB.G/C3   45 350 01 00:   BULK DENSITY
 DPHI.DEC    45 890 12 00:   DENSITY POROSITY SANDSTONE
 DRHO.G/C3   45 356 01 00:   DENSITY CORRECTION
~PARAMETER INFORMATION
#MNEM.UNIT          VALUE    DESCRIPTION
#----------   ------------   ------------------------------
 PD  .                 GL:   PERMANENT DATUM
 EPD .F              5211:   ELEVATION PERMANENT DATUM
 LMF .                 KB:   LOG MEASURED FROM
 DAPD.F                 4:   FEET ABOVE PERMANENT DATUM
 DMF .                 KB:   DRILLING MEASURED FROM
 EKB .F              5215:   KELLING BUSHING
 EGL .F              5211:   GROUND LEVEL
 DATE.           11-14-78:   RUN DATE
 RUN .                  1:   RUN NUMBER
 DD  .F               510:   DEPTH DRILLER
 DL  .F               506:   DEPTH LOGGER
 BLI .F               500:   BOTTOM LOG INTERVAL
 TLI .F                45:   TOP LOG INTERVAL
 CS  .IN            8.625:   CASING SIZE
 CBD .F                40:   CASING BOTTOM DRILLER
 CBL .F                40:   CASING BOTTOM LOGGER
 BS  .IN            7.875:   BIT SIZE
 BSD .F               510:   BIT SIZE AT DEPTH
 DFT .            SEA MUD:   DRILLING FLUID TYPE
 DFD .                8.7:   DRILLING FLUID DENSITY
 DFV .                 35:   DRILLING FLUID VISCOSITY
 DFPH.               10.5:   DRILLING FLUID PH
 MSS .            MUD PIT:   MUD SAMPLE SOURCE
 RMS .OHMM            .51:   RESISTIVITY MUD SAMPLE
 MST .F                54:   MUD SAMPLE TEMPERATURE
 RMF .OHMM            .45:   RESISTIVITY MUD FILTRATE SAMPLE
 MFST.F                54:   MUD FILTRATE SAMPLE TEMPERATURE
 RMC .OHMM             .5:   RESISTIVITY MUD CAKE
 MCST.F                60:   MUD CAKE SAMPLE TEMPERATURE
 MFSS.           MEASURED:   MUD FILTRATE SAMPLE SOURCE
 MCSS.           MEASURED:   MUD CAKE SAMPLE SOURCE
 RMB .OHMM            .49:   RESISTIVITY MUD AT BHT
 BHT .F                56:   BOTTOM HOLE TEMPERATURE
 TCS .HRS               2:   TIME CURCULATED STOPPED
 MRT .F                56:   MAXIMUM RECORDED TEMPERATURE
 LUN .               2958:   LOGGING UNIT NUMBER
 LUL .               CASP:   LOGGING UNIT LOCATION
 ENGI.             MILLER:   RECORDING ENGINEER
 WITN.           DINSMORE:   WITNESSED BY
 CLNT.            A2DTECH:   CLIENT CODE
 ORIG.       2", 5" PRINT:   ORIGIN OF DATA
 UWI .       490251074700:   UNIQUE WELL ID
 DICO. A2D Technologies, Inc.:   DIGITIZING COMPANY
~OTHER INFORMATION
~A   DEPT      SPR         IL         SN       CALD         GRD      RHOB       DPHI       DRHO   
# ...
  267.5000   -26.6720     6.2640     7.4800     8.0670   108.3270     2.5030     0.1030     0.0040
  268.0000   -25.9860     6.6500     7.8630     8.0710   109.1810     2.5110     0.0990     0.0040
  268.5000   -25.7210     7.0360     8.2470     8.0400   110.0240     2.5140     0.0960     0.0050
  269.0000   -25.4680     7.4210     8.6300     8.0060   110.8600     2.5170     0.0950     0.0050
  269.5000   -24.8700     7.5960     8.8040     7.9720   111.5150     2.5190     0.0930     0.0070
  270.0000   -23.9920     7.5270     8.7960     7.9370   111.2330     2.5210     0.0920     0.0110
  270.5000   -23.1230     7.2680     8.7390     7.9020   110.6370     2.5230     0.0920     0.0150
  271.0000   -22.6710     6.9920     8.6810     7.8710   110.0430     2.5250     0.0920     0.0180
  271.5000   -23.8130     6.7170     8.6430     7.8700   109.5060     2.5270     0.0910     0.0210
  272.0000   -24.9570     6.4410     8.3500     7.8820   109.6330     2.5240     0.0940     0.0210
  272.5000   -26.0970     6.1660     8.0340     7.9300   112.1910     2.5150     0.1060     0.0210
  273.0000   -27.2370     5.9210     7.7180     7.9780   112.8530     2.4890     0.1220     0.0200
  273.5000   -28.3740     5.9070     7.4020     8.0280   113.0350     2.4640     0.1400     0.0200
  274.0000   -29.3810     5.8940     7.0860     8.0460   116.0780     2.4480     0.1280     0.0160
  274.5000   -29.3860     5.8800     6.6770     8.0480   118.0490     2.4790     0.1150     0.0100
  275.0000   -29.2120     5.8680     6.7430     8.0200   113.1080     2.5050     0.1020     0.0050
  275.5000   -29.0490     6.1280     6.8640     7.9910   109.0590     2.5170     0.0960     0.0050
  276.0000   -28.4220     6.4170     7.7090     7.9390   104.9320     2.5100     0.1000     0.0050
  276.5000   -27.5840     6.7060     8.1650     7.8840   105.0580     2.5050     0.1040     0.0050
  277.0000   -27.9580     6.9950     8.2920     7.8280   107.8710     2.5020     0.1020     0.0050
  277.5000   -28.7700     7.2840     8.4190     7.7890   111.0950     2.5050     0.0980     0.0050
  278.0000   -29.5780     7.5730     8.6930     7.7920   108.7940     2.5150     0.0880     0.0050
  278.5000   -29.8370     7.8090     9.1260     7.9240   105.6540     2.5270     0.0780     0.0050
  279.0000   -28.2240     8.0190     9.5600     8.0500   102.6580     2.5400     0.0710     0.0050
  279.5000   -27.3830     8.2300     9.9940     8.0110   100.7450     2.5520     0.0710     0.0040
  280.0000   -27.4270     8.4400    10.4280     7.9580   100.8460     2.5560     0.0750     0.0040
  280.5000   -25.9660     8.6500    10.5940     7.9060   103.1060     2.5430     0.0790     0.0040
  281.0000   -24.3840     8.7480    10.6850     7.8910   107.7610     2.5330     0.0830     0.0030
  281.5000   -24.0880     8.7870    10.6850     7.9640   112.7310     2.5270     0.0870     0.0030
  282.0000   -24.0100     8.8250    10.6850     8.0030   115.5430     2.5260     0.0880     0.0020
  282.5000   -23.9370     8.8640    10.6850     7.9520   113.1180     2.5250     0.0880     0.0020
  283.0000   -23.8660     8.9000    10.6850     7.9020   110.6710     2.5230     0.0890     0.0010
  283.5000   -23.7990     8.9330    10.6850     7.8520   108.1640     2.5230     0.0870     0.0010
  284.0000   -23.8620     8.9660    10.6850     7.8010   106.6960     2.5320     0.0830     0.0000
  284.5000   -24.4660     8.9990    10.6850     7.7510   105.9800     2.5430     0.0800     0.0000
  285.0000   -25.0630     9.0320    10.6850     7.7300   105.2640     2.5380     0.0840     0.0000
  285.5000   -25.6590     9.0660    10.6850     7.7300   104.6560     2.5310     0.0880     0.0000
  286.0000   -26.2550     9.0990    10.6850     7.7300   104.2430     2.5320     0.0900     0.0000
  286.5000   -26.3590     9.1320    10.6850     7.7300   104.1180     2.5340     0.0900     0.0000
  287.0000   -26.3630     9.1650    10.6850     7.7300   104.9070     2.5310     0.0900     0.0010
  287.5000   -26.3630     9.1980    10.6850     7.7300   107.2840     2.5270     0.0920     0.0010
  288.0000   -26.3630     9.2310    10.6850     7.7300   109.1010     2.5230     0.0950     0.0010
  288.5000   -26.3860     9.2640    10.6850     7.7300   104.9230     2.5260     0.0950     0.0010
  289.0000   -27.3110     9.3050    10.6850     7.7300   101.3880     2.5310     0.0900     0.0020
  289.5000   -28.6890     9.2030    10.6840     7.7300   100.5250     2.5370     0.0850     0.0020
  290.0000   -29.7370     9.0740    10.6840     7.7370   100.6490     2.5360     0.0820     0.0020
  290.5000   -26.8290     8.9320    10.6860     7.7540   101.4030     2.5310     0.0920     0.0030
  291.0000   -27.1790     8.4930    10.6850     7.7700   102.1500     2.5270     0.1000     0.0030
  291.5000   -27.6000     7.9870    10.5470     7.7850   102.8910     2.5210     0.1080     0.0030
  292.0000   -27.9510     7.4810    10.2980     7.7990   104.7560     2.4890     0.1240     0.0030
  292.5000   -27.6900     7.0560     9.5510     7.8130   108.1520     2.4560     0.1450     0.0050
  293.0000   -27.4360     7.2350     8.7770     7.8260   111.7580     2.4240     0.1620     0.0120
  293.5000   -27.1870     7.3880     7.8090     7.8860   116.1850     2.4010     0.1650     0.0180
  294.0000   -26.9730     7.4580     7.9360     7.9500   120.4370     2.4400     0.1280     0.0200
  294.5000   -27.0480     7.4580     8.1780     8.0160   113.5240     2.4780     0.0980     0.0210
  295.0000   -27.1190     7.4970     8.9100     8.0850   105.7480     2.5160     0.0820     0.0270
  295.5000   -27.1880     7.8760     9.6850     8.1100   100.5900     2.5380     0.0810     0.0370
  296.0000   -27.2570     8.8860    10.4610     8.1140   100.4040     2.5410     0.0800     0.0490
  296.5000   -27.3250     9.8970    11.2920     8.1170   100.4510     2.5430     0.0820     0.0610
  297.0000   -27.3460    10.9840    11.9460     8.1200   100.3550     2.5380     0.0840     0.0740
  297.5000   -27.2410    11.5020    12.6500     8.1230    97.4730     2.5320     0.0850     0.0930
  298.0000   -27.1400    11.5020    12.9930     8.1260    94.6290     2.5280     0.0840     0.1160
  298.5000   -27.0400    11.5020    13.1960     8.1280    91.6730     2.5400     0.0760     0.1380
  299.0000   -26.9440    11.5020    13.3980     8.1190    92.1040     2.5540     0.0680     0.1480
  299.5000   -26.8550    11.5020    13.5790     8.0960    93.3410     2.5670     0.0610     0.1480
  300.0000   -27.0960    11.6000    14.2740     8.0730    94.5660     2.5810     0.0530     0.1370
  300.5000   -28.4220    12.2750    14.9030     8.0500    95.6460     2.5910     0.0490     0.1220
  301.0000   -29.7760    13.7690    15.5930     8.0270    93.6930     2.5860     0.0530     0.1080
  301.5000   -30.5850    15.2630    16.9510     8.0040    87.7270     2.5810     0.0570     0.0940
  302.0000   -26.7170    16.7570    18.4520     7.9810    74.6770     2.5760     0.0610     0.0820
  302.5000   -26.5490    18.2500    19.9540     7.9580    61.8280     2.5720     0.0650     0.0700
  303.0000   -26.3830    19.7440    21.4560     7.9350    52.7960     2.5660     0.0720     0.0590
  303.5000   -26.2360    21.2380    22.9570     7.9110    50.3370     2.5460     0.0890     0.0470
  304.0000   -24.8220    22.7320    24.4590     7.9010    49.4810     2.5100     0.1150     0.0340
  304.5000   -22.4500    24.2310    25.1990     7.8920    51.9870     2.4700     0.1410     0.0240
  305.0000   -21.7380    25.8910    25.2280     7.8820    54.7280     2.4180     0.1670     0.0140
  305.5000   -21.0470    26.0120    25.2560     7.8730    57.9290     2.3730     0.1950     0.0100
  306.0000   -20.3360    26.1430    25.2850     7.8630    60.9270     2.3380     0.2050     0.0160
  306.5000   -20.1290    26.2750    25.3130     7.8540    61.7390     2.3230     0.2150     0.0210
  307.0000   -19.9430    26.4070    25.3420     7.8440    62.6150     2.3370     0.2010     0.0200
  307.5000   -19.7580    26.5390    25.3700     7.8350    63.5100     2.3510     0.1850     0.0180
