~VERSION INFORMATION
 VERS.                2.0:   CWLS LOG ASCII STANDARD - VERSION 2.0
 WRAP.                 NO:   ONE LINE PER DEPTH STEP
~WELL INFORMATION
#MNEM.UNIT      DATA TYPE    INFORMATION
#----------   ------------   ------------------------------
 STRT.F            6.0000:   START DEPTH
 STOP.F          495.0000:   STOP DEPTH
 STEP.F            0.5000:   STEP LENGTH
 NULL.          -999.2500:   NO VALUE
 COMP. FENIX & SCISSON INC:   COMPANY
 WELL. FI NPR-3 #65-25 SX3:   WELL
 FLD .  NAVAL RESERVES #3:   FIELD
 LOC .       S3 T38N R78W:   LOCATION
 CNTY.            NATRONA:   COUNTY
 STAT.            WYOMING:   STATE
 CTRY. UNITED STATES OF AMERICA:   COUNTRY
 SRVC.       Schlumberger:   SERVICE COMPANY
 DATE.        22-MAY-1980:   LOGDATE
 API .       490251080300:   API NUMBER
~CURVE INFORMATION
#MNEM.UNIT       API CODE    CURVE DESCRIPTION
#----------   ------------   ------------------------------
 DEPT.F                  :   
 SPR .MV     07 010 01 00:   SPONTANEOUS POTENTIAL
 SFL .OHMM   07 220 01 00:   SHALLOW FOCUSED LOG RESISTIVITY
 ILD .OHMM   07 120 46 00:   INDUCTION LOG DEEP RESISTIVITY
 ILM .OHMM   07 120 44 00:   INDUCTION LOG MEDIUM
 GRD .GAPI   45 310 01 00:   GAMMA RAY FROM DENSITY LOG
 CALD.IN     45 280 60 00:   CALIPER
 DPHI.DEC    45 890 12 00:   DENSITY POROSITY SANDSTONE
 RHOB.G/C3   45 350 01 00:   BULK DENSITY
 CORR.G/C3   45 356 01 00:   DENSITY CORRECTION
 NPHI.DEC    42 890 03 00:   NEUTRON POROSITY SANDSTONE
~PARAMETER INFORMATION
#MNEM.UNIT          VALUE    DESCRIPTION
#----------   ------------   ------------------------------
 PD  .                 GL:   PERMANENT DATUM
 EPD .F              5162:   ELEVATION PERMANENT DATUM
 LMF .                 KB:   LOG MEASURED FROM
 DAPD.F                 4:   FEET ABOVE PERMANENT DATUM
 DMF .                 KB:   DRILLING MEASURED FROM
 EKB .F              5166:   KELLING BUSHING
 EGL .F              5162:   GROUND LEVEL
 DATE.            5-22-80:   RUN DATE
 RUN .                  1:   RUN NUMBER
 DD  .F               500:   DEPTH DRILLER
 DL  .F               498:   DEPTH LOGGER
 BLI .F               492:   BOTTOM LOG INTERVAL
 TLI .F                10:   TOP LOG INTERVAL
 BS  .IN            9.875:   BIT SIZE
 BSD .F               500:   BIT SIZE AT DEPTH
 DFT .                KCL:   DRILLING FLUID TYPE
 DFD .                9.6:   DRILLING FLUID DENSITY
 DFV .                 45:   DRILLING FLUID VISCOSITY
 DFL .                8.9:   DRILLING FLUID LOSS
 MSS .               PITS:   MUD SAMPLE SOURCE
 RMS .OHMM            .21:   RESISTIVITY MUD SAMPLE
 MST .F                76:   MUD SAMPLE TEMPERATURE
 RMF .OHMM            .19:   RESISTIVITY MUD FILTRATE SAMPLE
 MFST.F                76:   MUD FILTRATE SAMPLE TEMPERATURE
 MFSS.               MEAS:   MUD FILTRATE SAMPLE SOURCE
 TLAB.HRS            0845:   TIME LOGGER AT BOTTOM
 LUN .               8035:   LOGGING UNIT NUMBER
 LUL .               CSPR:   LOGGING UNIT LOCATION
 ENGI.           C. DRAKE:   RECORDING ENGINEER
 WITN.              AMEND:   WITNESSED BY
 CLNT.            A2DTECH:   CLIENT CODE
 ORIG.           5" PRINT:   ORIGIN OF DATA
 UWI .       490251080300:   UNIQUE WELL ID
 DICO. A2D Technologies, Inc.:   DIGITIZING COMPANY
~OTHER INFORMATION
~A    DEPT     SPR        SFL        ILD        ILM         GRD       CALD      DPHI       RHOB       CORR        NPHI  
# ...
  408.0000   -63.9969    13.5788    14.3516    11.8360   100.3792     9.9553     0.1335     2.4540    -0.0023     0.2682
  408.5000   -64.2804    13.5042    14.3511    12.1412    99.5172     9.9559     0.1358     2.4519    -0.0048     0.2597
  409.0000   -64.5595    13.3732    14.3161    12.4542    97.9383     9.9565     0.1379     2.4497    -0.0065     0.2596
  409.5000   -64.8471    13.2436    14.1137    12.8481    96.6598     9.9571     0.1399     2.4457    -0.0073     0.2599
  410.0000   -64.8192    13.1151    13.9142    12.4902    95.4389     9.9577     0.1399     2.4438    -0.0082     0.2603
  410.5000   -64.7164    13.0872    13.8059    12.0441    95.9251     9.9583     0.1379     2.4449    -0.0069     0.2623
  411.0000   -64.6117    13.0872    13.7619    11.6090    99.0103     9.9589     0.1343     2.4504    -0.0039     0.2653
  411.5000   -64.5073    13.0872    13.7180    11.5015   102.0561     9.9595     0.1320     2.4546    -0.0027     0.2683
  412.0000   -64.4016    13.0872    13.6743    11.3709   105.0534     9.9601     0.1309     2.4570    -0.0056     0.2689
  412.5000   -64.3101    12.9671    13.6307    11.2403   105.1953     9.9607     0.1272     2.4616    -0.0075     0.2666
  413.0000   -64.5420    12.8179    13.5882    11.1109   104.0918     9.9613     0.1226     2.4691    -0.0058     0.2643
  413.5000   -64.7880    12.6704    13.4443    10.9833   103.5794     9.9620     0.1211     2.4748    -0.0041     0.2626
  414.0000   -65.0327    12.5247    13.2798    10.8833   104.2711     9.9621     0.1243     2.4732    -0.0012     0.2609
  414.5000   -65.2769    12.3829    13.1168    10.8814   105.4922     9.9550     0.1278     2.4648    -0.0006     0.2607
  415.0000   -65.5213    12.4478    13.0872    10.8805   104.3098     9.9481     0.1237     2.4650    -0.0005     0.2627
  415.5000   -65.7650    12.5380    13.1314    11.1992   100.5211     9.9411     0.1154     2.4781     0.0012     0.2637
  416.0000   -66.0129    12.7206    13.1749    11.6015    96.9438     9.9342     0.1107     2.4884     0.0092     0.2655
  416.5000   -66.0162    12.9059    13.2185    11.8183    97.2016     9.9274     0.1130     2.4906     0.0095     0.2705
  417.0000   -65.8894    13.0872    13.2622    10.9702    97.5882     9.9222     0.1162     2.4862     0.0086     0.2758
  417.5000   -65.7596    12.9571    13.3062    10.4853    96.5795     9.9179     0.1163     2.4827     0.0067     0.2771
  418.0000   -65.6295    12.8330    13.3307    10.3348    96.0366     9.9135     0.1156     2.4839     0.0073     0.2664
  418.5000   -65.5001    12.7095    13.0167     9.9377    96.1031     9.9091     0.1170     2.4842     0.0106     0.2588
  419.0000   -65.3731    12.5876    12.8033     9.2712    97.4299     9.9049     0.1235     2.4762     0.0104     0.2638
  419.5000   -65.4205    12.4976    12.7291     8.6494    97.6218     9.9014     0.1311     2.4629     0.0060     0.2718
  420.0000   -65.6900    12.4976    12.7301     8.4072    97.6337     9.8495     0.1379     2.4511     0.0054     0.2801
  420.5000   -65.9561    12.4976    12.7309     9.3046    97.6300     9.7967     0.1338     2.4495     0.0291     0.2850
  421.0000   -66.0828    12.4976    12.7316    10.2114    98.5238     9.7453     0.1235     2.4608     0.0578     0.2850
  421.5000   -66.0432    12.4012    12.6420    10.9842   100.0413     9.6874     0.1113     2.4831     0.0792     0.2788
  422.0000   -66.0049    12.2585    12.5085    10.9842    99.0192     9.6882     0.1051     2.5023     0.0611     0.2736
  422.5000   -65.9655    12.1175    12.3776    10.3644    97.6094     9.7420     0.1133     2.4910     0.0361     0.2683
  423.0000   -65.9280    11.9781    12.2479     9.4062    99.2586     9.7939     0.1226     2.4753     0.0109     0.2657
  423.5000   -65.9441    11.9093    12.1562     8.5637   100.9537     9.8448     0.1276     2.4637    -0.0061     0.2649
  424.0000   -66.1337    11.8727    12.1566     8.3301   102.1551     9.8853     0.1272     2.4652    -0.0093     0.2646
  424.5000   -66.3096    11.8361    12.1566     8.6814   103.2802     9.8881     0.1271     2.4646    -0.0104     0.2630
  425.0000   -66.5186    11.6734    11.9581     9.0736   104.4098     9.8917     0.1299     2.4598    -0.0121     0.2620
  425.5000   -66.7200    11.4593    11.7864     9.3055   105.4821     9.8955     0.1331     2.4538    -0.0124     0.2621
  426.0000   -66.9622    11.2491    11.6154     9.5655   104.2089     9.8992     0.1321     2.4550    -0.0068     0.2665
  426.5000   -67.4563    11.0427    11.4475     9.5119   101.7049     9.9030     0.1258     2.4702    -0.0007     0.2716
  427.0000   -67.9129    10.8402    11.2822     9.4077   100.8772     9.9025     0.1191     2.4812     0.0036     0.2767
  427.5000   -67.9021    10.6413    11.1193     9.3046   100.0578     9.9016     0.1166     2.4804     0.0010     0.2806
  428.0000   -67.9015    10.4461    10.9587     9.2026   101.1951     9.9007     0.1211     2.4719    -0.0015     0.2801
  428.5000   -67.8316    10.3614    10.7516     9.1346   105.5630     9.8998     0.1268     2.4646    -0.0074     0.2786
  429.0000   -67.7378    10.2986    10.4716     9.1346   108.8979     9.8989     0.1288     2.4609    -0.0083     0.2818
  429.5000   -67.6435    10.2375    10.2064     9.1346   111.8663     9.8980     0.1291     2.4614    -0.0093     0.2899
  430.0000   -67.5490    10.1766     9.9174     9.1379   114.4589     9.8971     0.1283     2.4641    -0.0059     0.2973
  430.5000   -67.4544    10.1160     9.3974     9.1391   119.3930     9.8962     0.1255     2.4667    -0.0024     0.2947
  431.0000   -67.3636    10.0557     8.7756     8.3526   120.6053     9.8953     0.1255     2.4666    -0.0028     0.3064
  431.5000   -67.4692     9.8600     8.1994     7.5169   122.2454     9.8944     0.1277     2.4597    -0.0034     0.3206
  432.0000   -68.0709     8.8084     7.6613     6.7604   126.4944     9.8935     0.1351     2.4481    -0.0034     0.3346
  432.5000   -68.7662     7.4061     7.1585     6.0791   131.7905     9.8926     0.1499     2.4246     0.0008     0.3491
  433.0000   -68.6335     6.1480     6.6887     5.4535   131.2603     9.8917     0.1579     2.4134     0.0043     0.3848
  433.5000   -68.2876     5.1593     6.4348     5.2464   123.0389     9.8908     0.1539     2.4219     0.0029     0.3825
  434.0000   -67.9357     4.5685     6.5667     5.8115   114.8368     9.8899     0.1416     2.4412    -0.0034     0.3595
  434.5000   -67.5864     5.4929     6.8047     6.2624   106.6205     9.8890     0.1239     2.4732    -0.0055     0.2986
  435.0000   -67.2664     6.9666     7.0563     6.6803   101.2506     9.8881     0.1136     2.4876    -0.0055     0.2998
  435.5000   -67.1123     8.8315     7.4805     7.1274    99.7298     9.8871     0.1135     2.4866    -0.0055     0.2818
  436.0000   -66.9541     9.9548     8.1402     7.6046   100.0407     9.8862     0.1152     2.4845    -0.0043     0.2805
  436.5000   -66.7981    10.0062     8.8581     8.1129   100.4184     9.8853     0.1142     2.4877    -0.0030     0.2801
  437.0000   -66.7766    10.0577     9.6393     8.5303   100.8688     9.8844     0.1116     2.4920    -0.0016     0.2788
  437.5000   -66.9806    10.1096    10.4894     8.8739   102.8571     9.8836     0.1102     2.4916    -0.0036     0.2777
  438.0000   -67.1809    10.1617    10.6802     9.3046   105.1991     9.8822     0.1108     2.4906    -0.0065     0.2790
  438.5000   -67.3798    10.2312    10.5742     9.2772   106.7828     9.8808     0.1098     2.4937    -0.0050     0.2802
  439.0000   -67.4509    10.3674    10.3962     9.2321   106.7362     9.8794     0.1063     2.4986    -0.0033     0.2793
  439.5000   -67.3267    10.5054    10.5367     9.1872   106.7919     9.8780     0.1007     2.5081    -0.0014     0.2763
  440.0000   -67.0668    10.7154    10.7597     9.1346   106.9997     9.8766     0.0974     2.5129    -0.0005     0.2688
  440.5000   -66.8667    11.0299    10.9873     9.2921   106.1122     9.8752     0.0995     2.5095    -0.0004     0.2641
  441.0000   -66.7911    11.3536    11.2198     9.4874   105.2162     9.8738     0.1023     2.5047    -0.0003     0.2665
