~VERSION INFORMATION
 VERS.                2.0:   CWLS LOG ASCII STANDARD - VERSION 2.0
 WRAP.                 NO:   ONE LINE PER DEPTH STEP
~WELL INFORMATION
#MNEM.UNIT      DATA TYPE    INFORMATION
#----------   ------------   ------------------------------
 STRT.F           18.0000:   START DEPTH
 STOP.F          647.0000:   STOP DEPTH
 STEP.F            0.5000:   STEP LENGTH
 NULL.          -999.2500:   NO VALUE
 COMP. FENIX & SCISSON INC:   COMPANY
 WELL. NAVAL PETROLEUM RESERVE 3 SX-1 #82-15:   WELL
 FLD .        TEAPOT DOME:   FIELD
 LOC .      S15 T38N R78W:   LOCATION
 CNTY.            NATRONA:   COUNTY
 STAT.            WYOMING:   STATE
 CTRY. UNITED STATES OF AMERICA:   COUNTRY
 SRVC.            Unknown:   SERVICE COMPANY
 DATE.        15-MAR-1979:   LOGDATE
 API .       490251076500:   API NUMBER
~CURVE INFORMATION
#MNEM.UNIT       API CODE    CURVE DESCRIPTION
#----------   ------------   ------------------------------
 DEPT.F                  :   
 SPR .MV     05 010 01 00:   SPONTANEOUS POTENTIAL FROM RES.
 SN  .OHMM   05 040 16 00:   SHORT NORMAL 16"
 IL  .OHMM   05 120 00 00:   INDUCTION LOG
 CALD.IN     45 280 60 00:   CALIPER
 GRD .GAPI   45 310 01 00:   GAMMA RAY FROM DENSITY LOG
 RHOB.G/C3   45 350 01 00:   BULK DENSITY
 DPHI.DEC    45 890 12 00:   DENSITY POROSITY SANDSTONE
 CORR.G/C3   45 356 01 00:   DENSITY CORRECTION
~PARAMETER INFORMATION
#MNEM.UNIT          VALUE    DESCRIPTION
#----------   ------------   ------------------------------
 PD  .                 GL:   PERMANENT DATUM
 EPD .F              5249:   ELEVATION PERMANENT DATUM
 LMF .                 KB:   LOG MEASURED FROM
 DAPD.F                 4:   FEET ABOVE PERMANENT DATUM
 DMF .                 KB:   DRILLING MEASURED FROM
 EKB .F              5253:   KELLING BUSHING
 EGL .F              5249:   GROUND LEVEL
 DATE.            1-15-79:   RUN DATE
 RUN .                  1:   RUN NUMBER
 DD  .F               670:   DEPTH DRILLER
 DL  .F               647:   DEPTH LOGGER
 BLI .F               640:   BOTTOM LOG INTERVAL
 TLI .F                30:   TOP LOG INTERVAL
 CS  .IN            8.625:   CASING SIZE
 CBD .F                40:   CASING BOTTOM DRILLER
 CBL .F                34:   CASING BOTTOM LOGGER
 BS  .IN            7.875:   BIT SIZE
 BSD .F               670:   BIT SIZE AT DEPTH
 DFT .                KCL:   DRILLING FLUID TYPE
 DFD .                8.9:   DRILLING FLUID DENSITY
 DFV .                 44:   DRILLING FLUID VISCOSITY
 DFPH.                8.5:   DRILLING FLUID PH
 DFL .               14.8:   DRILLING FLUID LOSS
 MSS .           FLOWLINE:   MUD SAMPLE SOURCE
 RMS .OHMM            .26:   RESISTIVITY MUD SAMPLE
 MST .F                61:   MUD SAMPLE TEMPERATURE
 RMF .OHMM            .25:   RESISTIVITY MUD FILTRATE SAMPLE
 MFST.F                60:   MUD FILTRATE SAMPLE TEMPERATURE
 RMC .OHMM             .2:   RESISTIVITY MUD CAKE
 MCST.F                60:   MUD CAKE SAMPLE TEMPERATURE
 MFSS.           MEASURED:   MUD FILTRATE SAMPLE SOURCE
 MCSS.           MEASURED:   MUD CAKE SAMPLE SOURCE
 RMB .OHMM            .27:   RESISTIVITY MUD AT BHT
 BHT .F                58:   BOTTOM HOLE TEMPERATURE
 TCS .HRS               5:   TIME CURCULATED STOPPED
 MRT .F                58:   MAXIMUM RECORDED TEMPERATURE
 LUN .               3006:   LOGGING UNIT NUMBER
 LUL .             CASPER:   LOGGING UNIT LOCATION
 ENGI.            ROLLINS:   RECORDING ENGINEER
 WITN.              AMEND:   WITNESSED BY
 CLNT.            A2DTECH:   CLIENT CODE
 ORIG.         2.5" PRINT:   ORIGIN OF DATA
 UWI .       490251076500:   UNIQUE WELL ID
 DICO. A2D Technologies, Inc.:   DIGITIZING COMPANY
~OTHER INFORMATION
~A   DEPT      SPR         SN         IL       CALD         GRD      RHOB       DPHI       CORR   
# ...
  625.5000   -69.6270    11.2860    11.7050     8.1200   100.7800     2.4660     0.1370     0.0380
  626.0000   -69.4670    11.2720    11.6830     8.1200   100.8030     2.4590     0.1350     0.0420
  626.5000   -69.3590    11.2420    11.6600     8.1200   101.3530     2.4560     0.1340     0.0460
  627.0000   -69.2560    11.2110    11.6380     8.1200   100.7340     2.4610     0.1360     0.0500
  627.5000   -69.0930    11.1810    11.6150     8.1200   101.8540     2.4600     0.1320     0.0530
  628.0000   -68.2350    11.1510    11.5930     8.1200   102.3210     2.4590     0.1270     0.0580
  628.5000   -67.3070    11.1210    11.5710     8.1100    99.9590     2.4630     0.1240     0.0580
  629.0000   -66.3820    11.0900    11.5480     8.0750    98.0970     2.4730     0.1240     0.0570
  629.5000   -65.2150    11.0600    11.5260     8.0420    96.9090     2.4810     0.1220     0.0570
  630.0000   -62.9780    11.0300    11.5030     8.0060    98.5330     2.4800     0.1180     0.0560
  630.5000   -59.8070    11.0000    11.4810     7.9720   101.7230     2.4860     0.1210     0.0560
  631.0000   -56.9060    10.9690    11.4580     7.9380   104.2560     2.4860     0.1210     0.0550
  631.5000   -53.6730    10.9390    11.4360     7.9000   106.2850     2.4850     0.1170     0.0550
  632.0000   -52.7700    10.9090    11.4130     7.8790   107.3770     2.4870     0.1140     0.0550
  632.5000   -51.9470    10.8780    11.3910     7.8840   106.6150     2.4930     0.1170     0.0540
  633.0000   -51.2280    10.8480    11.3690     7.8860   109.2450     2.4920     0.1200     0.0560
  633.5000   -51.0110    10.8180    11.3460     7.8880   110.3240     2.4860     0.1230     0.0590
  634.0000   -51.2910    10.7870    11.3220     7.8910   106.7240     2.4800     0.1240     0.0700
  634.5000   -51.5350    10.7570    11.2880     7.8930  -999.2500     2.4790     0.1250     0.0830
  635.0000   -51.7970    10.7270    11.3360     7.8950  -999.2500     2.4790     0.1230     0.0950
  635.5000   -51.8140    10.6960    11.5120     7.8980  -999.2500     2.4810     0.1160     0.1070
  636.0000   -51.8180    10.6670    11.6840     7.9000  -999.2500     2.4880     0.1090     0.1080
  636.5000  -999.2500    10.6430    11.8560     7.9030  -999.2500     2.5010     0.1060     0.1050
  637.0000  -999.2500    10.6180    12.0280     7.9050  -999.2500     2.5120     0.1030     0.1020
  637.5000  -999.2500    10.5920    12.3770  -999.2500  -999.2500     2.5150     0.0990     0.0970
  638.0000  -999.2500    10.5670    12.6080  -999.2500  -999.2500     2.5170     0.0960     0.0910
  638.5000  -999.2500    10.5420    12.8420  -999.2500  -999.2500     2.5180     0.1040     0.0910
  639.0000  -999.2500    10.5170    12.1510  -999.2500  -999.2500     2.5190     0.1090     0.0940
  639.5000  -999.2500    10.4910    11.9280  -999.2500  -999.2500     2.5100     0.1070     0.0900
  640.0000  -999.2500    10.4820    11.4960  -999.2500  -999.2500     2.5160     0.1050     0.0870
  640.5000  -999.2500  -999.2500  -999.2500  -999.2500  -999.2500     2.5240     0.1160     0.0890
  641.0000  -999.2500  -999.2500  -999.2500  -999.2500  -999.2500     2.5110     0.1130     0.0920
  641.5000  -999.2500  -999.2500  -999.2500  -999.2500  -999.2500     2.4960     0.1020     0.0950
  642.0000  -999.2500  -999.2500  -999.2500  -999.2500  -999.2500     2.5020     0.1040     0.1050
  642.5000  -999.2500  -999.2500  -999.2500  -999.2500  -999.2500     2.5120     0.1110     0.1140
  643.0000  -999.2500  -999.2500  -999.2500  -999.2500  -999.2500     2.5100     0.1060     0.1230
  643.5000  -999.2500  -999.2500  -999.2500  -999.2500  -999.2500     2.5120     0.1010     0.1320
  644.0000  -999.2500  -999.2500  -999.2500  -999.2500  -999.2500     2.5240     0.0960     0.1410
  644.5000  -999.2500  -999.2500  -999.2500  -999.2500  -999.2500     2.5250     0.0930     0.1510
  645.0000  -999.2500  -999.2500  -999.2500  -999.2500  -999.2500     2.5150     0.0960     0.1550
  645.5000  -999.2500  -999.2500  -999.2500  -999.2500  -999.2500     2.5280     0.0920     0.1560
  646.0000  -999.2500  -999.2500  -999.2500  -999.2500  -999.2500     2.5150     0.1080     0.1570
  646.5000  -999.2500  -999.2500  -999.2500  -999.2500  -999.2500     2.5290     0.1080     0.1580
  647.0000  -999.2500  -999.2500  -999.2500  -999.2500  -999.2500     2.5630     0.1080     0.1580
