~VERSION INFORMATION
 VERS.                2.0:   CWLS LOG ASCII STANDARD - VERSION 2.0
 WRAP.                 NO:   ONE LINE PER DEPTH STEP
~WELL INFORMATION
#MNEM.UNIT      DATA TYPE    INFORMATION
#----------   ------------   ------------------------------
 STRT.F            0.0000:   START DEPTH
 STOP.F          600.0000:   STOP DEPTH
 STEP.F            0.5000:   STEP LENGTH
 NULL.          -999.2500:   NO VALUE
 COMP.   FLUOR DANIEL INC:   COMPANY
 WELL.   16-1 X 11 #16-11:   WELL
 FLD .             TEAPOT:   FIELD
 LOC .      S11 T38N R78W:   LOCATION
 CNTY.            NATRONA:   COUNTY
 STAT.            WYOMING:   STATE
 CTRY. UNITED STATES OF AMERICA:   COUNTRY
 SRVC.      Western Atlas:   SERVICE COMPANY
 DATE.        08-MAY-1995:   LOGDATE
 API .       490252271100:   API NUMBER
~CURVE INFORMATION
#MNEM.UNIT       API CODE    CURVE DESCRIPTION
#----------   ------------   ------------------------------
 DEPT.F                  :   
 GRR .GAPI   07 310 01 00:   GAMMA RAY
 RILD.OHMM   07 120 46 00:   INDUCTION LOG DEEP RESISTIVITY
 RILM.OHMM   07 120 44 00:   INDUCTION LOG MEDIUM RESISTIVITY
~PARAMETER INFORMATION
#MNEM.UNIT          VALUE    DESCRIPTION
#----------   ------------   ------------------------------
 PD  .                 GL:   PERMANENT DATUM
 EPD .F              5203:   ELEVATION PERMANENT DATUM
 LMF .                 KB:   LOG MEASURED FROM
 DAPD.F                10:   FEET ABOVE PERMANENT DATUM
 DMF .                 KB:   DRILLING MEASURED FROM
 EKB .F              5213:   KELLING BUSHING
 EDF .F              5212:   DRILLING FLOOR
 EGL .F              5203:   GROUND LEVEL
 DATE.        08-MAY-1995:   RUN DATE
 RUN .                  1:   RUN NUMBER
 DD  .F               605:   DEPTH DRILLER
 DL  .F               608:   DEPTH LOGGER
 BLI .F               600:   BOTTOM LOG INTERVAL
 TLI .F                46:   TOP LOG INTERVAL
 CS  .IN            9.625:   CASING SIZE
 CBD .F                46:   CASING BOTTOM DRILLER
 CBL .F                46:   CASING BOTTOM LOGGER
 BS  .IN             8.75:   BIT SIZE
 BSD .F               605:   BIT SIZE AT DEPTH
 DFT .                AIR:   DRILLING FLUID TYPE
 MRT .F                89:   MAXIMUM RECORDED TEMPERATURE
 LUN .            HL 6530:   LOGGING UNIT NUMBER
 LUL .             CASPER:   LOGGING UNIT LOCATION
 ENGI.      PAT RASMUSSEN:   RECORDING ENGINEER
 WITN.        GARY STRONG:   WITNESSED BY
 CLNT.            A2DTECH:   CLIENT CODE
 ORIG.           5" PRINT:   ORIGIN OF DATA
 UWI .       490252271100:   UNIQUE WELL ID
 DICO. A2D Technologies, Inc.:   DIGITIZING COMPANY
~OTHER INFORMATION
~A    DEPT      GRR      RILD       RILM   
# ...
  455.0000    98.9442    13.7203    13.8059
  455.5000    97.7376    13.8177    13.8069
  456.0000   100.2594    13.7235    13.9892
  456.5000   102.8658    13.5362    13.9892
  457.0000   102.8658    13.3514    13.8924
  457.5000   103.4691    13.1695    13.7009
  458.0000   104.6757    13.0802    13.5804
  458.5000   103.1674    12.8987    13.3258
  459.0000   100.4525    12.7138    13.0512
  459.5000   101.3575    12.1241    12.7822
  460.0000   105.2790    11.9582    12.6060
  460.5000   107.6923    11.9602    12.4297
  461.0000   108.6133    11.9618    12.1654
  461.5000   107.6038    11.8803    11.8427
  462.0000   104.9774    11.7997    11.8427
  462.5000   104.3741    11.9667    11.9251
  463.0000   104.0724    12.1356    12.1760
  463.5000   102.2624    12.3955    12.6938
  464.0000   102.2624    12.9576    13.3258
  464.5000   102.8658    14.2423    14.1847
  465.0000   103.4691    15.1624    16.5248
  465.5000    99.8492    16.5964    18.7238
  466.0000    96.2293    19.2032    21.8127
  466.5000    90.6547    22.6869    27.0491
  467.0000    84.2031    27.1773    32.1744
  467.5000    79.3363    33.4730    35.9534
  468.0000    76.3198    38.4627    38.0062
  468.5000    74.8115    39.0057    39.3483
  469.0000    76.3198    38.4378    39.6224
  469.5000    80.2413    37.6854    39.0205
  470.0000    83.2579    36.4062    36.9655
  470.5000    86.5762    33.7347    34.7271
  471.0000    85.6712    31.4769    33.0802
  471.5000    83.2539    30.1971    31.7309
  472.0000    83.8934    29.5778    30.8621
  472.5000    84.7662    28.9732    30.0170
  473.0000    82.6546    28.1837    29.1951
  473.5000    84.1629    27.2199    28.0043
  474.0000    88.9894    26.4599    27.0491
  474.5000    92.9110    25.2325    26.3085
  475.0000    90.4977    24.5450    26.0964
  475.5000    88.6878    24.3777    25.7663
  476.0000    88.9894    24.5516    25.0608
  476.5000    90.7994    24.5549    24.7153
  477.0000    89.2790    24.5583    24.3746
  477.5000    86.8376    24.5616    24.3746
  478.0000    88.3861    24.3949    24.5444
  478.5000    92.6094    24.3983    24.5178
  479.0000    94.4193    24.4017    24.3746
  479.5000    93.8160    24.4057    24.5444
  480.0000    89.5928    24.4090    24.5444
  480.5000    88.0845    24.4123    24.5444
  481.0000    90.1961    24.2460    24.5444
  481.5000    92.9110    24.2501    24.5444
  482.0000    92.9271    24.0856    24.2060
  482.5000    91.3827    23.7568    23.7072
  483.0000    90.4977    23.4325    23.3804
  483.5000    92.0060    22.7835    23.0581
  484.0000    92.0060    21.9992    22.8986
  484.5000    92.3077    21.7188    22.5829
  485.0000    92.0060    21.5715    22.4267
  485.5000    92.0060    21.5752    22.1176
  486.0000    92.6094    21.2799    21.8127
  486.5000    94.4193    21.1356    21.3632
  487.0000    96.2293    20.9923    21.0687
  487.5000    97.4359    20.8505    20.7782
  488.0000    96.2011    20.5659    20.4918
  488.5000    95.0226    19.9918    20.0695
  489.0000    96.5309    19.3258    19.6560
  489.5000    99.5475    19.0626    19.2509
  490.0000   103.7707    18.5432    18.7152
  490.5000   101.6591    18.0379    18.2111
  491.0000    98.9442    17.5464    17.7125
  491.5000    98.3409    16.8329    17.4683
  492.0000   101.3575    16.8352    17.2275
  492.5000   103.4691    16.9548    16.8725
  493.0000   103.7707    16.9571    16.7558
  493.5000   103.7707    16.6099    16.7558
  494.0000   103.7707    16.5969    16.6399
  494.5000   101.6591    16.4995    16.6399
  495.0000    98.3409    16.5023    16.6399
  495.5000    93.8160    16.3898    16.6399
  496.0000    92.6094    16.3925    16.6268
  496.5000    94.7210    16.2808    16.5248
  497.0000    95.0226    16.2836    16.4105
  497.5000    93.2127    16.1730    16.2970
  498.0000    92.2956    15.9523    16.1843
  498.5000    93.8321    15.6257    16.0723
  499.0000    95.9718    15.5198    16.0723
  499.5000    96.5309    15.5224    15.9612
  500.0000    95.9276    15.3105    15.6321
  500.5000    93.5143    15.2066    15.5261
  501.0000    92.3077    14.9990    15.4208
  501.5000    92.3077    14.9049    15.3162
  502.0000    92.0060    14.7575    15.0031
  502.5000    92.0060    14.6101    14.7983
  503.0000    91.7044    14.4068    14.5963
  503.5000    92.0060    14.2120    14.3970
  504.0000    93.8644    14.0209    14.2941
  504.5000    95.6782    13.9277    14.0903
  505.0000    95.6259    13.8342    13.8159
  505.5000    94.5551    13.6481    13.7217
  506.0000    93.3966    13.4636    13.6286
  506.5000    92.8080    13.2815    13.5362
  507.0000    91.9177    13.1932    13.4444
  507.5000    91.9325    13.0150    13.2613
  508.0000    94.0588    13.0186    13.1709
  508.5000    96.7884    13.0229    13.0820
  509.0000   100.4231    13.0265    12.9933
  509.5000   104.0577    13.0300    12.9052
  510.0000   106.7873    13.0335    12.9969
  510.5000   104.0271    13.0371    13.0896
  511.0000   102.2956    13.0406    13.0914
  511.5000   101.4016    13.1350    13.0932
  512.0000   100.8130    13.2301    13.0949
  512.5000   100.8314    13.3258    13.0967
  513.0000    99.6395    13.3295    13.0985
  513.5000    96.3359    13.3332    13.1003
  514.0000    93.6357    13.2445    13.1021
  514.5000    95.4604    13.0663    13.1038
  515.0000    98.7934    12.9795    12.9250
  515.5000   100.6486    12.8932    12.8373
  516.0000   103.3514    12.7189    12.7502
  516.5000   105.7794    12.5470    12.7524
  517.0000   106.0920    12.3774    12.7541
  517.5000   104.5985    12.2951    12.6672
  518.0000   105.5218    12.2134    12.5813
  518.5000   106.4415    12.2167    12.4960
  519.0000   107.0596    12.1355    12.4112
  519.5000   107.9792    12.1389    12.2422
  520.0000   109.8039    12.0581    12.2439
  520.5000   110.4220    12.0622    12.2455
  521.0000   108.6267    12.1495    12.1625
  521.5000   109.8517    12.1528    12.1645
  522.0000   111.3748    12.2408    12.1662
  522.5000   111.9928    12.2441    12.1679
  523.0000   112.3092    12.2474    12.1695
  523.5000   111.1172    12.2507    12.1712
  524.0000   108.7187    12.2541    12.1728
  524.5000   109.0351    12.2574    12.1744
  525.0000   110.8597    12.2608    12.1761
  525.5000   110.8748    12.2649    12.0935
  526.0000   109.6862    12.0983    12.0952
  526.5000   109.3956    12.0178    12.0132
  527.0000   110.3190    11.9380    11.7676
  527.5000   111.2386    11.7766    11.6874
  528.0000   111.8530    11.6182    11.5278
  528.5000   109.4581    11.4604    11.3709
  529.0000   107.6629    11.3061    11.2156
  529.5000   105.5660    11.1533    11.1396
  530.0000   105.2790    11.0026    11.0636
  530.5000   109.3062    10.9938    10.9130
  531.0000   114.3619    10.8568    10.8389
  531.5000   118.2982    10.7846    10.6910
  532.0000   120.1229    10.4929    10.5450
  532.5000   119.8323    10.2795    10.3295
  533.0000   119.8506    10.1398    10.0480
  533.5000   119.5600     9.8655     9.9109
  534.0000   118.3718     9.5980     9.7079
  534.5000   118.0845     9.4027     9.5089
  535.0000   119.0045     9.1478     9.1861
  535.5000   121.1916     8.8963     8.8126
  536.0000   122.6539     8.5726     8.3958
  536.5000   119.0523     7.7510     7.8885
  537.0000   116.9555     7.2836     7.4634
  537.5000   116.0615     6.5652     6.8087
  538.0000   124.2247     5.6763     6.2538
  538.5000   131.4792     5.6779     5.6175
  539.0000   134.8122     5.7190     5.3516
  539.5000   126.6821     5.7603     5.5415
  540.0000   115.5354     5.8831     5.9406
  540.5000   111.0253     6.0926     6.4575
  541.0000   116.4735     6.3575     7.0682
  541.5000   121.0131     6.6843     7.6300
  542.0000   124.0444     7.4576     8.2938
  542.5000   122.2492     8.6301     8.7686
  543.0000   118.9457     9.2529     9.1474
  543.5000   115.6421     9.5822     9.3470
  544.0000   112.6403     9.7188     9.6008
  544.5000   112.3529     9.8573     9.7363
  545.0000   115.0830     9.9978     9.9425
  545.5000   116.6063    10.2110    10.0829
