~VERSION INFORMATION
 VERS.                2.0:   CWLS LOG ASCII STANDARD - VERSION 2.0
 WRAP.                 NO:   ONE LINE PER DEPTH STEP
~WELL INFORMATION
#MNEM.UNIT      DATA TYPE    INFORMATION
#----------   ------------   ------------------------------
 STRT.F            0.0000:   START DEPTH
 STOP.F          550.0000:   STOP DEPTH
 STEP.F            0.1000:   STEP LENGTH
 NULL.          -999.2500:   NO VALUE
 COMP.       F D SERV INC:   COMPANY
 WELL. NAVAL PETROLEUM RESERVE 3 SX-3 #77-4-3:   WELL
 FLD .          N.P.R. #3:   FIELD
 LOC .       S3 T38N R78W:   LOCATION
 CNTY.            NATRONA:   COUNTY
 STAT.            WYOMING:   STATE
 CTRY. UNITED STATES OF AMERICA:   COUNTRY
 SRVC.      Western Atlas:   SERVICE COMPANY
 DATE.        28-OCT-1992:   LOGDATE
 API .       490252255100:   API NUMBER
~CURVE INFORMATION
#MNEM.UNIT       API CODE    CURVE DESCRIPTION
#----------   ------------   ------------------------------
 DEPT.F                  :   
 GRR .GAPI   07 310 01 00:   GAMMA RAY FROM RESISTIVITY
 RILD.OHMM   07 120 46 00:   DEEP INDUCTION RESISTIVITY
 RILM.OHMM   07 120 44 00:   INDUCTION LOG MEDIUM RESISTIVITY
~PARAMETER INFORMATION
#MNEM.UNIT          VALUE    DESCRIPTION
#----------   ------------   ------------------------------
 PD  .                 GL:   PERMANENT DATUM
 EPD .F              5160:   ELEVATION PERMANENT DATUM
 LMF .                 KB:   LOG MEASURED FROM
 DAPD.F                10:   FEET ABOVE PERMANENT DATUM
 DMF .                 KB:   DRILLING MEASURED FROM
 EKB .F              5170:   KELLING BUSHING
 EDF .F              5169:   DRILLING FLOOR
 EGL .F              5160:   GROUND LEVEL
 DATE.        28-OCT-1992:   RUN DATE
 RUN .                  1:   RUN NUMBER
 DD  .F               555:   DEPTH DRILLER
 DL  .F               558:   DEPTH LOGGER
 BLI .F               550:   BOTTOM LOG INTERVAL
 CS  .IN            8.625:   CASING SIZE
 CBD .F                54:   CASING BOTTOM DRILLER
 CBL .F                54:   CASING BOTTOM LOGGER
 BS  .IN            7.875:   BIT SIZE
 BSD .F               555:   BIT SIZE AT DEPTH
 DFT .           AIR FOAM:   DRILLING FLUID TYPE
 TCS .HRS               1:   TIME CURCULATED STOPPED
 MRT .F                65:   MAXIMUM RECORDED TEMPERATURE
 LUN .            HL-6274:   LOGGING UNIT NUMBER
 LUL .             CASPER:   LOGGING UNIT LOCATION
 ENGI.             RAUTIO:   RECORDING ENGINEER
 WITN.     BRUCE ANDERSON:   WITNESSED BY
 CLNT.            A2DTECH:   CLIENT CODE
 ORIG.           5" PRINT:   ORIGIN OF DATA
 UWI .       490252255100:   UNIQUE WELL ID
 DICO. A2D Technologies, Inc.:   DIGITIZING COMPANY
~OTHER INFORMATION
~A    DEPT      GRR      RILD       RILM   
# ...
  436.8000    89.8666    13.4699    13.5157
  436.9000    90.2389    13.4696    13.5162
  437.0000    90.4894    13.4071    13.4692
  437.1000    90.7675    13.3758    13.4235
  437.2000    91.3160    13.3446    13.4241
  437.3000    91.5432    13.2672    13.4246
  437.4000    92.1474    13.1901    13.4253
  437.5000    92.7744    13.1900    13.3636
  437.6000    93.3511    13.1287    13.3332
  437.7000    94.0799    13.0980    13.3031
  437.8000    94.6356    13.0978    13.2417
  437.9000    95.0834    13.0977    13.2423
  438.0000    95.5851    13.0975    13.1669
  438.1000    95.9645    13.0972    13.1516
  438.2000    96.1438    13.0365    13.1521
  438.3000    96.1432    13.0060    13.1527
  438.4000    96.1425    13.0058    13.1532
  438.5000    96.1420    13.0056    13.1538
  438.6000    96.1414    13.0054    13.0796
  438.7000    96.0221    12.9300    13.0636
  438.8000    95.8381    12.9148    13.0641
  438.9000    95.8207    12.9146    13.0362
  439.0000    95.5347    12.9144    12.9745
  439.1000    95.5341    12.8993    12.9751
  439.2000    95.5335    12.8244    12.9027
  439.3000    95.5329    12.8242    12.8862
  439.4000    95.5323    12.8241    12.8443
  439.5000    95.5317    12.8239    12.7979
  439.6000    95.5310    12.8237    12.7984
  439.7000    95.5305    12.8235    12.7989
  439.8000    95.5299    12.8233    12.7995
  439.9000    95.6407    12.8231    12.8000
  440.0000    95.8912    12.8230    12.8005
  440.1000    96.1324    12.8228    12.8011
  440.2000    96.1316    12.8226    12.8016
  440.3000    96.3408    12.8224    12.8022
  440.4000    96.4326    12.8223    12.8027
  440.5000    96.4320    12.7479    12.8032
  440.6000    96.4882    12.7329    12.8037
  440.7000    96.7388    12.7327    12.8043
  440.8000    97.0343    12.7031    12.8048
  440.9000    97.2399    12.6440    12.8054
  441.0000    97.4904    12.6438    12.8059
  441.1000    97.6369    12.6436    12.7515
  441.2000    97.6894    12.6434    12.7181
  441.3000    97.9378    12.6433    12.6937
  441.4000    97.9370    12.6431    12.6309
  441.5000    97.9366    12.6429    12.6315
  441.6000    98.0874    12.6427    12.6320
  441.7000    98.1369    12.6426    12.5790
  441.8000    97.9347    12.6424    12.5842
  441.9000    97.9341    12.6422    12.6095
  442.0000    97.9335    12.6420    12.5464
  442.1000    97.9329    12.6419    12.6347
  442.2000    97.9323    12.6417    12.6351
  442.3000    97.9317    12.6415    12.5828
  442.4000    97.9311    12.6413    12.5485
  442.5000    97.9305    12.6411    12.5258
  442.6000    97.9299    12.6410    12.4625
  442.7000    97.9293    12.6262    12.4631
  442.8000    97.9287    12.5529    12.5300
  442.9000    97.9281    12.5527    12.5512
  443.0000    97.9275    12.5525    12.5517
  443.1000    97.9269    12.5523    12.5749
  443.2000    97.9263    12.5522    12.6404
  443.3000    98.1172    12.5520    12.6410
  443.4000    98.3678    12.5518    12.6415
  443.5000    98.5287    12.5516    12.6420
  443.6000    98.5668    12.5515    12.6425
  443.7000    98.8296    12.5513    12.6431
  443.8000    98.8290    12.5221    12.6436
  443.9000    98.8284    12.4638    12.6442
  444.0000    98.6909    12.4636    12.6446
  444.1000    98.4391    12.4634    12.6452
  444.2000    98.1874    12.4633    12.6457
  444.3000    97.9196    12.4631    12.6462
  444.4000    97.9190    12.4629    12.6468
  444.5000    97.9184    12.4628    12.6474
  444.6000    97.9178    12.4626    12.6478
  444.7000    97.9172    12.4624    12.6483
  444.8000    97.9166    12.4622    12.6489
  444.9000    97.9160    12.4621    12.6494
  445.0000    98.3787    12.4619    12.6499
  445.1000    98.6997    12.4617    12.6505
  445.2000    99.0800    12.4615    12.6510
  445.3000    99.5816    12.3748    12.6515
  445.4000   100.0833    12.3747    12.6520
  445.5000   100.6314    12.3315    12.6526
  445.6000   101.0868    12.2884    12.6531
  445.7000   101.5885    12.2740    12.6537
  445.8000   102.2162    12.2028    12.6542
  445.9000   102.9692    12.2026    12.6547
  446.0000   103.7220    12.2024    12.6552
  446.1000   104.5552    12.1599    12.6365
  446.2000   104.7791    12.1174    12.5684
  446.3000   104.8562    12.1172    12.5691
  446.4000   104.8556    12.1170    12.5072
  446.5000   104.7835    12.1168    12.4828
  446.6000   104.5523    12.0606    12.4834
  446.7000   104.5516    12.0324    12.4839
  446.8000   104.3303    12.0322    12.4807
  446.9000   104.0786    12.0321    12.3984
  447.0000   104.0423    12.0319    12.3988
  447.1000   104.1323    12.0317    12.3993
  447.2000   103.9612    12.0316    12.3680
  447.3000   103.5229    12.0314    12.3144
  447.4000   103.5216    12.0312    12.3119
  447.5000   103.2929    12.0311    12.2300
  447.6000   103.0418    12.0309    12.2305
  447.7000   103.0314    11.9611    12.1859
  447.8000   103.2801    11.9470    12.1466
  447.9000   103.5288    11.9054    12.1471
  448.0000   103.8177    11.8638    12.4157
  448.1000   104.0261    11.8499    12.3525
  448.2000   104.1190    11.7811    12.3285
  448.3000   104.3222    11.7809    12.2962
  448.4000   104.7721    11.7807    12.2418
  448.5000   105.0258    11.7806    12.2413
  448.6000   105.2694    11.7804    12.2408
  448.7000   105.3269    11.7802    12.2403
  448.8000   105.6008    11.7801    12.2398
  448.9000   105.9314    11.7799    12.2393
  449.0000   105.9302    11.7797    12.2387
  449.1000   105.9289    11.7796    12.2382
  449.2000   105.9278    11.7522    12.2377
  449.3000   105.9266    11.6975    12.2372
  449.4000   105.9253    11.6973    12.2022
  449.5000   105.7926    11.6971    12.1512
  449.6000   105.2916    11.6970    12.1466
  449.7000   104.7075    11.6968    12.0657
  449.8000   104.2897    11.7043    12.0652
  449.9000   103.4791    11.7231    12.0647
  450.0000   102.4785    11.7420    12.0642
  450.1000   101.6205    11.7609    12.0508
  450.2000   101.3633    11.7797    11.9794
  450.3000   101.6059    11.7986    11.9789
  450.4000   102.0447    11.8185    11.9269
  450.5000   102.5432    11.8194    11.8947
  450.6000   103.2077    11.8204    11.8942
  450.7000   104.1766    11.7869    11.8937
  450.8000   104.9978    11.7403    11.8931
  450.9000   106.1245    11.7413    11.8328
  451.0000   107.2007    11.7424    11.8096
  451.1000   108.1991    11.6854    11.7789
  451.2000   109.1975    11.6196    11.7265
  451.3000   110.2181    11.5825    11.7260
  451.4000   111.9707    11.5835    11.7255
  451.5000   112.7992    11.5845    11.7251
  451.6000   113.4900    11.5854    11.7246
  451.7000   113.7882    11.5864    11.7241
  451.8000   113.7405    11.5874    11.7236
  451.9000   113.4822    11.5884    11.7231
  452.0000   113.2382    11.5980    11.6607
  452.1000   112.6087    11.6715    11.6880
  452.2000   111.9935    11.6724    11.7216
  452.3000   111.4107    11.7201    11.7211
  452.4000   110.6881    11.7560    11.7206
  452.5000   110.1364    11.7748    11.7201
  452.6000   109.6862    11.8402    11.7197
  452.7000   109.1853    11.8414    11.7192
  452.8000   108.8016    11.8422    11.7187
  452.9000   108.5505    11.8850    11.7182
  453.0000   108.3096    11.9271    11.7177
  453.1000   108.3081    11.9281    11.7172
  453.2000   108.3071    11.9291    11.7167
  453.3000   108.4587    11.9301    11.7162
  453.4000   108.7073    11.9311    11.7157
  453.5000   108.9107    11.8958    11.7152
  453.6000   108.9092    11.8501    11.7147
  453.7000   109.3916    11.8511    11.7143
  453.8000   109.7020    11.8522    11.7138
  453.9000   109.9507    11.7934    11.7133
  454.0000   110.2802    11.7717    11.7128
  454.1000   110.7514    11.7727    11.7123
  454.2000   111.0263    11.7737    11.7118
  454.3000   111.2487    11.7757    11.7113
  454.4000   111.4974    11.8444    11.7108
  454.5000   111.7461    11.8591    11.7344
  454.6000   111.9947    11.8601    11.7919
  454.7000   112.2433    11.8610    11.7913
  454.8000   112.5364    11.8620    11.7908
  454.9000   112.9461    11.8631    11.7903
