~VERSION INFORMATION
 VERS.                2.0:   CWLS LOG ASCII STANDARD - VERSION 2.0
 WRAP.                 NO:   ONE LINE PER DEPTH STEP
~WELL INFORMATION
#MNEM.UNIT      DATA TYPE    INFORMATION
#----------   ------------   ------------------------------
 STRT.F           10.0000:   START DEPTH
 STOP.F          485.0000:   STOP DEPTH
 STEP.F            0.5000:   STEP LENGTH
 NULL.          -999.2500:   NO VALUE
 COMP. FENIX & SCISSON INC:   COMPANY
 WELL.    56 S 3 SX #56-3:   WELL
 FLD .             TEAPOT:   FIELD
 LOC .       S3 T38N R78W:   LOCATION
 CNTY.            NATRONA:   COUNTY
 STAT.            WYOMING:   STATE
 CTRY. UNITED STATES OF AMERICA:   COUNTRY
 SRVC.            Unknown:   SERVICE COMPANY
 DATE.        09-OCT-1978:   LOGDATE
 API .       490251071900:   API NUMBER
~CURVE INFORMATION
#MNEM.UNIT       API CODE    CURVE DESCRIPTION
#----------   ------------   ------------------------------
 DEPT.F                  :   
 SPR .MV     05 010 01 00:   SPONTANEOUS POTENTIAL FROM RES.
 SN  .OHMM   05 040 16 00:   SHORT NORMAL 16"
 ILD .OHMM   05 120 46 00:   INDUCTION LOG DEEP
 CALD.IN     45 280 60 00:   CALIPER
 GRD .GAPI   45 310 01 00:   GAMMA RAY FROM DENSITY LOG
 CORR.G/C3   45 356 01 00:   DENSITY CORRECTION
 RHOB.G/C3   45 350 01 00:   BULK DENSITY
 DPHI.DEC    45 890 12 00:   DENSITY POROSITY SANDSTONE
~PARAMETER INFORMATION
#MNEM.UNIT          VALUE    DESCRIPTION
#----------   ------------   ------------------------------
 PD  .                 GL:   PERMANENT DATUM
 EPD .F              5188:   ELEVATION PERMANENT DATUM
 LMF .                 KB:   LOG MEASURED FROM
 DAPD.F                 4:   FEET ABOVE PERMANENT DATUM
 DMF .                 KB:   DRILLING MEASURED FROM
 EKB .F              5192:   KELLING BUSHING
 EGL .F              5188:   GROUND LEVEL
 DATE.            10-9-78:   RUN DATE
 RUN .                  1:   RUN NUMBER
 DD  .F               485:   DEPTH DRILLER
 DL  .F               485:   DEPTH LOGGER
 BLI .F               479:   BOTTOM LOG INTERVAL
 TLI .F                32:   TOP LOG INTERVAL
 CS  .IN            8.625:   CASING SIZE
 BS  .IN            7.875:   BIT SIZE
 BSD .F               485:   BIT SIZE AT DEPTH
 DFT .                KCL:   DRILLING FLUID TYPE
 DFD .                8.8:   DRILLING FLUID DENSITY
 DFV .                 41:   DRILLING FLUID VISCOSITY
 DFPH.                  9:   DRILLING FLUID PH
 DFL .                7.6:   DRILLING FLUID LOSS
 MSS .          FLOW LINE:   MUD SAMPLE SOURCE
 RMS .OHMM            .18:   RESISTIVITY MUD SAMPLE
 MST .F                60:   MUD SAMPLE TEMPERATURE
 RMF .OHMM            .16:   RESISTIVITY MUD FILTRATE SAMPLE
 MFST.F                70:   MUD FILTRATE SAMPLE TEMPERATURE
 RMC .OHMM            .26:   RESISTIVITY MUD CAKE
 MCST.F                70:   MUD CAKE SAMPLE TEMPERATURE
 MFSS.               MEAS:   MUD FILTRATE SAMPLE SOURCE
 MCSS.               MEAS:   MUD CAKE SAMPLE SOURCE
 TCS .HRS             1.5:   TIME CURCULATED STOPPED
 LUN .               2958:   LOGGING UNIT NUMBER
 LUL .               CASP:   LOGGING UNIT LOCATION
 ENGI.             MILLER:   RECORDING ENGINEER
 WITN.              AMEND:   WITNESSED BY
 CLNT.            A2DTECH:   CLIENT CODE
 ORIG.           5" PRINT:   ORIGIN OF DATA
 UWI .       490251071900:   UNIQUE WELL ID
 DICO. A2D Technologies, Inc.:   DIGITIZING COMPANY
~OTHER INFORMATION
~A   DEPT      SPR         SN        ILD       CALD         GRD      CORR       RHOB       DPHI   
# ...
  172.0000   -34.6244     6.3290     6.5405     8.2297   111.5878     0.0247     2.4488     0.1372
  172.5000   -34.5430     6.2428     6.4904     8.2306   109.0944     0.0250     2.4375     0.1500
  173.0000   -34.4231     6.1855     6.4765     8.2314   106.4829     0.0253     2.4075     0.1665
  173.5000   -34.3028     6.1292     6.5530     8.2323   105.4719     0.0329     2.3713     0.1843
  174.0000   -34.1821     6.1466     6.6119     8.2331   104.4064     0.0404     2.3699     0.1843
  174.5000   -34.0583     6.1628     6.6714     8.2340   103.5532     0.0451     2.3924     0.1719
  175.0000   -34.0286     6.1791     6.7732     8.2348   104.3371     0.0448     2.4182     0.1609
  175.5000   -34.0276     6.3136     7.0437     8.2357   106.4415     0.0443     2.4441     0.1502
  176.0000   -34.0277     6.5332     7.3249     8.2365   108.2997     0.0451     2.4352     0.1427
  176.5000   -34.0277     6.7796     7.6413     8.2373   110.0724     0.0465     2.4196     0.1452
  177.0000   -34.0269     6.7271     7.6064     8.2382   109.1672     0.0741     2.4145     0.1477
  177.5000   -34.0318     6.6709     7.6413     8.2390   106.1448     0.1006     2.4239     0.1502
  178.0000   -34.2184     6.6143     7.5291     8.2399    99.2281     0.1136     2.4360     0.1453
  178.5000   -34.4184     6.5582     7.3625     8.2407    98.0911     0.1194     2.4464     0.1376
  179.0000   -34.6181     6.4548     7.1996     8.2416    98.8028     0.1260     2.4815     0.1299
  179.5000   -34.8178     6.3233     7.0349     8.2424    99.5185     0.1272     2.4865     0.1221
  180.0000   -35.0183     6.1863     6.6586     8.2432    99.9247     0.1171     2.4931     0.1144
  180.5000   -35.2123     5.9618     6.2901     8.2441   102.4706     0.0991     2.4937     0.1102
  181.0000   -35.2194     5.7314     5.7585     8.2449   107.2248     0.0816     2.4858     0.1159
  181.5000   -35.2184     5.5103     5.2035     8.2458   109.1735     0.0638     2.4730     0.1216
  182.0000   -35.2182     5.2983     4.7021     8.2466   106.2496     0.0486     2.4560     0.1274
  182.5000   -35.2183     5.0944     4.2489     8.2475   101.8794     0.0403     2.4401     0.1375
  183.0000   -35.2183     4.8095     3.8389     8.2483   101.3028     0.0327     2.4067     0.1469
  183.5000   -35.2185     4.5225     3.4679     8.2491   101.8085     0.0257     2.3715     0.1813
  184.0000   -35.2178     4.2526     3.1328     8.2500   102.5384     0.0175     2.3120     0.2153
  184.5000   -35.1841     4.0105     3.0188     8.2508   103.1971     0.0186     2.2524     0.2567
  185.0000   -34.9773     3.9434     2.9921     8.2517   103.9797     0.0205     2.2054     0.2818
  185.5000   -34.7639     3.9434     2.9939     8.2525   104.3387     0.0227     2.1993     0.2932
  186.0000   -34.4150     3.9434     2.9912     8.2534   102.6056     0.0245     2.2255     0.2932
  186.5000   -33.6302     3.9434     3.0802     8.2542    96.1207     0.0212     2.2900     0.2741
  187.0000   -33.0177     4.0148     3.3412     8.2550    94.7465     0.0178     2.3149     0.2392
  187.5000   -33.0355     4.0910     3.6626     8.2559    97.5879     0.0132     2.3255     0.2129
  188.0000   -33.0367     4.3104     4.0149     8.2567   100.2827     0.0244     2.3347     0.2039
  188.5000   -33.0358     4.5293     4.4011     8.2576   103.1932     0.0252     2.3691     0.1891
  189.0000   -33.0357     4.7593     4.7066     8.2584   105.1316     0.0176     2.4160     0.1630
  189.5000   -33.0357     5.0012     5.0186     8.2593   105.4842     0.0128     2.4458     0.1342
  190.0000   -33.0357     5.2552     5.3514     8.2601   107.6167     0.0131     2.4625     0.1310
  190.5000   -33.0357     5.5222     5.7062     8.2610   111.9312     0.0129     2.4661     0.1287
  191.0000   -33.0357     5.7274     6.0731     8.2617   116.3771     0.0129     2.4695     0.1267
  191.5000   -33.0357     5.8135     5.9861     8.2611   119.2940     0.0129     2.4731     0.1247
  192.0000   -33.0357     5.9011     5.8975     8.2606   117.8961     0.0129     2.4747     0.1223
  192.5000   -33.0357     5.9901     5.8203     8.2600   115.7873     0.0129     2.4753     0.1223
  193.0000   -33.0357     6.0176     5.7092     8.2595   114.2920     0.0129     2.4760     0.1223
  193.5000   -33.0357     6.0033     5.5991     8.2590   114.4860     0.0129     2.4762     0.1218
  194.0000   -33.0357     5.9452     5.4913     8.2584   114.4276     0.0129     2.4759     0.1212
  194.5000   -33.0357     5.8876     5.3858     8.2579   113.5479     0.0129     2.4704     0.1207
  195.0000   -33.0356     5.8306     5.2823     8.2573   112.9929     0.0129     2.4599     0.1262
  195.5000   -33.0357     5.7742     5.1918     8.2568   112.6517     0.0129     2.4412     0.1302
  196.0000   -33.0378     5.6660     5.1708     8.2562   118.3292     0.0129     2.4242     0.1494
  196.5000   -32.9487     5.5132     5.1498     8.2557   123.5481     0.0129     2.4042     0.1684
  197.0000   -32.8290     5.3644     5.1290     8.2551   126.8419     0.0129     2.4019     0.1661
  197.5000   -32.7079     5.2197     5.1003     8.2546   126.2882     0.0129     2.4093     0.1634
  198.0000   -32.5382     5.1474     5.1720     8.2541   125.7074     0.0129     2.4193     0.1620
  198.5000   -32.3087     5.2555     5.3489     8.2535   115.6933     0.0129     2.4289     0.1532
  199.0000   -31.7397     5.3940     5.5318     8.2530   107.8124     0.0129     2.4407     0.1453
  199.5000   -31.4526     5.5362     5.7211     8.2524   107.1381     0.0129     2.4535     0.1373
  200.0000   -31.4502     5.6821     5.9168     8.2519   107.3983     0.0129     2.4659     0.1293
  200.5000   -31.4483     5.8319     6.1192     8.2513   110.0511     0.0129     2.4778     0.1215
  201.0000   -31.4483     5.9857     6.3285     8.2508   112.1517     0.0129     2.4823     0.1177
  201.5000   -31.4484     6.1435     6.5450     8.2503   112.3311     0.0129     2.4866     0.1143
  202.0000   -31.4484     6.3055     6.7688     8.2497   110.5141     0.0130     2.4906     0.1118
  202.5000   -31.4484     6.4716     7.0004     8.2492   106.0611     0.0147     2.4948     0.1080
  203.0000   -31.4484     6.6422     7.1006     8.2486   104.3375     0.0167     2.4988     0.1040
  203.5000   -31.4484     6.7190     7.0998     8.2481   104.4234     0.0188     2.5030     0.1040
  204.0000   -31.4484     6.7190     7.1000     8.2475   105.2474     0.0208     2.5041     0.1039
  204.5000   -31.4484     6.7190     7.0998     8.2470   107.2178     0.0228     2.5040     0.1036
  205.0000   -31.4484     6.7190     7.0998     8.2465   109.8767     0.0249     2.5041     0.1034
  205.5000   -31.4484     6.6932     6.9977     8.2459   112.1815     0.0269     2.5028     0.1032
  206.0000   -31.4484     6.5964     6.8830     8.2454   114.4954     0.0288     2.5006     0.1046
  206.5000   -31.4484     6.5011     6.7703     8.2448   115.3258     0.0289     2.4984     0.1063
  207.0000   -31.4484     6.4069     6.6593     8.2443   115.4158     0.0283     2.4963     0.1080
  207.5000   -31.4484     6.3143     6.5502     8.2437   115.3853     0.0269     2.4942     0.1097
  208.0000   -31.4484     6.2229     6.4429     8.2432   115.7551     0.0256     2.4920     0.1115
  208.5000   -31.4484     6.1328     6.3374     8.2427   116.6783     0.0243     2.4900     0.1124
  209.0000   -31.4484     6.0440     6.2336     8.2421   117.5891     0.0229     2.4881     0.1131
  209.5000   -31.4484     5.9239     6.1314     8.2416   117.7548     0.0216     2.4871     0.1138
  210.0000   -31.4484     5.7924     6.0310     8.2410   116.4595     0.0203     2.4869     0.1143
  210.5000   -31.4484     5.6638     5.9321     8.2405   115.1791     0.0190     2.4824     0.1143
  211.0000   -31.4484     5.5380     5.8351     8.2399   113.7429     0.0174     2.4657     0.1200
  211.5000   -31.4484     5.4149     5.7398     8.2394   113.5572     0.0179     2.4312     0.1440
  212.0000   -31.4484     5.2946     5.6415     8.2388   115.3861     0.0205     2.3952     0.1681
