~VERSION INFORMATION
 VERS.                2.0:   CWLS LOG ASCII STANDARD - VERSION 2.0
 WRAP.                 NO:   ONE LINE PER DEPTH STEP
~WELL INFORMATION
#MNEM.UNIT      DATA TYPE    INFORMATION
#----------   ------------   ------------------------------
 STRT.F           10.0000:   START DEPTH
 STOP.F          756.0000:   STOP DEPTH
 STEP.F            0.1000:   STEP LENGTH
 NULL.          -999.2500:   NO VALUE
 COMP. BROWN JOHN E&C INC:   COMPANY
 WELL. N P R 3 SHX- #31-1-X-14:   WELL
 FLD .             TEAPOT:   FIELD
 LOC .      S14 T38N R78W:   LOCATION
 CNTY.            NATRONA:   COUNTY
 STAT.            WYOMING:   STATE
 CTRY. UNITED STATES OF AMERICA:   COUNTRY
 SRVC.     Atlas Wireline:   SERVICE COMPANY
 DATE.        07-JAN-1992:   LOGDATE
 API .       490252249700:   API NUMBER
~CURVE INFORMATION
#MNEM.UNIT       API CODE    CURVE DESCRIPTION
#----------   ------------   ------------------------------
 DEPT.F                  :   
 GRR .GAPI   07 310 01 00:   GAMMA RAY
 RFOC.OHMM   07 220 04 00:   RESISTIVITY FOCUSED LOG RES.
 RILD.OHMM   07 120 46 00:   INDUCTION LOG DEEP RESISTIVITY
 RILM.OHMM   07 120 44 00:   INDUCTION LOG MEDIUM  RESISTIVITY
~PARAMETER INFORMATION
#MNEM.UNIT          VALUE    DESCRIPTION
#----------   ------------   ------------------------------
 PD  .                 GL:   PERMANENT DATUM
 EPD .F              5210:   ELEVATION PERMANENT DATUM
 LMF .                 KB:   LOG MEASURED FROM
 DAPD.F                10:   FEET ABOVE PERMANENT DATUM
 DMF .                 KB:   DRILLING MEASURED FROM
 EKB .F              5220:   KELLING BUSHING
 EDF .F              5219:   DRILLING FLOOR
 EGL .F              5210:   GROUND LEVEL
 DATE.        07-JAN-1992:   RUN DATE
 RUN .                  1:   RUN NUMBER
 DD  .F               762:   DEPTH DRILLER
 DL  .F               760:   DEPTH LOGGER
 BLI .F               758:   BOTTOM LOG INTERVAL
 CS  .IN            9.625:   CASING SIZE
 CBD .F                48:   CASING BOTTOM DRILLER
 CBL .F                50:   CASING BOTTOM LOGGER
 BS  .IN             8.75:   BIT SIZE
 BSD .F               762:   BIT SIZE AT DEPTH
 DFT .    FORMATION FLUID:   DRILLING FLUID TYPE
 MRT .F                90:   MAXIMUM RECORDED TEMPERATURE
 LUN .            HL-6274:   LOGGING UNIT NUMBER
 LUL .             CASPER:   LOGGING UNIT LOCATION
 ENGI.             RAUTIC:   RECORDING ENGINEER
 WITN.        GARY STRONG:   WITNESSED BY
 CLNT.            A2DTECH:   CLIENT CODE
 ORIG.           5" PRINT:   ORIGIN OF DATA
 UWI .       490252249700:   UNIQUE WELL ID
 DICO. A2D Technologies, Inc.:   DIGITIZING COMPANY
~OTHER INFORMATION
~A   DEPT       GRR      RFOC       RILD       RILM   
# ...
  185.2000    98.4338    13.3667    12.4161    12.9097
  185.3000    98.5132    13.3669    12.2619    12.7861
  185.4000    99.0430    13.3943    12.1330    12.6395
  185.5000    99.2840    13.4608    11.9446    12.4571
  185.6000    99.5376    13.4610    11.6708    12.1767
  185.7000   100.0646    13.4611    11.3785    11.9382
  185.8000   100.8205    13.4613    11.1756    11.6483
  185.9000   101.5764    13.4615    10.8980    11.2340
  186.0000   102.3808    13.4617    10.6713    10.8165
  186.1000   102.8532    13.4619    10.3854    10.4768
  186.2000   103.1738    13.4621    10.1189    10.2399
  186.3000   103.4274    13.4623     9.8875    10.0360
  186.4000   103.6809    13.4624     9.6612     9.8921
  186.5000   103.9033    13.4626     9.4202     9.7226
  186.6000   103.9059    13.4377     9.2735     9.5793
  186.7000   103.9082    13.3420     9.1144     9.4694
  186.8000   104.0910    13.0929     8.9579     9.3608
  186.9000   104.2151    12.8187     8.8039     9.2342
  187.0000   104.2175    12.4743     8.6525     9.1908
  187.1000   104.2199    11.8779     8.4895     9.1059
  187.2000   104.2226    11.1152     8.4017     8.9805
  187.3000   104.4526    10.4987     8.2720     8.8367
  187.4000   104.5293     9.9766     8.1533     8.7352
  187.5000   104.6576     9.4728     8.0597     8.5856
  187.6000   104.8737     9.0472     7.9672     8.4386
  187.7000   105.0017     8.7120     7.8666     8.2940
  187.8000   105.1435     8.4278     7.8261     8.1517
  187.9000   105.5939     8.1950     7.7501     8.0203
  188.0000   106.0987     8.0380     7.6831     7.9268
  188.1000   106.6034     7.9153     7.6261     7.8376
  188.2000   107.2507     7.7791     7.5426     7.7478
  188.3000   108.2375     7.6662     7.4948     7.6590
  188.4000   109.0855     7.6024     7.4181     7.5712
  188.5000   109.3081     7.6058     7.3624     7.4844
  188.6000   109.5617     7.6558     7.2995     7.3955
  188.7000   109.8153     7.7734     7.2158     7.3139
  188.8000   110.0012     7.9099     7.1366     7.2301
  188.9000   109.9869     8.0487     7.0912     7.1473
  189.0000   109.7043     8.1520     7.0551     7.0796
  189.1000   109.7063     8.1551     7.0147     7.0330
  189.2000   109.5428     8.2093     6.9550     6.9480
  189.3000   109.4091     8.2094     6.8865     6.8728
  189.4000   109.4115     8.2095     6.8437     6.8231
  189.5000   109.4139     8.1881     6.7561     6.7839
  189.6000   109.4167     8.1527     6.7219     6.7450
  189.7000   109.4187     8.1528     6.6834     6.7062
  189.8000   109.5835     8.1529     6.6451     6.6649
  189.9000   110.0598     8.1530     6.6070     6.6295
  190.0000   110.8156     8.1229     6.5722     6.6189
  190.1000   111.5810     8.0966     6.5725     6.5993
  190.2000   112.7545     8.0967     6.5394     6.5733
  190.3000   113.5952     8.0953     6.5275     6.5692
  190.4000   114.4435     8.0407     6.5098     6.5280
  190.5000   115.1994     8.0408     6.4828     6.5281
  190.6000   115.8985     8.0409     6.4802     6.5018
  190.7000   116.4033     8.0410     6.4385     6.4831
  190.8000   116.9986     8.0411     6.4062     6.4832
  190.9000   117.2066     8.0413     6.3695     6.4833
  191.0000   117.6153     8.0414     6.3503     6.4834
  191.1000   118.0159     8.0415     6.3506     6.4503
  191.2000   118.2695     8.0416     6.3509     6.4386
  191.3000   118.5231     8.0227     6.3512     6.4387
  191.4000   118.8259     7.9859     6.3514     6.4388
  191.5000   119.0302     7.9857     6.3517     6.4389
  191.6000   119.2838     7.8756     6.3519     6.4390
  191.7000   119.5374     7.8030     6.3522     6.4391
  191.8000   119.7414     7.7132     6.3549     6.4146
  191.9000   119.7438     7.6418     6.3971     6.3947
  192.0000   119.7462     7.6062     6.3973     6.3948
  192.1000   119.9474     7.6063     6.3976     6.3949
  192.2000   120.0532     7.5629     6.3978     6.3950
  192.3000   120.0556     7.5536     6.3981     6.3951
  192.4000   120.1039     7.5283     6.3984     6.4190
  192.5000   120.3626     7.5014     6.3987     6.4398
  192.6000   120.1188     7.5015     6.3989     6.4399
  192.7000   120.0653     7.5016     6.3992     6.4400
  192.8000   120.0677     7.5017     6.3994     6.4401
  192.9000   120.0701     7.5018     6.3997     6.4402
  193.0000   120.0725     7.5019     6.4000     6.4403
  193.1000   120.0750     7.5020     6.4003     6.4403
  193.2000   120.0773     7.5021     6.4005     6.4486
  193.3000   120.0798     7.5022     6.4008     6.4854
  193.4000   120.0822     7.5023     6.4179     6.4855
  193.5000   120.0846     7.5024     6.4459     6.4856
  193.6000   120.0870     7.5025     6.4481     6.4857
  193.7000   120.0895     7.5026     6.4915     6.5009
  193.8000   120.0918     7.5092     6.4917     6.5311
  193.9000   120.0943     7.5553     6.5165     6.5312
  194.0000   120.0967     7.5970     6.5546     6.5313
  194.1000   120.0131     7.6084     6.5929     6.5613
  194.2000   119.7644     7.6565     6.6296     6.5770
  194.3000   119.4998     7.7306     6.6299     6.5771
  194.4000   119.2669     7.7756     6.6627     6.5771
  194.5000   119.0181     7.8240     6.6767     6.5772
  194.6000   118.7694     7.9092     6.6942     6.5773
  194.7000   118.5207     7.9677     6.7333     6.5774
  194.8000   118.2719     8.0142     6.7710     6.5992
  194.9000   118.0038     8.0457     6.7713     6.6235
  195.0000   117.7744     8.0515     6.7716     6.6235
  195.1000   117.3450     8.1023     6.7719     6.6236
  195.2000   116.9748     8.1456     6.7722     6.6604
  195.3000   116.6474     8.1592     6.7724     6.6700
  195.4000   116.1753     8.1593     6.7727     6.6701
  195.5000   115.9035     8.1594     6.7730     6.6702
  195.6000   115.4497     8.1545     6.7733     6.6703
  195.7000   115.1269     8.1029     6.7736     6.6704
  195.8000   115.0042     8.1030     6.7738     6.7067
  195.9000   115.0818     8.0704     6.7741     6.7170
  196.0000   115.3354     8.0470     6.7744     6.7171
  196.1000   115.6160     8.0471     6.7747     6.7172
  196.2000   116.0669     8.0472     6.7750     6.7173
  196.3000   116.5716     8.0473     6.7753     6.7174
  196.4000   117.1988     8.0474     6.7755     6.7175
  196.5000   118.2406     8.0157     6.7758     6.7176
  196.6000   119.9191     7.9917     6.7761     6.6980
  196.7000   120.7664     7.9918     6.7764     6.6713
  196.8000   121.2101     7.9920     6.7767     6.6714
  196.9000   121.5450     7.9921     6.7770     6.6715
  197.0000   121.7986     7.9922     6.7772     6.6716
  197.1000   122.0522     7.9923     6.7775     6.6717
  197.2000   122.2888     7.9924     6.7769     6.6717
  197.3000   122.2916     8.0049     6.7312     6.6718
  197.4000   122.2937     8.0485     6.7314     6.6719
  197.5000   122.1299     8.0487     6.7317     6.6720
  197.6000   121.8812     8.0488     6.7157     6.6384
  197.7000   121.5681     8.0489     6.6856     6.6260
  197.8000   121.0683     8.0490     6.6859     6.6261
  197.9000   120.4934     8.0491     6.6862     6.6160
  198.0000   119.8550     8.0492     6.6550     6.5780
  198.1000   119.2665     8.0493     6.6404     6.5350
  198.2000   118.6549     8.0494     6.6248     6.5351
  198.3000   117.9646     8.0496     6.5950     6.5105
  198.4000   117.4646     8.0497     6.5952     6.4900
  198.5000   116.8826     8.0498     6.5499     6.4808
  198.6000   116.4648     8.0499     6.5194     6.4453
  198.7000   115.9649     8.0500     6.5050     6.4454
  198.8000   115.4651     8.0501     6.4899     6.4143
  198.9000   114.9652     8.0210     6.4605     6.4009
  199.0000   114.4713     7.9944     6.4607     6.3851
  199.1000   114.1781     7.9741     6.4163     6.3568
  199.2000   113.9738     7.8830     6.4165     6.3569
  199.3000   113.7251     7.8293     6.3944     6.3570
  199.4000   113.5807     7.7924     6.3726     6.3270
  199.5000   113.5297     7.7475     6.3729     6.3131
  199.6000   113.2834     7.7028     6.3731     6.3132
  199.7000   113.2863     7.6584     6.3735     6.3133
