~VERSION INFORMATION
 VERS.                2.0:   CWLS LOG ASCII STANDARD - VERSION 2.0
 WRAP.                 NO:   ONE LINE PER DEPTH STEP
~WELL INFORMATION
#MNEM.UNIT      DATA TYPE    INFORMATION
#----------   ------------   ------------------------------
 STRT.F            0.0000:   START DEPTH
 STOP.F          547.0000:   STOP DEPTH
 STEP.F            0.1000:   STEP LENGTH
 NULL.          -999.2500:   NO VALUE
 COMP.     BROWN JOHN E&C:   COMPANY
 WELL.    NPR 3 #86-1-X-3:   WELL
 FLD .             TEAPOT:   FIELD
 LOC .       S3 T38N R78W:   LOCATION
 CNTY.            NATRONA:   COUNTY
 STAT.            WYOMING:   STATE
 CTRY. UNITED STATES OF AMERICA:   COUNTRY
 SRVC.     Atlas Wireline:   SERVICE COMPANY
 DATE.        09-FEB-1992:   LOGDATE
 API .       490252249800:   API NUMBER
~CURVE INFORMATION
#MNEM.UNIT       API CODE    CURVE DESCRIPTION
#----------   ------------   ------------------------------
 DEPT.F                  :   
 GRR .GAPI   07 310 01 00:   GAMMA RAY
 RFOC.OHMM   07 220 04 00:   RESISTIVITY FOCUSED LOG
 RILD.OHMM   07 120 46 00:   INDUCTION LOG DEEP RESISTIVITY
 RILM.OHMM   07 120 44 00:   INDUCTION LOG MEDIUM RESISTIVITY
 SPR .MV     07 010 01 00:   SPONTANEOUS POTENTIAL
~PARAMETER INFORMATION
#MNEM.UNIT          VALUE    DESCRIPTION
#----------   ------------   ------------------------------
 PD  .                 GL:   PERMANENT DATUM
 EPD .F              5145:   ELEVATION PERMANENT DATUM
 LMF .                 KB:   LOG MEASURED FROM
 DAPD.F                10:   FEET ABOVE PERMANENT DATUM
 DMF .                 KB:   DRILLING MEASURED FROM
 EKB .F              5155:   KELLING BUSHING
 EDF .F              5154:   DRILLING FLOOR
 EGL .F              5145:   GROUND LEVEL
 DATE.        09-FEB-1992:   RUN DATE
 RUN .                  1:   RUN NUMBER
 DD  .F               562:   DEPTH DRILLER
 DL  .F               550:   DEPTH LOGGER
 BLI .F               547:   BOTTOM LOG INTERVAL
 CS  .IN            8.625:   CASING SIZE
 CBD .F               183:   CASING BOTTOM DRILLER
 CBL .F               181:   CASING BOTTOM LOGGER
 BS  .IN            7.875:   BIT SIZE
 BSD .F               562:   BIT SIZE AT DEPTH
 DFT .            GEL BAR:   DRILLING FLUID TYPE
 DFD .               17.8:   DRILLING FLUID DENSITY
 DFV .                 52:   DRILLING FLUID VISCOSITY
 DFPH.                  9:   DRILLING FLUID PH
 DFL .                5.2:   DRILLING FLUID LOSS
 MSS .           FLOWLINE:   MUD SAMPLE SOURCE
 RMS .OHMM           1.78:   RESISTIVITY MUD SAMPLE
 MST .F                68:   MUD SAMPLE TEMPERATURE
 RMF .OHMM          1.335:   RESISTIVITY MUD FILTRATE SAMPLE
 MFST.F                68:   MUD FILTRATE SAMPLE TEMPERATURE
 RMC .OHMM          2.225:   RESISTIVITY MUD CAKE
 MCST.F                68:   MUD CAKE SAMPLE TEMPERATURE
 MFSS.               MEAS:   MUD FILTRATE SAMPLE SOURCE
 MCSS.               MEAS:   MUD CAKE SAMPLE SOURCE
 TCS .HRS               3:   TIME CURCULATED STOPPED
 LUN .            HL 6274:   LOGGING UNIT NUMBER
 LUL .             CASPER:   LOGGING UNIT LOCATION
 ENGI.       P. RASMUSSEN:   RECORDING ENGINEER
 WITN.          G. STRONG:   WITNESSED BY
 CLNT.            A2DTECH:   CLIENT CODE
 ORIG.           5" PRINT:   ORIGIN OF DATA
 UWI .       490252249800:   UNIQUE WELL ID
 DICO. A2D Technologies, Inc.:   DIGITIZING COMPANY
~OTHER INFORMATION
~A    DEPT      GRR      RFOC       RILD       RILM        SPR   
# ...
  512.4000    78.9575    11.1978    12.9463    12.1773   -29.2223
  512.5000    78.9593    11.1978    12.9990    12.1773   -29.1730
  512.6000    78.9611    11.3161    13.0065    12.1773   -29.0733
  512.7000    78.9633    11.3554    13.0904    12.1773   -29.0742
  512.8000    79.3669    11.3554    13.0905    12.1773   -28.9245
  512.9000    79.8714    11.3755    13.0907    12.1773   -28.9252
  513.0000    80.1750    11.4420    13.0909    12.1773   -28.9261
  513.1000    80.2775    11.5152    13.0911    12.1773   -28.9809
  513.2000    80.7819    11.5152    13.0976    12.1773   -29.0787
  513.3000    81.0351    11.5152    13.1831    12.1773   -29.0796
  513.4000    81.2883    11.5152    13.1833    12.1773   -29.0807
  513.5000    81.5415    11.5152    13.1835    12.1773   -29.1880
  513.6000    81.7947    11.5152    13.1837    12.1773   -29.2332
  513.7000    82.0982    11.5152    13.1838    12.1773   -29.2341
  513.8000    82.6027    11.5152    13.1840    12.1773   -29.2350
  513.9000    82.6049    11.5152    13.1842    12.1773   -29.2359
  514.0000    83.0084    11.4810    13.1844    12.1773   -29.2369
  514.1000    83.2115    11.4350    13.1846    12.1773   -29.2377
  514.2000    83.4143    11.4275    13.1848    12.1773   -29.2386
  514.3000    83.8184    11.3554    13.1849    12.1773   -29.2395
  514.4000    83.8204    11.3554    13.1810    12.1773   -29.2404
  514.5000    84.3247    11.3554    13.0937    12.1773   -29.2413
  514.6000    84.4271    11.3554    13.0938    12.1621   -29.2423
  514.7000    84.5798    11.3554    13.0940    12.0917   -29.2431
  514.8000    84.7324    11.3554    13.0942    12.0083   -29.2440
  514.9000    84.7342    11.3554    13.0944    12.0083   -29.2449
  515.0000    84.7360    11.3554    13.0946    12.0083   -29.2056
  515.1000    84.4366    11.3554    13.0947    12.0083   -29.0802
  515.2000    84.4380    11.3554    13.0949    12.0083   -28.9461
  515.3000    84.4398    11.3554    13.0951    12.0083   -28.9469
  515.4000    84.4416    11.3554    13.0626    11.9398   -28.8549
  515.5000    84.4434    11.3554    13.0044    11.9247   -28.7295
  515.6000    84.4453    11.4168    13.0046    11.9247   -28.6480
  515.7000    84.1458    11.4350    13.0048    11.9247   -28.6489
  515.8000    84.3483    11.4702    13.0050    11.9247   -28.6498
  515.9000    84.4507    11.5152    13.0051    11.9247   -28.5296
  516.0000    84.4525    11.5152    13.0369    11.9247   -28.5008
  516.1000    84.4543    11.5152    13.0966    11.9247   -28.4296
  516.2000    84.4561    11.5778    13.0967    11.9247   -28.3517
  516.3000    84.7093    11.6455    13.0970    11.9247   -28.3526
  516.4000    84.9625    11.6773    13.0971    11.9247   -28.3536
  516.5000    85.0648    11.6548    13.0973    11.9247   -28.4792
  516.6000    85.1672    11.5870    13.0975    11.9247   -28.5062
  516.7000    85.4204    11.5152    13.0977    11.9247   -28.5071
  516.8000    85.6736    11.5152    13.0978    11.9247   -28.5080
  516.9000    85.6758    11.4173    13.0980    11.9247   -28.5089
  517.0000    85.8784    11.2850    13.0982    11.9247   -28.5098
  517.1000    86.1315    11.1978    13.0984    11.9247   -28.5109
  517.2000    86.2842    11.1978    13.0986    11.9247   -28.5116
  517.3000    86.3363    11.1978    13.0988    11.9247   -28.5918
  517.4000    86.5895    11.1978    13.0989    11.9598   -28.6643
  517.5000    86.8426    11.1978    13.0991    12.0083   -28.6652
  517.6000    86.8947    11.1978    13.0403    12.0083   -28.6661
  517.7000    86.8965    11.1978    13.0084    12.0083   -28.6671
  517.8000    86.8983    11.1978    13.0086    12.0083   -28.6679
  517.9000    86.9002    11.1978    12.9959    12.0083   -28.6688
  518.0000    86.9020    11.1978    12.9185    12.0083   -28.6114
  518.1000    86.9041    11.1978    12.9187    11.9891   -28.4860
  518.2000    86.9056    11.1978    12.8617    11.9247   -28.3698
  518.3000    86.7566    11.1978    12.7875    11.9247   -28.3708
  518.4000    86.5071    11.2075    12.7402    11.9247   -28.3716
  518.5000    86.3073    11.2763    12.7404    11.9247   -28.3725
  518.6000    86.3095    11.2763    12.7405    11.9247   -28.2496
  518.7000    86.0100    11.3257    12.7407    11.9247   -28.0727
  518.8000    86.0115    11.3554    12.7409    11.9247   -28.0736
  518.9000    85.8625    11.3554    12.7209    11.9247   -28.0746
  519.0000    85.7134    11.3554    12.6842    11.8956   -27.9608
  519.1000    85.6650    11.3554    12.6476    11.8612   -27.8354
  519.2000    85.4153    11.3554    12.6112    11.8417   -27.7756
  519.3000    85.1658    11.4055    12.5749    11.8417   -27.7765
  519.4000    85.1173    11.4350    12.5654    11.8417   -27.7609
  519.5000    85.1192    11.4350    12.5655    11.8417   -27.6275
  519.6000    85.0205    11.4350    12.5417    11.7856   -27.5101
  519.7000    84.7709    11.4350    12.4693    11.7174   -27.4784
  519.8000    84.5213    11.4991    12.3919    11.6773   -27.4793
  519.9000    84.5234    11.4645    12.3921    11.6773   -27.4802
  520.0000    84.3237    11.4350    12.3406    11.6773   -27.4811
  520.1000    84.0742    11.4111    12.3063    11.6773   -27.4821
  520.2000    83.9252    11.3554    12.2840    11.6236   -27.4830
  520.3000    83.9270    11.3554    12.2210    11.5960   -27.4839
  520.4000    83.9288    11.3554    12.2212    11.5701   -27.4848
  520.5000    83.6793    11.3554    12.2214    11.5152   -27.4857
  520.6000    83.4297    11.3182    12.1966    11.5152   -27.4866
  520.7000    83.3309    11.2524    12.1614    11.5152   -27.4875
  520.8000    83.1317    11.1978    12.1158    11.5152   -27.4884
  520.9000    82.6307    11.1978    12.0527    11.4776   -27.4893
  521.0000    82.1297    11.1978    12.0529    11.4112   -27.4902
  521.1000    81.5286    11.1479    12.0530    11.3554   -27.4911
  521.2000    80.9266    11.0831    12.0532    11.3554   -27.4920
  521.3000    80.3251    11.0424    12.0192    11.2929   -27.4929
  521.4000    79.9248    11.0205    11.9499    11.2276   -27.4940
  521.5000    79.6753    10.8891    11.8867    11.1978   -27.4947
  521.6000    79.4256    10.8891    11.8869    11.1978   -27.4156
  521.7000    79.4278    10.8403    11.8265    11.1892   -27.3457
  521.8000    79.4293    10.7773    11.7582    11.1198   -27.3466
  521.9000    79.5818    10.7380    11.6904    11.0602   -27.3475
  522.0000    79.7345    10.7270    11.6229    11.0424   -27.3485
  522.1000    79.7866    10.6632    11.5558    11.0093   -27.2412
  522.2000    80.0399    10.6027    11.4803    10.9457   -27.1994
  522.3000    80.2930    10.5890    11.4229    10.8823   -27.1412
  522.4000    80.7473    10.5890    11.3570    10.8133   -27.0158
  522.5000    81.2519    10.5656    11.2914    10.7568   -26.9004
  522.6000    81.7564    10.5152    11.2431    10.7380   -26.9015
  522.7000    82.3612    10.5152    11.2360    10.7073   -26.7904
  522.8000    83.3690    10.4553    11.0876    10.6454   -26.6651
  522.9000    84.5777    10.4420    11.0877    10.5890   -26.6024
  523.0000    84.9815    10.4066    11.0879    10.5890   -26.6033
  523.1000    85.7876    10.3462    11.0880    10.4817   -26.5769
  523.2000    86.6942    10.2971    11.0882    10.4420   -26.3035
  523.3000    87.4502    10.2971    11.0883    10.4420   -26.3044
  523.4000    88.2065    10.2381    11.0885    10.4260   -26.3053
  523.5000    88.8118    10.1786    11.0349    10.3657   -26.2398
  523.6000    89.4166    10.1542    11.0117    10.2971   -26.1144
  523.7000    89.8709    10.1542    11.0119    10.2971   -26.0062
  523.8000    90.2246    10.1542    10.9974    10.2971   -26.0073
  523.9000    90.7292    10.1542    10.9356    10.2705   -26.0081
  524.0000    91.2338    10.1542    10.9358    10.2111   -26.0090
  524.1000    91.2360    10.1542    10.9359    10.1542   -26.0100
  524.2000    91.2374    10.1542    10.9360    10.1542   -26.0109
  524.3000    91.2392    10.1542    10.9362    10.1542   -26.0118
  524.4000    91.0399    10.1542    10.9227    10.1174   -26.0127
  524.5000    90.5391    10.1542    10.8597    10.0589   -25.8909
