~VERSION INFORMATION
 VERS.                2.0:   CWLS LOG ASCII STANDARD - VERSION 2.0
 WRAP.                 NO:   ONE LINE PER DEPTH STEP
~WELL INFORMATION
#MNEM.UNIT      DATA TYPE    INFORMATION
#----------   ------------   ------------------------------
 STRT.F          502.0000:   START DEPTH
 STOP.F         5661.0000:   STOP DEPTH
 STEP.F            0.5000:   STEP LENGTH
 NULL.          -999.2500:   NO VALUE
 COMP. FENIX & SCISSON INC:   COMPANY
 WELL.   NPR 3 #32DX22-22:   WELL
 FLD .             TEAPOT:   FIELD
 LOC .      S22 T38N R78W:   LOCATION
 CNTY.            NATRONA:   COUNTY
 STAT.            WYOMING:   STATE
 CTRY. UNITED STATES OF AMERICA:   COUNTRY
 SRVC.       Schlumberger:   SERVICE COMPANY
 DATE.        29-NOV-1978:   LOGDATE
 API .       490251073100:   API NUMBER
~CURVE INFORMATION
#MNEM.UNIT       API CODE    CURVE DESCRIPTION
#----------   ------------   ------------------------------
 DEPT.F                  :   
 SPR .MV     07 010 01 00:   SPONTANEOUS POTENTIAL
 GRR .GAPI   07 310 01 00:   GAMMA RAY FROM RES. LOG.
 SFL .OHMM   07 220 01 00:   SHALLOW FOCUSED LOG RESISTIVITY
 ILD .OHMM   07 120 46 00:   INDUCTION LOG DEEP
 ILM .OHMM   07 120 44 00:   INDUCTION LOG MEDIUM
 NPHI.DEC    42 890 03 00:   NEUTRON POROSITY SANDSTONE
 DPHI.DEC    45 890 12 00:   DENSITY POROSITY SANDSTONE
 RHOB.G/C3   45 350 01 00:   BULK DENSITY
 CORR.G/C3   45 356 01 00:   DENSITY CORRECTION
 CALD.IN     45 280 60 00:   CALIPER
~PARAMETER INFORMATION
#MNEM.UNIT          VALUE    DESCRIPTION
#----------   ------------   ------------------------------
 PD  .                 GL:   PERMANENT DATUM
 EPD .F              5514:   ELEVATION PERMANENT DATUM
 LMF .                 KB:   LOG MEASURED FROM
 DAPD.F                10:   FEET ABOVE PERMANENT DATUM
 DMF .                 KB:   DRILLING MEASURED FROM
 EKB .F              5524:   KELLING BUSHING
 EGL .F              5514:   GROUND LEVEL
 DATE.           11-29-78:   RUN DATE
 RUN .                  1:   RUN NUMBER
 DD  .F              5680:   DEPTH DRILLER
 DL  .F              5667:   DEPTH LOGGER
 BLI .F              5661:   BOTTOM LOG INTERVAL
 TLI .F               530:   TOP LOG INTERVAL
 CS  .IN            8.625:   CASING SIZE
 CBD .F               513:   CASING BOTTOM DRILLER
 CBL .F               530:   CASING BOTTOM LOGGER
 BS  .IN            7.875:   BIT SIZE
 BSD .F              5680:   BIT SIZE AT DEPTH
 DFT .                FGM:   DRILLING FLUID TYPE
 DFD .                9.2:   DRILLING FLUID DENSITY
 DFV .                 50:   DRILLING FLUID VISCOSITY
 DFPH.               11.5:   DRILLING FLUID PH
 DFL .                6.8:   DRILLING FLUID LOSS
 MSS .               TANK:   MUD SAMPLE SOURCE
 RMS .OHMM           1.45:   RESISTIVITY MUD SAMPLE
 MST .F                56:   MUD SAMPLE TEMPERATURE
 RMF .OHMM           1.16:   RESISTIVITY MUD FILTRATE SAMPLE
 MFST.F                56:   MUD FILTRATE SAMPLE TEMPERATURE
 MFSS.               MEAS:   MUD FILTRATE SAMPLE SOURCE
 RMB .OHMM            .62:   RESISTIVITY MUD AT BHT
 BHT .F               132:   BOTTOM HOLE TEMPERATURE
 TCS .HRS            0700:   TIME CURCULATED STOPPED
 TLAB.HRS            1200:   TIME LOGGER AT BOTTOM
 MRT .F               132:   MAXIMUM RECORDED TEMPERATURE
 LUN .               8039:   LOGGING UNIT NUMBER
 LUL .               CSPR:   LOGGING UNIT LOCATION
 ENGI.           STADULIS:   RECORDING ENGINEER
 WITN.           DINSMORE:   WITNESSED BY
 CLNT.            A2DTECH:   CLIENT CODE
 ORIG.       2", 5" PRINT:   ORIGIN OF DATA
 UWI .       490251073100:   UNIQUE WELL ID
 DICO. A2D Technologies, Inc.:   DIGITIZING COMPANY
~OTHER INFORMATION
~A   DEPT      SPR         GRR       SFL        ILD        ILM       NPHI       DPHI       RHOB       CORR       CALD   
# ...
 2579.0000   -60.8273   111.4767     6.9670     7.0784     6.5154  -999.2500  -999.2500  -999.2500  -999.2500  -999.2500
 2579.5000   -60.7566   113.4044     6.8940     7.0307     6.4917  -999.2500  -999.2500  -999.2500  -999.2500  -999.2500
 2580.0000   -60.6847   112.2433     6.8218     6.9833     6.4681  -999.2500  -999.2500  -999.2500  -999.2500  -999.2500
 2580.5000   -60.6128   109.0788     6.7619     6.9362     6.4492  -999.2500  -999.2500  -999.2500  -999.2500  -999.2500
 2581.0000   -60.5409   105.9258     6.7382     6.8931     6.4312  -999.2500  -999.2500  -999.2500  -999.2500  -999.2500
 2581.5000   -60.5477   103.5644     6.7146     6.8931     6.4133  -999.2500  -999.2500  -999.2500  -999.2500  -999.2500
 2582.0000   -60.6345   102.8487     6.6911     6.8931     6.3514  -999.2500  -999.2500  -999.2500  -999.2500  -999.2500
 2582.5000   -60.7694   103.9476     6.6676     6.8931     6.2519  -999.2500  -999.2500  -999.2500  -999.2500  -999.2500
 2583.0000   -61.1515   104.9317     6.6445     6.8931     6.1539  -999.2500  -999.2500  -999.2500  -999.2500  -999.2500
 2583.5000   -61.5313   103.9969     6.5147     6.7586     6.0575  -999.2500  -999.2500  -999.2500  -999.2500  -999.2500
 2584.0000   -61.9138   102.5239     6.3888     6.5484     5.9623  -999.2500  -999.2500  -999.2500  -999.2500  -999.2500
 2584.5000   -62.3046   104.6227     6.2654     6.3464     5.9463  -999.2500  -999.2500  -999.2500  -999.2500  -999.2500
 2585.0000   -62.2980   111.4437     6.2309     6.3584     5.9408  -999.2500  -999.2500  -999.2500  -999.2500  -999.2500
 2585.5000   -62.2634   118.4920     6.2309     6.3751     5.9354  -999.2500  -999.2500  -999.2500  -999.2500  -999.2500
 2586.0000   -62.2313   121.3521     6.2409     6.3919     5.9299  -999.2500  -999.2500  -999.2500  -999.2500  -999.2500
 2586.5000   -62.1997   117.3098     6.2667     6.4088     5.9243  -999.2500  -999.2500  -999.2500  -999.2500  -999.2500
 2587.0000   -62.1685   110.8065     6.2926     6.4257     5.9188  -999.2500  -999.2500  -999.2500  -999.2500  -999.2500
 2587.5000   -62.1361   106.8079     6.3187     6.4426     5.9134  -999.2500  -999.2500  -999.2500  -999.2500  -999.2500
 2588.0000   -62.0698   107.6959     6.3467     6.4635     5.9079  -999.2500  -999.2500  -999.2500  -999.2500  -999.2500
 2588.5000   -61.9008   109.0144     6.3100     6.4205     5.9024  -999.2500  -999.2500  -999.2500  -999.2500  -999.2500
 2589.0000   -61.7338   107.2596     6.2612     6.3623     5.8969  -999.2500  -999.2500  -999.2500  -999.2500  -999.2500
 2589.5000   -61.5669   105.0132     6.2127     6.3046     5.8642  -999.2500  -999.2500  -999.2500  -999.2500  -999.2500
 2590.0000   -61.4016   106.2834     6.1646     6.2474     5.8316  -999.2500  -999.2500  -999.2500  -999.2500  -999.2500
 2590.5000   -61.3680   109.8874     6.1169     6.1907     5.7992  -999.2500  -999.2500  -999.2500  -999.2500  -999.2500
 2591.0000   -61.4846   110.8547     6.0696     6.1416     5.7463  -999.2500  -999.2500  -999.2500  -999.2500  -999.2500
 2591.5000   -61.6016   108.2983     6.0226     6.0958     5.6851  -999.2500  -999.2500  -999.2500  -999.2500  -999.2500
 2592.0000   -61.7096   105.7140     5.9760     6.0504     5.6246  -999.2500  -999.2500  -999.2500  -999.2500  -999.2500
 2592.5000   -61.5542   104.2163     5.9298     6.0062     5.5647  -999.2500  -999.2500  -999.2500  -999.2500  -999.2500
 2593.0000   -61.3857   104.3608     5.8839     5.9798     5.5055  -999.2500  -999.2500  -999.2500  -999.2500  -999.2500
 2593.5000   -61.2173   104.7587     5.8381     5.9542     5.4291  -999.2500  -999.2500  -999.2500  -999.2500  -999.2500
 2594.0000   -61.0498   106.2410     5.7890     5.9285     5.4553  -999.2500  -999.2500  -999.2500  -999.2500  -999.2500
 2594.5000   -60.9633   107.6560     5.7995     5.8969     5.4932  -999.2500  -999.2500  -999.2500  -999.2500  -999.2500
 2595.0000   -61.3982   106.5639     5.8133     5.9161     5.5314  -999.2500  -999.2500  -999.2500  -999.2500  -999.2500
 2595.5000   -61.8301   104.9751     5.8271     5.9416     5.5700  -999.2500  -999.2500  -999.2500  -999.2500  -999.2500
 2596.0000   -62.2626   103.5527     5.8409     5.9673     5.6087  -999.2500  -999.2500  -999.2500  -999.2500  -999.2500
 2596.5000   -62.3438   104.4650     5.8843     5.9930     5.6477  -999.2500  -999.2500  -999.2500  -999.2500  -999.2500
 2597.0000   -62.3852   106.5700     5.9480     6.0192     5.6870  -999.2500  -999.2500  -999.2500  -999.2500  -999.2500
 2597.5000   -62.4254   108.4074     6.0124     6.0633     5.7267  -999.2500  -999.2500  -999.2500  -999.2500  -999.2500
 2598.0000   -62.4665   108.5385     6.0775     6.1079     5.7980  -999.2500  -999.2500  -999.2500  -999.2500  -999.2500
 2598.5000   -62.5145   108.9094     6.1175     6.1355     5.8969  -999.2500  -999.2500  -999.2500  -999.2500  -999.2500
 2599.0000   -62.7877   109.6140     6.0758     6.1588     5.8801  -999.2500  -999.2500  -999.2500  -999.2500  -999.2500
 2599.5000   -63.4114   110.0169     6.0461     6.1821     5.8594  -999.2500  -999.2500  -999.2500  -999.2500  -999.2500
 2600.0000   -63.5238   108.2560     6.0163     6.2055     5.8388  -999.2500  -999.2500  -999.2500  -999.2500  -999.2500
 2600.5000   -63.0821   104.2032     5.9867     6.2290     5.8183  -999.2500  -999.2500  -999.2500  -999.2500  -999.2500
 2601.0000   -62.6426   104.3106     5.9513     6.2526     5.7895  -999.2500  -999.2500  -999.2500  -999.2500  -999.2500
 2601.5000   -62.2003   106.9995     5.9836     6.2763     5.8131  -999.2500  -999.2500  -999.2500  -999.2500  -999.2500
 2602.0000   -61.7603   110.2735     6.0383     6.3001     5.8529  -999.2500  -999.2500  -999.2500  -999.2500  -999.2500
 2602.5000   -61.3186   111.2686     6.0935     6.3239     5.8930  -999.2500  -999.2500  -999.2500  -999.2500  -999.2500
 2603.0000   -60.9949   106.9168     6.1491     6.3479     5.9333  -999.2500  -999.2500  -999.2500  -999.2500  -999.2500
 2603.5000   -60.7656   101.2465     6.2152     6.3721     5.9739  -999.2500  -999.2500  -999.2500  -999.2500  -999.2500
 2604.0000   -60.5402    97.8114     6.2884     6.4049     6.0059  -999.2500  -999.2500  -999.2500  -999.2500  -999.2500
 2604.5000   -60.3128    95.8883     6.2884     6.3865     5.9239  -999.2500  -999.2500  -999.2500  -999.2500  -999.2500
 2605.0000   -60.0866    95.9234     6.1308     6.3575     5.8569  -999.2500  -999.2500  -999.2500  -999.2500  -999.2500
 2605.5000   -59.9908    98.0071     6.0239     6.3286     5.7908  -999.2500  -999.2500  -999.2500  -999.2500  -999.2500
 2606.0000   -60.6703   101.5586     5.8969     6.3000     5.7366  -999.2500  -999.2500  -999.2500  -999.2500  -999.2500
 2606.5000   -61.3427   103.4776     5.9099     6.2881     5.8013  -999.2500  -999.2500  -999.2500  -999.2500  -999.2500
 2607.0000   -62.0183   102.8654     5.9264     6.2884     5.8569  -999.2500  -999.2500  -999.2500  -999.2500  -999.2500
 2607.5000   -62.6976   101.5020     5.9429     6.2884     5.8969  -999.2500  -999.2500  -999.2500  -999.2500  -999.2500
 2608.0000   -62.6814   100.1249     5.9756     6.3648     5.8430  -999.2500  -999.2500  -999.2500  -999.2500  -999.2500
 2608.5000   -62.6208    98.3499     6.0241     6.4353     5.9106  -999.2500  -999.2500  -999.2500  -999.2500  -999.2500
 2609.0000   -62.5637    95.9592     6.1269     6.5352     5.9622  -999.2500  -999.2500  -999.2500  -999.2500  -999.2500
 2609.5000   -62.5254    92.0376     6.4571     6.6563     6.0144  -999.2500  -999.2500  -999.2500  -999.2500  -999.2500
 2610.0000   -62.7616    89.1088     6.7685     6.7677     6.0616  -999.2500  -999.2500  -999.2500  -999.2500  -999.2500
 2610.5000   -63.0260    86.7445     6.7673     6.8469     6.0465  -999.2500  -999.2500  -999.2500  -999.2500  -999.2500
 2611.0000   -63.2919    87.6971     6.7706     6.8931     6.0328  -999.2500  -999.2500  -999.2500  -999.2500  -999.2500
 2611.5000   -63.3057    92.4587     6.5367     6.8829     6.0191  -999.2500  -999.2500  -999.2500  -999.2500  -999.2500
 2612.0000   -63.2416    97.1165     6.3252     6.8578     6.0062  -999.2500  -999.2500  -999.2500  -999.2500  -999.2500
