~VERSION INFORMATION
 VERS.                2.0:   CWLS LOG ASCII STANDARD - VERSION 2.0
 WRAP.                 NO:   ONE LINE PER DEPTH STEP
~WELL INFORMATION
#MNEM.UNIT      DATA TYPE    INFORMATION
#----------   ------------   ------------------------------
 STRT.F            0.0000:   START DEPTH
 STOP.F          504.0000:   STOP DEPTH
 STEP.F            0.5000:   STEP LENGTH
 NULL.          -999.2500:   NO VALUE
 COMP.       F D SERV INC:   COMPANY
 WELL. NAVAL PETROLEUM RESERVE 3 SX-1 #72-2-10:   WELL
 FLD .      nN. P. R. NO3:   FIELD
 LOC .      S10 T38N R78W:   LOCATION
 CNTY.            NATRONA:   COUNTY
 STAT.            WYOMING:   STATE
 CTRY. UNITED STATES OF AMERICA:   COUNTRY
 SRVC.     Atlas Wireline:   SERVICE COMPANY
 DATE.        09-DEC-1992:   LOGDATE
 API .       490252257300:   API NUMBER
~CURVE INFORMATION
#MNEM.UNIT       API CODE    CURVE DESCRIPTION
#----------   ------------   ------------------------------
 DEPT.F                  :   
 GRR .GAPI   07 310 01 00:   GAMMA RAY
 RILD.OHMM   07 120 46 00:   INDUCTION LOG DEEP RESISTIVITY
 RILM.OHMM   07 120 44 00:   RESITIVITY LONG MEDIUM
~PARAMETER INFORMATION
#MNEM.UNIT          VALUE    DESCRIPTION
#----------   ------------   ------------------------------
 PD  .                 GL:   PERMANENT DATUM
 EPD .F              5169:   ELEVATION PERMANENT DATUM
 LMF .                 KB:   LOG MEASURED FROM
 DAPD.F                10:   FEET ABOVE PERMANENT DATUM
 DMF .                 KB:   DRILLING MEASURED FROM
 EKB .F              5179:   KELLING BUSHING
 EDF .F              5178:   DRILLING FLOOR
 EGL .F              5169:   GROUND LEVEL
 DATE.        09-DEC-1992:   RUN DATE
 RUN .                  1:   RUN NUMBER
 DD  .F               525:   DEPTH DRILLER
 DL  .F               519:   DEPTH LOGGER
 BLI .F               510:   BOTTOM LOG INTERVAL
 CS  .IN            8.625:   CASING SIZE
 CBD .F                83:   CASING BOTTOM DRILLER
 CBL .F                84:   CASING BOTTOM LOGGER
 BS  .IN            7.875:   BIT SIZE
 BSD .F               525:   BIT SIZE AT DEPTH
 DFT .           AIR FOAM:   DRILLING FLUID TYPE
 BHT .F                64:   BOTTOM HOLE TEMPERATURE
 MRT .F                64:   MAXIMUM RECORDED TEMPERATURE
 LUN .           HL- 6274:   LOGGING UNIT NUMBER
 LUL .             CASPER:   LOGGING UNIT LOCATION
 ENGI.       P. RASMUSSEN:   RECORDING ENGINEER
 WITN.          G. STRONG:   WITNESSED BY
 CLNT.            A2DTECH:   CLIENT CODE
 ORIG.           5" PRINT:   ORIGIN OF DATA
 UWI .       490252257300:   UNIQUE WELL ID
 DICO. A2D Technologies, Inc.:   DIGITIZING COMPANY
~OTHER INFORMATION
~A    DEPT      GRR      RILD       RILM   
# ...
  364.0000   102.4096    14.2602    14.3599
  364.5000   103.3133    14.1589    14.2572
  365.0000   103.9157    13.9613    14.1560
  365.5000   101.5060    13.8622    13.9584
  366.0000    97.8916    13.7637    13.9556
  366.5000    97.2892    13.6660    13.8565
  367.0000    98.7952    13.5689    13.6631
  367.5000    99.6988    13.4726    13.5661
  368.0000   100.9478    13.5634    13.5633
  368.5000   103.6145    13.6549    13.5606
  369.0000   104.8193    13.7463    13.6521
  369.5000   103.0120    13.7435    13.7441
  370.0000    99.0964    13.8369    13.9330
  370.5000    97.8916    13.9303    14.1237
  371.0000    99.3976    14.1210    14.3178
  371.5000    99.6988    14.3150    14.4151
  372.0000    99.6988    14.5118    14.5124
  372.5000   101.8123    14.5088    14.5087
  373.0000   102.4096    14.4057    14.4056
  373.5000    99.0964    14.1060    14.1033
  374.0000    98.4940    13.9091    13.8009
  374.5000   100.0000    13.6204    13.5263
  375.0000   101.2048    13.4303    13.3375
  375.5000   102.1084    13.3349    13.1514
  376.0000   107.5301    13.0581    12.9679
  376.5000   111.1446    12.7870    12.6987
  377.0000   110.5422    12.5216    12.5215
  377.5000   109.3373    12.3469    12.4325
  378.0000   108.0602    12.1745    12.2591
  378.5000   104.4117    12.0875    12.1720
  379.0000   103.9157    12.2536    12.4364
  379.5000   103.9157    12.5952    13.1294
  380.0000   104.2169    12.9464    14.0680
  380.5000   106.9277    13.6811    15.0737
  381.0000   110.5422    14.4575    16.3766
  381.5000   111.7470    16.8333    18.1655
  382.0000   106.6265    18.2882    19.3298
  382.5000   101.2048    20.0280    20.2858
  383.0000    95.3974    21.9813    21.5860
  383.5000    88.2521    25.3069    23.6367
  384.0000    80.7229    27.4942    26.0861
  384.5000    80.4217    29.2564    28.0654
  385.0000    82.8313    30.9167    30.0717
  385.5000    85.5422    31.3431    30.9117
  386.0000    87.6506    31.3352    30.4788
  386.5000    87.0482    31.1127    29.8460
  387.0000    84.6386    30.0477    29.0247
  387.5000    85.5422    29.0024    27.8378
  388.0000    86.4458    28.0245    27.0718
  388.5000    84.8404    27.6335    27.0663
  389.0000    80.4217    27.4372    27.0857
  389.5000    79.8193    27.4317    27.2434
  390.0000    82.2289    27.2368    27.0485
  390.5000    82.8313    27.0434    27.0430
  391.0000    80.4217    26.6660    26.8509
  391.5000    79.2169    26.1124    26.2935
  392.0000    81.3253    25.2186    25.5700
  392.5000    84.3373    24.6751    24.6948
  393.0000    85.5422    23.8487    23.5215
  393.5000    87.0712    23.3536    22.5492
  394.0000    88.5542    22.7110    21.6170
  394.5000    87.6506    22.2395    21.0406
  395.0000    87.6506    21.6275    20.8912
  395.5000    88.2530    21.3257    20.8869
  396.0000    90.0602    21.0281    20.8827
  396.5000    93.9759    21.0239    21.0236
  397.0000    92.1687    21.1657    21.1654
  397.5000    90.9639    21.3085    21.3083
  398.0000    90.0602    21.6002    21.4519
  398.5000    87.9257    21.7470    21.2946
  399.0000    86.7470    21.7415    20.9828
  399.5000    88.8554    21.7371    20.8520
  400.0000    89.4578    21.7327    20.8776
  400.5000    89.1013    21.8796    21.2831
  401.0000    86.4398    21.8741    21.4282
  401.5000    88.8458    21.8696    21.1305
  402.0000    92.4574    21.8652    20.8370
  402.5000    93.3588    21.8608    20.9790
  403.0000    93.3551    21.8563    21.2687
  403.5000    93.6533    21.7011    21.4136
  404.0000    93.0480    21.3983    21.4100
  404.5000    92.7438    21.0997    21.2593
  405.0000    95.4517    20.6616    20.9641
  405.5000    98.4608    20.3643    20.3886
  406.0000    99.0603    19.9502    19.9667
  406.5000    96.9106    19.4004    19.2845
  407.0000    96.3428    18.8665    18.7525
  407.5000    98.1471    18.3474    18.2255
  408.0000    97.8429    17.9665    17.6165
  408.5000    96.9364    17.7158    17.3719
  409.0000    99.0418    17.4686    17.2497
  409.5000   102.9546    17.3445    17.1283
  410.0000   105.9644    17.1025    17.0078
  410.5000   102.0451    16.9810    16.8881
  411.0000    98.7288    16.9774    16.8859
  411.5000    96.6175    16.8561    16.7671
  412.0000    96.9157    16.7364    16.6491
  412.5000    99.4729    16.7330    16.6468
  413.0000   102.6320    16.7296    16.6238
  413.5000   103.5334    16.7262    16.5269
  414.0000   102.0237    16.6074    16.4107
  414.5000    98.4063    16.4894    16.2952
  415.0000    94.4877    16.3723    16.2930
  415.5000    93.8823    16.1439    16.1784
  416.0000    95.3854    16.0291    15.9537
  416.5000    95.6837    15.8047    15.7321
  417.0000    94.7771    15.6925    15.5136
  417.5000    93.8705    15.4735    15.5115
  418.0000    93.2651    15.3636    15.2806
  418.5000    93.5627    15.1492    15.0832
  419.0000    96.2706    15.0416    14.9598
  419.5000   100.1833    14.8317    14.8717
  420.0000   102.5900    14.5238    14.5639
  420.5000   103.7918    14.2223    14.3617
  421.0000   104.0908    14.1154    14.0645
  421.5000   104.6903    13.9090    13.8692
  422.0000   104.3854    13.7292    13.6765
  422.5000   100.7680    13.6317    13.5787
  423.0000    95.3434    13.5349    13.4742
  423.5000    93.2098    13.5321    13.3895
  424.0000    93.3254    13.4360    13.2952
  424.5000    97.1410    13.4333    13.2935
  425.0000    98.0424    13.4306    13.2917
  425.5000    97.7375    13.3352    13.3822
  426.0000    98.6382    13.3324    13.3804
  426.5000   101.3461    13.3297    13.3786
  427.0000   104.0540    13.3264    13.2845
  427.5000   104.9554    13.3237    13.2827
  428.0000   103.7469    13.3210    13.1892
  428.5000   104.9488    13.3183    13.0804
  429.0000   107.0622    13.1324    12.9141
  429.5000   109.5632    13.0391    12.7348
  430.0000   110.9640    12.7685    12.7330
  430.5000   108.8519    12.7659    12.9093
  431.0000   107.3429    12.6752    12.8181
  431.5000   107.6419    12.5851    12.6400
  432.0000   107.6382    12.4089    12.5511
  432.5000   107.6353    12.3208    12.3768
  433.0000   107.6323    12.2333    12.2858
  433.5000   108.5330    12.0626    12.1911
  434.0000   110.6385    12.0601    11.9503
  434.5000   109.4307    12.0577    11.9487
  435.0000   106.1145    12.0552    11.9471
  435.5000   106.1577    12.0528    12.0289
  436.0000   108.2163    12.0503    12.1108
  436.5000   109.4182    12.0479    12.1934
  437.0000   111.2225    12.0454    12.1913
  437.5000   112.7255    12.0424    12.1055
  438.0000   113.3257    12.0399    12.0204
  438.5000   110.9124    12.0375    12.0096
  439.0000   106.6926    12.0351    11.9338
  439.5000   105.4848    11.9496    11.9322
  440.0000   108.7951    11.9472    11.8482
  440.5000   110.9126    11.7804    11.7649
  441.0000   112.1025    11.6968    11.6015
  441.5000   110.8940    11.6137    11.5198
  442.0000   109.6862    11.5311    11.5183
  442.5000   106.0688    11.4487    11.3583
  443.0000   103.3550    11.3674    11.2784
  443.5000   103.9545    11.2867    11.2709
  444.0000   106.3612    11.1100    11.1841
  444.5000   108.1655    10.9739    10.9655
  445.0000   106.6565    10.8959    10.8132
  445.5000   104.8463    10.7439    10.7371
  446.0000   107.2530    10.6676    10.5880
  446.5000   112.4248    10.4461    10.4409
  447.0000   115.3796    10.3719    10.2959
  447.5000   113.5687    10.2267    10.2235
  448.0000   115.6742    10.0839    10.0119
  448.5000   118.6833     9.8746     9.8699
  449.0000   119.5847     9.6696     9.7263
  449.5000   118.9786     9.4035     9.4028
  450.0000   118.9757     9.2083     9.2083
  450.5000   119.8795     9.0026     8.9556
  451.0000   118.3735     8.2949     8.5307
  451.5000   118.9759     7.5264     7.9588
  452.0000   126.9476     6.0288     7.2966
  452.5000   133.4337     5.8625     6.0314
  453.0000   139.7590     5.9021     5.3608
  453.5000   147.5904     5.9824     5.5106
  454.0000   153.0121     6.0224     5.8238
  454.5000   149.3976     6.1055     6.2405
