~VERSION INFORMATION
 VERS.                2.0:   CWLS LOG ASCII STANDARD - VERSION 2.0
 WRAP.                 NO:   ONE LINE PER DEPTH STEP
~WELL INFORMATION
#MNEM.UNIT      DATA TYPE    INFORMATION
#----------   ------------   ------------------------------
 STRT.F            0.0000:   START DEPTH
 STOP.F         2182.0000:   STOP DEPTH
 STEP.F            0.1000:   STEP LENGTH
 NULL.          -999.2500:   NO VALUE
 COMP.       FLUOR DANIEL:   COMPANY
 WELL.   75-1 X 29 #75-29:   WELL
 FLD .             TEAPOT:   FIELD
 LOC .      S29 T39N R78W:   LOCATION
 CNTY.            NATRONA:   COUNTY
 STAT.            WYOMING:   STATE
 CTRY. UNITED STATES OF AMERICA:   COUNTRY
 SRVC.      Western Atlas:   SERVICE COMPANY
 DATE.        10-MAY-1996:   LOGDATE
 API .       490252279100:   API NUMBER
~CURVE INFORMATION
#MNEM.UNIT       API CODE    CURVE DESCRIPTION
#----------   ------------   ------------------------------
 DEPT.F                  :   
 GRR .GAPI   07 310 01 00:   GAMMA RAY
 RFOC.OHMM   07 220 04 00:   RESISTIVITY FOCUSED LOG
 RILD.OHMM   07 120 46 00:   INDUCTION LOG DEEP RESISTIVITY
 RILM.OHMM   07 120 44 00:   INDUCTION LOG MEDIUM RESISTIVITY
~PARAMETER INFORMATION
#MNEM.UNIT          VALUE    DESCRIPTION
#----------   ------------   ------------------------------
 PD  .                 GL:   PERMANENT DATUM
 EPD .F              5031:   ELEVATION PERMANENT DATUM
 LMF .                 KB:   LOG MEASURED FROM
 DAPD.F                10:   FEET ABOVE PERMANENT DATUM
 DMF .                 KB:   DRILLING MEASURED FROM
 EKB .F              5041:   KELLING BUSHING
 EDF .F              5040:   DRILLING FLOOR
 EGL .F              5031:   GROUND LEVEL
 DATE.        10-MAY-1996:   RUN DATE
 RUN .                  1:   RUN NUMBER
 DD  .F              2188:   DEPTH DRILLER
 DL  .F              2184:   DEPTH LOGGER
 BLI .F              2182:   BOTTOM LOG INTERVAL
 TLI .F               400:   TOP LOG INTERVAL
 CS  .IN                7:   CASING SIZE
 CBD .F               400:   CASING BOTTOM DRILLER
 CBL .F               400:   CASING BOTTOM LOGGER
 BS  .IN             6.25:   BIT SIZE
 BSD .F              2188:   BIT SIZE AT DEPTH
 DFT .                AIR:   DRILLING FLUID TYPE
 MRT .F                97:   MAXIMUM RECORDED TEMPERATURE
 LUN .            HL-6530:   LOGGING UNIT NUMBER
 LUL .             CASPER:   LOGGING UNIT LOCATION
 ENGI.           BROWNLOW:   RECORDING ENGINEER
 WITN.             LEBEAU:   WITNESSED BY
 CLNT.            A2DTECH:   CLIENT CODE
 ORIG.           5" PRINT:   ORIGIN OF DATA
 UWI .       490252279100:   UNIQUE WELL ID
 DICO. A2D Technologies, Inc.:   DIGITIZING COMPANY
~OTHER INFORMATION
~A    DEPT      GRR      RFOC       RILD       RILM   
# ...
 2044.0000   127.2719    28.9335     8.8124     9.1525
 2044.1000   127.0697    27.5135     8.8121     9.1524
 2044.2000   127.0685    25.6642     8.8143     9.1597
 2044.3000   127.0673    24.0023     8.8729     9.2157
 2044.4000   127.0661    23.4699     8.8727     9.2156
 2044.5000   127.0648    22.8256     8.8724     9.2546
 2044.6000   126.8622    22.3193     8.8950     9.2794
 2044.7000   126.3584    22.0331     8.9336     9.2793
 2044.8000   125.8546    21.9040     8.9334     9.2858
 2044.9000   125.6021    21.7792     8.9331     9.3435
 2045.0000   125.3495    21.7781     8.9329     9.3433
 2045.1000   124.9462    21.7773     8.9657     9.3432
 2045.2000   124.6431    21.8599     8.9945     9.3710
 2045.3000   124.6924    22.0476     8.9942     9.4079
 2045.4000   124.9424    22.3053     8.9960     9.4138
 2045.5000   125.4439    22.5657     9.0563     9.4730
 2045.6000   125.9454    22.8542     9.0561     9.4729
 2045.7000   126.5978    23.0973     9.0558     9.5114
 2045.8000   127.3508    23.4671     9.0556     9.5385
 2045.9000   128.3048    23.8053     9.0553     9.5549
 2046.0000   130.0634    24.0835     9.0568     9.6045
 2046.1000   131.8719    24.3651     9.1177     9.6043
 2046.2000   132.6754    24.6570     9.1175     9.6538
 2046.3000   133.5289    24.7967     9.1172     9.7093
 2046.4000   134.0806    25.0563     9.1170     9.7379
 2046.5000   134.2808    25.2603     9.1167     9.7538
 2046.6000   134.2793    25.4070     9.1165     9.8053
 2046.7000   134.5796    25.5545     9.1162     9.8051
 2046.8000   134.5786    25.7029     9.1596     9.8050
 2046.9000   134.4266    25.8741     9.1791     9.8049
 2047.0000   134.2745    26.0026     9.1789     9.8047
 2047.1000   134.2733    26.0519     9.1786     9.8046
 2047.2000   134.2721    26.0508     9.1784     9.8045
 2047.3000   134.2706    26.0497     9.1781     9.8043
 2047.4000   134.2697    26.0486     9.1779     9.8042
 2047.5000   134.1176    26.0475     9.1776     9.8040
 2047.6000   133.9656    26.0465     9.1774     9.8039
 2047.7000   133.9644    26.0454     9.1656     9.8038
 2047.8000   133.9632    26.0443     9.1135     9.8037
 2047.9000   133.9617    25.9887     9.1132     9.8035
 2048.0000   133.9608    25.8624     9.1130     9.8034
 2048.1000   133.8087    25.8613     9.1127     9.7668
 2048.2000   133.5558    25.6816     9.1125     9.7355
 2048.3000   133.3539    25.4425     9.1122     9.7219
 2048.4000   133.3526    25.2361     9.1120     9.6659
 2048.5000   132.8489    25.0261     9.1117     9.6011
 2048.6000   132.3452    24.7689     9.1115     9.5550
 2048.7000   131.9917    24.6160     9.1112     9.5001
 2048.8000   131.5376    24.2915     9.1110     9.4454
 2048.9000   130.7818    24.0463     9.1107     9.3788
 2049.0000   130.0272    23.6734     9.1101     9.2712
 2049.1000   128.8191    23.3279     9.0472     9.1460
 2049.2000   128.2144    23.0557     9.0470     9.1029
 2049.3000   127.4588    22.7871     9.0153     9.0185
 2049.4000   126.4022    22.5043     8.9423     8.9150
 2049.5000   124.9955    22.1390     8.8498     8.8235
 2049.6000   123.9867    21.8489     8.7983     8.7728
 2049.7000   123.6836    21.5947     8.6773     8.7125
 2049.8000   123.4817    21.3432     8.5973     8.6320
 2049.9000   123.0782    21.0944     8.5279     8.5627
 2050.0000   122.0165    20.8485     8.3258     8.4995
 2050.1000   121.1124    20.4188     7.9840     8.4155
 2050.2000   120.9629    20.3215     7.9838     8.3314
 2050.3000   120.9049    20.1290     7.9835     8.2696
 2050.4000   120.6589    19.8948     7.9834     8.2214
 2050.5000   121.5624    19.6632     7.9540     8.1736
 2050.6000   121.9899    19.4336     7.9278     8.1259
 2050.7000   122.8280    19.1803     7.9276     8.0724
 2050.8000   123.6053    18.9843     7.9247     8.0316
 2050.9000   124.1818    18.8388     7.8723     7.9848
 2051.0000   124.9640    18.7284     7.8722     7.9383
 2051.1000   126.0801    18.5844     7.8412     7.9060
 2051.2000   126.9894    18.3960     7.8174     7.9006
 2051.3000   127.8230    18.3952     7.8171     7.8512
 2051.4000   128.3198    18.3945     7.8123     7.8511
 2051.5000   128.6560    18.3937     7.7627     7.8510
 2051.6000   129.1620    18.3930     7.7625     7.8509
 2051.7000   129.6929    18.4338     7.7623     7.8508
 2051.8000   129.9326    18.5409     7.7621     7.8586
 2051.9000   129.6064    18.6485     7.7618     7.9051
 2052.0000   128.9528    18.7758     7.7617     7.9504
 2052.1000   128.3846    19.0492     7.7614     7.9598
 2052.2000   128.1301    19.3125     7.7612     7.9879
 2052.3000   127.8752    19.5384     7.7610     8.0345
 2052.4000   127.5726    19.7666     7.7352     8.0705
 2052.5000   127.7779    19.9976     7.7070     8.0722
 2052.6000   127.8721    20.2569     7.7068     8.1263
 2052.7000   127.9810    20.3620     7.7065     8.1262
 2052.8000   128.2331    20.4803     7.7063     8.1261
 2052.9000   128.4857    20.5993     7.7422     8.1485
 2053.0000   128.7721    20.6788     7.7595     8.1824
 2053.1000   128.9902    20.6956     7.7593     8.1823
 2053.2000   129.0715    20.8208     7.7694     8.1821
 2053.3000   129.0703    20.7038     7.8144     8.1820
 2053.4000   129.0690    20.6754     7.8669     8.1819
 2053.5000   129.0679    20.6746     7.9055     8.1818
 2053.6000   129.0666    20.7218     7.9212     8.1817
 2053.7000   128.8325    20.8165     7.9210     8.1816
 2053.8000   127.8391    20.8185     7.9333     8.1815
 2053.9000   126.8435    20.9593     7.9756     8.1813
 2054.0000   126.0817    21.0617     7.9754     8.1812
 2054.1000   125.4007    21.1033     7.9752     8.1812
 2054.2000   125.1378    21.1599     7.9749     8.1810
 2054.3000   125.1367    21.2482     7.9747     8.1809
 2054.4000   125.1354    21.2473     7.9745     8.1798
 2054.5000   125.1342    21.2463     7.9743     8.1242
 2054.6000   125.0311    21.2455     7.9741     8.1241
 2054.7000   124.8301    21.2446     7.9739     8.1240
 2054.8000   124.8290    21.2438     7.9736     8.1023
 2054.9000   124.8276    21.2002     7.9734     8.0551
 2055.0000   124.6154    21.0566     7.9732     8.0119
 2055.1000   124.5237    20.8044     7.9653     8.0118
 2055.2000   124.5225    20.5696     7.9177     7.9703
 2055.3000   124.5213    20.3299     7.8727     7.9563
 2055.4000   124.5012    20.1632     7.8626     7.9324
 2055.5000   124.2171    20.0451     7.8354     7.8863
 2055.6000   123.7668    19.9535     7.8078     7.8466
 2055.7000   123.2581    19.9481     7.7982     7.8464
 2055.8000   122.4921    19.8140     7.7535     7.8031
 2055.9000   121.5573    19.8134     7.7532     7.7920
 2056.0000   120.7644    19.7360     7.7159     7.7661
 2056.1000   119.6850    19.6750     7.6993     7.7381
 2056.2000   119.2091    19.7077     7.6793     7.7380
 2056.3000   118.8899    19.8343     7.6457     7.7379
 2056.4000   118.6349    20.0854     7.6455     7.7377
 2056.5000   118.4736    20.1926     7.6452     7.7376
 2056.6000   118.4724    20.3100     7.6451     7.7375
 2056.7000   118.4712    20.4280     7.6148     7.7375
 2056.8000   118.4697    20.5037     7.5918     7.7374
 2056.9000   118.2653    20.5029     7.5916     7.7372
 2057.0000   118.1659    20.5020     7.5914     7.7371
 2057.1000   118.1647    20.5012     7.5912     7.7370
 2057.2000   118.1052    20.5003     7.5910     7.7369
 2057.3000   117.8606    20.4266     7.6227     7.7368
 2057.4000   117.8592    20.3068     7.6434     7.7506
 2057.5000   117.6421    20.1880     7.6431     7.7904
 2057.6000   117.3872    20.0580     7.6496     7.7902
 2057.7000   117.2525    19.6618     7.6959     7.8325
 2057.8000   117.1789    19.3668     7.6957     7.8781
 2057.9000   116.9240    19.0305     7.7298     7.9241
 2058.0000   116.6454    18.7524     7.7746     7.9703
 2058.1000   116.6443    18.5662     7.8024     8.0167
 2058.2000   116.6432    18.4574     7.8107     8.0640
 2058.3000   116.6419    18.3417     7.8562     8.0639
 2058.4000   116.6407    18.2418     7.9106     8.1015
 2058.5000   116.7139    18.2930     7.9105     8.1197
