~VERSION INFORMATION
 VERS.                2.0:   CWLS LOG ASCII STANDARD - VERSION 2.0
 WRAP.                 NO:   ONE LINE PER DEPTH STEP
~WELL INFORMATION
#MNEM.UNIT      DATA TYPE    INFORMATION
#----------   ------------   ------------------------------
 STRT.F          717.0000:   START DEPTH
 STOP.F         2448.0000:   STOP DEPTH
 STEP.F            0.5000:   STEP LENGTH
 NULL.          -999.2500:   NO VALUE
 COMP.   FLUOR DANIEL INC:   COMPANY
 WELL. NAVAL PETROLEUM RESERVE 3X27 #34-27:   WELL
 FLD .             TEAPOT:   FIELD
 LOC .      S27 T39N R78W:   LOCATION
 CNTY.            NATRONA:   COUNTY
 STAT.            WYOMING:   STATE
 CTRY. UNITED STATES OF AMERICA:   COUNTRY
 SRVC.            Unknown:   SERVICE COMPANY
 DATE.        17-MAY-1996:   LOGDATE
 API .       490252279300:   API NUMBER
~CURVE INFORMATION
#MNEM.UNIT       API CODE    CURVE DESCRIPTION
#----------   ------------   ------------------------------
 DEPT.F                  :   
 TGAS.TC/CC  91 830 01 00:   TOTAL GAS UNIT
 ROP .FT/HR  91 810 01 00:   RAT OF DRILLING PENETRATION
~PARAMETER INFORMATION
#MNEM.UNIT          VALUE    DESCRIPTION
#----------   ------------   ------------------------------
 EPD .F              5039:   ELEVATION PERMANENT DATUM
 EKB .F              5049:   KELLING BUSHING
 EGL .F              5039:   GROUND LEVEL
 DATE.        17-MAY-1996:   RUN DATE
 RUN .                  1:   RUN NUMBER
 ENGI.     R.HUSK/C.TOWER:   RECORDING ENGINEER
 CLNT.            A2DTECH:   CLIENT CODE
 ORIG.           5" PRINT:   ORIGIN OF DATA
 UWI .       490252279300:   UNIQUE WELL ID
 DICO. A2D Technologies, Inc.:   DIGITIZING COMPANY
~OTHER INFORMATION
~A   DEPT       TGAS        ROP 
# ...
 1567.5000     1.0547     0.5529
 1568.0000     1.0528     0.5434
 1568.5000     1.0510     0.5434
 1569.0000     1.0491     0.5433
 1569.5000     1.0473     0.5433
 1570.0000     1.0455     0.5432
 1570.5000     1.0436     0.7030
 1571.0000     1.0418     0.6935
 1571.5000     1.0399     0.6935
 1572.0000     1.0381     0.6934
 1572.5000     1.0363     0.6934
 1573.0000     1.0344     0.6839
 1573.5000     1.0326     0.6839
 1574.0000     1.0307     0.6838
 1574.5000     1.0288     0.6744
 1575.0000     1.0270     0.6649
 1575.5000     1.0247     0.6649
 1576.0000     1.0229     0.7024
 1576.5000     1.0211     0.7776
 1577.0000     1.0192     0.7775
 1577.5000     1.0174     0.7775
 1578.0000     1.0155     0.7962
 1578.5000     1.0137     1.0030
 1579.0000     1.0119     1.0029
 1579.5000     1.1972     1.0029
 1580.0000     1.1949     1.0028
 1580.5000     1.3802     0.9934
 1581.0000     1.3779     0.9933
 1581.5000     1.3761     0.9933
 1582.0000     1.3743     0.9932
 1582.5000     1.3724     0.9838
 1583.0000     1.3705     0.9837
 1583.5000     1.3687     0.9931
 1584.0000     1.3668     1.0024
 1584.5000     1.3646     1.0024
 1585.0000     1.3627     1.0023
 1585.5000     1.5481     1.0023
 1586.0000     1.5458     0.7767
 1586.5000     1.5439     0.7860
 1587.0000     1.5421     0.7766
 1587.5000     1.5403     0.7860
 1588.0000     1.5384     1.2840
 1588.5000     1.5366     1.2840
 1589.0000     1.3480     1.2839
 1589.5000     1.3462     1.2839
 1590.0000     1.3443     1.2838
 1590.5000     1.3425     1.2838
 1591.0000     1.1539     1.2837
 1591.5000     1.1521     1.2837
 1592.0000     0.9635     1.2836
 1592.5000     0.9616     1.2836
 1593.0000     0.9594     1.2835
 1593.5000     0.9575     1.2835
 1594.0000     0.9557     0.9827
 1594.5000     0.9539     0.9921
 1595.0000     0.9520     0.9920
 1595.5000     0.9502     0.9920
 1596.0000     0.9483     0.9825
 1596.5000     1.1337     0.9825
 1597.0000     1.1314     0.9824
 1597.5000     1.1295     0.9636
 1598.0000     1.3149     0.7568
 1598.5000     1.3126     0.7567
 1599.0000     1.3107     0.7661
 1599.5000     1.3089     0.7566
 1600.0000     1.3071     0.7660
 1600.5000     1.4919     0.7659
 1601.0000     1.6768     0.7753
 1601.5000     1.6749     0.7752
 1602.0000     1.6727     0.7940
 1602.5000     1.6708     0.8033
 1603.0000     1.8562     0.8036
 1603.5000     1.8539     0.8126
 1604.0000     2.0388     0.8032
 1604.5000     2.0369     0.8031
 1605.0000     2.0351     0.8125
 1605.5000     2.0332     0.8031
 1606.0000     2.0315     0.8030
 1606.5000     2.0297     0.7748
 1607.0000     2.2148     0.6619
 1607.5000     2.2125     0.6619
 1608.0000     2.3978     0.6618
 1608.5000     2.3956     0.6618
 1609.0000     2.3937     0.6617
 1609.5000     2.2052     0.6617
 1610.0000     2.2033     0.6617
 1610.5000     2.2015     0.6710
 1611.0000     2.1996     0.6804
 1611.5000     2.1974     0.6803
 1612.0000     2.1955     0.6991
 1612.5000     2.1937     0.8118
 1613.0000     2.0051     0.8023
 1613.5000     2.0033     0.8117
 1614.0000     2.0014     0.8023
 1614.5000     1.9996     0.9996
 1615.0000     1.9978     0.9995
 1615.5000     1.9959     0.9995
 1616.0000     1.9941     0.9994
 1616.5000     1.9923     0.7926
 1617.0000     1.9904     0.7926
 1617.5000     1.9886     0.7925
 1618.0000     1.9867     0.7925
 1618.5000     1.9849     0.7924
 1619.0000     1.9826     0.7924
 1619.5000     1.9808     0.7923
 1620.0000     1.9789     0.8017
 1620.5000     1.9771     1.0084
 1621.0000     1.9753     0.9990
 1621.5000     1.9734     1.0083
 1622.0000     1.9716     0.9989
 1622.5000     1.9698     0.9988
 1623.0000     1.7812     0.9988
 1623.5000     1.7794     0.9987
 1624.0000     1.7775     0.9987
 1624.5000     1.7757     1.2994
 1625.0000     1.7739     1.2993
 1625.5000     1.9587     1.2899
 1626.0000     1.9568     1.2898
 1626.5000     2.3281     0.9984
 1627.0000     2.5134     0.9984
 1627.5000     2.6983     0.9984
 1628.0000     2.6960     0.9983
 1628.5000     2.6942     0.5565
 1629.0000     2.6923     0.5659
 1629.5000     2.6905     0.5658
 1630.0000     2.5019     0.5564
 1630.5000     2.5001     0.5563
 1631.0000     2.3115     0.5563
 1631.5000     2.1230     0.5562
 1632.0000     2.1211     0.5656
 1632.5000     2.1193     0.5562
 1633.0000     1.9307     0.5561
 1633.5000     1.9288     0.5467
 1634.0000     1.9266     0.5560
 1634.5000     1.9248     0.8379
 1635.0000     1.9229     0.8285
 1635.5000     1.9211     0.8284
 1636.0000     1.7325     0.8284
 1636.5000     1.7307     0.8283
 1637.0000     1.7289     0.8095
 1637.5000     1.7270     0.8094
 1638.0000     1.7252     0.8940
 1638.5000     1.7234     1.0255
 1639.0000     1.7215     1.0161
 1639.5000     1.7197     1.0254
 1640.0000     1.7178     1.0160
 1640.5000     1.9027     1.5329
 1641.0000     1.9008     1.5234
 1641.5000     1.8986     1.5328
 1642.0000     1.8968     1.5327
 1642.5000     1.8949     2.0120
 1643.0000     1.8931     2.0213
 1643.5000     2.0784     2.0119
 1644.0000     2.2633     2.0118
 1644.5000     2.2610     1.2787
 1645.0000     2.2592     1.2787
 1645.5000     2.0706     1.2786
 1646.0000     2.0688     1.2786
 1646.5000     1.8802     0.9966
 1647.0000     1.8784     1.0153
 1647.5000     1.8766     1.0153
 1648.0000     1.8747     1.0246
 1648.5000     1.8728     1.0152
 1649.0000     1.8706     1.0057
 1649.5000     1.8688     0.9963
 1650.0000     1.8669     0.9962
 1650.5000     1.8651     0.8049
 1651.0000     1.8632     0.7894
 1651.5000     2.0486     0.7987
 1652.0000     2.0716     0.7893
 1652.5000     2.2403     0.7892
 1653.0000     2.4089     0.7892
 1653.5000     2.5625     0.7891
 1654.0000     2.7419     1.5598
 1654.5000     2.9214     1.5597
 1655.0000     3.1008     1.5597
 1655.5000     3.2802     1.5596
 1656.0000     3.2711     1.0051
 1656.5000     3.0771     0.9956
 1657.0000     2.8830     0.9956
 1657.5000     2.8755     0.9955
 1658.0000     2.8667     0.5350
 1658.5000     2.8594     0.5349
 1659.0000     2.8521     0.5349
 1659.5000     2.8449     0.5442
 1660.0000     2.8376     0.7791
 1660.5000     2.6436     0.7791
 1661.0000     2.6363     0.7790
 1661.5000     2.4423     0.7790
 1662.0000     2.4349     0.7808
 1662.5000     2.4274     0.7827
 1663.0000     2.4186     0.7847
 1663.5000     2.4113     0.7866
 1664.0000     2.4040     0.7886
 1664.5000     2.3967     0.7905
 1665.0000     2.3894     0.7914
 1665.5000     2.3821     0.7917
 1666.0000     2.1881     0.8734
 1666.5000     2.1809     1.5444
 1667.0000     1.9742     1.5448
 1667.5000     1.7925     1.5452
 1668.0000     1.7837     1.7899
 1668.5000     1.7764     1.7903
 1669.0000     1.7692     1.7906
 1669.5000     1.5751     1.7910
 1670.0000     1.5679     1.0113
 1670.5000     1.5606     1.0117
 1671.0000     1.5533     1.0120
 1671.5000     1.5460     1.0030
 1672.0000     1.5386     0.9896
 1672.5000     1.5311     0.6466
 1673.0000     1.5223     0.6471
 1673.5000     1.5150     0.6474
 1674.0000     1.6963     1.0143
 1674.5000     1.6872     1.0147
 1675.0000     1.6799     1.0057
 1675.5000     1.6726     1.0060
 1676.0000     1.6653     0.6586
 1676.5000     1.6580     0.6684
 1677.0000     1.6506     0.6594
 1677.5000     1.6432     0.6598
 1678.0000     1.6343     0.6696
 1678.5000     1.6271     0.6700
 1679.0000     1.8083     0.6609
 1679.5000     1.7992     0.6613
 1680.0000     1.7919     0.6617
 1680.5000     1.7846     0.6621
 1681.0000     1.7774     0.6624
 1681.5000     1.7701     0.6628
 1682.0000     1.7627     0.6632
 1682.5000     1.7552     0.6635
 1683.0000     1.7464     0.6639
 1683.5000     1.7391     0.6643
 1684.0000     1.7318     0.9937
 1684.5000     1.7245     1.0128
 1685.0000     1.7172     1.0132
 1685.5000     1.7099     1.0041
 1686.0000     1.7027     1.2113
 1686.5000     1.6954     1.2963
 1687.0000     1.5012     1.2967
 1687.5000     1.6808     1.3063
 1688.0000     1.6717     1.3068
 1688.5000     1.6644     2.0309
