~VERSION INFORMATION
 VERS.                2.0:   CWLS LOG ASCII STANDARD - VERSION 2.0
 WRAP.                 NO:   ONE LINE PER DEPTH STEP
~WELL INFORMATION
#MNEM.UNIT      DATA TYPE    INFORMATION
#----------   ------------   ------------------------------
 STRT.F           30.0000:   START DEPTH
 STOP.F          770.5000:   STOP DEPTH
 STEP.F            0.5000:   STEP LENGTH
 NULL.          -999.2500:   NO VALUE
 COMP. FENIX & SCISSON INC:   COMPANY
 WELL. TEAPOT DOME 63 SX 34 #63-34:   WELL
 FLD .             TEAPOT:   FIELD
 LOC .      S34 T39N R78W:   LOCATION
 CNTY.            NATRONA:   COUNTY
 STAT.            WYOMING:   STATE
 CTRY. UNITED STATES OF AMERICA:   COUNTRY
 SRVC.           BIRDWELL:   SERVICE COMPANY
 DATE.        18-AUG-1978:   LOGDATE
 API .       490251070300:   API NUMBER
~CURVE INFORMATION
#MNEM.UNIT       API CODE    CURVE DESCRIPTION
#----------   ------------   ------------------------------
 DEPT.F                  :   
 SPR .MV     05 010 01 00:   SPONTANEOUS POTENTIAL
 SN  .OHMM   05 040 16 00:   SHORT NORMAL 16'
 ILD .OHMM   05 120 46 00:   INDUCTION LOG DEEP RESISTIVITY
 CALD.IN     45 280 60 00:   CALIPER
 GRD .GAPI   45 310 01 00:   GAMMA RAY FROM DENSITY LOG
 RHOB.G/C3   45 350 01 00:   BULK DENSITY
 DPHI.DEC    45 890 12 00:   DENSITY POROSITY SANDSTONE
 CORR.G/C3   45 356 01 00:   DENSITY CORRECTION
~PARAMETER INFORMATION
#MNEM.UNIT          VALUE    DESCRIPTION
#----------   ------------   ------------------------------
 PD  .                 GL:   PERMANENT DATUM
 EPD .F              5063:   ELEVATION PERMANENT DATUM
 LMF .                 KB:   LOG MEASURED FROM
 DAPD.F                 4:   FEET ABOVE PERMANENT DATUM
 DMF .                 KB:   DRILLING MEASURED FROM
 EKB .F              5067:   KELLING BUSHING
 EGL .F              5063:   GROUND LEVEL
 DATE.          8-18-1978:   RUN DATE
 RUN .                  1:   RUN NUMBER
 DD  .F               760:   DEPTH DRILLER
 DL  .F               770:   DEPTH LOGGER
 BLI .F               763:   BOTTOM LOG INTERVAL
 TLI .F                40:   TOP LOG INTERVAL
 CS  .IN            8.625:   CASING SIZE
 CBD .F                40:   CASING BOTTOM DRILLER
 CBL .F                40:   CASING BOTTOM LOGGER
 BS  .IN            7.875:   BIT SIZE
 BSD .F               760:   BIT SIZE AT DEPTH
 DFT .            MUD KCL:   DRILLING FLUID TYPE
 DFL .               10.6:   DRILLING FLUID LOSS
 MSS .          FLOW LINE:   MUD SAMPLE SOURCE
 RMS .OHMM             .2:   RESISTIVITY MUD SAMPLE
 MST .F                56:   MUD SAMPLE TEMPERATURE
 RMF .OHMM             .2:   RESISTIVITY MUD FILTRATE SAMPLE
 MFST.F                64:   MUD FILTRATE SAMPLE TEMPERATURE
 RMC .OHMM            .36:   RESISTIVITY MUD CAKE
 MCST.F                64:   MUD CAKE SAMPLE TEMPERATURE
 MFSS.               MEAS:   MUD FILTRATE SAMPLE SOURCE
 MCSS.               MEAS:   MUD CAKE SAMPLE SOURCE
 TCS .HRS               3:   TIME CURCULATED STOPPED
 MRT .F                72:   MAXIMUM RECORDED TEMPERATURE
 LUN .               3006:   LOGGING UNIT NUMBER
 LUL .               CASP:   LOGGING UNIT LOCATION
 ENGI.           REYNOLDS:   RECORDING ENGINEER
 WITN.              AMEND:   WITNESSED BY
 CLNT.            A2DTECH:   CLIENT CODE
 ORIG.           5" PRINT:   ORIGIN OF DATA
 UWI .       490251070300:   UNIQUE WELL ID
 DICO. A2D Technologies, Inc.:   DIGITIZING COMPANY
~OTHER INFORMATION
~A   DEPT      SPR         SN        ILD       CALD         GRD      RHOB       DPHI       CORR   
# ...
  637.5000   -58.3497    10.8821     8.8912     6.5256    69.7519     2.3882     0.1726     0.0239
  638.0000   -57.4195    10.9077     8.8838     6.5076    70.0259     2.3681     0.1896     0.0176
  638.5000   -56.5085    10.9333     8.8771     6.4893    70.4943     2.3353     0.2067     0.0104
  639.0000   -54.8915    10.9591     8.8700     6.4700    71.0680     2.3025     0.2237     0.0148
  639.5000   -53.2055    10.9848     8.8662     6.5019    70.7397     2.2695     0.2408     0.0334
  640.0000   -51.5172    11.0107     9.4128     6.6723    65.2614     2.2506     0.2528     0.0488
  640.5000   -49.9320    11.0366     9.9158     7.2295    60.0568     2.2510     0.2408     0.0476
  641.0000   -49.5369    11.0625    10.5187     7.0774    54.8930     2.2717     0.2289     0.0430
  641.5000   -49.1046    11.0886    11.1532     6.8894    52.3686     2.2826     0.2367     0.0446
  642.0000   -48.9987    11.1146    11.8264     6.9408    53.9032     2.2771     0.2334     0.0710
  642.5000   -48.9947    11.1408    12.3730     6.9881    55.6224     2.2817     0.2305     0.0808
  643.0000   -49.0121    11.1670    12.4820     6.9906    56.4894     2.2831     0.2281     0.0889
  643.5000   -49.2831    11.1933    12.5920     6.9887    56.4962     2.2903     0.2208     0.1079
  644.0000   -49.5467    11.2196    12.7029     6.9573    56.5106     2.3147     0.2049     0.1264
  644.5000   -49.8084    11.2452    12.8061     6.9300    56.6334     2.3383     0.1890     0.1447
  645.0000   -50.0697    11.3043    12.2437     6.9248    57.9047     2.3618     0.1732     0.1586
  645.5000   -50.3311    11.3959    11.7441     6.9202    59.6629     2.3861     0.1587     0.1556
  646.0000   -50.5924    11.4889    11.2639     6.9156    59.9850     2.3961     0.1570     0.1391
  646.5000   -50.8541    11.5827    10.8037     6.9109    57.5946     2.4006     0.1598     0.1142
  647.0000   -51.1177    11.6772    10.7533     6.9063    55.2692     2.3906     0.1712     0.0894
  647.5000   -51.3885    11.7725    10.7540     6.9016    54.1159     2.3762     0.1825     0.0645
  648.0000   -51.4049    11.8685    10.7540     6.8969    54.9453     2.3617     0.1908     0.0529
  648.5000   -51.4033    11.9234    10.9109     6.8923    56.6005     2.3507     0.1849     0.0590
  649.0000   -51.4033    11.9600    11.1414     6.8792    58.2697     2.3614     0.1765     0.0662
  649.5000   -51.4273    11.9966    11.3771     6.8579    59.0116     2.3755     0.1687     0.0700
  650.0000   -51.4766    12.0334    11.6179     6.8367    57.3848     2.3897     0.1549     0.0709
  650.5000   -51.5255    12.0702    11.7900     6.7881    57.7523     2.3985     0.1589     0.0717
  651.0000   -51.5747    12.1072    11.7896     6.7283    58.6830     2.3951     0.1670     0.0769
  651.5000   -51.6238    12.1444    11.7896     6.6656    59.6269     2.3813     0.1751     0.0867
  652.0000   -51.6729    12.1815    11.7898     6.6851    58.2514     2.3680     0.1831     0.0941
  652.5000   -51.7220    12.2309    11.7893     6.7341    56.1831     2.3555     0.1872     0.0995
  653.0000   -51.7711    12.1592    11.6981     6.7842    55.0845     2.3509     0.1880     0.1056
  653.5000   -51.8202    12.0543    11.5650     6.8361    56.3720     2.3522     0.1880     0.1183
  654.0000   -51.8691    11.9504    11.4334     6.8496    58.1786     2.3578     0.1816     0.1435
  654.5000   -51.9173    11.8473    11.3033     6.8431    59.5450     2.3622     0.1789     0.1682
  655.0000   -51.9682    11.7452    11.1780     6.8143    59.4341     2.3661     0.1711     0.1929
  655.5000   -52.1035    11.6439    11.0029     6.7863    57.7472     2.3847     0.1561     0.2153
  656.0000   -52.5611    11.5435    10.8306     6.7585    55.9330     2.4139     0.1410     0.2078
  656.5000   -53.0052    11.4687    10.6610     6.7306    57.8663     2.4441     0.1260     0.1904
  657.0000   -53.4524    11.4687    10.4938     6.7027    60.7387     2.4533     0.1230     0.1529
  657.5000   -53.6515    11.4687    10.3296     6.6748    62.5009     2.4456     0.1400     0.1162
  658.0000   -53.7247    11.4687    10.2476     6.6469    61.5410     2.4162     0.1596     0.0798
  658.5000   -53.7958    11.4687    10.2123     6.6190    60.4641     2.3876     0.1700     0.0461
  659.0000   -53.8669    11.4687    10.1767     6.5911    61.5832     2.3756     0.1758     0.0373
  659.5000   -53.9382    11.4687    10.1413     6.5633    64.3445     2.3663     0.1817     0.0300
  660.0000   -54.0093    11.4687    10.1059     6.5354    66.5973     2.3570     0.1868     0.0313
  660.5000   -54.0799    11.4687    10.0707     6.5074    64.3434     2.3567     0.1818     0.0344
  661.0000   -54.1521    11.4687    10.0356     6.4792    61.3260     2.3710     0.1742     0.0375
  661.5000   -54.2898    11.4687    10.0006     6.4143    58.2914     2.3807     0.1697     0.0348
  662.0000   -54.7249    11.4687     9.9658     6.3547    58.6073     2.3827     0.1644     0.0309
  662.5000   -55.1504    11.4687     9.9310     6.3827    62.1811     2.3870     0.1695     0.0270
  663.0000   -55.4139    11.4687     9.8964     6.4709    65.7078     2.3764     0.1772     0.0230
  663.5000   -55.4104    11.4687     9.8619     6.5650    68.1188     2.3642     0.1850     0.0190
  664.0000   -55.4104    11.4687     9.8275     6.6602    67.3154     2.3521     0.1924     0.0150
  664.5000   -55.4077    11.4687     9.7933     6.7541    65.5813     2.3418     0.1944     0.0119
  665.0000   -55.4239    11.4687     9.7592     6.8041    65.1426     2.3401     0.1939     0.0139
  665.5000   -55.9300    11.4687     9.7252     6.8302    66.2395     2.3389     0.1933     0.0164
  666.0000   -56.4676    11.4687     9.6912     6.8168    67.1360     2.3379     0.1956     0.0222
  666.5000   -56.9928    11.4687     9.6575     6.7866    66.8193     2.3387     0.1966     0.0323
  667.0000   -57.0069    11.4612     9.6238     6.7731    65.0361     2.3420     0.1938     0.0423
  667.5000   -57.4857    11.4481     9.5903     6.8660    62.8211     2.3438     0.1836     0.0515
  668.0000   -58.0964    11.4351     9.5569     6.9601    63.8228     2.3617     0.1665     0.0543
  668.5000   -58.6385    11.4220     9.5236     7.0524    65.8828     2.3814     0.1706     0.0435
  669.0000   -58.6766    11.4089     9.4904     7.0895    67.6677     2.3749     0.1754     0.0322
  669.5000   -58.7234    11.3958     9.4554     7.0753    68.2157     2.3730     0.1729     0.0302
  670.0000   -58.7736    11.3825     9.3754     7.0701    67.9384     2.3803     0.1678     0.0307
  670.5000   -58.9105    11.3705     9.2914     7.0694    67.5091     2.3857     0.1673     0.0312
  671.0000   -59.5903    11.3080     9.2081     7.0879    67.0600     2.3803     0.1737     0.0317
  671.5000   -59.9507    11.1424     9.1255     7.1096    67.3134     2.3750     0.1772     0.0360
  672.0000   -60.2994    10.9789     9.0437     7.1315    67.9758     2.3696     0.1723     0.0460
  672.5000   -60.6517    10.8179     8.9626     7.1535    68.6468     2.3865     0.1602     0.0610
  673.0000   -60.9332    10.6594     8.8823     7.1751    69.2724     2.4137     0.1481     0.0761
  673.5000   -61.1577    10.5039     8.8027     7.1964    68.8793     2.4400     0.1361     0.0777
  674.0000   -61.8473    10.3636     8.7237     7.1815    68.0886     2.4437     0.1299     0.0711
  674.5000   -62.6617    10.3628     8.6455     7.1099    67.1319     2.4523     0.1243     0.0688
  675.0000   -62.7719    10.3593     8.5680     7.0374    67.3330     2.4601     0.1186     0.0673
  675.5000   -62.8986    10.3563     8.4679     6.9941    66.8686     2.4680     0.1130     0.0657
  676.0000   -63.0294    10.3533     8.4722     6.9894    65.2724     2.4724     0.1126     0.0576
  676.5000   -63.1665    10.3502     8.4783     6.9889    64.0738     2.4688     0.1179     0.0530
  677.0000   -63.5913    10.3472     8.4845     7.0175    64.4903     2.4626     0.1192     0.0494
  677.5000   -64.3343    10.3441     8.4907     7.0518    65.1096     2.4623     0.1182     0.0458
