~VERSION INFORMATION
 VERS.                2.0:   CWLS LOG ASCII STANDARD - VERSION 2.0
 WRAP.                 NO:   ONE LINE PER DEPTH STEP
~WELL INFORMATION
#MNEM.UNIT      DATA TYPE    INFORMATION
#----------   ------------   ------------------------------
 STRT.F           14.0000:   START DEPTH
 STOP.F          513.0000:   STOP DEPTH
 STEP.F            0.1000:   STEP LENGTH
 NULL.          -999.2500:   NO VALUE
 COMP.       F D SERV INC:   COMPANY
 WELL.    52-1 SX-3 #52-3:   WELL
 FLD .             TEAPOT:   FIELD
 LOC .       S3 T38N R78W:   LOCATION
 CNTY.            NATRONA:   COUNTY
 STAT.            WYOMING:   STATE
 CTRY. UNITED STATES OF AMERICA:   COUNTRY
 SRVC.     Atlas Wireline:   SERVICE COMPANY
 DATE.        21-APR-1992:   LOGDATE
 API .       490252251400:   API NUMBER
~CURVE INFORMATION
#MNEM.UNIT       API CODE    CURVE DESCRIPTION
#----------   ------------   ------------------------------
 DEPT.F                  :   
 GRR .GAPI   07 310 01 00:   GAMMA RAY
 RILD.OHMM   07 120 46 00:   INDUCTION LOG DEEP RESISTIVITY
 RILM.OHMM   07 120 44 00:   INDUCTION LOG MEDIUM RESISTIVITY
~PARAMETER INFORMATION
#MNEM.UNIT          VALUE    DESCRIPTION
#----------   ------------   ------------------------------
 PD  .                 GL:   PERMANENT DATUM
 EPD .F              5115:   ELEVATION PERMANENT DATUM
 LMF .                 KB:   LOG MEASURED FROM
 DAPD.F                 5:   FEET ABOVE PERMANENT DATUM
 DMF .                 KB:   DRILLING MEASURED FROM
 EKB .F              5120:   KELLING BUSHING
 EDF .F              5119:   DRILLING FLOOR
 EGL .F              5115:   GROUND LEVEL
 DATE.        21-APR-1992:   RUN DATE
 RUN .                  1:   RUN NUMBER
 DD  .F               515:   DEPTH DRILLER
 DL  .F               520:   DEPTH LOGGER
 BLI .F               517:   BOTTOM LOG INTERVAL
 TLI .F                50:   TOP LOG INTERVAL
 CS  .IN            9.625:   CASING SIZE
 CBD .F                45:   CASING BOTTOM DRILLER
 CBL .F                50:   CASING BOTTOM LOGGER
 BS  .IN            7.875:   BIT SIZE
 BSD .F               515:   BIT SIZE AT DEPTH
 DFT .                AIR:   DRILLING FLUID TYPE
 LUN .            HL-6272:   LOGGING UNIT NUMBER
 LUL .             CASPER:   LOGGING UNIT LOCATION
 ENGI.       P. RASMUSSEN:   RECORDING ENGINEER
 WITN.          G. STRONG:   WITNESSED BY
 CLNT.            A2DTECH:   CLIENT CODE
 ORIG.           5" PRINT:   ORIGIN OF DATA
 UWI .       490252251400:   UNIQUE WELL ID
 DICO. A2D Technologies, Inc.:   DIGITIZING COMPANY
~OTHER INFORMATION
~A   DEPT      GRR       RILD       RILM   
# ...
  305.2000   136.9041     5.9344     6.7804
  305.3000   135.2231     6.0016     6.8751
  305.4000   133.9932     6.0826     6.9533
  305.5000   132.7430     6.1671     7.0389
  305.6000   131.0500     6.2934     7.2238
  305.7000   130.2110     6.4370     7.2939
  305.8000   129.3801     6.5837     7.3769
  305.9000   128.6417     6.7511     7.4945
  306.0000   127.8631     6.8881     7.6511
  306.1000   126.8144     7.0456     7.7438
  306.2000   125.8950     7.2241     7.8678
  306.3000   124.9109     7.4222     8.0025
  306.4000   123.5766     7.5981     8.1394
  306.5000   121.9761     7.7652     8.2668
  306.6000   120.7582     7.9759     8.3615
  306.7000   120.2654     8.2279     8.5048
  306.8000   120.3529     8.5109     8.6118
  306.9000   120.7344     8.8013     8.7097
  307.0000   121.3859     9.1037     8.8087
  307.1000   122.3917     9.3136     8.9088
  307.2000   123.7799     9.4869     9.0234
  307.3000   125.2734     9.5576     9.0679
  307.4000   127.1493     9.5574     9.1525
  307.5000   128.8117     9.5573     9.2350
  307.6000   129.9947     9.5572     9.2778
  307.7000   131.0247     9.5570     9.2778
  307.8000   132.6588     9.5346     9.2778
  307.9000   134.0232     9.4905     9.2778
  308.0000   134.7674     9.4904     9.2778
  308.1000   134.8185     9.4395     9.2778
  308.2000   134.3339     9.4243     9.2778
  308.3000   134.0384     9.3983     9.2778
  308.4000   133.6427     9.3587     9.2778
  308.5000   133.2911     9.3586     9.2778
  308.6000   133.0441     9.3585     9.2778
  308.7000   132.7690     9.3583     9.2778
  308.8000   132.2198     9.3582     9.2778
  308.9000   132.0013     9.3581     9.2778
  309.0000   131.5932     9.3580     9.2778
  309.1000   131.1005     9.3578     9.2778
  309.2000   130.6562     9.4037     9.2778
  309.3000   130.4012     9.4568     9.2778
  309.4000   129.6869     9.5103     9.3287
  309.5000   128.7672     9.5640     9.3816
  309.6000   128.0330     9.6212     9.4621
  309.7000   127.5403     9.7761     9.5394
  309.8000   127.0356     9.9031     9.5474
  309.9000   126.1641    10.0428     9.7404
  310.0000   125.7603    10.1997     9.7857
  310.1000   125.1227    10.3153     9.8743
  310.2000   124.5615    10.4325     9.9865
  310.3000   124.3468    10.5981    10.0999
  310.4000   124.3455    10.7116    10.2261
  310.5000   124.3444    10.8115    10.3311
  310.6000   124.3432    10.9903    10.4887
  310.7000   124.3420    11.1328    10.6411
  310.8000   124.3408    11.2961    10.7752
  310.9000   124.3396    11.4891    10.9622
  311.0000   124.3384    11.7117    11.1470
  311.1000   124.1519    11.9675    11.2893
  311.2000   123.7761    12.1857    11.4520
  311.3000   123.1385    12.4455    11.6675
  311.4000   122.1542    12.7811    11.9292
  311.5000   121.0089    13.1469    12.1669
  311.6000   120.1861    13.5042    12.4595
  311.7000   118.9039    13.8119    12.8619
  311.8000   117.5210    14.1281    13.3053
  311.9000   116.2910    14.4511    13.7394
  312.0000   114.9606    14.7812    14.0792
  312.1000   113.3802    15.1730    14.4509
  312.2000   111.8282    15.6869    14.8658
  312.3000   110.3528    16.2051    15.2114
  312.4000   108.7645    16.7613    15.4918
  312.5000   106.7976    17.3759    15.8452
  312.6000   104.5850    17.8943    16.2086
  312.7000   100.6686    18.2861    16.5798
  312.8000    95.7130    18.6228    16.9591
  312.9000    90.6121    19.0156    17.3467
  313.0000    86.2082    19.4504    17.7594
  313.1000    81.4125    19.8945    18.4635
  313.2000    78.6886    20.3215    18.8244
  313.3000    75.6459    20.6696    19.3242
  313.4000    72.5995    21.1405    19.8328
  313.5000    69.3235    21.4369    20.2664
  313.6000    65.3945    21.8124    20.6355
  313.7000    63.3267    22.2332    20.9660
  313.8000    61.2871    22.4940    21.2394
  313.9000    59.0866    22.9410    21.5394
  314.0000    57.1118    23.2697    21.8766
  314.1000    56.6272    23.6672    22.1272
  314.2000    56.6260    24.0197    22.5063
  314.3000    56.6248    24.2920    22.7894
  314.4000    56.7605    24.5920    23.0487
  314.5000    57.0051    24.7187    23.2671
  314.6000    57.2980    25.0513    23.4121
  314.7000    58.1304    25.3491    23.7133
  314.8000    58.9834    25.5556    23.8302
  314.9000    60.4363    25.9976    23.8787
  315.0000    62.1551    26.1424    23.9342
  315.1000    63.8739    26.5162    24.0453
  315.2000    65.6773    26.8092    24.0453
  315.3000    67.3114    26.9606    24.1750
  315.4000    68.8530    27.1038    24.3121
  315.5000    70.3260    27.1033    24.4499
  315.6000    71.6703    26.9768    24.5520
  315.7000    72.6599    26.9148    24.5520
  315.8000    74.1291    26.9144    24.5520
  315.9000    75.5097    26.9140    24.6639
  316.0000    77.7928    26.9136    24.8037
  316.1000    80.2409    26.7767    24.9443
  316.2000    82.2336    26.7263    25.0694
  316.3000    84.6971    26.7260    25.0694
  316.4000    85.5663    26.7256    25.1953
  316.5000    86.2256    26.7252    25.2442
  316.6000    86.7158    26.8726    25.3053
  316.7000    87.1096    26.9110    25.4487
  316.8000    86.8060    26.9107    25.5976
  316.9000    86.0919    26.9531    25.7381
  317.0000    85.1721    27.1053    25.8841
  317.1000    84.1880    27.2865    25.9560
  317.2000    83.2039    27.4127    25.9970
  317.3000    82.2078    27.4763    26.1443
  317.4000    80.7563    27.5311    26.3194
  317.5000    80.1511    27.6866    26.4417
  317.6000    79.5577    27.8600    26.5917
  317.7000    79.2423    28.0005    26.6878
  317.8000    79.2733    28.1587    26.7077
  317.9000    79.5419    28.3178    26.8740
  318.0000    80.2053    28.5420    26.5227
  318.1000    81.1063    29.0455    26.6727
  318.2000    81.8706    29.2040    26.8235
  318.3000    82.2039    29.4916    26.9751
  318.4000    81.9529    29.7412    27.1278
  318.5000    81.7099    29.8634    27.4014
  318.6000    81.4630    29.8630    27.5425
  318.7000    81.0871    29.8625    27.5907
  318.8000    80.5219    29.8621    27.7708
  318.9000    79.7998    29.7648    28.3196
  319.0000    79.2264    29.5967    28.3196
  319.1000    78.4036    29.4295    28.4172
  319.2000    77.2705    29.2437    28.5779
  319.3000    76.0407    29.2433    28.7164
  319.4000    74.8110    29.1359    28.7164
  319.5000    73.4803    28.9034    28.7164
  319.6000    72.3514    28.6080    28.6074
  319.7000    71.1215    28.4392    28.4466
  319.8000    70.1172    28.2859    28.2210
  319.9000    69.4916    27.8984    27.7347
  320.0000    69.2447    27.5810    27.1335
  320.1000    69.2435    27.4252    26.5290
  320.2000    69.2423    27.2657    26.0843
  320.3000    69.2411    26.9593    25.7523
  320.4000    69.2399    26.7764    25.3252
  320.5000    69.2387    26.5406    24.9866
  320.6000    69.2373    26.2913    24.7608
  320.7000    69.6552    26.1428    24.5619
  320.8000    70.1454    25.9762    24.3773
  320.9000    70.8291    25.8484    24.1180
  321.0000    71.8109    25.7025    23.9651
  321.1000    72.8567    25.5574    23.8475
  321.2000    73.7742    25.4384    23.6285
  321.3000    74.7558    25.4380    23.4166
  321.4000    75.6206    25.3022    23.3075
  321.5000    76.4170    25.2610    23.3075
  321.6000    77.3946    25.1920    23.1845
  321.7000    78.1305    25.0851    23.0541
  321.8000    79.0598    25.0820    22.9245
  321.9000    80.3153    24.9405    22.8261
  322.0000    81.5467    24.9102    22.8255
  322.1000    82.2104    24.8318    22.6972
  322.2000    82.2089    24.7368    22.6679
  322.3000    82.2079    24.7365    22.6679
  322.4000    82.0495    24.7361    22.6291
  322.5000    81.8026    24.7358    22.5018
  322.6000    81.5114    24.8239    22.3547
  322.7000    80.9945    24.9078    22.2495
  322.8000    80.9934    24.9074    22.1997
  322.9000    80.6377    24.9071    22.1997
  323.0000    80.1450    24.9067    22.1997
  323.1000    79.5879    25.0058    22.1997
  323.2000    78.8495    25.0799    22.3132
  323.3000    77.9659    25.0796    22.4394
