~VERSION INFORMATION
 VERS.                2.0:   CWLS LOG ASCII STANDARD - VERSION 2.0
 WRAP.                 NO:   ONE LINE PER DEPTH STEP
~WELL INFORMATION
#MNEM.UNIT      DATA TYPE    INFORMATION
#----------   ------------   ------------------------------
 STRT.F            4.0000:   START DEPTH
 STOP.F          468.5000:   STOP DEPTH
 STEP.F            0.1000:   STEP LENGTH
 NULL.          -999.2500:   NO VALUE
 COMP. BROWN JOHN E&C INC:   COMPANY
 WELL.  SX-10 #1-14-SX-10:   WELL
 FLD .        N.P.R. No.3:   FIELD
 LOC .      S10 T38N R78W:   LOCATION
 CNTY.            NATRONA:   COUNTY
 STAT.            WYOMING:   STATE
 CTRY. UNITED STATES OF AMERICA:   COUNTRY
 SRVC.     Atlas Wireline:   SERVICE COMPANY
 DATE.        21-SEP-1991:   LOGDATE
 API .       490251125800:   API NUMBER
~CURVE INFORMATION
#MNEM.UNIT       API CODE    CURVE DESCRIPTION
#----------   ------------   ------------------------------
 DEPT.F                  :   
 GRR .GAPI   07 310 01 00:   GAMMA RAY FROM RES. LOG.
 ILD .OHMM   07 120 46 00:   INDUCTION LOG DEEP
 RILM.OHMM   07 120 44 00:   INDUCTION LOG MEDIUM RESISTIVITY
~PARAMETER INFORMATION
#MNEM.UNIT          VALUE    DESCRIPTION
#----------   ------------   ------------------------------
 PD  .                 GL:   PERMANENT DATUM
 EPD .F              5183:   ELEVATION PERMANENT DATUM
 LMF .                 KB:   LOG MEASURED FROM
 DAPD.F                10:   FEET ABOVE PERMANENT DATUM
 DMF .                 KB:   DRILLING MEASURED FROM
 EKB .F              5193:   KELLING BUSHING
 EGL .F              5183:   GROUND LEVEL
 DATE.            9-21-91:   RUN DATE
 RUN .                  1:   RUN NUMBER
 DD  .F               480:   DEPTH DRILLER
 DL  .F               478:   DEPTH LOGGER
 BLI .F               470:   BOTTOM LOG INTERVAL
 CS  .IN                7:   CASING SIZE
 CBD .F                90:   CASING BOTTOM DRILLER
 CBL .F                90:   CASING BOTTOM LOGGER
 BS  .IN             6.25:   BIT SIZE
 BSD .F               480:   BIT SIZE AT DEPTH
 DFT .                AIR:   DRILLING FLUID TYPE
 TCS .HRS               1:   TIME CURCULATED STOPPED
 MRT .F                80:   MAXIMUM RECORDED TEMPERATURE
 LUN .            HL-6307:   LOGGING UNIT NUMBER
 LUL .             CASPER:   LOGGING UNIT LOCATION
 ENGI.             RAUTIO:   RECORDING ENGINEER
 WITN.             STRONG:   WITNESSED BY
 CLNT.            A2DTECH:   CLIENT CODE
 ORIG.        2" 5" PRINT:   ORIGIN OF DATA
 UWI .       490251125800:   UNIQUE WELL ID
 DICO. A2D Technologies, Inc.:   DIGITIZING COMPANY
~OTHER INFORMATION
~A    DEPT       GRR      ILD       RILM   
# ...
  149.6000   136.3844     7.4239     7.6188
  149.7000   136.3083     7.4770     7.6477
  149.8000   136.2322     7.5300     7.6766
  149.9000   136.1561     7.5831     7.7055
  150.0000   136.0800     7.6361     7.7343
  150.1000   135.7550     7.6848     7.7639
  150.2000   135.4299     7.7335     7.7934
  150.3000   135.1048     7.7822     7.8229
  150.4000   134.7797     7.8309     7.8525
  150.5000   134.4546     7.8796     7.8820
  150.6000   134.2619     7.8205     7.9263
  150.7000   134.0691     7.7614     7.9705
  150.8000   133.8763     7.7024     8.0148
  150.9000   133.6835     7.6433     8.0591
  151.0000   133.4908     7.5842     8.1034
  151.1000   133.6517     7.5325     8.0999
  151.2000   133.8126     7.4807     8.0964
  151.3000   133.9736     7.4290     8.0929
  151.4000   134.1345     7.3773     8.0895
  151.5000   134.2955     7.3256     8.0860
  151.6000   134.8098     7.2755     8.0781
  151.7000   135.3241     7.2253     8.0703
  151.8000   135.8384     7.1752     8.0624
  151.9000   136.3528     7.1251     8.0545
  152.0000   136.8671     7.0749     8.0467
  152.1000   137.3884     7.0270     8.0391
  152.2000   137.9097     6.9792     8.0316
  152.3000   138.4310     6.9313     8.0241
  152.4000   138.9523     6.8834     8.0165
  152.5000   139.4736     6.8355     8.0090
  152.6000   139.2468     6.8099     7.9981
  152.7000   139.0200     6.7844     7.9873
  152.8000   138.7933     6.7588     7.9764
  152.9000   138.5665     6.7332     7.9656
  153.0000   138.3398     6.7077     7.9547
  153.1000   137.8457     6.7018     7.9651
  153.2000   137.3516     6.6960     7.9754
  153.3000   136.8575     6.6902     7.9857
  153.4000   136.3634     6.6843     7.9960
  153.5000   135.8693     6.6785     8.0064
  153.6000   135.8920     6.6757     8.0253
  153.7000   135.9147     6.6730     8.0442
  153.8000   135.9374     6.6702     8.0631
  153.9000   135.9601     6.6674     8.0820
  154.0000   135.9828     6.6647     8.1009
  154.1000   136.1804     6.7395     8.1200
  154.2000   136.3780     6.8142     8.1391
  154.3000   136.5756     6.8890     8.1583
  154.4000   136.7731     6.9637     8.1774
  154.5000   136.9707     7.0385     8.1965
  154.6000   137.0577     7.1062     8.2085
  154.7000   137.1448     7.1738     8.2206
  154.8000   137.2318     7.2415     8.2326
  154.9000   137.3188     7.3091     8.2446
  155.0000   137.4059     7.3767     8.2566
  155.1000   137.0797     7.4776     8.2425
  155.2000   136.7536     7.5785     8.2283
  155.3000   136.4275     7.6793     8.2141
  155.4000   136.1014     7.7801     8.2000
  155.5000   135.7753     7.8810     8.1858
  155.6000   135.3675     7.8788     8.1756
  155.7000   134.9598     7.8766     8.1654
  155.8000   134.5520     7.8744     8.1552
  155.9000   134.1442     7.8723     8.1449
  156.0000   133.7364     7.8701     8.1347
  156.1000   133.3417     7.8664     8.1246
  156.2000   132.9470     7.8627     8.1144
  156.3000   132.5523     7.8590     8.1043
  156.4000   132.1576     7.8553     8.0941
  156.5000   131.7629     7.8516     8.0840
  156.6000   131.4184     7.8479     8.0739
  156.7000   131.0740     7.8443     8.0638
  156.8000   130.7295     7.8406     8.0537
  156.9000   130.3851     7.8369     8.0436
  157.0000   130.0406     7.8332     8.0336
  157.1000   129.9826     7.8282     8.0235
  157.2000   129.9246     7.8231     8.0135
  157.3000   129.8665     7.8180     8.0035
  157.4000   129.8085     7.8130     7.9935
  157.5000   129.7505     7.8079     7.9834
  157.6000   129.9805     7.8096     7.9777
  157.7000   130.2105     7.8113     7.9720
  157.8000   130.4404     7.8130     7.9662
  157.9000   130.6704     7.8147     7.9605
  158.0000   130.9004     7.8164     7.9547
  158.1000   131.2591     7.8191     7.9547
  158.2000   131.6179     7.8218     7.9547
  158.3000   131.9766     7.8246     7.9547
  158.4000   132.3353     7.8273     7.9547
  158.5000   132.6941     7.8300     7.9547
  158.6000   133.0545     7.8327     7.9547
  158.7000   133.4149     7.8354     7.9547
  158.8000   133.7754     7.8382     7.9547
  158.9000   134.1358     7.8409     7.9547
  159.0000   134.4962     7.8436     7.9547
  159.1000   134.8022     7.8463     7.9547
  159.2000   135.1082     7.8490     7.9548
  159.3000   135.4141     7.8517     7.9548
  159.4000   135.7201     7.8543     7.9548
  159.5000   136.0260     7.8570     7.9548
  159.6000   136.1560     7.8598     7.9549
  159.7000   136.2860     7.8626     7.9550
  159.8000   136.4159     7.8654     7.9551
  159.9000   136.5459     7.8682     7.9551
  160.0000   136.6759     7.8709     7.9552
  160.1000   136.8078     7.8730     7.9554
  160.2000   136.9398     7.8750     7.9556
  160.3000   137.0718     7.8770     7.9557
  160.4000   137.2038     7.8790     7.9559
  160.5000   137.3358     7.8810     7.9561
  160.6000   137.4116     7.8440     7.9566
  160.7000   137.4874     7.8070     7.9571
  160.8000   137.5632     7.7699     7.9576
  160.9000   137.6390     7.7329     7.9582
  161.0000   137.7148     7.6959     7.9587
  161.1000   137.4624     7.6514     7.9088
  161.2000   137.2100     7.6069     7.8590
  161.3000   136.9576     7.5623     7.8091
  161.4000   136.7052     7.5178     7.7593
  161.5000   136.4527     7.4733     7.7094
  161.6000   136.1699     7.4014     7.6415
  161.7000   135.8870     7.3294     7.5736
  161.8000   135.6041     7.2575     7.5056
  161.9000   135.3213     7.1856     7.4377
  162.0000   135.0384     7.1136     7.3698
  162.1000   134.9238     7.0439     7.3048
  162.2000   134.8092     6.9741     7.2399
  162.3000   134.6947     6.9043     7.1750
  162.4000   134.5801     6.8345     7.1100
  162.5000   134.4655     6.7648     7.0451
  162.6000   134.7098     6.6907     6.9830
  162.7000   134.9540     6.6166     6.9209
  162.8000   135.1982     6.5425     6.8588
  162.9000   135.4424     6.4684     6.7968
  163.0000   135.6866     6.3943     6.7347
  163.1000   136.1044     6.3186     6.6753
  163.2000   136.5222     6.2429     6.6160
  163.3000   136.9399     6.1672     6.5566
  163.4000   137.3577     6.0915     6.4973
  163.5000   137.7755     6.0158     6.4380
  163.6000   138.1240     5.9098     6.3554
  163.7000   138.4724     5.8038     6.2729
  163.8000   138.8209     5.6979     6.1904
  163.9000   139.1694     5.5919     6.1079
  164.0000   139.5179     5.4859     6.0254
  164.1000   139.1997     5.3810     5.8988
  164.2000   138.8815     5.2761     5.7723
  164.3000   138.5634     5.1711     5.6457
  164.4000   138.2452     5.0662     5.5192
  164.5000   137.9270     4.9612     5.3926
  164.6000   137.7187     4.8663     5.2794
  164.7000   137.5103     4.7713     5.1661
  164.8000   137.3020     4.6763     5.0529
  164.9000   137.0936     4.5814     4.9396
  165.0000   136.8853     4.4864     4.8264
  165.1000   137.5674     4.4006     4.7250
  165.2000   138.2495     4.3147     4.6236
  165.3000   138.9317     4.2289     4.5223
  165.4000   139.6138     4.1431     4.4209
  165.5000   140.2959     4.0572     4.3196
  165.6000   140.7027     3.9795     4.2251
  165.7000   141.1095     3.9019     4.1307
  165.8000   141.5162     3.8242     4.0362
  165.9000   141.9230     3.7465     3.9417
  166.0000   142.3297     3.6688     3.8473
  166.1000   141.9814     3.5996     3.7799
  166.2000   141.6331     3.5303     3.7124
  166.3000   141.2849     3.4610     3.6450
  166.4000   140.9366     3.3918     3.5775
  166.5000   140.5883     3.3225     3.5101
  166.6000   140.2581     3.2613     3.4459
  166.7000   139.9280     3.2001     3.3817
  166.8000   139.5979     3.1389     3.3175
  166.9000   139.2677     3.0777     3.2533
  167.0000   138.9376     3.0165     3.1891
  167.1000   138.9039     2.9609     3.1307
  167.2000   138.8701     2.9053     3.0724
  167.3000   138.8364     2.8498     3.0141
  167.4000   138.8027     2.7942     2.9557
  167.5000   138.7690     2.7386     2.8974
  167.6000   138.7045     2.6876     2.8444
  167.7000   138.6401     2.6366     2.7914
