~VERSION INFORMATION
 VERS.                2.0:   CWLS LOG ASCII STANDARD - VERSION 2.0
 WRAP.                 NO:   ONE LINE PER DEPTH STEP
~WELL INFORMATION
#MNEM.UNIT      DATA TYPE    INFORMATION
#----------   ------------   ------------------------------
 STRT.F           44.0000:   START DEPTH
 STOP.F          510.0000:   STOP DEPTH
 STEP.F            0.5000:   STEP LENGTH
 NULL.          -999.2500:   NO VALUE
 COMP. FENIX & SCISSON INC:   COMPANY
 WELL. NPR-3 76-SX-3 #76-3:   WELL
 FLD . TEAPOT DOME NPR #3:   FIELD
 LOC .       S3 T38N R78W:   LOCATION
 CNTY.            NATRONA:   COUNTY
 STAT.            WYOMING:   STATE
 CTRY. UNITED STATES OF AMERICA:   COUNTRY
 SRVC.            Unknown:   SERVICE COMPANY
 DATE.        13-OCT-1978:   LOGDATE
 API .       490251072300:   API NUMBER
~CURVE INFORMATION
#MNEM.UNIT       API CODE    CURVE DESCRIPTION
#----------   ------------   ------------------------------
 DEPT.F                  :   
 CALD.IN     45 280 60 00:   CALIPER
 RHOB.G/C3   45 350 01 00:   BULK DENSITY
 CORR.G/C3   45 356 01 00:   DENSITY CORRECTION
 SPR .MV     05 010 01 00:   SPONTANEOUS POTENTIAL FROM RES.
 SN  .OHMM   05 040 16 00:   SHORT NORMAL 16"
 ILD .OHMM   05 120 46 00:   INDUCTION LOG DEEP
 DPHI.DEC    45 890 12 00:   DENSITY POROSITY SANDSTONE
~PARAMETER INFORMATION
#MNEM.UNIT          VALUE    DESCRIPTION
#----------   ------------   ------------------------------
 PD  .                 GL:   PERMANENT DATUM
 EPD .F              5151:   ELEVATION PERMANENT DATUM
 LMF .                 KB:   LOG MEASURED FROM
 DAPD.F                 4:   FEET ABOVE PERMANENT DATUM
 DMF .                 KB:   DRILLING MEASURED FROM
 EKB .F              5155:   KELLING BUSHING
 EGL .F              5151:   GROUND LEVEL
 DATE.         10-13-1978:   RUN DATE
 RUN .                  1:   RUN NUMBER
 DD  .F               515:   DEPTH DRILLER
 DL  .F               517:   DEPTH LOGGER
 BLI .F               511:   BOTTOM LOG INTERVAL
 TLI .F                50:   TOP LOG INTERVAL
 CS  .IN            8.625:   CASING SIZE
 CBD .F                40:   CASING BOTTOM DRILLER
 BS  .IN            7.875:   BIT SIZE
 BSD .F               515:   BIT SIZE AT DEPTH
 DFT .                KCL:   DRILLING FLUID TYPE
 MSS .            MUD PIT:   MUD SAMPLE SOURCE
 RMS .OHMM             .2:   RESISTIVITY MUD SAMPLE
 MST .F                54:   MUD SAMPLE TEMPERATURE
 RMF .OHMM            .19:   RESISTIVITY MUD FILTRATE SAMPLE
 MFST.F                63:   MUD FILTRATE SAMPLE TEMPERATURE
 RMC .OHMM            .26:   RESISTIVITY MUD CAKE
 MCST.F                64:   MUD CAKE SAMPLE TEMPERATURE
 MFSS.               MEAS:   MUD FILTRATE SAMPLE SOURCE
 MCSS.               MEAS:   MUD CAKE SAMPLE SOURCE
 TCS .HRS               2:   TIME CURCULATED STOPPED
 LUN .               3006:   LOGGING UNIT NUMBER
 LUL .               CASP:   LOGGING UNIT LOCATION
 ENGI.             MILLER:   RECORDING ENGINEER
 WITN.           DINSMORE:   WITNESSED BY
 CLNT.            A2DTECH:   CLIENT CODE
 ORIG.           5" PRINT:   ORIGIN OF DATA
 UWI .       490251072300:   UNIQUE WELL ID
 DICO. A2D Technologies, Inc.:   DIGITIZING COMPANY
~OTHER INFORMATION
~A   DEPT     CALD       RHOB        CORR       SPR         SN        ILD         DPHI 
# ...
  271.5000     7.6755     2.4839     0.0519   -18.8331     6.4090     5.7584     0.1129
  272.0000     7.6685     2.4837     0.0515   -18.7578     6.3144     5.7212     0.1162
  272.5000     7.6615     2.4796     0.0511   -18.6825     6.2266     5.6889     0.1270
  273.0000     7.6545     2.4744     0.0507   -18.6073     6.1400     5.7492     0.1373
  273.5000     7.6475     2.4503     0.0503   -18.5431     6.0682     5.8031     0.1478
  274.0000     7.6403     2.4294     0.0499   -18.5107     6.1171     5.8483     0.1529
  274.5000     7.6360     2.4415     0.0495   -18.4783     6.1599     5.8483     0.1298
  275.0000     7.6703     2.4601     0.0490   -18.4460     6.2034     5.8471     0.1138
  275.5000     7.7040     2.4790     0.0561   -18.4135     6.2686     5.8463     0.1023
  276.0000     7.7374     2.4976     0.0661   -18.3811     6.4167     6.0763     0.0949
  276.5000     7.7709     2.5144     0.0776   -18.3545     6.5683     6.3660     0.0877
  277.0000     7.8054     2.5260     0.0966   -18.3717     6.5922     6.4449     0.0802
  277.5000     7.8152     2.5382     0.1159   -18.3883     6.5922     6.4953     0.0710
  278.0000     7.8183     2.5543     0.1352   -18.4048     6.5922     6.5318     0.0618
  278.5000     7.8212     2.5712     0.1549   -18.4212     6.5754     6.4046     0.0558
  279.0000     7.8241     2.5766     0.1537   -18.4377     6.5414     6.2893     0.0757
  279.5000     7.8271     2.5644     0.1384   -18.4541     6.5078     6.1761     0.0904
  280.0000     7.8299     2.5418     0.1234   -18.4706     6.4721     5.9960     0.1054
  280.5000     7.8333     2.5183     0.1101   -18.4870     6.3406     5.7632     0.1101
  281.0000     7.8475     2.4973     0.1155   -18.5035     6.2039     5.5335     0.1174
  281.5000     7.8623     2.4881     0.1263   -18.5206     6.0678     5.5382     0.1122
  282.0000     7.8770     2.4905     0.1362   -18.5393     6.0678     5.5525     0.1058
  282.5000     7.8918     2.4971     0.1143   -18.5347     6.0678     5.5621     0.0993
  283.0000     7.9067     2.5012     0.1057   -18.1797     6.0678     5.5720     0.0930
  283.5000     7.9212     2.5131     0.1200   -17.8294     6.0678     5.5816     0.0824
  284.0000     7.9215     2.5297     0.1340   -17.4812     6.4356     5.8424     0.0721
  284.5000     7.8666     2.5464     0.1479   -17.1312     6.9026     6.2663     0.0618
  285.0000     7.8132     2.5630     0.1607   -16.7808     7.1044     6.6634     0.0534
  285.5000     7.7600     2.5797     0.1634   -16.7546     7.2664     6.9278     0.0490
  286.0000     7.7612     2.5888     0.1498   -16.7476     7.4320     7.2282     0.0642
  286.5000     7.7704     2.5813     0.1213   -16.7390     7.6015     7.3833     0.0761
  287.0000     7.7796     2.5575     0.0919   -16.7299     7.7748     7.5577     0.0870
  287.5000     7.7887     2.5366     0.0770   -16.7208     7.9256     7.7102     0.0880
  288.0000     7.7978     2.5358     0.0812   -16.7117     7.9338     7.7144     0.0848
  288.5000     7.8069     2.5375     0.0894   -16.7025     7.9426     7.7187     0.0814
  289.0000     7.8161     2.5418     0.0976   -16.6934     7.9513     7.7229     0.0778
  289.5000     7.8252     2.5464     0.1059   -16.6843     7.9600     7.7272     0.0757
  290.0000     7.8328     2.5510     0.1150   -16.6751     7.9688     7.7314     0.0719
  290.5000     7.8297     2.5556     0.1354   -16.6660     7.9776     7.7357     0.0582
  291.0000     7.8267     2.5642     0.1571   -16.6569     7.9863     7.7399     0.0444
  291.5000     7.8238     2.5807     0.1789   -16.6478     7.9951     7.7442     0.0363
  292.0000     7.8208     2.5971     0.2002   -16.6386     8.0039     7.7484     0.0415
  292.5000     7.8179     2.6097     0.1985   -16.6295     8.0127     7.7527     0.0457
  293.0000     7.8146     2.6025     0.1744   -16.6204     8.0215     7.7569     0.0526
  293.5000     7.7903     2.5900     0.1458   -16.6113     8.0303     7.7612     0.0614
  294.0000     7.7306     2.5742     0.1172   -16.6021     8.0391     7.7655     0.0703
  294.5000     7.6714     2.5582     0.0886   -16.5929     8.0479     7.7698     0.0791
  295.0000     7.6122     2.5422     0.0597   -16.5834     8.0567     7.7741     0.0878
  295.5000     7.5547     2.5344     0.0534   -16.5746     8.0656     7.7783     0.0911
  296.0000     7.5171     2.5281     0.0514   -16.5988     8.0718     7.7809     0.0944
  296.5000     7.4808     2.5219     0.0496   -16.7768     7.9571     7.6316     0.0994
  297.0000     7.4443     2.5125     0.0476   -16.9520     7.7509     7.4417     0.1067
  297.5000     7.4075     2.4990     0.0472   -17.1262     7.5499     7.1486     0.1140
  298.0000     7.3970     2.4854     0.0510   -17.3051     7.3542     6.5959     0.1305
  298.5000     7.3987     2.4651     0.0545   -17.2268     7.1635     6.1239     0.1485
  299.0000     7.4005     2.4365     0.0616   -17.0297     6.9778     6.2386     0.1665
  299.5000     7.4024     2.4081     0.0755   -16.8288     6.7769     6.4158     0.1718
  300.0000     7.4043     2.4007     0.0851   -16.6313     6.8351     6.6548     0.1409
  300.5000     7.4061     2.4432     0.0694   -15.9023     6.9204     6.6513     0.1126
  301.0000     7.4080     2.4740     0.0551   -14.9614     7.0067     6.6502     0.0878
  301.5000     7.4098     2.5068     0.0546   -14.0228     7.4982     6.7875     0.0917
  302.0000     7.4116     2.5283     0.0541   -13.2099     8.2004     7.9849     0.0956
  302.5000     7.4133     2.5226     0.0536   -13.0839     9.0163     8.9193     0.0956
  303.0000     7.4161     2.5203     0.0532   -12.9692     9.1726     9.5255     0.0922
  303.5000     7.4621     2.5275     0.0496   -12.8546     9.3080    10.0700     0.0888
  304.0000     7.5123     2.5333     0.0450   -12.7398     9.4455     9.9932     0.0874
  304.5000     7.5640     2.5306     0.0423   -12.6307     9.5850     9.9271     0.0957
  305.0000     7.5716     2.5281     0.0413   -12.2026     9.7834     9.8862     0.0925
  305.5000     7.5679     2.5256     0.0485   -11.7023    10.0030    10.4049     0.0850
  306.0000     7.5640     2.5264     0.0578   -11.2011    10.2276    10.7986     0.0896
  306.5000     7.5602     2.5274     0.0651   -10.7093    10.4572    11.3893     0.0979
  307.0000     7.5560     2.5210     0.0649   -10.0205    10.7503    12.3054     0.1073
  307.5000     7.5820     2.5045     0.0649    -9.3083    11.2800    13.3985     0.1225
  308.0000     7.6279     2.4781     0.0708    -8.6032    11.8352    14.6666     0.1377
  308.5000     7.6740     2.4520     0.0809    -7.7113    12.4184    16.0462     0.1523
  309.0000     7.7202     2.4258     0.1012    -6.8360    13.0299    17.5094     0.1645
  309.5000     7.7661     2.4129     0.1196    -5.9675    13.6717    19.9875     0.1771
  310.0000     7.7944     2.3997     0.1244    -5.0949    14.1601    22.7193     0.1909
  310.5000     7.7987     2.3744     0.1276    -4.6723    14.5664    25.8223     0.2047
  311.0000     7.8033     2.3489     0.1391    -4.5929    14.9837    26.3725     0.2153
  311.5000     7.8080     2.3229     0.1565    -4.0071    15.4138    26.4868     0.2204
  312.0000     7.8129     2.3186     0.2033    -3.4186    15.8136    25.0019     0.1888
  312.5000     7.7973     2.3749     0.2501    -2.8305    16.0652    24.3905     0.1578
  313.0000     7.7786     2.4279     0.2834    -2.2428    16.3519    24.8447     0.1410
  313.5000     7.7594     2.4440     0.2716    -1.6595    16.6428    25.0540     0.1562
  314.0000     7.7632     2.4324     0.2344    -1.2311    16.9428    24.1563     0.1694
  314.5000     7.7772     2.4139     0.1941    -1.0963    17.2081    26.9942     0.1818
  315.0000     7.7915     2.3938     0.1536    -1.0900    17.4700    27.1083     0.1883
  315.5000     7.8058     2.3739     0.1171    -1.0911    17.7342    27.2289     0.1877
  316.0000     7.8142     2.3689     0.1216    -1.0913    18.0025    28.9964     0.1900
  316.5000     7.8162     2.3659     0.1281    -1.0913    18.2752    29.9116     0.1962
