~VERSION INFORMATION
 VERS.                2.0:   CWLS LOG ASCII STANDARD - VERSION 2.0
 WRAP.                 NO:   ONE LINE PER DEPTH STEP
~WELL INFORMATION
#MNEM.UNIT      DATA TYPE    INFORMATION
#----------   ------------   ------------------------------
 STRT.F            7.0000:   START DEPTH
 STOP.F          480.0000:   STOP DEPTH
 STEP.F            0.1000:   STEP LENGTH
 NULL.          -999.2500:   NO VALUE
 COMP.       F D SERV INC:   COMPANY
 WELL.    67-2 SX-3 #67-3:   WELL
 FLD .          N.P.R. #3:   FIELD
 LOC .       S3 T38N R78W:   LOCATION
 CNTY.            NATRONA:   COUNTY
 STAT.            WYOMING:   STATE
 CTRY. UNITED STATES OF AMERICA:   COUNTRY
 SRVC.     Atlas Wireline:   SERVICE COMPANY
 DATE.        12-FEB-1992:   LOGDATE
 API .       490252250400:   API NUMBER
~CURVE INFORMATION
#MNEM.UNIT       API CODE    CURVE DESCRIPTION
#----------   ------------   ------------------------------
 DEPT.F                  :   
 SPR .MV     07 010 01 00:   SPONTANEOUS POTENTIAL
 GRR .GAPI   07 310 01 00:   GAMMA RAY
 RILD.OHMM   07 120 46 00:   INDUCTION LOG DEEP RESISTIVITY
 RILM.OHMM   07 120 44 00:   INDUCTION LOG MEDIUM RESISTIVITY
 RFOC.OHMM   07 220 04 00:   RESISTIVITY FOCUSED LOG
~PARAMETER INFORMATION
#MNEM.UNIT          VALUE    DESCRIPTION
#----------   ------------   ------------------------------
 PD  .                 GL:   PERMANENT DATUM
 EPD .F              5165:   ELEVATION PERMANENT DATUM
 LMF .                 KB:   LOG MEASURED FROM
 DAPD.F                10:   FEET ABOVE PERMANENT DATUM
 DMF .                 KB:   DRILLING MEASURED FROM
 EKB .F              5175:   KELLING BUSHING
 EDF .F              5174:   DRILLING FLOOR
 EGL .F              5165:   GROUND LEVEL
 DATE.        12-FEB-1992:   RUN DATE
 RUN .                  1:   RUN NUMBER
 DD  .F               487:   DEPTH DRILLER
 DL  .F               485:   DEPTH LOGGER
 BLI .F               482:   BOTTOM LOG INTERVAL
 CS  .IN            8.625:   CASING SIZE
 CBD .F               183:   CASING BOTTOM DRILLER
 CBL .F               186:   CASING BOTTOM LOGGER
 BS  .IN            7.875:   BIT SIZE
 BSD .F               487:   BIT SIZE AT DEPTH
 DFT .           CHEM GEL:   DRILLING FLUID TYPE
 DFD .               16.1:   DRILLING FLUID DENSITY
 DFV .                 43:   DRILLING FLUID VISCOSITY
 DFPH.                9.5:   DRILLING FLUID PH
 DFL .               11.8:   DRILLING FLUID LOSS
 MSS .           MUD TANK:   MUD SAMPLE SOURCE
 RMS .OHMM           2.36:   RESISTIVITY MUD SAMPLE
 MST .F                65:   MUD SAMPLE TEMPERATURE
 RMF .OHMM           1.17:   RESISTIVITY MUD FILTRATE SAMPLE
 MFST.F                65:   MUD FILTRATE SAMPLE TEMPERATURE
 RMC .OHMM           5.18:   RESISTIVITY MUD CAKE
 MCST.F                65:   MUD CAKE SAMPLE TEMPERATURE
 MFSS.               MEAS:   MUD FILTRATE SAMPLE SOURCE
 MCSS.               CALC:   MUD CAKE SAMPLE SOURCE
 RMB .OHMM           1.67:   RESISTIVITY MUD AT BHT
 BHT .F                92:   BOTTOM HOLE TEMPERATURE
 TCS .HRS               2:   TIME CURCULATED STOPPED
 MRT .F                92:   MAXIMUM RECORDED TEMPERATURE
 LUN .           HL- 6224:   LOGGING UNIT NUMBER
 LUL .             CASPER:   LOGGING UNIT LOCATION
 ENGI.        VERN RAUTIO:   RECORDING ENGINEER
 WITN.        GARY STRONG:   WITNESSED BY
 CLNT.            A2DTECH:   CLIENT CODE
 ORIG.           5" PRINT:   ORIGIN OF DATA
 UWI .       490252250400:   UNIQUE WELL ID
 DICO. A2D Technologies, Inc.:   DIGITIZING COMPANY
~OTHER INFORMATION
~A    DEPT     SPR        GRR       RILD       RILM       RFOC   
# ...
  446.2000   -28.0657    85.5976    15.1373    13.9968    14.0181
  446.3000   -28.0654    85.6516    15.1144    13.9974    14.1094
  446.4000   -28.0651    85.9059    15.0285    13.9980    14.1092
  446.5000   -28.0649    86.1489    14.9269    13.9985    14.1090
  446.6000   -28.0645    86.3976    14.8585    13.9991    14.1088
  446.7000   -28.0642    86.7744    14.7741    13.9997    14.1086
  446.8000   -28.0640    87.2676    14.6903    14.0004    14.1084
  446.9000   -28.0637    87.7433    14.6169    14.0009    14.1082
  447.0000   -28.0633    88.0306    14.6166    14.0015    14.0511
  447.1000   -28.0630    88.0342    14.4691    14.0021    14.0009
  447.2000   -28.0717    88.0384    14.3594    13.9915    13.9948
  447.3000   -28.2132    87.9468    14.3133    13.9061    13.9951
  447.4000   -28.2130    87.7462    14.2962    13.9066    13.9955
  447.5000   -28.2127    87.7514    14.2134    13.9072    13.9958
  447.6000   -28.2124    87.5258    14.1344    13.8707    13.9961
  447.7000   -28.2121    87.4597    14.0541    13.7733    13.9964
  447.8000   -28.2118    87.3451    14.0158    13.6177    13.9968
  447.9000   -28.2115    87.1682    13.9923    13.4642    13.9747
  448.0000   -28.2112    87.1724    13.9129    13.4339    13.8999
  448.1000   -28.2108    87.1774    13.8210    13.3905    13.9003
  448.2000   -28.2105    87.1808    13.8208    13.3417    13.9006
  448.3000   -28.2103    87.3268    13.7730    13.3521    13.8537
  448.4000   -28.2099    87.5754    13.6948    13.4362    13.8044
  448.5000   -28.2096    87.7931    13.6170    13.4367    13.7935
  448.6000   -28.2093    87.7977    13.5337    13.4372    13.7090
  448.7000   -28.2091    87.8015    13.5335    13.4378    13.6381
  448.8000   -28.2087    87.9704    13.4802    13.4204    13.6141
  448.9000   -28.2084    88.2191    13.4037    13.3456    13.5789
  449.0000   -28.2082    88.5217    13.3275    13.3462    13.5021
  449.1000   -28.2078    89.0177    13.2525    13.2871    13.4258
  449.2000   -28.2075    89.9944    13.2523    13.2122    13.3499
  449.3000   -28.2072    90.9763    13.1936    13.1377    13.3332
  449.4000   -28.2070    92.0907    13.1187    13.0636    13.2920
  449.5000   -28.2066    93.3175    13.0680    12.9821    13.2169
  449.6000   -28.0974    94.5008    13.0609    12.9168    13.1491
  449.7000   -28.0552    95.3403    12.9768    12.8930    13.1494
  449.8000   -28.0549    96.1866    12.9130    12.8284    13.0852
  449.9000   -28.0546    96.8582    12.9331    12.7157    13.0112
  450.0000   -28.0543    97.1165    12.9462    12.7162    12.9377
  450.1000   -27.9936    97.0353    12.8729    12.6832    12.8646
  450.2000   -27.9330    96.9541    12.7965    12.6501    12.7884
  450.3000   -27.8723    96.8729    12.7276    12.6171    12.7195
  450.4000   -27.8116    96.7917    12.7075    12.5841    12.6477
  450.5000   -27.7509    96.7105    12.6720    12.5510    12.5762
  450.6000   -27.6903    96.6293    12.6002    12.5403    12.5243
  450.7000   -27.6296    96.5194    12.5289    12.5087    12.5216
  450.8000   -27.6058    95.6522    12.4443    12.4380    12.4377
  450.9000   -27.5158    95.2531    12.4443    12.3667    12.3805
  451.0000   -27.2884    94.7646    12.4036    12.2978    12.3105
  451.1000   -27.1549    94.2761    12.3333    12.2283    12.2409
  451.2000   -27.0448    93.7875    12.2718    12.1229    12.1717
  451.3000   -26.9230    93.2534    12.2718    12.0065    12.0962
  451.4000   -26.8011    93.2534    12.2100    11.9386    12.0345
  451.5000   -26.7044    93.0875    12.1409    11.8604    11.9665
  451.6000   -26.7049    92.9535    12.1018    11.8040    11.8989
  451.7000   -26.5864    92.9535    12.0878    11.7373    11.8169
  451.8000   -26.4646    92.9535    12.0176    11.6709    11.6822
  451.9000   -26.4047    92.9535    11.9513    11.6049    11.6168
  452.0000   -26.3717    93.1414    11.9340    11.5345    11.6014
  452.1000   -26.2549    93.3857    11.8991    11.5345    11.5664
  452.2000   -26.2555    93.6300    11.8511    11.4891    11.5211
  452.3000   -26.2559    93.8743    11.8471    11.4241    11.5161
  452.4000   -26.2564    94.1529    11.7687    11.3749    11.4415
  452.5000   -26.2569    94.1529    11.7687    11.3749    11.3864
  452.6000   -26.2708    94.1529    11.7286    11.3749    11.3623
  452.7000   -26.4088    94.1529    11.6868    11.3247    11.3626
  452.8000   -26.4092    94.1529    11.6774    11.2959    11.3519
  452.9000   -26.4097    94.1529    11.6056    11.2959    11.2840
  453.0000   -26.4605    93.9211    11.6056    11.2899    11.2842
  453.1000   -26.5833    93.6768    11.6056    11.2175    11.2388
  453.2000   -26.7129    93.4325    11.6056    11.2175    11.2062
  453.3000   -26.8290    93.1882    11.5907    11.2175    11.1900
  453.4000   -26.8647    92.9439    11.5249    11.1917    11.1286
  453.5000   -26.9239    92.6537    11.5249    11.1396    11.1290
  453.6000   -27.0166    92.4554    11.5249    11.1396    11.0785
  453.7000   -27.0188    92.0683    11.5249    11.0799    11.0519
  453.8000   -27.1416    91.6670    11.5249    11.0623    11.0305
  453.9000   -27.2645    91.4543    11.5249    11.0316    10.9754
  454.0000   -27.3203    91.4543    11.5249    10.9855    10.9758
  454.1000   -27.3593    91.6746    11.5249    10.9855    10.9205
  454.2000   -27.4822    92.0836    11.5249    10.9855    10.8998
  454.3000   -27.6235    92.5721    11.5249    10.9355    10.8731
  454.4000   -27.6239    93.0606    11.5249    10.9092    10.8117
  454.5000   -27.6999    93.5532    11.5249    10.9092    10.7493
  454.6000   -27.7758    93.7955    11.4638    10.9092    10.6898
  454.7000   -27.7763    94.0398    11.4447    10.9092    10.6749
  454.8000   -27.7768    94.2841    11.4447    10.9092    10.6434
  454.9000   -27.7772    94.5283    11.4447    10.8686    10.6011
  455.0000   -27.8616    94.7726    11.4434    10.8334    10.6013
  455.1000   -27.9291    95.0525    11.3787    10.8334    10.6016
  455.2000   -27.9296    95.0525    11.3652    10.8334    10.5513
  455.3000   -27.9301    95.0525    11.3290    10.8334    10.5282
  455.4000   -27.9306    95.0525    11.2648    10.8334    10.5055
  455.5000   -27.9311    95.0944    11.2011    10.8020    10.4554
  455.6000   -27.8679    95.3523    11.1297    10.7582    10.5290
  455.7000   -27.7813    95.3523    11.0746    10.7548    10.5292
  455.8000   -27.7818    95.5274    11.0119    10.6835    10.5295
  455.9000   -27.7824    95.8912    10.9238    10.6835    10.5297
  456.0000   -27.6823    96.3158    10.8004    10.6835    10.5007
  456.1000   -27.6325    96.5770    10.6734    10.6835    10.3809
  456.2000   -27.5894    97.4513    10.6155    10.6835    10.2057
  456.3000   -27.4826    97.6484    10.5119    10.6835    10.0783
  456.4000   -27.4832    98.1757    10.3932    10.6835     9.9962
  456.5000   -27.4836    98.8226    10.2915    10.6424     9.9397
  456.6000   -27.5646    99.2808    10.2308    10.6094     9.8894
  456.7000   -27.6355    99.5502    10.0939    10.6094     9.9591
  456.8000   -27.6360    99.3311    10.0474    10.6094    10.0093
  456.9000   -27.6365    98.9234     9.9905    10.6094    10.0666
  457.0000   -27.7543    98.3268     9.9339    10.6094    10.1489
  457.1000   -27.7884    97.5940     9.8776    10.6094    10.2537
  457.2000   -27.7888    96.8516     9.8161    10.6094    10.3144
  457.3000   -27.8212    96.6105     9.8161    10.6094    10.3716
  457.4000   -27.9442    96.1807     9.8161    10.6094    10.4310
  457.5000   -28.0668    95.6921     9.8407    10.5584    10.4908
  457.6000   -28.0925    95.2780     9.8967    10.5357    10.5509
  457.7000   -28.0930    95.0337     9.9540    10.5124    10.6080
  457.8000   -28.0935    94.7526    10.0658    10.4626    10.6083
  457.9000   -28.0940    94.9601    10.1372    10.4626    10.6587
  458.0000   -28.0946    95.0525    10.1950    10.4626    10.7198
  458.1000   -28.0950  -999.2500    10.2530    10.4626    10.7583
  458.2000   -28.0955  -999.2500    10.3113    10.4344    10.7674
  458.3000   -28.0475  -999.2500    10.3796    10.3899    10.8343
