~VERSION INFORMATION
 VERS.                2.0:   CWLS LOG ASCII STANDARD - VERSION 2.0
 WRAP.                 NO:   ONE LINE PER DEPTH STEP
~WELL INFORMATION
#MNEM.UNIT      DATA TYPE    INFORMATION
#----------   ------------   ------------------------------
 STRT.F            6.0000:   START DEPTH
 STOP.F          765.0000:   STOP DEPTH
 STEP.F            0.5000:   STEP LENGTH
 NULL.          -999.2500:   NO VALUE
 COMP. FENIX & SCISSON INC:   COMPANY
 WELL.      24 SX 2 #24-2:   WELL
 FLD .        TEAPOT DOME:   FIELD
 LOC .       S2 T38N R78W:   LOCATION
 CNTY.            NATRONA:   COUNTY
 STAT.            WYOMING:   STATE
 CTRY. UNITED STATES OF AMERICA:   COUNTRY
 SRVC.           BIRDWELL:   SERVICE COMPANY
 DATE.        20-JAN-1978:   LOGDATE
 API .       490251055700:   API NUMBER
~CURVE INFORMATION
#MNEM.UNIT       API CODE    CURVE DESCRIPTION
#----------   ------------   ------------------------------
 DEPT.F                  :   
 SPR .MV     05 010 01 00:   SPONTANEOUS POTENTIAL FROM RES.
 SN  .OHMM   05 040 16 00:   SHORT NORMAL 16"
 ILD .OHMM   05 120 46 00:   INDUCTION LOG DEEP
 CALD.IN     45 280 60 00:   CALIPER FROM DENSITY LOG
 CORR.G/C3   45 356 01 00:   DENSITY CORRECTION
 DEN .G/C3   45 350 01 00:   COMPENSATED BULK DENSTIY
 DPHI.DEC    45 890 12 00:   DENSITY POROSITY SANDSTONE
 GRD .GAPI   45 310 01 00:   GAMMA RAY FROM DENSITY LOG
~PARAMETER INFORMATION
#MNEM.UNIT          VALUE    DESCRIPTION
#----------   ------------   ------------------------------
 PD  .                 GL:   PERMANENT DATUM
 EPD .F              5131:   ELEVATION PERMANENT DATUM
 LMF .                 KB:   LOG MEASURED FROM
 DMF .                 KB:   DRILLING MEASURED FROM
 EKB .F              5134:   KELLING BUSHING
 EGL .F              5131:   GROUND LEVEL
 DATE.        20-JAN-1978:   RUN DATE
 RUN .                  1:   RUN NUMBER
 DD  .F               775:   DEPTH DRILLER
 DL  .F               770:   DEPTH LOGGER
 BLI .F               770:   BOTTOM LOG INTERVAL
 TLI .F                40:   TOP LOG INTERVAL
 CS  .IN            8.625:   CASING SIZE
 CBD .F                39:   CASING BOTTOM DRILLER
 CBL .F                39:   CASING BOTTOM LOGGER
 BS  .IN            7.875:   BIT SIZE
 BSD .F               775:   BIT SIZE AT DEPTH
 DFT .                KCL:   DRILLING FLUID TYPE
 DFD .                8.6:   DRILLING FLUID DENSITY
 DFV .                 33:   DRILLING FLUID VISCOSITY
 DFPH.                9.5:   DRILLING FLUID PH
 DFL .                  8:   DRILLING FLUID LOSS
 MSS .           FLOWLINE:   MUD SAMPLE SOURCE
 RMS .OHMM            .31:   RESISTIVITY MUD SAMPLE
 MST .F                54:   MUD SAMPLE TEMPERATURE
 RMF .OHMM            .28:   RESISTIVITY MUD FILTRATE SAMPLE
 MFST.F                64:   MUD FILTRATE SAMPLE TEMPERATURE
 RMC .OHMM             .8:   RESISTIVITY MUD CAKE
 MCST.F                64:   MUD CAKE SAMPLE TEMPERATURE
 MFSS.               MEAS:   MUD FILTRATE SAMPLE SOURCE
 MCSS.               MEAS:   MUD CAKE SAMPLE SOURCE
 RMB .OHMM            .22:   RESISTIVITY MUD AT BHT
 BHT .F                76:   BOTTOM HOLE TEMPERATURE
 TCS .HRS            0400:   TIME CURCULATED STOPPED
 MRT .F                76:   MAXIMUM RECORDED TEMPERATURE
 LUN .               2958:   LOGGING UNIT NUMBER
 LUL .             CASPER:   LOGGING UNIT LOCATION
 ENGI.            POINTER:   RECORDING ENGINEER
 WITN.           MCGINLEY:   WITNESSED BY
 CLNT.            A2DTECH:   CLIENT CODE
 ORIG.           5" PRINT:   ORIGIN OF DATA
 UWI .       490251055700:   UNIQUE WELL ID
 DICO. A2D Technologies, Inc.:   DIGITIZING COMPANY
~OTHER INFORMATION
~A    DEPT     SPR         SN        ILD       CALD       CORR        DEN       DPHI         GRD  
# ...
   46.5000    -3.3911     0.4190     0.3541     8.2837     0.1743     1.5908  -999.2500    79.4789
   47.0000    -4.6064     0.3401     0.3212     8.3305     0.1460     1.5913  -999.2500    67.5432
   47.5000    -4.6169     0.3260     0.3188     8.3773     0.1457     1.6777  -999.2500    63.1426
   48.0000    -4.7781     0.2836     0.3536     8.4553     0.1230     1.7972  -999.2500    59.9066
   48.5000    -4.9392     0.2608     1.0939     8.5377     0.0942     1.8207  -999.2500    56.4950
   49.0000    -5.1003     0.2207     1.1009     8.6041     0.0949     1.8309  -999.2500    51.3715
   49.5000    -5.2614     0.2029     1.1472     8.6635     0.0556     1.8551  -999.2500    40.2289
   50.0000    -5.2720     0.2363     2.1397     8.7062     0.0371     1.8461  -999.2500    34.9327
   50.5000    -5.2825     0.3342     2.0234     8.7592     0.0468     1.9310  -999.2500    38.2751
   51.0000    -5.2930     0.3554     2.0508     8.7920     0.0558     1.8844  -999.2500    42.3765
   51.5000    -5.1503     0.3552     2.3547     8.8074     0.0603     1.7783  -999.2500    44.2887
   52.0000    -4.7116     0.3575     2.5579     8.8318     0.0655     1.7489  -999.2500    44.6024
   52.5000    -4.5689     0.3573     2.5749     8.8345     0.0415     1.7205  -999.2500    43.7989
   53.0000    -4.2809     0.3621     2.5381     8.8093     0.0152     1.6788  -999.2500    39.2174
   53.5000    -4.2914     0.3619     2.4002     8.6974    -0.0081     1.6642  -999.2500    31.7754
   54.0000    -4.1487     0.3617     2.0743     8.3438    -0.0201     1.6448  -999.2500    20.9457
   54.5000    -4.1619     0.3565     2.0451     7.9846    -0.0156     1.6003  -999.2500     7.4224
   55.0000    -3.7206     0.3563     2.2523     7.8641    -0.0112     1.6006  -999.2500     0.0000
   55.5000    -3.2793     0.3611     2.6040     9.0514    -0.0097     1.6001  -999.2500     0.0000
   56.0000    -2.6874     0.3661     2.6579     9.9399     0.0008     1.6013  -999.2500     0.0000
   56.5000    -2.2461     0.3853     2.6200    10.0000     0.0285     1.6053  -999.2500    11.2819
   57.0000    -2.1034     0.4269     2.3117     9.9550     0.0359     1.6101  -999.2500    22.7967
   57.5000    -2.1166     0.4568     1.9567     9.8198     0.0104     1.6126  -999.2500    31.6616
   58.0000    -2.2751     0.4864     1.9695     8.4084    -0.0016     1.6171  -999.2500    35.0373
   58.5000    -2.1350     0.5167     2.0954     8.5135     0.0006     1.6216  -999.2500    18.1752
   59.0000    -1.8443     0.5426     3.0663    10.0150     0.0156     1.6220  -999.2500    11.5546
   59.5000    -1.1045     0.6136     3.2174    10.3153     0.0373     1.6220  -999.2500    10.0545
   60.0000    -0.6632     0.7829     3.3294     9.2042     0.0043     1.6221  -999.2500    15.7832
   60.5000    -0.3725     1.0666     3.3983     7.2650     0.0222     1.6235  -999.2500    23.3441
   61.0000    -0.0813     1.4696     3.6152     6.5728     0.0312     1.7667  -999.2500    26.6384
   61.5000    -0.2429     2.3028     4.2676     6.9921     0.0327     1.9512  -999.2500    23.0944
   62.0000    -0.4041     3.7877     6.0744     7.2222     0.0371     2.0229  -999.2500    13.5181
   62.5000    -0.7158     5.1436     8.1525     7.2523     0.0453     2.0346     0.3652     7.7623
   63.0000    -1.0275     5.6851    10.2842     7.2620     0.0483     2.0364     0.3471     5.8788
   63.5000    -1.3393     6.0833    10.3453     7.2774     0.0475     2.0589     0.3354     6.4164
   64.0000    -1.8016     6.1651     9.9507     7.2928     0.0400     2.0817     0.3367     8.2309
   64.5000    -2.4145     6.3526     8.1103     7.2973     0.0340     2.0847     0.3376    11.2008
   65.0000    -3.1781     7.2140     8.1069     7.3086     0.0370     2.0833     0.3533    13.4036
   65.5000    -3.7910     7.5700     8.1035     7.3472     0.0516     2.0780     0.3690    14.4935
   66.0000    -4.1027     7.0576     8.0442     7.1171     0.0702     2.0255     0.3744    13.8815
   66.5000    -4.2639     6.9083     7.9854     6.5465     0.0889     2.0135     0.3759    10.9526
   67.0000    -4.1235     6.7622     7.8056     6.4114     0.0998     2.0128     0.3775    11.0377
   67.5000    -4.4355     6.6653     7.4783     6.5766     0.1020     2.0136     0.3724    15.7191
   68.0000    -4.7472     6.4344     6.6901     6.9520     0.0960     2.0144     0.3679    28.5361
   68.5000    -5.3602     5.9996     5.6481     7.2523     0.0967     2.0204     0.3932    46.2941
   69.0000    -5.9731     5.4789     4.4367     7.5526     0.1004     2.0057     0.3969    69.1149
   69.5000    -6.8872     5.1443     3.8639     7.8378     0.1019     1.9535     0.4179    81.5602
   70.0000    -8.7050     4.8301     3.4745     8.0480     0.0936     1.9127     0.4418    76.2249
   70.5000   -10.5227     4.2017     2.7462     7.9655     0.0816     1.8917     0.4484    65.6912
   71.0000   -13.2441     3.6806     2.6068     7.6577     0.0921     1.8818     0.4487    56.4427
   71.5000   -14.7607     3.4558     2.6264     7.3566     0.1003     1.8643     0.4249    46.7070
   72.0000   -14.6205     3.4067     2.6805     7.1562     0.0943     1.8829     0.3922    38.7389
   72.5000   -14.6311     3.5496     2.7197     7.0965     0.0747     1.9916     0.3587    30.9827
   73.0000   -14.7922     3.5472     2.8508     7.0413     0.0665     2.1725     0.3151    21.3057
   73.5000   -15.1040     3.4006     3.0575     6.9362     0.0619     2.2899     0.2644    39.8592
   74.0000   -15.4157     4.0709     3.4742     6.8529     0.0574     2.3029     0.2503    72.5781
   74.5000   -15.8780     5.1515     4.0173     6.8168     0.0566     2.2804     0.2575    83.4435
   75.0000   -16.3404     5.7533     4.4045     6.8168     0.0543     2.2287     0.2732    81.6014
   75.5000   -16.9543     5.2540     4.4900     6.8251     0.0536     2.2025     0.2891    77.6400
   76.0000   -17.7189     5.0720     4.4518     6.8604     0.0835     2.1612     0.3217    73.3273
   76.5000   -18.0286     5.1401     4.3582     6.9065     0.1090     2.1059     0.3323    70.4257
   77.0000   -17.8885     5.1372     4.0697     6.9742     0.1022     2.0932     0.2878    75.0252
   77.5000   -17.9041     5.1344     4.0680     7.0833     0.0962     2.1231     0.2854    76.2359
   78.0000   -18.2108     5.0608     4.0947     7.1832     0.1014     2.1601     0.2927    79.2539
   78.5000   -18.5296     4.9883     4.0929     7.2666     0.1111     2.1605     0.2987    84.0790
   79.0000   -19.1516     4.9168     4.0857     7.3343     0.1133     2.1520     0.2876    84.3861
   79.5000   -20.0678     4.8463     3.9176     7.3959     0.1118     2.1570     0.2855    84.3920
   80.0000   -20.3614     4.7768     3.6332     7.4675     0.0998     2.1724     0.2822    83.1931
   80.5000   -20.0706     4.7084     3.5569     7.5340     0.0743     2.1782     0.2803    81.0905
   81.0000   -19.9305     4.5138     3.2717     7.5848     0.0660     2.1879     0.3134    82.0000
   81.5000   -19.9410     4.2676     3.0094     7.6310     0.0562     2.1771     0.3148    84.4767
   82.0000   -19.8010     4.0070     2.9259     7.6657     0.0569     2.1352     0.3320    87.1888
   82.5000   -19.6461     3.6593     2.8645     7.7202     0.0651     2.0956     0.3376    88.5140
   83.0000   -19.3702     3.5080     2.8436     7.7778     0.0689     2.0820     0.3387    90.7585
   83.5000   -19.3810     3.4578     2.9021     7.7928     0.0688     2.0810     0.2996    88.4835
   84.0000   -19.4096     3.5046     2.9827     7.7778     0.0711     2.1062     0.2771    79.6666
   84.5000   -19.7224     3.5759     3.0650     7.8228     0.0742     2.1704     0.2449    73.5534
   85.0000   -20.5070     3.7001     3.1281     7.8829     0.0747     2.2346     0.2245    68.4488
   85.5000   -21.5527     3.8553     3.2370     7.8979     0.0747     2.2696     0.2251    67.9691
   86.0000   -22.4900     4.1589     3.4920     7.9129     0.0747     2.2814     0.2257    73.6868
   86.5000   -23.9854     4.2736     3.9818     7.9279     0.0770     2.2837     0.2233    81.3559
