~VERSION INFORMATION
 VERS.                2.0:   CWLS LOG ASCII STANDARD - VERSION 2.0
 WRAP.                 NO:   ONE LINE PER DEPTH STEP
~WELL INFORMATION
#MNEM.UNIT      DATA TYPE    INFORMATION
#----------   ------------   ------------------------------
 STRT.F            4.0000:   START DEPTH
 STOP.F          473.0000:   STOP DEPTH
 STEP.F            0.5000:   STEP LENGTH
 NULL.          -999.2500:   NO VALUE
 COMP.       F D SERV INC:   COMPANY
 WELL.  64-5 SX-10 #64-10:   WELL
 FLD .             TEAPOT:   FIELD
 LOC .      S10 T38N R78W:   LOCATION
 CNTY.            NATRONA:   COUNTY
 STAT.            WYOMING:   STATE
 CTRY. UNITED STATES OF AMERICA:   COUNTRY
 SRVC.     Atlas Wireline:   SERVICE COMPANY
 DATE.        11-APR-1992:   LOGDATE
 API .       490252252800:   API NUMBER
~CURVE INFORMATION
#MNEM.UNIT       API CODE    CURVE DESCRIPTION
#----------   ------------   ------------------------------
 DEPT.F                  :   
 GRR .GAPI   07 310 01 00:   GAMMA RAY
 SPR .MV     07 010 01 00:   SPONTANEOUS POTENTIAL
 RILD.OHMM   07 120 46 00:   INDUCTION LOG DEEP RESISTIVITY
 RILM.OHMM   07 120 44 00:   INDUCTION LOG MEDIUM RESISTIVITY
 RFOC.OHMM   07 220 04 00:   RESISTIVITY FOCUSED LOG
~PARAMETER INFORMATION
#MNEM.UNIT          VALUE    DESCRIPTION
#----------   ------------   ------------------------------
 PD  .                 GL:   PERMANENT DATUM
 EPD .F              5189:   ELEVATION PERMANENT DATUM
 LMF .                 KB:   LOG MEASURED FROM
 DAPD.F                10:   FEET ABOVE PERMANENT DATUM
 DMF .                 KB:   DRILLING MEASURED FROM
 EKB .F              5199:   KELLING BUSHING
 EDF .F              5198:   DRILLING FLOOR
 EGL .F              5189:   GROUND LEVEL
 DATE.        11-APR-1992:   RUN DATE
 RUN .                  1:   RUN NUMBER
 DD  .F               475:   DEPTH DRILLER
 DL  .F               475:   DEPTH LOGGER
 BLI .F               473:   BOTTOM LOG INTERVAL
 CS  .IN            8.625:   CASING SIZE
 CBD .F               130:   CASING BOTTOM DRILLER
 CBL .F               140:   CASING BOTTOM LOGGER
 BS  .IN            7.875:   BIT SIZE
 BSD .F               475:   BIT SIZE AT DEPTH
 DFT .          CHEM. GEL:   DRILLING FLUID TYPE
 DFD .               13.8:   DRILLING FLUID DENSITY
 DFV .                 62:   DRILLING FLUID VISCOSITY
 DFPH.                  9:   DRILLING FLUID PH
 DFL .                6.8:   DRILLING FLUID LOSS
 MSS .            MUDTANK:   MUD SAMPLE SOURCE
 RMS .OHMM           1.85:   RESISTIVITY MUD SAMPLE
 MST .F                72:   MUD SAMPLE TEMPERATURE
 RMF .OHMM           0.96:   RESISTIVITY MUD FILTRATE SAMPLE
 MFST.F                72:   MUD FILTRATE SAMPLE TEMPERATURE
 RMC .OHMM           3.17:   RESISTIVITY MUD CAKE
 MCST.F                72:   MUD CAKE SAMPLE TEMPERATURE
 MFSS.               MEAS:   MUD FILTRATE SAMPLE SOURCE
 MCSS.               MEAS:   MUD CAKE SAMPLE SOURCE
 RMB .OHMM           1.28:   RESISTIVITY MUD AT BHT
 BHT .F               104:   BOTTOM HOLE TEMPERATURE
 TCS .HRS               2:   TIME CURCULATED STOPPED
 MRT .F               104:   MAXIMUM RECORDED TEMPERATURE
 LUN .            HL-6274:   LOGGING UNIT NUMBER
 LUL .             CASPER:   LOGGING UNIT LOCATION
 ENGI.             RAUTIO:   RECORDING ENGINEER
 WITN.        GARY STRONG:   WITNESSED BY
 CLNT.            A2DTECH:   CLIENT CODE
 ORIG.           5" PRINT:   ORIGIN OF DATA
 UWI .       490252252800:   UNIQUE WELL ID
 DICO. A2D Technologies, Inc.:   DIGITIZING COMPANY
~OTHER INFORMATION
~A    DEPT     GRR        SPR       RILD       RILM       RFOC   
# ...
  126.0000    55.6687  -999.2500  -999.2500  -999.2500  -999.2500
  126.5000    54.5812  -999.2500  -999.2500  -999.2500  -999.2500
  127.0000    55.5054  -999.2500  -999.2500  -999.2500  -999.2500
  127.5000    55.2115  -999.2500  -999.2500  -999.2500  -999.2500
  128.0000    54.3175  -999.2500  -999.2500  -999.2500  -999.2500
  128.5000    54.6326  -999.2500  -999.2500  -999.2500  -999.2500
  129.0000    56.7659  -999.2500  -999.2500  -999.2500  -999.2500
  129.5000    58.2932  -999.2500  -999.2500  -999.2500  -999.2500
  130.0000    55.8810  -999.2500  -999.2500  -999.2500  -999.2500
  130.5000    53.4689  -999.2500  -999.2500  -999.2500  -999.2500
  131.0000    51.9658  -999.2500  -999.2500  -999.2500  -999.2500
  131.5000    52.2809  -999.2500  -999.2500  -999.2500  -999.2500
  132.0000    52.5960  -999.2500  -999.2500  -999.2500  -999.2500
  132.5000    53.8202  -999.2500  -999.2500  -999.2500  -999.2500
  133.0000    55.0445  -999.2500  -999.2500  -999.2500  -999.2500
  133.5000    55.0565  -999.2500  -999.2500  -999.2500  -999.2500
  134.0000    53.5535  -999.2500  -999.2500  -999.2500  -999.2500
  134.5000    52.0504  -999.2500  -999.2500  -999.2500  -999.2500
  135.0000    51.4534  -999.2500  -999.2500  -999.2500  -999.2500
  135.5000    52.9837  -999.2500  -999.2500  -999.2500  -999.2500
  136.0000    56.0261  -999.2500  -999.2500  -999.2500  -999.2500
  136.5000    57.2503  -999.2500  -999.2500  -999.2500  -999.2500
  137.0000    55.4442  -999.2500  -999.2500  -999.2500  -999.2500
  137.5000    51.8199  -999.2500  -999.2500  -999.2500  -999.2500
  138.0000    46.9836  -999.2500  -999.2500  -999.2500  -999.2500
  138.5000    45.7805  -999.2500  -999.2500  -999.2500  -999.2500
  139.0000    50.3411  -999.2500  -999.2500  -999.2500  -999.2500
  139.5000    62.4744  -999.2500  -999.2500  -999.2500  -999.2500
  140.0000    84.6077  -999.2500  -999.2500  -999.2500  -999.2500
  140.5000    97.6501   -50.8178  5824.1343  1957.9094     3.6944
  141.0000   101.2985   -53.5496     2.2092     3.4276     4.9212
  141.5000   100.7046   -55.2183     2.0331     3.3320     5.6997
  142.0000    95.5641   -56.7350     2.8978     4.8905     6.0700
  142.5000    90.7277   -57.9477     4.0774     5.7405     6.2860
  143.0000    89.2242   -59.0085     7.2789     8.0797     6.4192
  143.5000    89.5398   -59.9174    12.4882     8.9687     6.5097
  144.0000    90.1579   -60.5230    12.1665     8.9741     6.6014
  144.5000    90.1700   -61.1279     7.1151     8.5947     6.6943
  145.0000    89.5761   -61.4288     6.6999     8.2392     6.8842
  145.5000    87.1639   -61.1210     6.6509     8.0094     6.9812
  146.0000    84.4487   -60.2061     6.6481     9.4674     6.9812
  146.5000    81.7336   -59.2913     6.6924     9.9390     6.9812
  147.0000    80.8364   -58.5283     7.3263     9.3296     6.9326
  147.5000    79.9395   -57.6135     8.7830     8.3404     6.9326
  148.0000    79.6486   -57.7624     9.5479     7.7752     6.9812
  148.5000    79.6607   -58.9752     9.6124     7.5057     7.0795
  149.0000    79.6728   -60.3399     9.3434     7.3991     7.0795
  149.5000    79.6849   -60.6416     8.8323     7.3450     7.1292
  150.0000    79.6970   -60.9830     7.9860     7.2913     7.1101
  150.5000    81.2385   -61.5466     7.8927     7.1877     6.9950
  151.0000    84.0061   -61.2397     8.0578     7.1654     6.8814
  151.5000    86.7243   -62.3005     8.0543     7.1357     6.8838
  152.0000    87.3209   -63.5133     8.0515     7.0846     6.9268
  152.5000    86.7269   -65.3340     7.9927     7.0831     6.9739
  153.0000    85.4424   -66.8507     7.9899     7.0816     6.9724
  153.5000    84.6298   -67.3044     7.9871     7.0801     6.9710
  154.0000    85.3050   -67.1486     7.9844     6.9805     6.8724
  154.5000    85.5660   -66.8416     7.9816     6.8823     6.7755
  155.0000    83.1538   -66.6867     7.8681     6.7854     6.6800
  155.5000    80.1356   -67.7475     7.7562     6.6434     6.4492
  156.0000    81.0567   -68.3524     7.4845     6.4141     6.2262
  156.5000    82.5839   -68.8060     7.0721     6.1927     6.0957
  157.0000    83.5051   -68.4983     6.7293     6.0209     5.8850
  157.5000    83.5171   -67.1275     6.3143     5.7325     5.6420
  158.0000    83.5292   -65.7567     5.8597     5.3447     5.4470
  158.5000    83.2352   -65.2978     5.3247     4.8799     5.2221
  159.0000    83.2502   -65.7507     4.7769     4.3937     4.9716
  159.5000    82.9562   -67.5714     4.0098     3.9560     4.6025
  160.0000    82.0622   -68.9361     3.3895     3.2301     4.2907
  160.5000    80.2561   -68.9331     2.7668     2.5607     3.8897
  161.0000    77.2378   -67.5623     2.5791     2.2741     3.5759
  161.5000    74.8256   -65.8769     2.4381     2.1666     2.9807
  162.0000    70.2922   -63.4124     2.3535     2.1227     2.7211
  162.5000    69.6952   -61.1449     2.3365     2.1723     2.5546
  163.0000    70.0133   -59.9342     2.4017     2.4059     2.6265
  163.5000    70.6314   -59.6444     2.6292     2.7467     3.1496
  164.0000    73.0677   -59.6413     2.8783     3.0708     3.8570
  164.5000    77.3222   -59.6377     3.1952     3.5303     4.1067
  165.0000    80.9706   -59.7874     3.9667     3.9744     4.1637
  165.5000    81.5887   -59.9364     4.6894     4.6985     4.7877
  166.0000    88.2674   -59.7806     5.3162     5.3640     5.3535
  166.5000    89.7946   -59.3217     5.8605     5.5924     5.5817
  167.0000    86.7764   -58.5588     6.3710     5.6702     5.6592
  167.5000    81.0309   -58.4038     6.5952     5.6292     5.6185
  168.0000    79.8303   -57.9448     6.6863     5.5889     5.4624
  168.5000    83.4792   -57.7899     6.6834     5.5878     5.4232
  169.0000    89.2488   -57.9396     6.5884     5.5866     5.6161
  169.5000    91.6851   -58.2397     6.2280     5.5466     5.9402
  170.0000    92.3032   -58.3895     5.8056     5.4305     6.2364
  170.5000    92.0121   -58.2337     5.4119     4.9237     6.3684
  171.0000    91.4182   -57.9267     4.8716     4.1631     6.3629
  171.5000    91.1273   -57.6198     4.5731     3.9637     5.7568
  172.0000    91.1394   -57.3128     4.5080     3.9079     4.6208
  172.5000    92.3636   -57.1578     4.5386     4.0459     4.2682
  173.0000    92.3755   -57.1548     4.7323     3.9890     4.2080
  173.5000    89.2404   -57.1518     4.9715     3.9854     4.2367
  174.0000    85.0182   -56.8448     5.1809     4.0434     4.3256
  174.5000    83.9268   -56.6898     5.3270     4.2748     4.4474
  175.0000    84.8990   -56.2309     5.5157     4.6800     4.7353
  175.5000    87.6880   -56.0759     5.6630     5.0550     5.1488
  176.0000    92.4509   -56.0729     5.7412     5.3468     5.4821
  176.5000    92.7659   -55.9179     5.9845     5.7752     5.8780
  177.0000    92.1689   -55.7629     6.3707     6.1085     6.2150
  177.5000    93.0931   -55.9119     6.7347     6.4238     6.5254
  178.0000    91.8930   -56.5187     7.0699     6.8147     6.8514
  178.5000    90.3869   -56.6657     7.3701     6.9575     7.0443
  179.0000    91.3110   -56.2067     7.5763     7.0542     7.2426
  179.5000    92.8382   -56.0517     7.7342     7.0524     7.3435
  180.0000    93.1533   -55.7244     7.8960     7.0510     7.3935
  180.5000    93.1654   -55.4378     7.9486     6.8752     7.2889
  181.0000    94.9956   -55.6160     7.5658     6.7119     7.1862
  181.5000    97.1289   -56.1909     7.4063     6.6175     7.1346
  182.0000    96.2318   -56.6438     7.2501     6.5243     6.9850
  182.5000    95.9378   -56.0329     7.1470     6.3433     6.8866
  183.0000    96.8620   -55.2700     6.9963     6.2540     6.7895
  183.5000   101.4195   -54.3551     6.8011     6.2092     6.6471
  184.0000   104.4618   -53.7442     6.7044     6.1218     6.5534
  184.5000   104.1709   -53.4372     6.4720     5.8286     6.4611
  185.0000   101.1526   -52.9783     6.1608     5.7066     6.3700
  185.5000    98.7404   -52.8233     5.6633     5.5083     6.2365
  186.0000    99.6616   -52.6683     5.0625     5.3145     6.1486
  186.5000   100.5827   -52.5133     4.4625     5.0259     5.9360
