~VERSION INFORMATION
 VERS.                2.0:   CWLS LOG ASCII STANDARD - VERSION 2.0
 WRAP.                 NO:   ONE LINE PER DEPTH STEP
~WELL INFORMATION
#MNEM.UNIT      DATA TYPE    INFORMATION
#----------   ------------   ------------------------------
 STRT.F           41.0000:   START DEPTH
 STOP.F          433.0000:   STOP DEPTH
 STEP.F            0.5000:   STEP LENGTH
 NULL.          -999.2500:   NO VALUE
 COMP. LAWRENCE ALLISON & ASSOC.:   COMPANY
 WELL.   STX 10 #61-42-10:   WELL
 FLD .             TEAPOT:   FIELD
 LOC .      S10 T38N R78W:   LOCATION
 CNTY.            NATRONA:   COUNTY
 STAT.            WYOMING:   STATE
 CTRY. UNITED STATES OF AMERICA:   COUNTRY
 SRVC.              Welex:   SERVICE COMPANY
 DATE.        10-SEP-1987:   LOGDATE
 API .       490251116900:   API NUMBER
~CURVE INFORMATION
#MNEM.UNIT       API CODE    CURVE DESCRIPTION
#----------   ------------   ------------------------------
 DEPT.F                  :   
 GRR .GAPI   07 310 01 00:   GAMMA RAY
 GURD.OHMM   07 220 05 00:   SHALLOW SHORT GUARD RESISTIVITY
 ILD .OHMM   07 120 46 00:   INDUCTION LOG DEEP
 ILM .OHMM   07 120 44 00:   INDUCTION LOG MEDIUM
~PARAMETER INFORMATION
#MNEM.UNIT          VALUE    DESCRIPTION
#----------   ------------   ------------------------------
 PD  .                 GL:   PERMANENT DATUM
 EPD .F              5158:   ELEVATION PERMANENT DATUM
 LMF .                 KB:   LOG MEASURED FROM
 DAPD.F                 8:   FEET ABOVE PERMANENT DATUM
 DMF .                 KB:   DRILLING MEASURED FROM
 EKB .F              5166:   KELLING BUSHING
 EDF .F              5165:   DRILLING FLOOR
 EGL .F              5158:   GROUND LEVEL
 DATE.        10-SEP-1987:   RUN DATE
 RUN .                  1:   RUN NUMBER
 DD  .F               435:   DEPTH DRILLER
 DL  .F               435:   DEPTH LOGGER
 BLI .F               433:   BOTTOM LOG INTERVAL
 TLI .F                41:   TOP LOG INTERVAL
 CS  .IN            9.625:   CASING SIZE
 CBD .F                50:   CASING BOTTOM DRILLER
 CBL .F                50:   CASING BOTTOM LOGGER
 BS  .IN             8.75:   BIT SIZE
 BSD .F               435:   BIT SIZE AT DEPTH
 DFT .            KCL-GEL:   DRILLING FLUID TYPE
 RMS .OHMM            0.5:   RESISTIVITY MUD SAMPLE
 MST .F                80:   MUD SAMPLE TEMPERATURE
 RMF .OHMM           0.43:   RESISTIVITY MUD FILTRATE SAMPLE
 MFST.F                80:   MUD FILTRATE SAMPLE TEMPERATURE
 RMC .OHMM           0.68:   RESISTIVITY MUD CAKE
 MCST.F                80:   MUD CAKE SAMPLE TEMPERATURE
 MFSS.               MEAS:   MUD FILTRATE SAMPLE SOURCE
 MCSS.               MEAS:   MUD CAKE SAMPLE SOURCE
 RMB .OHMM            0.5:   RESISTIVITY MUD AT BHT
 BHT .F                80:   BOTTOM HOLE TEMPERATURE
 TCS .HRS             2.5:   TIME CURCULATED STOPPED
 TLAB.HRS            0314:   TIME LOGGER AT BOTTOM
 MRT .F                80:   MAXIMUM RECORDED TEMPERATURE
 LUN .              51165:   LOGGING UNIT NUMBER
 LUL .              GILTE:   LOGGING UNIT LOCATION
 ENGI.         JD ADDISON:   RECORDING ENGINEER
 WITN.             STRONG:   WITNESSED BY
 CLNT.            A2DTECH:   CLIENT CODE
 ORIG.           5" PRINT:   ORIGIN OF DATA
 UWI .       490251116900:   UNIQUE WELL ID
 DICO. A2D Technologies, Inc.:   DIGITIZING COMPANY
~OTHER INFORMATION
~A   DEPT       GRR      GURD        ILD        ILM   
# ...
  260.0000    69.2937    22.8572    21.8517    20.8184
  260.5000    70.5026    23.1836    22.0093    21.2617
  261.0000    72.0122    23.8407    22.3219    21.8639
  261.5000    69.9128    24.8582    22.9542    22.4831
  262.0000    65.3272    25.9190    23.7681    23.1199
  262.5000    61.8043    27.2128    24.7817    23.4482
  263.0000    63.0146    28.3741    26.1983    23.9461
  263.5000    63.3212    29.5850    27.3155    24.1188
  264.0000    63.9271    31.0617    28.2841    24.8018
  264.5000    60.3240    32.1778    29.0913    27.4200
  265.0000    61.2336    33.1104    29.5189    29.4980
  265.5000    58.2319    33.5479    29.8384    28.9021
  266.0000    54.8892    32.4158    29.0391    28.3164
  266.5000    59.7474    30.2567    28.4515    27.9350
  267.0000    62.1594    29.0341    27.6893    27.5569
  267.5000    60.9622    28.4433    27.3173    26.9985
  268.0000    62.1725    28.2548    27.1400    26.6363
  268.5000    63.0806    28.4607    27.3421    26.2778
  269.0000    65.4925    28.6660    27.7340    26.4674
  269.5000    68.2051    29.2753    28.1488    26.8732
  270.0000    70.6170    30.3212    28.7357    27.7968
  270.5000    68.5176    31.4433    29.3499    28.7824
  271.0000    66.7190    32.7316    29.5655    29.1904
  271.5000    65.8226    33.4273    29.7826    29.4008
  272.0000    65.5277    34.3748    30.2096    29.4088
  272.5000    68.8419    35.3491    30.2217    29.2140
  273.0000    67.9455    33.4544    30.0252    29.0205
  273.5000    70.6596    31.6613    29.6252    28.6316
  274.0000    73.9737    30.3819    29.2089    28.6393
  274.5000    76.0848    29.3567    28.6415    28.6470
  275.0000    79.0982    28.3660    27.8743    28.4572
  275.5000    80.0049    27.4078    27.1248    27.6884
  276.0000    78.8090    27.6246    26.0330    26.2054
  276.5000    79.7173    28.8579    25.1585    24.1253
  277.0000    78.7809    30.4334    24.4820    22.1960
  277.5000    77.6238    30.8659    23.8238    21.6102
  278.0000    81.8417    29.8243    23.1811    21.4670
  278.5000    79.1408    26.1570    22.6969    21.4743
  279.0000    81.2519    23.4218    22.1079    21.4800
  279.5000    82.7615    22.4754    21.6627    21.1907
  280.0000    76.4516    22.1710    21.2265    20.0558
  280.5000    76.7582    22.4876    20.7991    19.5137
  281.0000    74.9596    22.0315    20.6642    19.3846
  281.5000    71.6572    21.4263    20.3886    18.9849
  282.0000    70.7608    20.9791    20.2561    18.7360
  282.5000    71.9697    20.5752    20.1248    18.8724
  283.0000    70.1710    20.4389    19.9942    18.8774
  283.5000    73.1859    20.3034    20.0043    18.3674
  284.0000    75.5978    20.4513    20.0123    18.1200
  284.5000    73.7991    20.4569    19.8824    17.9988
  285.0000    72.6005    20.6045    20.0285    18.3823
  285.5000    69.6003    20.7532    20.0366    18.9029
  286.0000    64.4934    20.7588    20.0447    19.5731
  286.5000    62.9755    20.9086    20.0527    19.5624
  287.0000    67.9743    20.9143    19.9226    19.3147
  287.5000    74.2356    20.9201    19.7709    18.9245
  288.0000    80.1575    20.7813    19.3967    18.7979
  288.5000    83.4716    20.5026    19.2689    18.5448
  289.0000    82.8760    20.0868    19.1438    18.2950
  289.5000    81.0773    19.6795    19.1535    18.1738
  290.0000    82.2862    19.4142    19.0273    18.3061
  290.5000    83.7953    19.2856    18.9057    18.4381
  291.0000    79.5922    19.2908    18.9132    18.5711
  291.5000    77.7920    19.4300    18.9915    18.5773
  292.0000    77.4972    19.5702    19.0603    18.0753
  292.5000    76.3015    19.7115    19.2018    17.5858
  293.0000    76.9089    19.7169    19.3429    18.7213
  293.5000    79.0200    19.7235    19.3507    18.9858
  294.0000    80.2289    19.8658    19.4928    18.4729
  294.5000    79.3323    19.8712    19.6360    18.7364
  295.0000    80.8421    20.0146    19.7802    19.1343
  295.5000    83.9460    20.2990    19.7882    19.0076
  296.0000    85.0658    20.7304    19.7964    19.9205
  296.5000    86.8762    21.6151    19.5322    22.2976
  297.0000    87.1814    22.3821    19.5420    19.9677
  297.5000    85.3842    22.5604    19.8222    18.7680
  298.0000    84.1856    21.9341    19.9677    18.5140
  298.5000    85.9974    21.3312    19.9758    18.6487
  299.0000    83.8980    20.8860    19.8462    18.2708
  299.5000    81.7986    20.3444    19.8542    18.2621
  300.0000    80.6015    20.2082    19.7808    18.6638
  300.5000    80.0172    21.3699    19.8724    19.5980
  301.0000    79.1260    21.8285    20.8678    20.2956
  301.5000    82.1519    22.6076    22.5276    20.5866
  302.0000    83.3696    27.6483    23.6759    19.7526
  302.5000    79.4745    38.6355    24.8643    19.3602
  303.0000    74.9780    40.2123    25.7300    19.5044
  303.5000    70.1807    45.2537    25.5647    19.9213
  304.0000    67.1879    54.5760    24.3683    20.2069
  304.5000    66.3003    46.5678    22.7510    20.4966
  305.0000    71.1308    40.0059    21.3885    20.0840
  305.5000    74.7545    34.3768    19.9689    18.7497
  306.0000    78.9761    20.8974    18.3876    17.7479
  306.5000    78.0885    18.0795    17.2863    16.9162
  307.0000    82.0167    17.2305    16.5917    16.2353
  307.5000    83.8359    17.0040    16.1394    15.6900
  308.0000    82.6476    17.1322    15.8055    15.3741
  308.5000    82.3579    17.1403    15.5070    15.1706
  309.0000    79.9703    17.1484    15.4056    15.0722
  309.5000    78.1805    17.1565    15.4147    14.9729
  310.0000    79.4586    17.0463    15.4220    14.9805
  310.5000    82.8602    16.8179    15.5364    14.9865
  311.0000    85.4464    16.8279    15.4348    14.9926
  311.5000    86.6641    16.8358    15.2318    14.8953
  312.0000    87.5811    16.3840    15.0295    14.6967
  312.5000    89.4003    15.5989    14.7281    14.5007
  313.0000    90.3173    15.0743    14.5327    14.4067
  313.5000    91.5350    14.7913    14.3399    14.2146
  314.0000    88.8430    14.9011    14.1513    14.0264
  314.5000    82.8427    15.2209    14.0588    13.8394
  315.0000    83.1581    15.6555    13.8723    13.7482
  315.5000    80.1533    15.4476    13.7832    13.5663
  316.0000    81.8444    14.9293    13.7913    13.3840
  316.5000    86.5142    14.4284    13.7979    13.2056
  317.0000    84.1230    14.0412    13.9002    13.1210
  317.5000    80.8294    13.9462    13.9067    13.1265
  318.0000    82.3479    13.8613    14.0099    13.2230
  318.5000    80.2573    14.0628    14.0167    13.2285
  319.0000    79.6669    14.2655    14.0248    13.1425
  319.5000    80.2868    14.5716    14.1288    13.2404
  320.0000    80.9030    14.7817    14.1355    13.4302
  320.5000    80.3162    15.0989    14.2403    13.6228
  321.0000    79.1278    15.4229    14.2470    13.6283
  321.5000    81.6209    15.6452    14.3527    13.5385
  322.0000    85.9509    15.5446    14.3594    13.6394
  322.5000    93.9126    15.3383    14.4659    13.6449
  323.0000   101.1454    15.2397    14.1756    13.4629
  323.5000   103.8669    15.2488    13.8912    13.4685
  324.0000   102.3778    15.2560    13.6933    13.4741
  324.5000    92.7685    15.0534    13.4318    13.2039
  325.0000    85.8659    14.7511    13.1638    12.8489
  325.5000    84.0724    14.4532    13.0778    12.4173
  326.0000    87.0983    14.1646    12.9938    12.0835
  326.5000    92.5266    14.0719    12.9104    11.8402
  327.0000    97.9670    13.8865    12.9180    11.7622
  327.5000   100.3756    13.7974    12.9241    11.7682
  328.0000    98.8865    13.7013    13.1103    11.8546
  328.5000   100.4087    13.6207    13.2075    12.1080
  329.0000   100.4234    13.8187    13.3129    12.3738
  329.5000    96.2276    14.0179    13.6074    12.6466
  330.0000    91.4303    14.3187    14.0772    13.0821
  330.5000    84.8285    14.8298    14.4788    13.2697
  331.0000    84.8432    15.6813    15.3095    13.7420
  331.5000    80.9481    17.0471    16.4134    14.7318
  332.0000    77.3538    21.2826    18.0903    15.9025
  332.5000    74.9625    28.6719    20.7831    17.2854
