~VERSION INFORMATION
 VERS.                2.0:   CWLS LOG ASCII STANDARD - VERSION 2.0
 WRAP.                 NO:   ONE LINE PER DEPTH STEP
~WELL INFORMATION
#MNEM.UNIT      DATA TYPE    INFORMATION
#----------   ------------   ------------------------------
 STRT.F           28.0000:   START DEPTH
 STOP.F          546.5000:   STOP DEPTH
 STEP.F            0.5000:   STEP LENGTH
 NULL.          -999.2500:   NO VALUE
 COMP. LAWRENCE/ALLISON INC:   COMPANY
 WELL.    55-66 SX #10-10:   WELL
 FLD .            WILDCAT:   FIELD
 LOC .      S10 T38N R78W:   LOCATION
 CNTY.            NATRONA:   COUNTY
 STAT.            WYOMING:   STATE
 CTRY. UNITED STATES OF AMERICA:   COUNTRY
 SRVC.            Unknown:   SERVICE COMPANY
 DATE.        20-AUG-1984:   LOGDATE
 API .       490251098000:   API NUMBER
~CURVE INFORMATION
#MNEM.UNIT       API CODE    CURVE DESCRIPTION
#----------   ------------   ------------------------------
 DEPT.F                  :   
 CNC .DEC    42 890 03 00:   NEUTRON POROSITY SANDSTONE
 CALD.IN     45 280 60 00:   CALIPER FROM DENSITY LOG
 DEN .G/C3   45 350 01 00:   COMPENSATED BULK DENSTIY
 PORD.DEC    45 890 12 00:   POROSITY DENSITY STONESTONE
 CORR.G/C3   45 356 01 00:   DENSITY CORRECTION
 SPR .MV     07 010 01 00:   SPONTANEOUS POTENTIAL
 RFOC.OHMM   07 220 04 00:   RESISTIVITY FOCUSED LOG
 RILD.OHMM   07 120 46 00:   INDUCTION LOG DEEP RESISTIVITY
 RILM.OHMM   07 120 44 00:   INDUCTION LOG MEDIUM RESISTIVITY
 AC  .US/F   60 520 00 00:   ACCOUSTIC
 GRD .GAPI   45 310 01 00:   GAMMA RAY FROM DENSITY LOG
~PARAMETER INFORMATION
#MNEM.UNIT          VALUE    DESCRIPTION
#----------   ------------   ------------------------------
 PD  .                 GL:   PERMANENT DATUM
 EPD .F              5200:   ELEVATION PERMANENT DATUM
 LMF .                 GL:   LOG MEASURED FROM
 DMF .                 GL:   DRILLING MEASURED FROM
 EGL .F              5200:   GROUND LEVEL
 DATE.        20-AUG-1984:   RUN DATE
 RUN .                  1:   RUN NUMBER
 DD  .F               554:   DEPTH DRILLER
 DL  .F               548:   DEPTH LOGGER
 BLI .F               546:   BOTTOM LOG INTERVAL
 TLI .F                30:   TOP LOG INTERVAL
 CS  .IN            9.625:   CASING SIZE
 CBD .F                46:   CASING BOTTOM DRILLER
 CBL .F                41:   CASING BOTTOM LOGGER
 BS  .IN            7.875:   BIT SIZE
 BSD .F               554:   BIT SIZE AT DEPTH
 DFT .          KCL WATER:   DRILLING FLUID TYPE
 MSS .           FLOWLINE:   MUD SAMPLE SOURCE
 RMS .OHMM           .691:   RESISTIVITY MUD SAMPLE
 MST .F                82:   MUD SAMPLE TEMPERATURE
 MRT .F               100:   MAXIMUM RECORDED TEMPERATURE
 LUN .               6307:   LOGGING UNIT NUMBER
 LUL .               GLTE:   LOGGING UNIT LOCATION
 ENGI.           FAHLSING:   RECORDING ENGINEER
 WITN.           JENNINGS:   WITNESSED BY
 CLNT.            A2DTECH:   CLIENT CODE
 ORIG.       2", 5" PRINT:   ORIGIN OF DATA
 UWI .       490251098000:   UNIQUE WELL ID
 DICO. A2D Technologies, Inc.:   DIGITIZING COMPANY
~OTHER INFORMATION
~A   DEPT      CNC       CALD        DEN       PORD       CORR        SPR       RFOC       RILD       RILM         AC        GRD   
   28.0000  -999.2500  -999.2500  -999.2500  -999.2500  -999.2500  -999.2500  -999.2500  -999.2500  -999.2500  -999.2500   151.5940
   28.5000  -999.2500  -999.2500  -999.2500  -999.2500  -999.2500  -999.2500  -999.2500  -999.2500  -999.2500  -999.2500   151.5940
   29.0000  -999.2500  -999.2500  -999.2500  -999.2500  -999.2500  -999.2500  -999.2500  -999.2500  -999.2500  -999.2500   151.5940
   29.5000  -999.2500  -999.2500  -999.2500  -999.2500  -999.2500  -999.2500  -999.2500  -999.2500  -999.2500  -999.2500   151.5940
   30.0000  -999.2500  -999.2500  -999.2500  -999.2500  -999.2500  -999.2500  -999.2500  -999.2500  -999.2500  -999.2500   153.1220
   30.5000     0.0284  -999.2500  -999.2500  -999.2500  -999.2500  -999.2500  -999.2500  -999.2500  -999.2500  -999.2500   159.5720
   31.0000     0.0287  -999.2500  -999.2500  -999.2500  -999.2500  -999.2500  -999.2500  -999.2500  -999.2500  -999.2500   165.9180
   31.5000     0.0287  -999.2500  -999.2500  -999.2500  -999.2500  -999.2500  -999.2500  -999.2500  -999.2500  -999.2500   168.9720
   32.0000     0.0286  -999.2500  -999.2500  -999.2500  -999.2500  -999.2500  -999.2500  -999.2500  -999.2500  -999.2500   167.6920
   32.5000     0.0289  -999.2500  -999.2500  -999.2500  -999.2500  -999.2500  -999.2500  -999.2500  -999.2500  -999.2500   167.8500
   33.0000     0.0292  -999.2500  -999.2500  -999.2500  -999.2500  -999.2500  -999.2500  -999.2500  -999.2500  -999.2500   168.2560
   33.5000     0.0295  -999.2500  -999.2500  -999.2500  -999.2500  -999.2500  -999.2500  -999.2500  -999.2500  -999.2500   168.7100
   34.0000     0.0294  -999.2500  -999.2500  -999.2500  -999.2500  -999.2500  -999.2500  -999.2500  -999.2500  -999.2500   166.5240
   34.5000     0.0294  -999.2500  -999.2500  -999.2500  -999.2500  -999.2500  -999.2500  -999.2500  -999.2500  -999.2500   163.3930
   35.0000     0.0293  -999.2500  -999.2500  -999.2500  -999.2500  -999.2500  -999.2500  -999.2500  -999.2500  -999.2500   158.4870
   35.5000     0.0284  -999.2500  -999.2500  -999.2500  -999.2500  -999.2500  -999.2500  -999.2500  -999.2500  -999.2500   153.4310
   36.0000     0.0283  -999.2500  -999.2500  -999.2500  -999.2500  -999.2500  -999.2500  -999.2500  -999.2500  -999.2500   154.3320
   36.5000     0.0280  -999.2500  -999.2500  -999.2500  -999.2500  -999.2500  -999.2500  -999.2500  -999.2500  -999.2500   156.7140
   37.0000     0.0280  -999.2500  -999.2500  -999.2500  -999.2500  -999.2500  -999.2500  -999.2500  -999.2500  -999.2500   158.2420
   37.5000     0.0279  -999.2500  -999.2500  -999.2500  -999.2500  -999.2500  -999.2500  -999.2500  -999.2500  -999.2500   156.2700
   38.0000     0.0282  -999.2500  -999.2500  -999.2500  -999.2500  -999.2500  -999.2500  -999.2500  -999.2500  -999.2500   153.1170
   38.5000     0.0282  -999.2500  -999.2500  -999.2500  -999.2500  -999.2500  -999.2500  -999.2500  -999.2500  -999.2500   149.9850
   39.0000     0.0287  -999.2500  -999.2500  -999.2500  -999.2500  -999.2500  -999.2500  -999.2500  -999.2500  -999.2500   146.8330
   39.5000     0.0284  -999.2500  -999.2500  -999.2500  -999.2500  -999.2500  -999.2500  -999.2500  -999.2500  -999.2500   145.1550
   40.0000     0.0280  -999.2500     2.0060  -999.2500  -999.2500   -48.7100 10037.5752  1901.4020  -999.2500  -999.2500   145.2150
   40.5000     0.0277  -999.2500     2.0060     0.4410    -0.6686   -47.7030 10037.5752  9817.2783  1918.9600  -999.2500   150.5070
   41.0000     0.0311     8.3910     2.1200     0.3820    -0.4469   -45.8710  9988.0000  9878.4189  1918.9600  -999.2500   161.3250
   41.5000     0.0341     8.1280     2.3110     0.3180    -0.2288   -43.9480  9923.8770  9939.5596  1918.9600  -999.2500   172.9430
   42.0000     0.0369     7.9410     2.3090     0.2150    -0.0977   -41.2230  9930.4893 10000.7002  1990.7710  -999.2500   185.0080
   42.5000     0.0393     7.9220     2.3820     0.1780    -0.0130   -36.1500  1990.0807    44.6800   773.2690  -999.2500   189.9670
   43.0000     0.0399     7.9310     2.3920     0.1720    -0.0240   -30.9220   604.7112    20.6790    48.1510  -999.2500   193.3250
   43.5000     0.0398     7.9260     2.4010     0.1660    -0.0220   -29.1650   373.2164     2.1720     5.0610  -999.2500   195.8080
   44.0000     0.0395     7.9100     2.4100     0.1600    -0.0070   -27.5240   289.1605     2.3620     3.9490  -999.2500   193.8390
   44.5000     0.0395     7.8480     2.4200     0.1540     0.0080   -21.3980   232.1396     2.6650     5.2440  -999.2500   191.8780
   45.0000     0.0400     7.7860     2.4270     0.1530     0.0070   -14.7320   172.3490     4.7860     6.3680  -999.2500   190.9370
   45.5000     0.0428     7.7280     2.4240     0.1540     0.0050    -7.7870   107.1292     9.4550     9.4790  -999.2500   199.3840
   46.0000     0.0437     7.7620     2.4210     0.1550     0.0110     0.7790    66.1182     8.7010    13.9110  -999.2500   207.5230
   46.5000     0.0430     7.8140     2.4280     0.1490     0.0280    10.3750    26.0789     7.4140    13.7830  -999.2500   206.8100
   47.0000     0.0421     7.8660     2.4390     0.1420     0.0280     8.0320    22.1611     6.8540    13.5320  -999.2500   197.2950
   47.5000     0.0411     7.9170     2.4510     0.1350     0.0270    -2.5470    23.6406     6.8140    13.5320  -999.2500   190.9470
   48.0000     0.0429     7.9610     2.4590     0.1320     0.0310    -3.4350    52.4702     6.5460    14.5650  -999.2500   188.3690
   48.5000     0.0444     7.9400     2.4580     0.1340     0.0450     6.4290   162.0207     6.3680    14.1690  -999.2500   187.7170
   49.0000     0.0444     7.9160     2.4570     0.1350     0.0450    10.6910   667.4674     6.8440    12.4320  -999.2500   187.1980
   49.5000     0.0447     7.8920     2.4560     0.1350     0.0310    14.9420  1888.3108     7.2000    11.1570  -999.2500   185.2320
   50.0000     0.0446     7.8690     2.4620     0.1320     0.0170    18.9990  8770.1152     7.5560    10.3780  -999.2500   183.1360
   50.5000     0.0446     7.8440     2.4670     0.1280     0.0040    21.0640  9761.9268     7.9130     9.6770  -999.2500   185.0690
   51.0000     0.0445     7.8600     2.4720     0.1250     0.0030    17.3360  9764.6436     8.2380     8.6250  -999.2500   187.8820
   51.5000     0.0445     7.8930     2.4650     0.1310     0.0150    13.1990  9767.3604     8.1030     8.6470  -999.2500   190.1140
   52.0000     0.0451     7.8910     2.4610     0.1310     0.0260     8.8150  9770.0771     7.8340     8.6920  -999.2500   189.3750
   52.5000     0.0451     7.8510     2.4640     0.1290     0.0370     6.5590  9772.7939     7.5650     8.7360  -999.2500   188.1490
   53.0000     0.0450     7.8120     2.4670     0.1280     0.0460     5.8760  9775.5107     7.3770     8.7850  -999.2500   189.6490
   53.5000     0.0441     7.7690     2.4690     0.1290     0.0350     2.9280  9778.2275     7.6310     8.6250  -999.2500   192.6250
   54.0000     0.0431     7.7300     2.4660     0.1310     0.0230    -0.0450  9780.9443     7.8970     9.3710  -999.2500   192.6680
   54.5000     0.0427     7.7600     2.4630     0.1310     0.0250    -1.4280  9783.6611     8.1620     9.8830  -999.2500   191.1180
   55.0000     0.0473     7.8580     2.4650     0.1280     0.0300    -2.7880  9786.3779     8.4280    10.3950  -999.2500   189.1450
   55.5000     0.0504     7.8800     2.4730     0.1180     0.0360    -2.2800  9789.0947     8.6940    10.7540  -999.2500   184.8850
   56.0000     0.0528     7.8640     2.4960     0.1070     0.0320    -1.2500  9791.8115     8.9590    10.6820  -999.2500   178.7930
   56.5000     0.0497     7.8460     2.5300     0.0960     0.0240    -5.8530  9794.5283     9.2830    10.6170  -999.2500   173.2580
   57.0000     0.0475     7.8270     2.5220     0.0900     0.0250   -10.9820  9797.2441     9.1880    10.5510  -999.2500   175.8990
   57.5000     0.0441     7.8240     2.5040     0.1070     0.0240   -16.1150  9799.9609     9.0510    10.4860  -999.2500   178.7370
   58.0000     0.0418     7.8570     2.4850     0.1190     0.0100   -21.2280  9802.6777     8.9150    10.4210  -999.2500   181.5580
