~VERSION INFORMATION
 VERS.                2.0:   CWLS LOG ASCII STANDARD - VERSION 2.0
 WRAP.                 NO:   ONE LINE PER DEPTH STEP
~WELL INFORMATION
#MNEM.UNIT      DATA TYPE    INFORMATION
#----------   ------------   ------------------------------
 STRT.F            0.0000:   START DEPTH
 STOP.F         4113.0000:   STOP DEPTH
 STEP.F            0.5000:   STEP LENGTH
 NULL.          -999.2500:   NO VALUE
 COMP. LAWRENCE/ALLISON INC:   COMPANY
 WELL.  NPR # #3 76 -MX-3:   WELL
 FLD .             TEAPOT:   FIELD
 LOC .       S3 T38N R78W:   LOCATION
 CNTY.            NATRONA:   COUNTY
 STAT.            WYOMING:   STATE
 CTRY. UNITED STATES OF AMERICA:   COUNTRY
 SRVC.      Dresser Atlas:   SERVICE COMPANY
 DATE.        04-SEP-1983:   LOGDATE
 API .       490251094300:   API NUMBER
~CURVE INFORMATION
#MNEM.UNIT       API CODE    CURVE DESCRIPTION
#----------   ------------   ------------------------------
 DEPT.F                  :   
 GRR .GAPI   07 310 01 00:   GAMMA RAY
 SPR .MV     07 010 01 00:   SPONTANEOUS POTENTIAL
 RILD.OHMM   07 120 46 00:   INDUCTION LOG DEEP RESISTIVITY
 RILM.OHMM   07 120 44 00:   INDUCTION LOG MEDIUM RESISTIVITY
 RFOC.OHMM   07 220 04 00:   RESISTIVITY FOCUSED LOG
 CNCF.DEC    42 890 03 00:   NEUTRON POROSITY SANDSTONE
 PORD.DEC    45 890 12 00:   POROSITY DENSITY SANDSTONE
 CALD.IN     45 280 60 00:   CALIPER FROM DENSITY LOG
 CORR.G/C3   45 356 01 00:   DENSITY CORRECTION
 DEN .G/C3   45 350 01 00:   COMPENSATED BULK DENSTIY
 AC  .US/F   60 520 00 00:   ACCOUSTIC
~PARAMETER INFORMATION
#MNEM.UNIT          VALUE    DESCRIPTION
#----------   ------------   ------------------------------
 PD  .                 GL:   PERMANENT DATUM
 EPD .F              5147:   ELEVATION PERMANENT DATUM
 LMF .                 KB:   LOG MEASURED FROM
 DAPD.F                10:   FEET ABOVE PERMANENT DATUM
 DMF .                 KB:   DRILLING MEASURED FROM
 EKB .F              5157:   KELLING BUSHING
 EGL .F              5147:   GROUND LEVEL
 DATE.        04-SEP-1983:   RUN DATE
 RUN .                  1:   RUN NUMBER
 DD  .F              4119:   DEPTH DRILLER
 DL  .F              4115:   DEPTH LOGGER
 BLI .F              4112:   BOTTOM LOG INTERVAL
 CS  .IN            9.625:   CASING SIZE
 CBD .F               491:   CASING BOTTOM DRILLER
 CBL .F               494:   CASING BOTTOM LOGGER
 BS  .IN             8.75:   BIT SIZE
 BSD .F              4119:   BIT SIZE AT DEPTH
 DFT .            KCL GEL:   DRILLING FLUID TYPE
 DFD .                8.9:   DRILLING FLUID DENSITY
 DFV .                 46:   DRILLING FLUID VISCOSITY
 DFPH.                9.0:   DRILLING FLUID PH
 DFL .               13.6:   DRILLING FLUID LOSS
 MSS .           MUD TANK:   MUD SAMPLE SOURCE
 RMS .OHMM           .315:   RESISTIVITY MUD SAMPLE
 MST .F                92:   MUD SAMPLE TEMPERATURE
 RMF .OHMM            .25:   RESISTIVITY MUD FILTRATE SAMPLE
 MFST.F                84:   MUD FILTRATE SAMPLE TEMPERATURE
 RMC .OHMM             .4:   RESISTIVITY MUD CAKE
 MCST.F                92:   MUD CAKE SAMPLE TEMPERATURE
 MFSS.               MEAS:   MUD FILTRATE SAMPLE SOURCE
 MCSS.               CALC:   MUD CAKE SAMPLE SOURCE
 RMB .OHMM            .22:   RESISTIVITY MUD AT BHT
 BHT .F               132:   BOTTOM HOLE TEMPERATURE
 TCS .HRS               4:   TIME CURCULATED STOPPED
 MRT .F               132:   MAXIMUM RECORDED TEMPERATURE
 LUN .               6274:   LOGGING UNIT NUMBER
 LUL .              GLTE.:   LOGGING UNIT LOCATION
 ENGI.             RAUTIO:   RECORDING ENGINEER
 WITN.             STRONG:   WITNESSED BY
 CLNT.            A2DTECH:   CLIENT CODE
 ORIG.        2" 5" PRINT:   ORIGIN OF DATA
 UWI .       490251094300:   UNIQUE WELL ID
 DICO. A2D Technologies, Inc.:   DIGITIZING COMPANY
~OTHER INFORMATION
~A    DEPT     GRR        SPR       RILD       RILM       RFOC       CNCF       PORD       CALD       CORR        DEN         AC   
# ...
  976.0000    85.2282   -46.1224     9.1926     9.0835     9.0774     0.2380     0.0807     9.1880     0.0639     2.5202  -999.2500
  976.5000    87.7043   -46.1409     9.1867     9.0784     9.0716     0.2353     0.0783     9.1870     0.0623     2.5202  -999.2500
  977.0000    96.4402   -46.3162     9.1148     9.0078     9.0657     0.2446     0.0785     9.2012     0.0528     2.5179  -999.2500
  977.5000   103.9242   -46.4914     9.0434     8.9379     8.9945     0.2605     0.0803     9.2000     0.0275     2.5156  -999.2500
  978.0000   102.3315   -46.5099     8.9727     8.9328     8.9886     0.2653     0.0815     9.1991    -0.0027     2.5163  -999.2500
  978.5000    99.7998   -46.6852     8.9024     8.8634     8.9169     0.2584     0.0812     9.1982    -0.0118     2.5178  -999.2500
  979.0000    99.1530   -46.7037     8.8967     8.7945     8.9112     0.2396     0.0794     9.1973    -0.0074     2.5170  -999.2500
  979.5000   104.1261   -46.7222     8.8271     8.7262     8.8413     0.2391     0.0781     9.1964     0.0031     2.5094  -999.2500
  980.0000   106.2962   -46.5794     8.7580     8.6584     8.7719     0.2433     0.0802     9.1955     0.0015     2.5019  -999.2500
  980.5000   102.1926   -46.6025     8.7524     8.6535     8.7663     0.2505     0.0832     9.2096    -0.0046     2.4981  -999.2500
  981.0000    89.6453   -46.6210     8.7467     8.6486     8.7606     0.2661     0.0889     9.2085    -0.0212     2.4965  -999.2500
  981.5000    84.6097   -46.6395     8.7410     8.6436     8.7550     0.2783     0.0925     9.2076    -0.0349     2.4973  -999.2500
  982.0000    85.5209   -46.6583     8.7354     8.6387     8.7494     0.2764     0.0934     9.2067    -0.0204     2.5049  -999.2500
  982.5000    89.5925   -46.6771     8.7286     8.6337     8.8087     0.2685     0.0874     9.2058     0.0117     2.5122  -999.2500
  983.0000    95.8852   -46.8527     8.7230     8.6915     8.8655     0.2640     0.0819     9.2049     0.0267     2.5077  -999.2500
  983.5000    99.5617   -46.8750     8.7174     8.6853     8.8598     0.2549     0.0828     9.2039     0.0100     2.5016  -999.2500
  984.0000   100.1202   -46.8935     8.7764     8.7446     8.9187     0.2423     0.0853     9.2030    -0.0157     2.5001  -999.2500
  984.5000    97.8946   -46.7506     8.8343     8.8030     8.9776     0.2326     0.0903     9.2019    -0.0155     2.5000  -999.2500
  985.0000    94.4239   -46.6170     8.8912     8.8606     8.9717     0.2299     0.0912     9.2010     0.0007     2.5007  -999.2500
  985.5000    92.2052   -46.6356     8.8855     8.8555     8.9659     0.2311     0.0909     9.2001     0.0248     2.5082  -999.2500
  986.0000    92.8034   -46.4927     8.9456     8.9147     9.0252     0.2380     0.0873     9.1992     0.0277     2.5127  -999.2500
  986.5000    94.6536   -46.6726     8.9384     8.8455     8.9542     0.2407     0.0839     9.1983     0.0275     2.5134  -999.2500
  987.0000    95.2587   -46.6911     8.8685     8.7135     8.9472     0.2420     0.0824     9.1974     0.0402     2.5089  -999.2500
  987.5000    92.7201   -46.7096     8.7358     8.5836     8.8770     0.2539     0.0830     9.1964     0.0696     2.5043  -999.2500
  988.0000    93.3183   -46.5714     8.6050     8.5169     8.8074     0.2600     0.0839     9.1953     0.0741     2.5020  -999.2500
  988.5000    94.8555   -46.5899     8.4763     8.3898     8.6753     0.2518     0.0854     9.1794     0.0499     2.5005  -999.2500
  989.0000    97.9576   -46.4514     8.3494     8.3247     8.6072     0.2407     0.0887     9.1785     0.0092     2.4997  -999.2500
  989.5000    99.8078   -46.4702     8.2244     8.2598     8.5397     0.2416     0.0904     9.1928    -0.0044     2.5012  -999.2500
  990.0000    98.8410   -46.4890     8.1600     8.1958     8.4727     0.2406     0.0907     9.1917    -0.0045     2.5064  -999.2500
  990.5000    96.3093   -46.6646     8.0950     8.1320     8.4062     0.2488     0.0892     9.1908     0.0014     2.5161  -999.2500
  991.0000    98.4725   -47.0006     8.0898     8.1264     8.3402     0.2530     0.0853     9.1898     0.0270     2.5246  -999.2500
  991.5000    98.7577   -47.0191     8.0265     8.0632     8.2748     0.2602     0.0789     9.1887     0.0495     2.5379  -999.2500
  992.0000    93.3206   -47.0376     8.0213     8.0587     8.2099     0.2746     0.0687     9.1878     0.0554     2.5311  -999.2500
  992.5000    91.5034   -47.0561     8.0162     8.0541     8.2046     0.2755     0.0701     9.1719     0.0448     2.5213  -999.2500
  993.0000    93.3536   -47.0747     8.0111     8.0495     8.1402     0.2721     0.0768     9.1710     0.0251     2.5175  -999.2500
  993.5000    93.6388   -47.0932     8.0059     8.0449     8.1942     0.2679     0.0804     9.1701     0.0236     2.5167  -999.2500
  994.0000    94.5430   -46.9503     8.0008     8.0403     8.1888     0.2646     0.0821     9.1692     0.0461     2.5181  -999.2500
  994.5000    97.6451   -47.1302     7.9957     8.0941     8.1835     0.2619     0.0788     9.1682     0.0596     2.5189  -999.2500
  995.0000   104.1901   -47.1487     7.9906     8.0894     8.1782     0.2598     0.0791     9.1671     0.0580     2.5188  -999.2500
  995.5000   106.0472   -47.1672     7.9855     8.0848     8.1731     0.2501     0.0794     9.1662     0.0564     2.5241  -999.2500
  996.0000   102.8826   -47.1858     7.9804     8.0802     8.2271     0.2486     0.0745     9.1653     0.0563     2.5285  -999.2500
  996.5000   100.0379   -47.2043     7.9753     8.1342     8.2205     0.2573     0.0727     9.1644     0.0562     2.5300  -999.2500
  997.0000    97.1933   -47.2228     7.9702     8.1296     8.2152     0.2712     0.0739     9.1635     0.0609     2.5277  -999.2500
  997.5000    98.7304   -47.2414     7.9650     8.1250     8.2100     0.2703     0.0754     9.1626     0.0772     2.5254  -999.2500
  998.0000   102.7715   -47.2598     7.9598     8.1203     8.2047     0.2540     0.0763     9.1617     0.0801     2.5230  -999.2500
  998.5000   105.8736   -47.1216     7.9549     8.1156     8.1994     0.2513     0.0766     9.1605     0.0680     2.5200  -999.2500
  999.0000   106.1596   -46.9880     8.0074     8.1100     8.1942     0.2537     0.0787     9.1596     0.0483     2.5185  -999.2500
  999.5000   106.1311   -47.0065     8.0010     8.1053     8.2497     0.2621     0.0811     9.1587     0.0238     2.5162  -999.2500
 1000.0000   104.8513   -46.8597     7.9971     8.1628     8.2676     0.2648     0.0823     9.1579     0.0211     2.5147  -999.2500
 1000.5000    99.8185   -46.8117     8.0771     8.1892     8.4089     0.2627     0.0831     9.1572     0.0320     2.5109  -999.2500
 1001.0000    99.4804   -46.7637     8.1509     8.2108     8.4147     0.2605     0.0831     9.1564     0.0529     2.5116  -999.2500
 1001.5000   100.0820   -46.7570     8.2172     8.2049     8.3492     0.2590     0.0831     9.1557     0.0466     2.5101  -999.2500
 1002.0000   101.3500   -46.7784     8.2720     8.2002     8.2842     0.2602     0.0834     9.1549     0.0390     2.5078  -999.2500
 1002.5000   102.2233   -46.7955     8.2660     8.1365     8.2794     0.2638     0.0861     9.1541     0.0405     2.5071  -999.2500
 1003.0000    99.0623   -46.8127     8.2613     8.1318     8.2149     0.2650     0.0857     9.1533     0.0405     2.5086  -999.2500
 1003.5000    94.9686   -46.8298     8.2566     8.1271     8.2102     0.2635     0.0845     9.1526     0.0359     2.5070  -999.2500
 1004.0000    90.5620   -46.8469     8.2518     8.0639     8.2054     0.2590     0.0845     9.1517     0.0269     2.4995  -999.2500
 1004.5000    88.3462   -46.8640     8.2471     8.0593     8.1998     0.2535     0.0881     9.1510     0.0163     2.4942  -999.2500
 1005.0000    89.2603   -46.8812     8.2424     8.0547     8.1950     0.2545     0.0920     9.1503     0.0042     2.4980  -999.2500
 1005.5000    93.6173   -46.7416     8.2376     8.0500     8.1903     0.2553     0.0932     9.1346     0.0072     2.5040  -999.2500
 1006.0000   102.0432   -46.7587     8.2329     7.9875     8.1856     0.2565     0.0904     9.1187     0.0252     2.5070  -999.2500
