~VERSION INFORMATION
 VERS.                2.0:   CWLS LOG ASCII STANDARD - VERSION 2.0
 WRAP.                 NO:   ONE LINE PER DEPTH STEP
~WELL INFORMATION
#MNEM.UNIT      DATA TYPE    INFORMATION
#----------   ------------   ------------------------------
 STRT.F           30.0000:   START DEPTH
 STOP.F          626.0000:   STOP DEPTH
 STEP.F            0.5000:   STEP LENGTH
 NULL.          -999.2500:   NO VALUE
 COMP.       F D SERV INC:   COMPANY
 WELL.    63-2 SX-3 #63-3:   WELL
 FLD .             TEAPOT:   FIELD
 LOC .       S3 T38N R78W:   LOCATION
 CNTY.            NATRONA:   COUNTY
 STAT.            WYOMING:   STATE
 CTRY. UNITED STATES OF AMERICA:   COUNTRY
 SRVC.     Atlas Wireline:   SERVICE COMPANY
 DATE.        29-APR-1992:   LOGDATE
 API .       490252251900:   API NUMBER
~CURVE INFORMATION
#MNEM.UNIT       API CODE    CURVE DESCRIPTION
#----------   ------------   ------------------------------
 DEPT.F                  :   
 CALD.IN     45 280 60 00:   CALIPER FROM DENSITY
 CORR.G/C3   45 356 01 00:   DENSITY CORRECTION
 DEN .G/C3   45 350 01 00:   COMPENSATED BULK DENSTIY
 GRD .GAPI   45 310 01 00:   GAMMA RAY FROM DENSITY LOG
 PORD.DEC    45 890 12 00:   POROSITY DENSITY SANDSTONE
 RILD.OHMM   07 120 46 00:   INDUCTION LOG DEEP RESISTIVITY
 RILM.OHMM   07 120 44 00:   INDUCTION LOG MEDIUM RESISTIVITY
~PARAMETER INFORMATION
#MNEM.UNIT          VALUE    DESCRIPTION
#----------   ------------   ------------------------------
 PD  .                 GL:   PERMANENT DATUM
 EPD .F              5160:   ELEVATION PERMANENT DATUM
 LMF .                 KB:   LOG MEASURED FROM
 DAPD.F                 5:   FEET ABOVE PERMANENT DATUM
 DMF .                 KB:   DRILLING MEASURED FROM
 EKB .F              5165:   KELLING BUSHING
 EGL .F              5160:   GROUND LEVEL
 DATE.        29-APR-1992:   RUN DATE
 RUN .                  1:   RUN NUMBER
 DD  .F               630:   DEPTH DRILLER
 DL  .F               629:   DEPTH LOGGER
 BLI .F               626:   BOTTOM LOG INTERVAL
 CS  .IN            8.625:   CASING SIZE
 CBD .F                45:   CASING BOTTOM DRILLER
 CBL .F                45:   CASING BOTTOM LOGGER
 BS  .IN            7.875:   BIT SIZE
 BSD .F               630:   BIT SIZE AT DEPTH
 DFT .                AIR:   DRILLING FLUID TYPE
 LUN .            HL-6212:   LOGGING UNIT NUMBER
 LUL .             CASPER:   LOGGING UNIT LOCATION
 ENGI.             ZIEGEN:   RECORDING ENGINEER
 WITN.             STRONG:   WITNESSED BY
 CLNT.            A2DTECH:   CLIENT CODE
 ORIG.           5" PRINT:   ORIGIN OF DATA
 UWI .       490252251900:   UNIQUE WELL ID
 DICO. A2D Technologies, Inc.:   DIGITIZING COMPANY
~OTHER INFORMATION
~A   DEPT     CALD       CORR        DEN        GRD       PORD       RILD       RILM   
# ...
  303.0000     8.2588     0.0117     2.5079   188.7478     0.0851     7.0798     6.9014
  303.5000     8.2582     0.0117     2.5094   186.9232     0.0860     6.8850     6.9000
  304.0000     8.2727     0.0102     2.5117   192.0474     0.0811     6.7891     6.8034
  304.5000     8.2884     0.0072     2.5154   202.3074     0.0811     6.5567     6.4343
  305.0000     8.3017     0.0041     2.5139   218.9119     0.0829     6.1162     6.0431
  305.5000     8.3009    -0.0004     2.5079   223.4572     0.0863     5.7053     5.5586
  306.0000     8.3004    -0.0019     2.4996   219.1903     0.0914     5.3220     5.0076
  306.5000     8.2847    -0.0004     2.4846   210.5178     0.1028     5.0338     4.8022
  307.0000     8.2841     0.0117     2.4504   203.8088     0.1164     4.7944     4.6052
  307.5000     8.2835     0.0237     2.4014   198.9112     0.1577     4.7606     4.6686
  308.0000     8.2829     0.0313     2.3708   196.7845     0.1718     4.8265     4.8326
  308.5000     8.2823     0.0343     2.3775   198.2832     0.1668     4.8934     5.0024
  309.0000     8.2968     0.0237     2.4273   205.5222     0.1308     5.1719     5.2871
  309.5000     8.2962    -0.0019     2.4763   212.1568     0.1043     5.5815     5.6270
  310.0000     8.3107    -0.0094     2.5034   216.0725     0.0913     6.0654     5.9061
  310.5000     8.3415    -0.0043     2.5026   215.7584     0.0889     6.4108     6.3737
  311.0000     8.3699    -0.0019     2.5019   219.5729     0.0886     6.8706     6.7365
  311.5000     8.4144    -0.0094     2.4966   225.0975     0.0950     7.3125     7.0706
  312.0000     8.4290    -0.0124     2.4778   227.5055     0.1082     7.6227     7.3288
  312.5000     8.4586    -0.0049     2.4205   207.8533     0.1420     7.7820     7.5327
  313.0000     8.4578     0.0237     2.3255   197.9741     0.1815     7.7806     7.5749
  313.5000     8.4573     0.0463     2.2916   194.2364     0.2161     7.7795     7.5208
  314.0000     8.4114     0.0539     2.3037   196.6415     0.2152     7.8329     7.4155
  314.5000     8.3505     0.0418     2.3647   194.5119     0.1320     7.8315     7.5222
  315.0000     8.3047     0.0298     2.4936   190.2704     0.1105     7.8304     7.6213
  315.5000     8.2890     0.0177     2.5147   187.2374     0.0830     7.8842     7.7288
  316.0000     8.2733     0.0087     2.5207   193.2679     0.0780     7.9380     7.7799
  316.5000     8.2425     0.0011     2.5215   204.1312     0.0777     7.8817     7.9406
  317.0000     8.2269     0.0027     2.5184   205.0287     0.0792     7.8806     7.9389
  317.5000     8.2111     0.0150     2.5162   200.8990     0.0808     7.8795     7.7736
  318.0000     8.1803     0.0222     2.5200   194.7311     0.0750     7.8239     7.6117
  318.5000     8.1646     0.0222     2.5418   193.8129     0.0636     7.8228     7.4016
  319.0000     8.1640     0.0207     2.5516   195.3615     0.0584     7.8217     7.5558
  319.5000     8.1634     0.0192     2.5531   197.7138     0.0581     7.7665     7.7133
  320.0000     8.1930     0.0162     2.5501   198.3062     0.0611     7.7118     7.7117
  320.5000     8.2227     0.0057     2.5479   197.9922     0.0623     7.6573     7.5511
  321.0000     8.2522    -0.0245     2.5479   197.6783     0.0632     7.6033     7.1414
  321.5000     8.2667    -0.0320     2.5403   197.3673     0.0669     7.5497     7.2903
  322.0000     8.2510    -0.0170     2.5335   200.0715     0.0693     7.5486     7.3907
  322.5000     8.2504    -0.0004     2.5320   202.1775     0.0717     7.6004     7.4929
  323.0000     8.2498     0.0043     2.5283   198.9912     0.0729     7.5991     7.3876
  323.5000     8.2491    -0.0049     2.5260   195.8044     0.0741     7.3702     7.3350
  324.0000     8.2485    -0.0170     2.5064   195.1913     0.0822     6.9810     6.9854
  324.5000     8.2631    -0.0118     2.4770   202.7304     0.1009     6.5420     5.5533
  325.0000     8.2624     0.0157     2.4084   208.1566     0.1368     6.0753     5.0377
  325.5000     8.2770     0.0433     2.3511   206.9363     0.1787     5.7869     4.8310
  326.0000     8.2763     0.0524     2.3466   201.1843     0.1805     5.6280     5.1774
  326.5000     8.2606     0.0343     2.4062   200.2661     0.1524     5.5940     5.5103
  327.0000     8.2600     0.0117     2.4514   203.0734     0.1105     5.6371     5.5091
  327.5000     8.2292    -0.0049     2.4959   205.9797     0.0934     5.7592     5.6631
  328.0000     8.2287    -0.0064     2.5124   206.5750     0.0837     5.9153     5.9029
  328.5000     8.2281    -0.0004     2.5162   204.1433     0.0813     5.9101     5.8608
  329.0000     8.2275    -0.0049     2.5154   203.8293     0.0804     5.7840     5.7387
  329.5000     8.2267    -0.0109     2.4974   205.6302     0.0997     5.7070     5.4274
  330.0000     8.2261    -0.0049     2.4446   208.6425     0.1310     5.7913     5.2048
  330.5000     8.2256     0.0011     2.4130   206.5128     0.1440     5.8660     5.0964
  331.0000     8.2250     0.0057     2.4105   202.8756     0.1449     5.7046     5.2026
  331.5000     8.2547     0.0039     2.4431   200.4699     0.1219     5.6643     5.3853
  332.0000     8.2690     0.0011     2.4907   196.5066     0.1012     5.7041     5.6525
  332.5000     8.2684     0.0072     2.5004   195.2892     0.0900     5.9042     5.8510
  333.0000     8.2678     0.0057     2.5026   198.2956     0.0888     6.1969     6.0987
  333.5000     8.2673     0.0026     2.5049   197.3774     0.0873     6.5042     6.3569
  334.0000     8.2667     0.0011     2.5072   195.2508     0.0864     6.7798     6.6722
  334.5000     8.2661     0.0057     2.5087   196.1954     0.0861     6.9697     7.0520
  335.0000     8.2655     0.0057     2.5087   199.6071     0.0858     7.0173     6.9052
  335.5000     8.2798     0.0041     2.5087   206.3905     0.0855     7.1639     7.0982
  336.0000     8.2792     0.0011     2.5094   210.9134     0.0849     7.2631     6.9988
  336.5000     8.2786     0.0011     2.5087   203.9499     0.0840     6.7751     6.3932
  337.0000     8.2781    -0.0034     2.4868   201.5212     0.0969     5.8962     5.9403
  337.5000     8.2624    -0.0050     2.4604   204.2284     0.1129     5.5769     5.2010
  338.0000     8.2618     0.0072     2.4190   207.5428     0.1578     5.4612     4.8346
  338.5000     8.2612     0.0240     2.3700   203.9026     0.1680     5.4227     4.7718
  339.0000     8.2606     0.0328     2.3786   201.4738     0.1629     5.4220     4.8040
  339.5000     8.2751     0.0268     2.4053   193.6060     0.1391     5.4212     4.9819
  340.0000     8.2745     0.0207     2.4778   191.1773     0.1114     5.5345     5.3318
  340.5000     8.2739     0.0147     2.5305   192.0747     0.0832     5.6502     5.5605
  341.0000     8.2884     0.0102     2.5381   193.5705     0.0680     5.8489     5.9555
  341.5000     8.3029    -0.0004     2.5479   197.4862     0.0643     6.2250     6.3371
  342.0000     8.3174     0.0057     2.5501   202.9124     0.0631     6.7647     6.7903
  342.5000     8.3470     0.0041     2.5403   197.1594     0.0713     7.1500     7.1768
  343.0000     8.3915    -0.0019     2.5049   182.3439     0.0869     7.6628     7.6914
  343.5000     8.4814    -0.0124     2.4484   175.9877     0.1113     8.0432     7.9065
  344.0000     8.6165     0.0011     2.4084   176.8822     0.1427     8.2116     8.1275
  344.5000     8.6463     0.0117     2.4099   179.8915     0.1418     8.3829     8.2969
  345.0000     8.3137     0.0026     2.4687   181.1379     0.1243     8.4989     8.2952
  345.5000     8.2075    -0.0035     2.5094   182.8860     0.0866     8.4389     8.2360
  346.0000     8.1919    -0.0032     2.5217   192.2397     0.0767     8.4377     8.1207
  346.5000     8.1900     0.0014     2.5269   198.5330     0.0742     8.6141     8.2326
  347.0000     8.1756     0.0057     2.5298   201.8847     0.0724     8.7333     8.3464
  347.5000     8.1598     0.0026     2.5313   198.2455     0.0715     8.7932     8.5204
  348.0000     8.1441    -0.0004     2.5290   197.3273     0.0718     8.7916     8.6373
