~VERSION INFORMATION
 VERS.                2.0:   CWLS LOG ASCII STANDARD - VERSION 2.0
 WRAP.                 NO:   ONE LINE PER DEPTH STEP
~WELL INFORMATION
#MNEM.UNIT      DATA TYPE    INFORMATION
#----------   ------------   ------------------------------
 STRT.F           30.0000:   START DEPTH
 STOP.F         2441.0000:   STOP DEPTH
 STEP.F            0.5000:   STEP LENGTH
 NULL.          -999.2500:   NO VALUE
 COMP. FENIX & SCISSON INC:   COMPANY
 WELL.      NPR 3 #81 S-4:   WELL
 FLD .             TEAPOT:   FIELD
 LOC .       S4 T38N R78W:   LOCATION
 CNTY.            NATRONA:   COUNTY
 STAT.            WYOMING:   STATE
 CTRY. UNITED STATES OF AMERICA:   COUNTRY
 SRVC.            Unknown:   SERVICE COMPANY
 DATE.        28-MAR-1978:   LOGDATE
 API .       490251060700:   API NUMBER
~CURVE INFORMATION
#MNEM.UNIT       API CODE    CURVE DESCRIPTION
#----------   ------------   ------------------------------
 DEPT.F                  :   
 CALD.IN     45 280 60 00:   CALIPER
 RHOB.G/C3   45 350 01 00:   BULK DENSITY
 DPHI.DEC    45 890 12 00:   DENSITY POROSITY SANDSTONE
 CORR.G/C3   45 356 01 00:   DENSITY CORRECTION
 GRD .GAPI   45 310 01 00:   GAMMA RAY FROM DENSITY LOG
~PARAMETER INFORMATION
#MNEM.UNIT          VALUE    DESCRIPTION
#----------   ------------   ------------------------------
 PD  .                 GL:   PERMANENT DATUM
 EPD .F              5169:   ELEVATION PERMANENT DATUM
 LMF .                 KB:   LOG MEASURED FROM
 DAPD.F                10:   FEET ABOVE PERMANENT DATUM
 DMF .                 KB:   DRILLING MEASURED FROM
 EKB .F              5179:   KELLING BUSHING
 EGL .F              5169:   GROUND LEVEL
 DATE.          3-28-1978:   RUN DATE
 RUN .                  1:   RUN NUMBER
 DD  .F              2454:   DEPTH DRILLER
 DL  .F              2443:   DEPTH LOGGER
 BLI .F              2441:   BOTTOM LOG INTERVAL
 TLI .F                40:   TOP LOG INTERVAL
 CS  .IN            9.625:   CASING SIZE
 CBD .F               660:   CASING BOTTOM DRILLER
 CBL .F               660:   CASING BOTTOM LOGGER
 BS  .IN             8.75:   BIT SIZE
 BSD .F              2454:   BIT SIZE AT DEPTH
 DFT .           AIR MIST:   DRILLING FLUID TYPE
 TCS .HRS               2:   TIME CURCULATED STOPPED
 LUN .               2958:   LOGGING UNIT NUMBER
 LUL .               CASP:   LOGGING UNIT LOCATION
 ENGI.             MILLER:   RECORDING ENGINEER
 CLNT.            A2DTECH:   CLIENT CODE
 ORIG.       2"  5" PRINT:   ORIGIN OF DATA
 UWI .       490251060700:   UNIQUE WELL ID
 DICO. A2D Technologies, Inc.:   DIGITIZING COMPANY
~OTHER INFORMATION
~A   DEPT     CALD       RHOB       DPHI       CORR        GRD   
# ...
 2165.0000     9.6713     2.4836     0.1005     0.0052   127.6363
 2165.5000     9.6730     2.4711     0.1106     0.0014   126.8934
 2166.0000     9.6748     2.4585     0.1141    -0.0020   128.1879
 2166.5000     9.6765     2.4555     0.1158    -0.0006   131.5211
 2167.0000     9.6779     2.4628     0.1146     0.0014   135.3951
 2167.5000     9.6791     2.4588     0.1151     0.0036   139.1569
 2168.0000     9.6803     2.4525     0.1170     0.0022   140.8221
 2168.5000     9.6815     2.4529     0.1182    -0.0002   136.0227
 2169.0000     9.6827     2.4378     0.1221    -0.0026   133.7514
 2169.5000     9.6839     2.4164     0.1246    -0.0038   135.2927
 2170.0000     9.6851     2.4568     0.1085     0.0041   137.7648
 2170.5000     9.6863     2.4775     0.1085     0.0117   139.6764
 2171.0000     9.6875     2.4787     0.0910     0.0100   138.6354
 2171.5000     9.6887     2.4984     0.0972     0.0120   137.6305
 2172.0000     9.6899     2.4827     0.1065     0.0157   136.8141
 2172.5000     9.6911     2.4644     0.1134     0.0066   135.4362
 2173.0000     9.6923     2.4659     0.1110     0.0060   133.2816
 2173.5000     9.6935     2.4707     0.1070     0.0060   129.8522
 2174.0000     9.6947     2.4602     0.1195     0.0046   127.7877
 2174.5000     9.6958     2.4463     0.1299    -0.0046   124.5316
 2175.0000     9.6978     2.4332     0.1356    -0.0124   121.4011
 2175.5000     9.7166     2.4256     0.1389    -0.0135   119.4094
 2176.0000     9.7234     2.4270     0.1370    -0.0140   117.5847
 2176.5000     9.7297     2.4287     0.1306    -0.0140   114.5674
 2177.0000     9.7359     2.4536     0.1175    -0.0108   111.1330
 2177.5000     9.7393     2.4683     0.1058    -0.0017   110.8490
 2178.0000     9.7422     2.4715     0.1068     0.0079   113.7111
 2178.5000     9.7451     2.4814     0.1049     0.0178   117.0042
 2179.0000     9.7479     2.4926     0.0994     0.0199   120.7789
 2179.5000     9.7508     2.4764     0.1041     0.0148   124.5837
 2180.0000     9.7537     2.4592     0.1126     0.0091   125.7741
 2180.5000     9.7566     2.4390     0.1178     0.0080   120.7603
 2181.0000     9.7595     2.4541     0.1131     0.0098   117.3086
 2181.5000     9.7624     2.4751     0.1084     0.0115   114.7420
 2182.0000     9.7653     2.4806     0.1074     0.0171   112.2536
 2182.5000     9.7681     2.4864     0.1013     0.0231   111.9208
 2183.0000     9.7710     2.4917     0.0994     0.0264   112.1219
 2183.5000     9.7738     2.4843     0.0994     0.0292   112.2609
 2184.0000     9.7789     2.4896     0.0986     0.0321   115.0493
 2184.5000     9.7991     2.4994     0.1014     0.0360   118.9655
 2185.0000     9.8193     2.5106     0.0842     0.0421   121.3639
 2185.5000     9.8370     2.4930     0.1015     0.0439   123.3661
 2186.0000     9.8409     2.4691     0.1143     0.0304   123.0396
 2186.5000     9.8450     2.4533     0.1194     0.0230   119.9854
 2187.0000     9.8491     2.4565     0.1191     0.0219   117.8356
 2187.5000     9.8535     2.4601     0.1186     0.0220   116.8719
 2188.0000     9.8644     2.4597     0.1184     0.0234   125.9879
 2188.5000     9.9039     2.4583     0.1187     0.0267   129.7825
 2189.0000     9.9119     2.4590     0.1190     0.0299   129.3953
 2189.5000     9.9055     2.4619     0.1200     0.0332   128.7325
 2190.0000     9.8990     2.4484     0.1274     0.0264   121.4492
 2190.5000     9.8925     2.4304     0.1353     0.0121   119.7207
 2191.0000     9.8860     2.4391     0.1269     0.0060   118.1082
 2191.5000     9.8793     2.4532     0.1159     0.0090   117.0433
 2192.0000     9.8662     2.4535     0.1150     0.0129   118.6375
 2192.5000     9.8428     2.4462     0.1171     0.0161   121.1670
 2193.0000     9.8201     2.4683     0.1053     0.0146   122.2942
 2193.5000     9.7906     2.4622     0.1108     0.0093   121.1878
 2194.0000     9.7606     2.4509     0.1150     0.0022   120.0909
 2194.5000     9.7306     2.4623     0.1126     0.0019   116.7048
 2195.0000     9.7006     2.4731     0.1091     0.0058   116.2341
 2195.5000     9.6706     2.4811     0.0999     0.0100   119.4053
 2196.0000     9.6406     2.4985     0.0884     0.0185   120.0789
 2196.5000     9.6106     2.5206     0.0810     0.0260   118.5160
 2197.0000     9.5755     2.5130     0.0811     0.0207   118.2665
 2197.5000     9.5366     2.5023     0.0922     0.0152   120.4852
 2198.0000     9.4978     2.5070     0.0900     0.0120   121.6326
 2198.5000     9.4590     2.5126     0.0866     0.0130   116.0731
 2199.0000     9.4202     2.4934     0.0967     0.0119   112.0483
 2199.5000     9.3986     2.4755     0.1072     0.0021   111.6041
 2200.0000     9.3964     2.4745     0.0958    -0.0074   111.7950
 2200.5000     9.3941     2.4864     0.0921    -0.0101   109.9389
 2201.0000     9.3918     2.5093     0.0942     0.0050   111.1545
 2201.5000     9.3895     2.5232     0.0764     0.0209   112.4205
 2202.0000     9.3872     2.5098     0.0858     0.0196   116.4238
 2202.5000     9.3849     2.5006     0.0960     0.0155   120.7629
 2203.0000     9.3826     2.4853     0.0975     0.0098   125.1247
 2203.5000     9.3803     2.4690     0.1058    -0.0004   125.1809
 2204.0000     9.3823     2.4840     0.1085    -0.0060   120.1299
 2204.5000     9.3877     2.5029     0.0919     0.0083   118.1037
 2205.0000     9.3930     2.5056     0.0882     0.0100   121.9378
 2205.5000     9.3985     2.5018     0.0896     0.0109   128.4429
 2206.0000     9.3998     2.5042     0.0915     0.0183   136.1221
 2206.5000     9.3998     2.5018     0.0952     0.0258   137.4957
 2207.0000     9.3998     2.4912     0.0988     0.0326   139.0523
 2207.5000     9.3998     2.4801     0.1010     0.0355   139.6030
 2208.0000     9.3998     2.4889     0.0959     0.0405   137.7571
 2208.5000     9.3998     2.5043     0.0896     0.0539   135.8416
 2209.0000     9.3998     2.5015     0.0874     0.0519   133.9183
 2209.5000     9.3998     2.4977     0.0978     0.0429   132.7753
 2210.0000     9.3998     2.5091     0.0917     0.0483   137.9464
 2210.5000     9.3998     2.5247     0.0874     0.0577   143.8433
 2211.0000     9.4003     2.5155     0.0883     0.0599   145.2313
 2211.5000     9.4014     2.5057     0.0900     0.0599   140.1460
 2212.0000     9.4024     2.5015     0.0925     0.0599   137.6639
 2212.5000     9.4034     2.5003     0.0966     0.0601   137.6845
 2213.0000     9.4045     2.4930     0.0997     0.0502   137.2131
 2213.5000     9.4055     2.4851     0.1041     0.0382   136.0850
 2214.0000     9.4065     2.4712     0.1104     0.0197   134.8028
 2214.5000     9.4075     2.4591     0.1146     0.0036   134.1190
 2215.0000     9.4086     2.4712     0.1049     0.0106   134.6667
 2215.5000     9.4096     2.4828     0.1026     0.0199   134.7832
 2216.0000     9.4106     2.4802     0.1050     0.0277   130.1440
 2216.5000     9.4117     2.4942     0.0958     0.0237   125.4677
 2217.0000     9.4127     2.4845     0.1021     0.0146   120.7193
 2217.5000     9.4137     2.4734     0.1076     0.0017   119.5790
 2218.0000     9.4148     2.4764     0.1082    -0.0075   124.9897
 2218.5000     9.4158     2.4799     0.1060    -0.0081   130.6204
 2219.0000     9.4168     2.4791     0.1037    -0.0092   136.2790
 2219.5000     9.4179     2.4913     0.1014    -0.0076   145.4713
 2220.0000     9.4189     2.5049     0.0855     0.0030   157.1000
 2220.5000     9.4193     2.5155     0.0807     0.0122   170.1790
 2221.0000     9.4181     2.5182     0.0802     0.0121   180.0753
 2221.5000     9.4170     2.5273     0.0761     0.0165   174.3315
 2222.0000     9.4159     2.5363     0.0687     0.0299   168.6125
 2222.5000     9.4148     2.5113     0.0938     0.0377   165.4342
 2223.0000     9.4136     2.4891     0.1006     0.0289   164.2985
 2223.5000     9.4125     2.4740     0.1070     0.0219   163.4290
 2224.0000     9.4114     2.4668     0.1089     0.0226   163.8095
 2224.5000     9.4103     2.4674     0.1111     0.0232   164.3448
 2225.0000     9.4091     2.4656     0.1124     0.0238   164.9060
 2225.5000     9.4080     2.4712     0.1126     0.0232   165.2070
