~VERSION INFORMATION
 VERS.                2.0:   CWLS LOG ASCII STANDARD - VERSION 2.0
 WRAP.                 NO:   ONE LINE PER DEPTH STEP
~WELL INFORMATION
#MNEM.UNIT      DATA TYPE    INFORMATION
#----------   ------------   ------------------------------
 STRT.F           19.0000:   START DEPTH
 STOP.F         1200.0000:   STOP DEPTH
 STEP.F            0.5000:   STEP LENGTH
 NULL.          -999.2500:   NO VALUE
 COMP.       INTEX OIL CO:   COMPANY
 WELL.     NPR 3 #73 S-14:   WELL
 FLD .             TEAPOT:   FIELD
 LOC .      S14 T38N R78W:   LOCATION
 CNTY.            NATRONA:   COUNTY
 STAT.            WYOMING:   STATE
 CTRY. UNITED STATES OF AMERICA:   COUNTRY
 SRVC.       Schlumberger:   SERVICE COMPANY
 DATE.        24-AUG-1966:   LOGDATE
 API .       490250970900:   API NUMBER
~CURVE INFORMATION
#MNEM.UNIT       API CODE    CURVE DESCRIPTION
#----------   ------------   ------------------------------
 DEPT.F                  :   
 SPR .MV     05 010 01 00:   SPONTANEOUS POTENTIAL FROM RES.
 ILD .OHMM   05 120 46 00:   INDUCTION LOG DEEP
 ASN .OHMM   05 041 16 00:   AMPLIFIED SHORT NORMAL 16"
 CILD.MMHO   05 110 46 00:   CONDUCTIVITY INDUCTION LOG DEEP
 CALD.IN     45 280 60 00:   CALIPER
 GRD .GAPI   45 310 01 00:   GAMMA RAY FROM DENSITY LOG
 CORR.G/C3   45 356 01 00:   DENSITY CORRECTION
 RHOB.G/C3   45 350 01 00:   BULK DENSITY
 DPHI.DEC    45 890 12 00:   DENSITY POROSITY SANDSTONE
~PARAMETER INFORMATION
#MNEM.UNIT          VALUE    DESCRIPTION
#----------   ------------   ------------------------------
 PD  .                 GL:   PERMANENT DATUM
 EPD .F              5274:   ELEVATION PERMANENT DATUM
 LMF .                 KB:   LOG MEASURED FROM
 DAPD.F                 5:   FEET ABOVE PERMANENT DATUM
 DMF .                 KB:   DRILLING MEASURED FROM
 EKB .F              5279:   KELLING BUSHING
 EGL .F              5274:   GROUND LEVEL
 DATE.            8-24-66:   RUN DATE
 RUN .                  1:   RUN NUMBER
 DD  .F              1200:   DEPTH DRILLER
 DL  .F              1200:   DEPTH LOGGER
 BLI .F              1199:   BOTTOM LOG INTERVAL
 TLI .F                86:   TOP LOG INTERVAL
 CS  .IN            8.625:   CASING SIZE
 CBD .F                10:   CASING BOTTOM DRILLER
 BS  .IN             6.75:   BIT SIZE
 BSD .F              1200:   BIT SIZE AT DEPTH
 DFT .                GEL:   DRILLING FLUID TYPE
 DFD .               10.1:   DRILLING FLUID DENSITY
 DFV .                 60:   DRILLING FLUID VISCOSITY
 MSS .          FLOW LINE:   MUD SAMPLE SOURCE
 RMS .OHMM            1.8:   RESISTIVITY MUD SAMPLE
 MST .F                67:   MUD SAMPLE TEMPERATURE
 RMF .OHMM            1.4:   RESISTIVITY MUD FILTRATE SAMPLE
 MFST.F                77:   MUD FILTRATE SAMPLE TEMPERATURE
 MFSS.                  M:   MUD FILTRATE SAMPLE SOURCE
 RMB .OHMM            1.1:   RESISTIVITY MUD AT BHT
 BHT .F               112:   BOTTOM HOLE TEMPERATURE
 TCS .HRS               1:   TIME CURCULATED STOPPED
 MRT .F               112:   MAXIMUM RECORDED TEMPERATURE
 LUN .               4507:   LOGGING UNIT NUMBER
 LUL .               CSPR:   LOGGING UNIT LOCATION
 ENGI.            MANGOLD:   RECORDING ENGINEER
 WITN.                MAY:   WITNESSED BY
 CLNT.            A2DTECH:   CLIENT CODE
 ORIG.           5" PRINT:   ORIGIN OF DATA
 UWI .       490250970900:   UNIQUE WELL ID
 DICO. A2D Technologies, Inc.:   DIGITIZING COMPANY
~OTHER INFORMATION
~A   DEPT      SPR        ILD        ASN       CILD       CALD         GRD        CORR     RHOB       DPHI   
# ...
  128.5000   -61.8350     7.6680     7.7990   118.1270     7.2350    89.4850     0.0230     2.4190     0.1410
  129.0000   -61.6460     7.7830     7.8120   116.1780     7.2350    88.9600     0.0290     2.4280     0.1370
  129.5000   -61.4530     7.8990     7.8760   114.2300     7.2340    91.7820     0.0360     2.4370     0.1310
  130.0000   -61.2570     8.0190     8.0020   112.2810     7.2350    93.9420     0.0360     2.4480     0.1330
  130.5000   -61.0790     8.1270     8.1820   110.3320     7.2340    96.7340     0.0250     2.4430     0.1430
  131.0000   -60.8630     8.2510     8.3350   110.0070     7.2340    97.8880     0.0200     2.4230     0.1440
  131.5000   -60.7590     8.3380     8.5000   111.2000     7.2340    95.4180     0.0380     2.4030     0.1450
  132.0000   -60.9240     8.2890     8.6520   112.3930     7.2340    89.7130     0.0350     2.3910     0.1470
  132.5000   -61.1130     8.1780     8.5900   113.5860     7.2340    89.3290     0.0280     2.3980     0.1490
  133.0000   -61.2420     8.0810     8.3660   114.7800     7.2340    90.2370     0.0270     2.4090     0.1510
  133.5000   -61.4160     7.9780     8.1040   115.9730     7.2350    90.9940     0.0400     2.4220     0.1500
  134.0000   -61.5620     7.8750     7.8810   117.3830     7.2380    91.6900     0.0550     2.4330     0.1400
  134.5000   -61.7230     7.7760     7.8590   119.8230     7.2420    90.6360     0.0680     2.4450     0.1280
  135.0000   -61.8790     7.6730     7.8860   122.8060     7.2450    89.4590     0.0570     2.4380     0.1320
  135.5000   -61.8330     7.5710     7.7610   125.7880     7.2490    87.8850     0.0430     2.4180     0.1400
  136.0000   -61.6360     7.4720     7.6210   128.7710     7.2530    88.5610     0.0340     2.4000     0.1470
  136.5000   -61.4150     7.3680     7.5470   131.7540     7.2570    91.1170     0.0320     2.3840     0.1550
  137.0000   -61.2220     7.2670     7.5150   134.7370     7.2600    92.8190     0.0280     2.3830     0.1620
  137.5000   -61.1770     7.1690     7.4370   137.7190     7.2640    96.9050     0.0260     2.3930     0.1600
  138.0000   -61.2420     7.0600     7.2660   140.7020     7.2680   101.4340     0.0310     2.4100     0.1580
  138.5000   -61.2910     6.9690     7.1280   143.6850     7.2720   101.7950     0.0370     2.4250     0.1550
  139.0000   -61.3500     6.8570     6.9610   147.3530     7.2740   100.6790     0.0430     2.4400     0.1530
  139.5000   -61.4050     6.7440     6.7770   147.3530     7.2700    95.2650     0.0420     2.4550     0.1380
  140.0000   -61.4560     6.8230     6.7570   146.3540     7.2660    90.5240     0.0340     2.4310     0.1430
  140.5000   -61.5200     7.0630     6.7160   137.8600     7.2610    85.4690     0.0370     2.4090     0.1460
  141.0000   -61.4110     7.3070     6.7910   127.3730     7.2570    80.8100     0.0540     2.4260     0.1270
  141.5000   -61.1080     7.5500     7.2950   124.8140     7.2510    75.4060     0.0700     2.4760     0.1000
  142.0000   -60.7750     7.7820     7.8580   122.1000     7.1970    72.2160     0.0870     2.5320     0.1000
  142.5000   -60.4580     8.0420     8.4410   119.3860     7.1230    74.6610     0.0970     2.5050     0.1050
  143.0000   -60.1520     8.2310     8.9750   116.6710     7.1650    79.6270     0.0570     2.4720     0.1190
  143.5000   -59.8020     8.1560     9.2250   114.3860     7.2230    84.1890     0.0330     2.4360     0.1330
  144.0000   -59.5600     7.9750     9.1710   114.3860     7.2860    88.9600     0.0460     2.4160     0.1280
  144.5000   -59.6220     7.8290     8.5860   118.4020     7.3170    83.9690     0.0550     2.4410     0.1180
  145.0000   -59.7600     7.6650     7.9930   122.5770     7.3110    82.1590     0.0450     2.4380     0.1180
  145.5000   -59.8310     7.5030     7.6160   126.7530     7.3110    83.8010     0.0330     2.4250     0.1330
  146.0000   -59.9390     7.3490     7.3660   130.9290     7.3080    85.2620     0.0200     2.4120     0.1480
  146.5000   -60.0420     7.1850     7.1880   135.1050     7.3070    86.8260     0.0180     2.4000     0.1490
  147.0000   -60.1230     7.0280     6.9960   139.2810     7.3050    87.3170     0.0240     2.4030     0.1500
  147.5000   -60.2440     6.8710     6.8760   143.3570     7.3030    88.0550     0.0280     2.4130     0.1500
  148.0000   -60.3300     6.7060     6.7420   146.4920     7.3010    89.8050     0.0370     2.4230     0.1390
  148.5000   -60.2800     6.5520     6.6110   149.5540     7.2990    90.9940     0.0490     2.4330     0.1320
  149.0000   -60.1850     6.3950     6.4840   152.6170     7.2980    92.4400     0.0560     2.4370     0.1330
  149.5000   -60.1140     6.2310     6.3520   155.6790     7.2960    90.0970     0.0500     2.4300     0.1340
  150.0000   -60.0300     6.0890     6.2240   158.7410     7.2960    84.5230     0.0450     2.4220     0.1360
  150.5000   -59.9490     5.9090     6.0930   161.8040     7.2990    84.3160     0.0390     2.4140     0.1380
  151.0000   -59.8720     5.7560     6.0080   165.3350     7.3030    86.4030     0.0410     2.4070     0.1390
  151.5000   -59.7890     5.7760     5.9830   165.3350     7.3070    88.7540     0.0420     2.3950     0.1410
  152.0000   -59.7110     5.8530     5.9790   165.3350     7.3100    90.3910     0.0290     2.3980     0.1430
  152.5000   -59.6280     5.8950     5.9710   165.3350     7.3140    90.9210     0.0350     2.4110     0.1450
  153.0000   -59.5490     5.9560     5.9610   164.0250     7.3180    91.7110     0.0560     2.4230     0.1420
  153.5000   -59.4690     6.0130     5.9620   161.3920     7.3220    92.3540     0.0610     2.4370     0.1380
  154.0000   -59.3850     6.0640     5.9430   158.7600     7.3250    92.6280     0.0490     2.4430     0.1330
  154.5000   -59.3120     6.1230     5.9530   156.1270     7.3290    93.1620     0.0400     2.4310     0.1340
  155.0000   -59.2200     6.1780     5.9390   153.4940     7.3330    93.0870     0.0250     2.4140     0.1390
  155.5000   -59.1420     6.2320     5.9470   150.8620     7.3370    92.4010     0.0300     2.4190     0.1410
  156.0000   -59.1510     6.2900     6.2450   148.2290     7.3400    91.8200     0.0490     2.4420     0.1380
  156.5000   -59.1880     6.3440     6.5160   145.5970     7.3440    91.1840     0.0570     2.4480     0.1350
  157.0000   -59.2080     6.3970     6.5200   142.9640     7.3480    90.5730     0.0570     2.4390     0.1320
  157.5000   -59.2360     6.4590     6.4670   140.3310     7.3520    90.0400     0.0430     2.4310     0.1450
  158.0000   -59.2630     6.5060     6.4760   137.6990     7.3550    90.3750     0.0310     2.4220     0.1500
  158.5000   -59.2870     6.5690     6.6030   137.5160     7.3590    91.3140     0.0270     2.4130     0.1530
  159.0000   -59.3160     6.6220     6.7380   139.8550     7.3630    91.7340     0.0210     2.4050     0.1560
  159.5000   -59.3400     6.5470     6.7570   142.1930     7.3670    92.3340     0.0320     2.3960     0.1580
  160.0000   -59.3670     6.4060     6.7090   144.5310     7.3700    88.1880     0.0490     2.3910     0.1540
  160.5000   -59.3940     6.2280     6.5620   146.8700     7.3740    85.9200     0.0570     2.3920     0.1510
  161.0000   -59.4180     6.0520     6.3850   149.2080     7.3700    88.6640     0.0690     2.4000     0.1470
  161.5000   -59.4460     6.0790     6.2870   151.5470     7.3630    92.3320     0.0660     2.4180     0.1440
  162.0000   -59.4710     6.1380     6.2280   153.8850     7.3560    93.8710     0.0570     2.4390     0.1410
  162.5000   -59.4950     6.0280     6.1880   156.2240     7.3490    91.7450     0.0520     2.4340     0.1350
  163.0000   -59.5250     5.9350     6.1440   158.5620     7.3420    90.2010     0.0530     2.4200     0.1360
  163.5000   -59.4830     5.8910     6.1070   160.9010     7.3350    88.2920     0.0540     2.4080     0.1430
  164.0000   -59.3430     5.7990     6.0800   163.2390     7.3280    88.6730     0.0480     2.3950     0.1510
  164.5000   -59.1940     5.7490     6.0620   164.3360     7.3210    90.8850     0.0380     2.3840     0.1590
