~VERSION INFORMATION
 VERS.                2.0:   CWLS LOG ASCII STANDARD - VERSION 2.0
 WRAP.                 NO:   ONE LINE PER DEPTH STEP
~WELL INFORMATION
#MNEM.UNIT      DATA TYPE    INFORMATION
#----------   ------------   ------------------------------
 STRT.F           30.0000:   START DEPTH
 STOP.F          510.0000:   STOP DEPTH
 STEP.F            0.5000:   STEP LENGTH
 NULL.          -999.2500:   NO VALUE
 COMP. FENIX & SCISSON INC:   COMPANY
 WELL.    66-SX 3FP #54-3:   WELL
 FLD .             TEAPOT:   FIELD
 LOC .       S3 T38N R78W:   LOCATION
 CNTY.            NATRONA:   COUNTY
 STAT.            WYOMING:   STATE
 CTRY. UNITED STATES OF AMERICA:   COUNTRY
 SRVC.              Welex:   SERVICE COMPANY
 DATE.        25-JUN-1980:   LOGDATE
 API .       490251081400:   API NUMBER
~CURVE INFORMATION
#MNEM.UNIT       API CODE    CURVE DESCRIPTION
#----------   ------------   ------------------------------
 DEPT.F                  :   
 SGRD.OHMM   07 220 05 00:   SHALLOW GUARD RESISTIVITY
 ILD .OHMM   07 120 46 00:   INDUCTION LOG DEEP RESISTIVITY
 ILM .OHMM   07 120 44 00:   INDUCTION LOG MEDIUM
 CALD.IN     45 280 60 00:   CALIPER
 GRD .GAPI   45 310 01 00:   GAMMA RAY FROM DENSITY LOG
 CORR.G/C3   45 356 01 00:   DENSITY CORRECTION
 NPHI.DEC    42 890 03 00:   NEUTRON POROSITY SANDSTONE
 DPHI.DEC    45 890 12 00:   DENSITY POROSITY SANDSTONE
 SPR .MV     07 010 01 00:   SPONTANEOUS POTENTIAL
 RHOB.G/C3   45 350 01 00:   BULK DENSITY
~PARAMETER INFORMATION
#MNEM.UNIT          VALUE    DESCRIPTION
#----------   ------------   ------------------------------
 PD  .                 GL:   PERMANENT DATUM
 EPD .F              5158:   ELEVATION PERMANENT DATUM
 LMF .                 KB:   LOG MEASURED FROM
 DAPD.F                 5:   FEET ABOVE PERMANENT DATUM
 DMF .                 KB:   DRILLING MEASURED FROM
 EKB .F              5163:   KELLING BUSHING
 EGL .F              5158:   GROUND LEVEL
 DATE.            6-25-80:   RUN DATE
 RUN .                  1:   RUN NUMBER
 DD  .F               516:   DEPTH DRILLER
 DL  .F               512:   DEPTH LOGGER
 BLI .F               510:   BOTTOM LOG INTERVAL
 TLI .F                30:   TOP LOG INTERVAL
 BS  .IN            9.875:   BIT SIZE
 BSD .F               516:   BIT SIZE AT DEPTH
 DFT .            KCL MUD:   DRILLING FLUID TYPE
 DFD .                9.2:   DRILLING FLUID DENSITY
 DFV .                 52:   DRILLING FLUID VISCOSITY
 DFPH.                 12:   DRILLING FLUID PH
 DFL .                  6:   DRILLING FLUID LOSS
 MSS .           FLOWLINE:   MUD SAMPLE SOURCE
 RMB .OHMM            .35:   RESISTIVITY MUD AT BHT
 BHT .F                75:   BOTTOM HOLE TEMPERATURE
 TCS .HRS               1:   TIME CURCULATED STOPPED
 MRT .F                75:   MAXIMUM RECORDED TEMPERATURE
 LUN .               1892:   LOGGING UNIT NUMBER
 LUL .             CASPER:   LOGGING UNIT LOCATION
 ENGI.            TOTHILL:   RECORDING ENGINEER
 WITN.              AMEND:   WITNESSED BY
 CLNT.            A2DTECH:   CLIENT CODE
 ORIG.           5" PRINT:   ORIGIN OF DATA
 UWI .       490251081400:   UNIQUE WELL ID
 DICO. A2D Technologies, Inc.:   DIGITIZING COMPANY
~OTHER INFORMATION
~A   DEPT       SGRD        ILD        ILM     CALD        GRD       CORR       NPHI       DPHI        SPR       RHOB   
   30.0000     3.1379     6.8542     8.9480  -999.2500  -999.2500  -999.2500  -999.2500  -999.2500   -25.2456  -999.2500
   30.5000     3.1379     6.8542     8.9480  -999.2500  -999.2500  -999.2500  -999.2500  -999.2500   -25.2456  -999.2500
   31.0000     6.6068     7.0136     8.0505  -999.2500  -999.2500  -999.2500  -999.2500  -999.2500   -25.2456  -999.2500
   31.5000     4.2793     7.2972     6.9618  -999.2500  -999.2500  -999.2500  -999.2500  -999.2500   -25.6272  -999.2500
   32.0000     8.3466     7.6844     4.7129  -999.2500  -999.2500  -999.2500  -999.2500  -999.2500   -25.8866  -999.2500
   32.5000    12.0146     8.0922     4.0218  -999.2500  -999.2500  -999.2500  -999.2500  -999.2500   -26.1808  -999.2500
   33.0000    20.8446     8.3926     4.1014  -999.2500  -999.2500  -999.2500  -999.2500  -999.2500   -26.4516  -999.2500
   33.5000    28.1147     8.1269     4.2884  -999.2500  -999.2500  -999.2500  -999.2500  -999.2500   -26.8393  -999.2500
   34.0000    26.9755     7.5757     4.2521    11.7596    80.5950     0.1680     0.2714     0.1626   -27.2732     1.9965
   34.5000    25.8825     6.8929     4.3975    11.7404    80.5950     0.1669     0.2782     0.1663   -27.5987     1.9945
   35.0000    24.8337     6.2720     4.8524    11.6827    82.9239     0.1637     0.2873     0.1714   -27.9888     1.9896
   35.5000    23.9262     5.7074     5.7295    11.6312    84.8401     0.1612     0.2974     0.1755   -28.5812     1.9828
   36.0000    23.6312     5.3724     6.9938    11.4348    87.2487     0.1512     0.2980     0.1806   -29.0670     1.9778
   36.5000    23.3076     5.1311     6.2389    11.0580    89.6550     0.1378     0.2974     0.1858   -29.7890     2.0167
   37.0000    22.5386     4.9006     5.1753    10.6843    92.0753     0.1246     0.2950     0.1909   -30.5324     2.1185
   37.5000    21.5261     4.7181     4.0669    10.4468    93.5174     0.1221     0.2987     0.1961   -31.7387     2.2208
   38.0000    20.5586     4.5787     4.1277    10.2354    94.2011     0.1379     0.3011     0.2012   -33.6245     2.3574
   38.5000    19.6347     4.4435     4.2320    10.0339    94.9113     0.1458     0.3208     0.2053   -35.4396     2.3505
   39.0000    19.0098     4.3123     4.3279    10.0625    95.5471     0.1404     0.3200     0.2104   -36.2803     2.3401
   39.5000    18.6581     4.1848     4.6226    10.2155    95.9427     0.1352     0.3174     0.2155   -37.0808     2.3297
   40.0000    18.3120     4.1400     4.9727    10.3564    96.7797     0.1305     0.3136     0.2194   -37.5836     2.3193
   40.5000    17.9723     4.1045     5.3492    10.4968    97.6799     0.1205     0.3094     0.2140   -38.0241     2.3147
   41.0000    17.6389     4.0693     5.6283    10.6252    98.5808     0.1084     0.3079     0.1990   -38.4631     2.3251
   41.5000    17.3767     4.0587     5.7924    10.6531    99.5346     0.1010     0.3047     0.1816   -38.9035     2.3502
   42.0000    17.7383     4.1364     5.4509    10.6634   100.6104     0.0919     0.3006     0.1622   -39.4108     2.3931
   42.5000    17.9938     4.2086     5.0788    10.6614   101.9514     0.0829     0.2957     0.1556   -39.9368     2.4209
   43.0000    17.1067     4.2817     4.7591    10.6509   103.5559     0.0773     0.2893     0.1444   -40.4717     2.4262
   43.5000    16.3382     4.4826     4.5193    10.6407   105.1670     0.0819     0.2900     0.1378   -41.0172     2.4460
   44.0000    15.6044     4.7078     4.4429    10.6305   106.7804     0.0670     0.2922     0.1370   -41.5695     2.4582
   44.5000    14.9034     4.9444     4.4293    10.6204   108.3931     0.0611     0.2934     0.1320   -42.1238     2.4620
   45.0000    14.2339     4.9893     4.4158    10.6101   110.0065     0.0642     0.2928     0.1301   -42.3929     2.4653
   45.5000    13.5946     5.0122     4.3888    10.6062   111.6227     0.0675     0.2930     0.1290   -42.6514     2.4695
   46.0000    12.9839     5.0146     4.3487    10.5701   113.2291     0.0616     0.2957     0.1379   -42.9115     2.4542
   46.5000    12.4007     4.8255     4.3128    10.5245   114.4006     0.0490     0.2989     0.1475   -43.1716     2.4327
   47.0000    11.8436     4.6599     4.2602    10.4765   113.9930     0.0362     0.3024     0.1574   -43.4301     2.4245
   47.5000    11.3116     4.4999     4.2082    10.4471   113.2753     0.0344     0.3026     0.1621   -43.7115     2.4169
   48.0000    10.9672     4.3455     4.1765    10.4143   112.5549     0.0356     0.3019     0.1660   -44.6578     2.4091
   48.5000    10.6511     4.2049     4.2282    10.3592   111.8346     0.0400     0.3012     0.1678   -45.6821     2.4053
   49.0000    10.4615     4.1450     4.2716    10.3085   111.1153     0.0443     0.3005     0.1635   -46.7081     2.4054
   49.5000    10.4615     4.0858     4.3155    10.2570   110.3902     0.0487     0.2998     0.1584   -47.7702     2.4146
   50.0000    10.4615     4.0218     4.3897    10.2051   110.0538     0.0562     0.2991     0.1506   -48.3804     2.4276
   50.5000    10.4615     4.0442     4.4783    10.1666   109.9033     0.0649     0.2981     0.1394   -48.8944     2.4408
   51.0000    10.5108     4.0692     4.5687    10.1486   109.6072     0.0735     0.2955     0.1330   -49.1673     2.4540
   51.5000    10.6085     4.0964     4.6609    10.1247   108.4468     0.0808     0.2935     0.1265   -49.3822     2.4671
   52.0000    10.7070     4.1691     4.7550    10.1040   105.6171     0.0894     0.2938     0.1231   -49.5970     2.4790
   52.5000    10.8533     4.2495     4.8509    10.1136   102.8526     0.0984     0.2914     0.1201   -49.6093     2.4838
   53.0000    10.7917     4.3317     4.9488    10.1253   100.0922     0.1045     0.2898     0.1158   -49.6080     2.4891
   53.5000    10.6772     4.4153     5.0343    10.1368    97.3246     0.0934     0.2894     0.1236   -49.5701     2.4838
   54.0000    10.5581     4.5006     5.0928    10.1483    94.5586     0.0798     0.2874     0.1305   -49.2970     2.4723
   54.5000    10.3906     4.5776     5.1237    10.1598    91.9592     0.0794     0.2854     0.1338   -49.0235     2.4618
   55.0000    10.1713     4.6004     5.1461    10.1714    91.3443     0.0836     0.2876     0.1342   -48.7506     2.4607
   55.5000     9.9564     4.6232     5.2889    10.1833    90.6611     0.0875     0.2901     0.1327   -48.4777     2.4591
   56.0000     9.7457     4.6462     5.5411    10.1514    89.9680     0.0979     0.2922     0.1314   -48.2074     2.4622
   56.5000     9.5411     4.6692     5.8032    10.1126    89.4106     0.1125     0.2929     0.1300   -48.0346     2.4664
   57.0000     9.4335     4.6924     6.0823    10.0738    89.6340     0.1236     0.2936     0.1287   -48.1464     2.4699
   57.5000     9.3975     4.7662     6.1219    10.0350    90.3125     0.1234     0.2952     0.1285   -48.4452     2.4701
   58.0000     9.3088     4.8777     6.1384     9.9944    90.9773     0.1087     0.2982     0.1290   -48.7632     2.4713
   58.5000     9.0064     4.9687     5.8248    10.0381    91.6848     0.0937     0.2940     0.1252   -49.1166     2.4785
   59.0000     8.8928     4.9828     5.5758    10.0673    93.8924     0.0893     0.2922     0.1179   -49.4707     2.4889
   59.5000     8.8246     5.0178     5.2504    10.1257    96.3579     0.0963     0.2869     0.1133   -49.7281     2.4996
   60.0000     8.7448     5.0531     5.2760    10.2962    98.7909     0.1033     0.2806     0.1092   -49.8436     2.5104
   60.5000     8.5629     5.0886     5.3178    10.3549   100.0882     0.1018     0.2798     0.0994   -49.9105     2.5220
   61.0000     8.3904     5.1244     5.3600    10.3729   101.3767     0.0915     0.2821     0.1034   -49.9745     2.5026
   61.5000     8.2735     5.1604     5.4024    10.4333   102.6041     0.0817     0.2842     0.1114   -50.1465     2.4806
   62.0000     8.1618     5.2024     5.4453    10.4272   101.8244     0.0726     0.2858     0.1137   -50.3731     2.4850
   62.5000     8.0515     5.1775     5.4884    10.3967   101.1253     0.0720     0.2802     0.1138   -50.5880     2.4942
   63.0000     7.9697     5.1394     5.5319    10.3750   101.4901     0.0844     0.2817     0.1082   -50.6550     2.5034
