~VERSION INFORMATION
 VERS.                2.0:   CWLS LOG ASCII STANDARD - VERSION 2.0
 WRAP.                 NO:   ONE LINE PER DEPTH STEP
~WELL INFORMATION
#MNEM.UNIT      DATA TYPE    INFORMATION
#----------   ------------   ------------------------------
 STRT.F           31.0000:   START DEPTH
 STOP.F          521.0000:   STOP DEPTH
 STEP.F            0.5000:   STEP LENGTH
 NULL.          -999.2500:   NO VALUE
 COMP. FENIX & SCISSON INC:   COMPANY
 WELL.      NPR-3 #52SX-3:   WELL
 FLD .             TEAPOT:   FIELD
 LOC .       S3 T38N R78W:   LOCATION
 CNTY.            NATRONA:   COUNTY
 STAT.            WYOMING:   STATE
 CTRY. UNITED STATES OF AMERICA:   COUNTRY
 SRVC.            Unknown:   SERVICE COMPANY
 DATE.        03-OCT-1978:   LOGDATE
 API .       490251071800:   API NUMBER
~CURVE INFORMATION
#MNEM.UNIT       API CODE    CURVE DESCRIPTION
#----------   ------------   ------------------------------
 DEPT.F                  :   
 SPR .MV     05 010 01 00:   SPONTANEOUS POTENTIAL FROM RES.
 GRD .GAPI   45 310 01 00:   GAMMA RAY FROM DENSITY LOG
 CALD.IN     45 280 60 00:   CALIPER
 RHOB.G/C3   45 350 01 00:   BULK DENSITY
 DPHI.DEC    45 890 12 00:   DENSITY POROSITY SANDSTONE
 CORR.G/C3   45 356 01 00:   DENSITY CORRECTION
 SN  .OHMM   05 040 16 00:   SHORT NORMAL 16"
 IL  .OHMM   05 120 00 00:   INDUCTION LOG
~PARAMETER INFORMATION
#MNEM.UNIT          VALUE    DESCRIPTION
#----------   ------------   ------------------------------
 PD  .                 GL:   PERMANENT DATUM
 EPD .F              5129:   ELEVATION PERMANENT DATUM
 LMF .                 KB:   LOG MEASURED FROM
 DAPD.F                 4:   FEET ABOVE PERMANENT DATUM
 DMF .                 KB:   DRILLING MEASURED FROM
 EKB .F              5133:   KELLING BUSHING
 EGL .F              5129:   GROUND LEVEL
 DATE.            10-3-78:   RUN DATE
 RUN .                  1:   RUN NUMBER
 DD  .F               521:   DEPTH DRILLER
 DL  .F               520:   DEPTH LOGGER
 BLI .F               514:   BOTTOM LOG INTERVAL
 TLI .F                46:   TOP LOG INTERVAL
 CS  .IN            8.625:   CASING SIZE
 CBL .F                44:   CASING BOTTOM LOGGER
 BS  .IN            7.875:   BIT SIZE
 BSD .F               521:   BIT SIZE AT DEPTH
 DFT .                KCL:   DRILLING FLUID TYPE
 DFD .                8.7:   DRILLING FLUID DENSITY
 DFV .                 34:   DRILLING FLUID VISCOSITY
 DFPH.                  9:   DRILLING FLUID PH
 DFL .               10.8:   DRILLING FLUID LOSS
 MSS .            MUD PIT:   MUD SAMPLE SOURCE
 RMS .OHMM            .24:   RESISTIVITY MUD SAMPLE
 MST .F                54:   MUD SAMPLE TEMPERATURE
 RMF .OHMM            .22:   RESISTIVITY MUD FILTRATE SAMPLE
 MFST.F                60:   MUD FILTRATE SAMPLE TEMPERATURE
 RMC .OHMM             .3:   RESISTIVITY MUD CAKE
 MCST.F                64:   MUD CAKE SAMPLE TEMPERATURE
 MFSS.               MEAS:   MUD FILTRATE SAMPLE SOURCE
 MCSS.               MEAS:   MUD CAKE SAMPLE SOURCE
 BHT .F                60:   BOTTOM HOLE TEMPERATURE
 TCS .HRS               3:   TIME CURCULATED STOPPED
 MRT .F                60:   MAXIMUM RECORDED TEMPERATURE
 LUN .               2958:   LOGGING UNIT NUMBER
 LUL .               CASP:   LOGGING UNIT LOCATION
 ENGI.             MILLER:   RECORDING ENGINEER
 WITN.           DINSMORE:   WITNESSED BY
 CLNT.            A2DTECH:   CLIENT CODE
 ORIG.       2", 5" PRINT:   ORIGIN OF DATA
 UWI .       490251071800:   UNIQUE WELL ID
 DICO. A2D Technologies, Inc.:   DIGITIZING COMPANY
~OTHER INFORMATION
~A   DEPT      SPR         GRD      CALD       RHOB       DPHI       CORR         SN         IL   
# ...
  274.0000   -22.8004   117.2328     7.8040     2.5010     0.1088     0.0032     5.8800     5.4709
  274.5000   -22.6711   116.0855     7.7927     2.5045     0.1054     0.0030     6.0388     5.4962
  275.0000   -22.5421   112.1255     7.7373     2.5027     0.1061     0.0029     6.2018     5.8789
  275.5000   -22.4108   108.1714     7.6622     2.5009     0.1089     0.0027     6.2108     6.3886
  276.0000   -22.1468   108.3893     7.5869     2.4964     0.1117     0.0026     6.2198     6.9425
  276.5000   -21.5586   109.6215     7.5624     2.4914     0.1145     0.0024     6.2288     7.1093
  277.0000   -21.6626   112.6654     7.5708     2.4886     0.1173     0.0022     6.2378     7.1948
  277.5000   -21.8195   115.7784     7.6073     2.4880     0.1186     0.0021     6.2468     7.3201
  278.0000   -21.9740   116.4248     7.6423     2.4902     0.1152     0.0019     6.2593     7.3876
  278.5000   -22.1273   114.2111     7.6750     2.4829     0.1212     0.0018     6.1487     6.8134
  279.0000   -22.2808   112.0069     7.7906     2.4619     0.1320     0.0016     5.9725     6.3755
  279.5000   -22.4360   112.3956     7.8616     2.4309     0.1519     0.0015     5.8013     5.9571
  280.0000   -22.5911   114.5195     7.8613     2.4021     0.1615     0.0016     5.6347     5.5659
  280.5000   -22.5833   116.4613     7.8629     2.4186     0.1655     0.0017     5.4730     5.3216
  281.0000   -21.9466   116.5068     7.8658     2.4388     0.1518     0.0019     5.3504     5.2527
  281.5000   -21.5924   116.4410     7.8688     2.4589     0.1359     0.0020     5.4793     5.2528
  282.0000   -21.2481   115.4229     7.8718     2.4852     0.1165     0.0021     5.6073     5.2537
  282.5000   -20.9051   114.6270     7.8749     2.4969     0.1117     0.0022     5.8541     5.2520
  283.0000   -20.5609   114.3792     7.8779     2.5016     0.1089     0.0023     6.1842     5.4497
  283.5000   -20.2072   114.4182     7.8809     2.5057     0.1058     0.0024     6.5328     5.8136
  284.0000   -20.1980   114.6728     7.8839     2.5066     0.1058     0.0025     6.8236     6.3436
  284.5000   -20.2733   113.4930     7.8869     2.4989     0.1082     0.0026     7.0234     6.7292
  285.0000   -20.3509   111.7525     7.8899     2.4942     0.1107     0.0028     7.2292     7.0989
  285.5000   -20.4277   110.6855     7.8930     2.5011     0.1083     0.0029     7.3892     7.4889
  286.0000   -20.5043   109.8021     7.8960     2.5079     0.1052     0.0030     7.4012     7.8818
  286.5000   -20.5815   107.2116     7.8990     2.5147     0.0974     0.0031     7.4129     7.8863
  287.0000   -20.6605   104.8682     7.8994     2.5213     0.0957     0.0032     7.4243     7.8907
  287.5000   -20.7197   103.3876     7.8946     2.5246     0.0942     0.0033     7.4359     7.8950
  288.0000   -20.3361   103.6731     7.8899     2.5209     0.0950     0.0035     7.4474     7.8994
  288.5000   -19.9506   105.8364     7.8851     2.5170     0.0979     0.0049     7.4590     7.9037
  289.0000   -19.9891   108.5855     7.8804     2.5153     0.0990     0.0090     7.4707     7.9080
  289.5000   -20.0542   110.1003     7.8756     2.5176     0.0987     0.0118     7.4823     7.9124
  290.0000   -20.1181   109.9122     7.8709     2.5178     0.0976     0.0123     7.4940     7.9167
  290.5000   -20.1813   107.9303     7.8662     2.5161     0.0990     0.0129     7.5056     7.9211
  291.0000   -20.2446   105.8483     7.8614     2.5142     0.1003     0.0135     7.5173     7.9254
  291.5000   -20.3078   103.8378     7.8567     2.5153     0.1001     0.0141     7.5290     7.9298
  292.0000   -20.3711   103.3465     7.8519     2.5177     0.0994     0.0146     7.5408     7.9342
  292.5000   -20.4343   102.9321     7.8472     2.5183     0.0974     0.0152     7.5525     7.9385
  293.0000   -20.4975   102.7393     7.8426     2.5189     0.0960     0.0139     7.5643     7.9427
  293.5000   -20.5608   104.9317     7.8317     2.5195     0.0967     0.0098     7.5761     7.9473
  294.0000   -20.6241   108.1827     7.8197     2.5175     0.0979     0.0055     7.5878     7.9517
  294.5000   -20.6872   110.0783     7.8076     2.5151     0.0990     0.0031     7.5961     8.0480
  295.0000   -20.7349   109.5554     7.7955     2.5089     0.1010     0.0008     7.5107     8.3937
  295.5000   -20.7320   107.3998     7.7834     2.5017     0.1076     0.0000     7.4443     8.7276
  296.0000   -20.7983   103.7575     7.7714     2.4944     0.1138     0.0010     7.3785     9.0601
  296.5000   -20.8783    98.3617     7.7622     2.4871     0.1169     0.0021     7.3132     8.5974
  297.0000   -21.0983    97.0374     7.7624     2.4802     0.1255     0.0031     7.2542     8.0285
  297.5000   -21.8169    97.3731     7.7623     2.4520     0.1348     0.0076     6.8378     7.3979
  298.0000   -22.3869   101.4444     7.7598     2.4146     0.1586     0.0137     6.4759     6.8173
  298.5000   -22.4814   107.5247     7.7542     2.3807     0.1808     0.0191     6.1330     6.3806
  299.0000   -21.3829   111.1244     7.7487     2.3793     0.1716     0.0169     6.0309     6.1990
  299.5000   -20.2634   111.2818     7.7431     2.4404     0.1475     0.0050     6.1110     6.1449
  300.0000   -19.7802   106.6392     7.7376     2.4942     0.1133     0.0032     6.2542     6.1944
  300.5000   -19.5476    97.8586     7.7321     2.5246     0.0936     0.0098     6.4914     6.2328
  301.0000   -19.3181    97.4734     7.7265     2.5262     0.0923     0.0108     7.1301     6.3511
  301.5000   -19.0881    97.5869     7.7178     2.5217     0.0946     0.0119     7.8709     6.6532
  302.0000   -18.8577    96.1261     7.7017     2.5173     0.0985     0.0130     8.3254     7.2712
  302.5000   -18.5244    96.1443     7.6857     2.5127     0.1024     0.0159     8.6950     8.2536
  303.0000   -18.1003    97.2681     7.6697     2.5092     0.1037     0.0204     8.8605     9.0368
  303.5000   -17.6771   100.1858     7.6541     2.5092     0.1042     0.0284     9.0268     9.2399
  304.0000   -17.2539   103.1350     7.6585     2.5173     0.0953     0.0377     9.1961     9.4475
  304.5000   -16.8332   104.7022     7.7018     2.5271     0.0894     0.0405     9.3686     9.6598
  305.0000   -16.4902   105.0640     7.7448     2.5209     0.0945     0.0417     9.5444     9.8769
  305.5000   -16.2921   103.6019     7.7568     2.5079     0.1067     0.0428     9.7235    10.3389
  306.0000   -16.0883    98.8890     7.7481     2.4924     0.1159     0.0440    10.0150    10.8937
  306.5000   -15.8921    96.7169     7.7390     2.4644     0.1250     0.0451    10.4913    11.4783
  307.0000   -15.6942    92.2964     7.7299     2.4311     0.1446     0.0525    10.9903    12.3966
  307.5000   -22.6665    82.4091     7.7207     2.3944     0.1664     0.0633    11.5616    13.6039
  308.0000    -8.7123    69.3584     7.7113     2.3578     0.1958     0.0851    12.2345    14.9287
  308.5000   -10.0587    55.5934     7.7053     2.3212     0.2204     0.1086    12.9465    16.3826
  309.0000    -9.3181    53.2848     7.7617     2.3004     0.2285     0.1236    13.7000    18.1208
  309.5000    -9.0352    53.2693     7.8190     2.2934     0.2349     0.1203    14.4973    20.6086
  310.0000    -8.7646    57.5172     7.8618     2.2982     0.2341     0.1160    14.8305    21.7896
  310.5000    -8.2335    60.2848     7.8478     2.3127     0.2239     0.1109    15.0832    22.1338
  311.0000    -7.4321    60.5071     7.8346     2.3309     0.2077     0.0887    15.3402    21.5555
  311.5000    -7.0823    60.8067     7.8216     2.3404     0.2056     0.0749    15.6016    21.0152
  312.0000    -6.8140    62.9024     7.8085     2.3409     0.2056     0.0738    15.7371    20.7519
  312.5000    -8.1538    67.8911     7.8020     2.3428     0.2056     0.0855    15.5579    21.2352
  313.0000    -6.2352    70.4681     7.8020     2.3510     0.2021     0.1086    15.4501    21.7000
  313.5000    -6.2160    70.6587     7.8020     2.3679     0.1869     0.1309    15.7584    23.3438
  314.0000    -6.1509    68.9120     7.8020     2.4126     0.1616     0.1529    16.0425    23.9286
