~VERSION INFORMATION
 VERS.                2.0:   CWLS LOG ASCII STANDARD - VERSION 2.0
 WRAP.                 NO:   ONE LINE PER DEPTH STEP
~WELL INFORMATION
#MNEM.UNIT      DATA TYPE    INFORMATION
#----------   ------------   ------------------------------
 STRT.F           32.0000:   START DEPTH
 STOP.F          738.0000:   STOP DEPTH
 STEP.F            0.5000:   STEP LENGTH
 NULL.          -999.2500:   NO VALUE
 COMP. FENIX & SCISSON INC:   COMPANY
 WELL.       NPR-3 #43-34:   WELL
 FLD .             TEAPOT:   FIELD
 LOC .      S34 T39N R78W:   LOCATION
 CNTY.            NATRONA:   COUNTY
 STAT.            WYOMING:   STATE
 CTRY. UNITED STATES OF AMERICA:   COUNTRY
 SRVC.            Unknown:   SERVICE COMPANY
 DATE.        26-AUG-1978:   LOGDATE
 API .       490251069900:   API NUMBER
~CURVE INFORMATION
#MNEM.UNIT       API CODE    CURVE DESCRIPTION
#----------   ------------   ------------------------------
 DEPT.F                  :   
 GRD .GAPI   45 310 01 00:   GAMMA RAY FROM DENSITY LOG
 CALD.IN     45 280 60 00:   CALIPER
 RHOB.G/C3   45 350 01 00:   BULK DENSITY
 DPHI.DEC    45 890 12 00:   DENSITY POROSITY SANDSTONE
 CORR.G/C3   45 356 01 00:   DENSITY CORRECTION
 SPR .MV     05 010 01 00:   SPONTANEOUS POTENTIAL FROM RES.
 SN  .OHMM   05 040 16 00:   SHORT NORMAL 16"
 ILD .OHMM   05 120 46 00:   INDUCTION LOG DEEP
~PARAMETER INFORMATION
#MNEM.UNIT          VALUE    DESCRIPTION
#----------   ------------   ------------------------------
 PD  .                 GL:   PERMANENT DATUM
 EPD .F              5110:   ELEVATION PERMANENT DATUM
 LMF .                 KB:   LOG MEASURED FROM
 DAPD.F                 4:   FEET ABOVE PERMANENT DATUM
 DMF .                 KB:   DRILLING MEASURED FROM
 EKB .F              5114:   KELLING BUSHING
 EGL .F              5110:   GROUND LEVEL
 DATE.            8-26-78:   RUN DATE
 RUN .                  1:   RUN NUMBER
 DD  .F               748:   DEPTH DRILLER
 DL  .F               738:   DEPTH LOGGER
 BLI .F               732:   BOTTOM LOG INTERVAL
 TLI .F                40:   TOP LOG INTERVAL
 CS  .IN            8.625:   CASING SIZE
 CBD .F                40:   CASING BOTTOM DRILLER
 CBL .F                40:   CASING BOTTOM LOGGER
 BS  .IN            7.875:   BIT SIZE
 BSD .F               748:   BIT SIZE AT DEPTH
 DFT .                KCL:   DRILLING FLUID TYPE
 DFD .                8.7:   DRILLING FLUID DENSITY
 DFV .                 33:   DRILLING FLUID VISCOSITY
 DFPH.                  9:   DRILLING FLUID PH
 DFL .                 10:   DRILLING FLUID LOSS
 MSS .          FLOW LINE:   MUD SAMPLE SOURCE
 RMS .OHMM            .36:   RESISTIVITY MUD SAMPLE
 MST .F                80:   MUD SAMPLE TEMPERATURE
 RMF .OHMM             .3:   RESISTIVITY MUD FILTRATE SAMPLE
 MFST.F                80:   MUD FILTRATE SAMPLE TEMPERATURE
 RMC .OHMM            .48:   RESISTIVITY MUD CAKE
 MCST.F                82:   MUD CAKE SAMPLE TEMPERATURE
 MFSS.               MEAS:   MUD FILTRATE SAMPLE SOURCE
 MCSS.               MEAS:   MUD CAKE SAMPLE SOURCE
 TCS .HRS               2:   TIME CURCULATED STOPPED
 LUN .               2958:   LOGGING UNIT NUMBER
 LUL .               CASP:   LOGGING UNIT LOCATION
 ENGI.             MILLER:   RECORDING ENGINEER
 WITN.              AMEND:   WITNESSED BY
 CLNT.            A2DTECH:   CLIENT CODE
 ORIG.           5" PRINT:   ORIGIN OF DATA
 UWI .       490251069900:   UNIQUE WELL ID
 DICO. A2D Technologies, Inc.:   DIGITIZING COMPANY
~OTHER INFORMATION
~A   DEPT       GRD      CALD       RHOB       DPHI       CORR        SPR         SN        ILD   
# ...
  437.0000    91.2449     7.1764     2.3835     0.1769     0.0739   -38.9371     5.3184     4.9687
  437.5000    88.5641     7.1763     2.3787     0.1697     0.0771   -38.2952     5.0345     4.9687
  438.0000    88.0085     7.1701     2.3914     0.1631     0.0794   -37.7056     4.8335     4.9687
  438.5000    83.7623     7.1500     2.4099     0.1405     0.0796   -37.7201     4.8511     5.0312
  439.0000    83.3900     7.1301     2.4471     0.1196     0.0881   -37.7227     4.8716     5.0673
  439.5000    85.1370     7.1103     2.4880     0.1056     0.1036   -37.7228     4.9687     5.1036
  440.0000    89.1900     7.0959     2.5093     0.1161     0.1036   -37.7228     5.4354     5.2518
  440.5000    92.7598     7.0962     2.4987     0.1256     0.0995   -37.7230     5.9118     5.5922
  441.0000    92.7722     7.0962     2.4854     0.1256     0.0789   -37.7241     6.3158     5.9547
  441.5000    96.7839     7.0962     2.4722     0.1256     0.0725   -37.7182     6.5345     6.3683
  442.0000   100.3852     7.0962     2.4690     0.1304     0.0711   -37.5053     6.7573     6.6495
  442.5000   100.7788     7.0962     2.4643     0.1316     0.0707   -37.2774     7.0482     6.9814
  443.0000   101.0914     7.0930     2.4610     0.1324     0.0703   -37.0506     7.0446     6.9814
  443.5000    99.3822     7.0895     2.4610     0.1324     0.0698   -36.8220     7.0759     7.0168
  444.0000    97.6118     7.0859     2.4609     0.1262     0.0695   -36.7341     7.1790     7.0459
  444.5000    97.5884     7.0824     2.4635     0.1175     0.0800   -36.7397     7.1741     7.1110
  445.0000    97.7961     7.0789     2.4811     0.1128     0.0973   -36.7581     7.3927     7.2490
  445.5000    98.2348     7.0753     2.4922     0.1156     0.0966   -36.7764     7.5531     7.3724
  446.0000    98.6676     7.0718     2.4882     0.1184     0.0948   -36.7945     7.7168     7.4978
  446.5000    98.9809     7.0683     2.4832     0.1180     0.0930   -36.8127     7.8839     7.6255
  447.0000   104.8476     7.0647     2.4830     0.1126     0.0918   -36.8308     8.0141     7.7242
  447.5000   104.6475     7.0615     2.4832     0.1066     0.0967   -36.8490     7.9759     7.7144
  448.0000   103.8056     7.0565     2.5021     0.1041     0.0991   -36.8671     7.9164     7.6747
  448.5000   101.0608     7.0773     2.5031     0.1064     0.1013   -36.8853     7.8577     7.6352
  449.0000    98.4568     7.0759     2.5077     0.0981     0.1033   -36.9034     7.7997     7.5960
  449.5000    98.1545     7.0762     2.5176     0.0912     0.1005   -36.9213     7.7211     7.5575
  450.0000    99.3704     7.0761     2.5258     0.0912     0.0969   -36.9303     7.8141     7.5112
  450.5000   101.8904     7.0761     2.5232     0.0992     0.0934   -36.9437     7.8690     7.5866
  451.0000   102.9599     7.0762     2.5210     0.1046     0.0898   -37.0602     7.8060     7.5835
  451.5000   101.1595     7.0791     2.5139     0.1084     0.0860   -37.1779     7.6881     7.4999
  452.0000    97.9505     7.0877     2.5029     0.1063     0.0881   -37.3034     7.5142     7.3850
  452.5000    96.1076     7.0963     2.5011     0.1049     0.0893   -37.5578     7.5826     7.3098
  453.0000    97.5863     7.1048     2.5076     0.1131     0.0848   -38.2547     7.6769     7.2429
  453.5000    99.8475     7.1134     2.5035     0.1263     0.0753   -38.9408     7.7723     7.1525
  454.0000   100.3746     7.1221     2.4787     0.1272     0.0482   -39.5231     7.7956     7.0585
  454.5000   100.3966     7.1299     2.4745     0.1130     0.0511   -39.3152     7.4859     6.9814
  455.0000   100.7001     7.1210     2.5102     0.0996     0.0645   -39.3669     7.2662     6.8017
  455.5000   100.9374     7.1053     2.5215     0.0965     0.0677   -39.4444     7.1085     6.6217
  456.0000    97.4758     7.0943     2.5136     0.1127     0.0556   -39.5217     7.1127     6.4465
  456.5000    98.4036     7.0830     2.4974     0.1284     0.0417   -39.5982     7.1122     6.3100
  457.0000    95.6596     7.0716     2.4812     0.1304     0.0420   -39.6746     6.7696     6.3100
  457.5000    94.1795     7.0602     2.4677     0.1337     0.0453   -39.7122     6.4347     6.1013
  458.0000    97.5816     7.0490     2.4632     0.1473     0.0485   -39.9591     6.1164     5.9340
  458.5000    98.0837     7.0369     2.4480     0.1500     0.0492   -40.1228     5.8138     5.6981
  459.0000    97.6297     7.0208     2.4331     0.1667     0.0488   -40.6304     5.5993     5.2476
  459.5000    97.1739     7.0162     2.4152     0.1774     0.0483   -41.1325     5.0832     4.8335
  460.0000    96.8092     7.0404     2.3831     0.2092     0.0479   -41.4982     4.6334     4.2570
  460.5000    96.3943     7.0609     2.3496     0.2351     0.0474   -41.2472     4.1333     3.6458
  461.0000    96.7830     7.0827     2.3063     0.2564     0.0516   -40.9175     3.4742     3.3231
  461.5000    95.6140     7.1148     2.2627     0.2766     0.0565   -40.4894     3.2615     3.1505
  462.0000    91.0844     7.2575     2.2222     0.2790     0.0655   -40.4404     3.0058     2.8239
  462.5000    86.5617     7.3694     2.2215     0.2422     0.0745   -40.0212     2.7522     2.5634
  463.0000    83.8600     7.1146     2.2732     0.2096     0.0752   -39.5919     2.5373     2.5167
  463.5000    82.6519     6.8622     2.3316     0.1989     0.0597   -39.5068     2.5377     2.5656
  464.0000    84.5954     6.7179     2.3527     0.1911     0.0451   -39.4336     2.5518     2.6105
  464.5000    89.5983     6.6960     2.3670     0.1789     0.0488   -39.3438     2.5759     2.6594
  465.0000    94.6669     6.7089     2.3811     0.1512     0.0515   -39.2528     2.6871     2.8171
  465.5000    98.0559     6.7534     2.4134     0.1381     0.0458   -39.1624     3.0246     3.2956
  466.0000   102.3143     6.8529     2.4488     0.1253     0.0381   -39.1086     3.6513     3.9850
  466.5000   106.7611     6.8503     2.4843     0.1125     0.0484   -39.1230     4.0590     4.2659
  467.0000   108.3962     6.8400     2.5027     0.1120     0.0577   -39.1564     4.3223     4.3687
  467.5000   103.5469     6.8303     2.5019     0.1272     0.0556   -39.1898     5.0363     4.7660
  468.0000   102.4712     6.8212     2.4833     0.1444     0.0537   -39.2231     5.8090     5.2849
  468.5000   101.5765     6.8371     2.4552     0.1440     0.0595   -39.2564     5.9893     5.8627
  469.0000   100.8858     6.8691     2.4389     0.1275     0.0850   -39.2898     6.1139     5.9714
  469.5000   103.4704     6.9321     2.4664     0.1155     0.1122   -39.3070     6.1444     5.9714
  470.0000   105.8396     6.9939     2.4890     0.1144     0.1275   -39.3069     6.1542     5.9714
  470.5000   104.9168     6.9962     2.4922     0.1148     0.1272   -39.3069     6.1640     5.9714
  471.0000   104.7894     7.0047     2.4951     0.1108     0.1385   -39.3069     6.1739     5.9715
  471.5000   108.0394     7.0155     2.4979     0.1091     0.1400   -39.3069     6.1839     5.9723
  472.0000   105.8120     7.0260     2.5007     0.1068     0.1410   -39.3069     6.1942     5.9742
  472.5000   102.3640     7.0345     2.5031     0.1096     0.1496   -39.3069     6.1463     5.8965
  473.0000   102.4222     7.0554     2.5011     0.1060     0.1704   -39.3069     6.0896     5.7837
  473.5000   105.4152     7.0574     2.5149     0.1245     0.1920   -39.3070     6.0335     5.7032
  474.0000   108.8659     7.0618     2.4590     0.1399     0.1912   -39.3075     5.9778     5.3195
  474.5000   110.2848     7.0660     2.4607     0.1525     0.1709   -39.3046     5.6848     5.1076
  475.0000   109.1338     7.0703     2.4342     0.1693     0.1506   -39.2214     5.2504     4.3287
  475.5000   110.2169     7.0746     2.4054     0.1779     0.1290   -39.1339     4.8353     4.3254
  476.0000   110.9344     7.0761     2.3862     0.1732     0.1064   -39.0469     4.4530     4.3687
  476.5000   110.4686     7.0752     2.3868     0.1539     0.1107   -38.9603     4.1725     4.3687
  477.0000   109.9956     7.0707     2.4334     0.1348     0.1257   -38.9107     4.1343     4.2804
