~VERSION INFORMATION
 VERS.                2.0:   CWLS LOG ASCII STANDARD - VERSION 2.0
 WRAP.                 NO:   ONE LINE PER DEPTH STEP
~WELL INFORMATION
#MNEM.UNIT      DATA TYPE    INFORMATION
#----------   ------------   ------------------------------
 STRT.F            6.0000:   START DEPTH
 STOP.F          522.0000:   STOP DEPTH
 STEP.F            0.5000:   STEP LENGTH
 NULL.          -999.2500:   NO VALUE
 COMP.       F D SERV INC:   COMPANY
 WELL.    88-7 SX-3 #88-3:   WELL
 FLD .             TEAPOT:   FIELD
 LOC .       S3 T38N R78W:   LOCATION
 CNTY.            NATRONA:   COUNTY
 STAT.            WYOMING:   STATE
 CTRY. UNITED STATES OF AMERICA:   COUNTRY
 SRVC.      Western Atlas:   SERVICE COMPANY
 DATE.        30-NOV-1992:   LOGDATE
 API .       490252254100:   API NUMBER
~CURVE INFORMATION
#MNEM.UNIT       API CODE    CURVE DESCRIPTION
#----------   ------------   ------------------------------
 DEPT.F                  :   
 GRR .GAPI   07 310 01 00:   GAMMA RAY
 RILD.OHMM   07 120 46 00:   INDUCTION LOG DEEP RESISTIVITY
 RILM.OHMM   07 120 44 00:   INDUCTION LOG MEDIUM RESISTIVITY
 C13 .IN     45 280 13 00:   CALIPER 13
 ZCOR.G/C3   45 356 01 00:   DENSITY CORRECTION
 ZDEN.G/C3   45 350 01 00:   BULK DENSITY
 PORZ.DEC    45 890 00 00:   DENSITY POROSITY
 NPHI.DEC    42 890 03 00:   NEUTRON POROSITY SANDSTONE
~PARAMETER INFORMATION
#MNEM.UNIT          VALUE    DESCRIPTION
#----------   ------------   ------------------------------
 PD  .                 GL:   PERMANENT DATUM
 EPD .F              5155:   ELEVATION PERMANENT DATUM
 LMF .                 KB:   LOG MEASURED FROM
 DAPD.F                10:   FEET ABOVE PERMANENT DATUM
 DMF .                 KB:   DRILLING MEASURED FROM
 EKB .F              5165:   KELLING BUSHING
 EDF .F              5164:   DRILLING FLOOR
 EGL .F              5155:   GROUND LEVEL
 DATE.        30-NOV-1992:   RUN DATE
 RUN .                  1:   RUN NUMBER
 DD  .F               525:   DEPTH DRILLER
 DL  .F               525:   DEPTH LOGGER
 BLI .F               516:   BOTTOM LOG INTERVAL
 TLI .F                 6:   TOP LOG INTERVAL
 CS  .IN            8.625:   CASING SIZE
 CBD .F                95:   CASING BOTTOM DRILLER
 CBL .F                98:   CASING BOTTOM LOGGER
 BS  .IN            7.875:   BIT SIZE
 BSD .F               525:   BIT SIZE AT DEPTH
 DFT .           AIR FOAM:   DRILLING FLUID TYPE
 MRT .F                68:   MAXIMUM RECORDED TEMPERATURE
 LUN .           HL- 6774:   LOGGING UNIT NUMBER
 LUL .             CASPER:   LOGGING UNIT LOCATION
 ENGI.             RAUTIO:   RECORDING ENGINEER
 WITN.          BOB SYLER:   WITNESSED BY
 CLNT.            A2DTECH:   CLIENT CODE
 ORIG.           5" PRINT:   ORIGIN OF DATA
 UWI .       490252254100:   UNIQUE WELL ID
 DICO. A2D Technologies, Inc.:   DIGITIZING COMPANY
~OTHER INFORMATION
~A    DEPT     GRR       RILD       RILM        C13       ZCOR       ZDEN       PORZ       NPHI   
# ...
  411.0000    90.9485    26.4388    24.5293     8.2276     0.0075     2.3344     0.1993     0.2564
  411.5000    90.3435    25.5323    24.5276     8.2414     0.0270     2.3208     0.2018     0.2552
  412.0000    91.2585    25.0034    24.5259     8.2400     0.0420     2.3170     0.2021     0.2531
  412.5000    93.9970    25.0034    24.8690     8.2385     0.0298     2.3184     0.1973     0.2528
  413.0000    94.6079    25.0034    25.0413     8.2369     0.0116     2.3230     0.1934     0.2538
  413.5000    94.6109    25.1785    24.8652     8.2352     0.0145     2.3296     0.1985     0.2541
  414.0000    92.4457    25.1785    24.5191     8.2336     0.0264     2.3183     0.2055     0.2553
  414.5000    91.2735    25.1785    24.1779     8.2320     0.0233     2.3107     0.2052     0.2584
  415.0000    92.8471    25.0034    23.8415     8.2303     0.0157     2.3159     0.2019     0.2593
  415.5000    94.6237    24.8296    23.6742     8.2287     0.0020     2.3174     0.2028     0.2590
  416.0000    95.2346    24.6569    23.5081     8.2271     0.0004     2.3068     0.2113     0.2587
  416.5000    94.9329    24.6569    23.5065     8.2254     0.0003     2.2977     0.2119     0.2596
  417.0000    94.3280    24.6569    23.5049     8.2238     0.0002     2.3006     0.2108     0.2596
  417.5000    94.9396    24.8296    23.6677     8.2222     0.0001     2.3096     0.2044     0.2584
  418.0000    95.5506    24.8296    23.6661     8.2205     0.0131     2.3227     0.1903     0.2545
  418.5000    95.2496    24.4855    23.6644     8.2189     0.0285     2.3438     0.1797     0.2494
  419.0000    93.4289    23.9783    23.4733     8.2173     0.0269     2.3622     0.1752     0.2488
  419.5000    93.1272    23.6460    23.0100     8.2156     0.0253     2.3584     0.1804     0.2516
  420.0000    93.7389    23.3183    22.5322     8.2140     0.0252     2.3342     0.1879     0.2570
  420.5000    93.7419    22.9951    22.0643     8.2124     0.0221     2.3191     0.2006     0.2558
  421.0000    94.3528    22.6765    21.7572     8.2107     0.0084     2.3145     0.2031     0.2552
  421.5000    97.3953    22.2067    21.3054     8.2091    -0.0038     2.3160     0.2018     0.2558
  422.0000   100.1338    21.5955    20.8630     8.2075    -0.0069     2.3189     0.1982     0.2574
  422.5000    99.8329    21.0011    20.4297     8.2058    -0.0023     2.3272     0.1940     0.2592
  423.0000    98.9240    20.4231    20.0054     8.2042     0.0064     2.3371     0.1857     0.2613
  423.5000    98.6231    20.1377    19.4539     8.2026     0.0109     2.3595     0.1754     0.2604
  424.0000    98.9504    19.8609    19.0499     8.2009     0.0093     2.3693     0.1649     0.2592
  424.5000   101.0963    19.7228    18.7848     8.1993     0.0122     2.3799     0.1610     0.2580
  425.0000   102.6342    19.5857    18.6530     8.1977     0.0151     2.3842     0.1598     0.2581
  425.5000   103.8023    19.1800    18.3934     8.1961     0.0120     2.3827     0.1634     0.2587
  426.0000   102.5902    18.9142    18.3922     8.1944     0.0119     2.3781     0.1683     0.2599
  426.5000   101.6806    18.6521    18.2627     8.1928     0.0042     2.3705     0.1719     0.2605
  427.0000   104.4199    18.5224    18.1274     8.1912     0.0011     2.3606     0.1756     0.2596
  427.5000   107.1585    18.3936    18.0077     8.1895     0.0055     2.3523     0.1834     0.2572
  428.0000   107.7694    18.1387    17.8813     8.1877     0.0114     2.3379     0.1934     0.2533
  428.5000   107.4684    18.0126    17.5098     8.1863     0.0113     2.3303     0.1937     0.2557
  429.0000   107.7754    17.8873    17.3869     8.1848     0.0037     2.3363     0.1877     0.2573
  429.5000   108.9942    17.6394    17.0258     8.1833     0.0066     2.3545     0.1769     0.2570
  430.0000   110.5170    17.3950    16.7889     8.1818     0.0261     2.3747     0.1588     0.2573
  430.5000   105.9607    17.0346    16.5553     8.1803     0.0275     2.3935     0.1540     0.2586
  431.0000   100.1886    16.6818    16.2115     8.1785     0.0229     2.3964     0.1552     0.2598
  431.5000    99.2796    16.4506    15.9859     8.1770     0.0151     2.3888     0.1591     0.2598
  432.0000    99.8907    16.2226    15.8737     8.1756     0.0136     2.3812     0.1652     0.2589
  432.5000   104.4529    16.1098    15.8726     8.1741     0.0406     2.3767     0.1640     0.2559
  433.0000   105.9757    16.1098    15.8715     8.1423     0.0662     2.3872     0.1589     0.2510
  433.5000   103.8306    15.9978    15.8705     8.0802     0.0842     2.4060     0.1386     0.2438
  434.0000    99.8419    15.8866    15.8694     8.0636     0.0629     2.4447     0.1081     0.2350
  434.5000    98.0466    15.6664    15.7580     8.0777     0.0040     2.4949     0.0916     0.2332
  435.0000    97.4266    15.5394    15.5387     8.1061    -0.0081     2.4925     0.0977     0.2378
  435.5000    97.1761    15.2352    15.2160     8.1652    -0.0143     2.4653     0.1144     0.2454
  436.0000    97.7878    14.9196    14.9959     8.1941    -0.0144     2.4344     0.1311     0.2560
  436.5000    99.3105    14.6105    14.6927     8.1771    -0.0113     2.4101     0.1446     0.2599
  437.0000   102.9610    14.4081    14.3874     8.1756    -0.0071     2.4109     0.1461     0.2645
  437.5000   105.0916    14.2084    14.1871     8.1741     0.0019     2.4108     0.1449     0.2645
  438.0000   106.3104    14.0115    13.9897     8.1575     0.0093     2.4123     0.1452     0.2615
  438.5000   106.9213    13.8173    13.7950     8.1560     0.0062     2.4137     0.1443     0.2597
  439.0000   106.9243    13.6258    13.6983     8.1545     0.0046     2.4152     0.1435     0.2603
  439.5000   106.6226    13.5311    13.5076     8.1379    -0.0031     2.4167     0.1426     0.2597
  440.0000   100.8513    13.3436    13.3197     8.1361    -0.0122     2.4151     0.1429     0.2585
  440.5000    97.8148    13.2508    13.2262     8.1501    -0.0168     2.4128     0.1435     0.2573
  441.0000    96.9052    13.0672    13.0422     8.1483    -0.0170     2.4142     0.1435     0.2570
  441.5000    97.5169    12.9763    12.9507     8.1623    -0.0095     2.4194     0.1415     0.2586
  442.0000   101.7752    12.8861    12.8598     8.1605    -0.0036     2.4285     0.1363     0.2598
  442.5000   105.7295    12.8861    12.7696     8.1438     0.0008     2.4299     0.1336     0.2610
  443.0000   107.2523    12.8861    12.7687     8.1424     0.0052     2.4253     0.1344     0.2631
  443.5000   107.8632    12.8861    12.7678     8.1409     0.0112     2.4222     0.1376     0.2622
  444.0000   108.4944    12.8861    12.7669     8.1394     0.0141     2.4252     0.1375     0.2610
  444.5000   109.9970    12.8861    12.7660     8.1379     0.0095     2.4312     0.1340     0.2598
  445.0000   109.9493    12.8861    12.7652     8.1361     0.0048     2.4394     0.1304     0.2590
  445.5000   108.7878    12.7965    12.7643     8.1346     0.0002     2.4462     0.1235     0.2599
  446.0000   108.4861    12.7075    12.7632     8.1331     0.0016     2.4491     0.1208     0.2611
  446.5000   108.8561    12.6191    12.6737     8.1165     0.0015     2.4551     0.1184     0.2611
  447.0000   108.8501    12.6191    12.5847     8.1150     0.0014     2.4653     0.1139     0.2624
  447.5000   108.5401    12.5314    12.4964     8.1136     0.0073     2.4779     0.1068     0.2624
  448.0000   107.9262    12.5314    12.4088     8.1121     0.0102     2.4800     0.1028     0.2640
  448.5000   108.8321    12.4443    12.4079     8.1106     0.0101     2.4776     0.1041     0.2645
  449.0000   110.9537    12.3577    12.4071     8.1243     0.0115     2.4709     0.1083     0.2636
  449.5000   111.8596    12.3577    12.4062     8.1224     0.0099     2.4641     0.1126     0.2630
  450.0000   113.0694    12.3839    12.4051     8.1210     0.0083     2.4656     0.1135     0.2612
  450.5000   114.5832    12.5275    12.4014     8.1195     0.0006     2.4678     0.1111     0.2603
  451.0000   116.0969    12.3486    12.2263     8.1180    -0.0010     2.4625     0.1124     0.2616
