~VERSION INFORMATION
 VERS.                2.0:   CWLS LOG ASCII STANDARD - VERSION 2.0
 WRAP.                 NO:   ONE LINE PER DEPTH STEP
~WELL INFORMATION
#MNEM.UNIT      DATA TYPE    INFORMATION
#----------   ------------   ------------------------------
 STRT.F            7.0000:   START DEPTH
 STOP.F          480.0000:   STOP DEPTH
 STEP.F            0.1000:   STEP LENGTH
 NULL.          -999.2500:   NO VALUE
 COMP.       F D SERV INC:   COMPANY
 WELL.    67-2 SX-3 #67-3:   WELL
 FLD .          N.P.R. #3:   FIELD
 LOC .       S3 T38N R78W:   LOCATION
 CNTY.            NATRONA:   COUNTY
 STAT.            WYOMING:   STATE
 CTRY. UNITED STATES OF AMERICA:   COUNTRY
 SRVC.     Atlas Wireline:   SERVICE COMPANY
 DATE.        12-FEB-1992:   LOGDATE
 API .       490252250400:   API NUMBER
~CURVE INFORMATION
#MNEM.UNIT       API CODE    CURVE DESCRIPTION
#----------   ------------   ------------------------------
 DEPT.F                  :   
 SPR .MV     07 010 01 00:   SPONTANEOUS POTENTIAL
 GRR .GAPI   07 310 01 00:   GAMMA RAY
 RILD.OHMM   07 120 46 00:   INDUCTION LOG DEEP RESISTIVITY
 RILM.OHMM   07 120 44 00:   INDUCTION LOG MEDIUM RESISTIVITY
 RFOC.OHMM   07 220 04 00:   RESISTIVITY FOCUSED LOG
~PARAMETER INFORMATION
#MNEM.UNIT          VALUE    DESCRIPTION
#----------   ------------   ------------------------------
 PD  .                 GL:   PERMANENT DATUM
 EPD .F              5165:   ELEVATION PERMANENT DATUM
 LMF .                 KB:   LOG MEASURED FROM
 DAPD.F                10:   FEET ABOVE PERMANENT DATUM
 DMF .                 KB:   DRILLING MEASURED FROM
 EKB .F              5175:   KELLING BUSHING
 EDF .F              5174:   DRILLING FLOOR
 EGL .F              5165:   GROUND LEVEL
 DATE.        12-FEB-1992:   RUN DATE
 RUN .                  1:   RUN NUMBER
 DD  .F               487:   DEPTH DRILLER
 DL  .F               485:   DEPTH LOGGER
 BLI .F               482:   BOTTOM LOG INTERVAL
 CS  .IN            8.625:   CASING SIZE
 CBD .F               183:   CASING BOTTOM DRILLER
 CBL .F               186:   CASING BOTTOM LOGGER
 BS  .IN            7.875:   BIT SIZE
 BSD .F               487:   BIT SIZE AT DEPTH
 DFT .           CHEM GEL:   DRILLING FLUID TYPE
 DFD .               16.1:   DRILLING FLUID DENSITY
 DFV .                 43:   DRILLING FLUID VISCOSITY
 DFPH.                9.5:   DRILLING FLUID PH
 DFL .               11.8:   DRILLING FLUID LOSS
 MSS .           MUD TANK:   MUD SAMPLE SOURCE
 RMS .OHMM           2.36:   RESISTIVITY MUD SAMPLE
 MST .F                65:   MUD SAMPLE TEMPERATURE
 RMF .OHMM           1.17:   RESISTIVITY MUD FILTRATE SAMPLE
 MFST.F                65:   MUD FILTRATE SAMPLE TEMPERATURE
 RMC .OHMM           5.18:   RESISTIVITY MUD CAKE
 MCST.F                65:   MUD CAKE SAMPLE TEMPERATURE
 MFSS.               MEAS:   MUD FILTRATE SAMPLE SOURCE
 MCSS.               CALC:   MUD CAKE SAMPLE SOURCE
 RMB .OHMM           1.67:   RESISTIVITY MUD AT BHT
 BHT .F                92:   BOTTOM HOLE TEMPERATURE
 TCS .HRS               2:   TIME CURCULATED STOPPED
 MRT .F                92:   MAXIMUM RECORDED TEMPERATURE
 LUN .           HL- 6224:   LOGGING UNIT NUMBER
 LUL .             CASPER:   LOGGING UNIT LOCATION
 ENGI.        VERN RAUTIO:   RECORDING ENGINEER
 WITN.        GARY STRONG:   WITNESSED BY
 CLNT.            A2DTECH:   CLIENT CODE
 ORIG.           5" PRINT:   ORIGIN OF DATA
 UWI .       490252250400:   UNIQUE WELL ID
 DICO. A2D Technologies, Inc.:   DIGITIZING COMPANY
~OTHER INFORMATION
~A    DEPT     SPR        GRR       RILD       RILM       RFOC   
# ...
  226.6000   -33.9051   109.0627     7.7718     7.6892     8.1645
  226.7000   -33.8559   109.0053     7.7927     7.6892     8.1643
  226.8000   -33.7513   108.7711     7.8264     7.6892     8.1181
  226.9000   -33.7494   108.7763     7.8274     7.6892     8.1078
  227.0000   -33.8609   108.5837     7.8723     7.6892     8.1078
  227.1000   -33.8961   108.4840     7.8816     7.6892     8.1078
  227.2000   -33.9511   108.4026     7.8816     7.6892     8.1078
  227.3000   -34.0427   108.1621     7.8974     7.6930     8.1078
  227.4000   -34.0408   107.8973     7.9371     7.7430     8.1078
  227.5000   -34.2842   107.6812     7.9372     7.7430     8.1078
  227.6000   -34.4320   107.4407     7.9373     7.7430     8.1078
  227.7000   -34.5523   107.3097     7.9374     7.7430     8.1160
  227.8000   -34.6342   107.3139     7.9375     7.7430     8.1645
  227.9000   -34.6426   107.3182     7.9376     7.7430     8.1645
  228.0000   -34.7805   107.5662     7.9377     7.7849     8.1645
  228.1000   -34.8829   108.3813     7.9379     7.7972     8.1874
  228.2000   -35.0032   109.3642     7.9380     7.7972     8.2216
  228.3000   -35.0757   110.5038     7.9380     7.7972     8.2216
  228.4000   -35.0739   111.9529     7.9382     7.7972     8.2216
  228.5000   -35.0719   113.3409     7.9383     7.7972     8.2216
  228.6000   -35.1838   113.9825     7.9384     7.8333     8.2487
  228.7000   -35.2186   114.5633     7.8990     7.8518     8.2792
  228.8000   -35.2168   114.9545     7.8835     7.8518     8.2792
  228.9000   -35.2150   115.2506     7.8643     7.8518     8.2792
  229.0000   -35.2132   115.7603     7.8288     7.8518     8.2792
  229.1000   -35.2114   115.7643     7.8289     7.8518     8.2792
  229.2000   -35.2096   115.7685     7.8291     7.8518     8.2792
  229.3000   -35.2078   115.6464     7.7956     7.8718     8.2792
  229.4000   -35.2060   115.4059     7.7748     7.9068     8.2792
  229.5000   -35.1937   115.1335     7.7614     7.9068     8.2792
  229.6000   -35.0520   114.2867     7.7210     7.9068     8.2792
  229.7000   -35.0505   113.8792     7.7211     7.9068     8.2547
  229.8000   -35.0487   113.2438     7.6836     7.9068     8.2216
  229.9000   -35.0469   112.5140     7.6401     7.8929     8.2216
  230.0000   -35.0450   111.7841     7.6144     7.8518     8.2216
  230.1000   -35.0431   111.0090     7.6066     7.8518     8.2216
  230.2000   -34.9276   110.5539     7.5617     7.8518     8.2216
  230.3000   -34.8895   110.0688     7.5206     7.8239     8.2040
  230.4000   -34.8300   109.5836     7.5093     7.7796     8.1645
  230.5000   -34.7358   109.1624     7.4877     7.7355     8.1645
  230.6000   -34.7340   108.9306     7.4452     7.6892     8.1219
  230.7000   -34.7321   108.9357     7.4055     7.6480     8.1078
  230.8000   -34.7303   108.9391     7.4057     7.6047     8.1078
  230.9000   -34.7285   109.2296     7.3706     7.5407     8.1078
  231.0000   -34.6877   110.1629     7.3288     7.4554     8.1078
  231.1000   -34.5747   111.7487     7.2713     7.3710     8.1078
  231.2000   -34.5727   112.5545     7.1955     7.2717     8.1078
  231.3000   -34.5712   113.0029     7.1522     7.2385     8.1332
  231.4000   -34.5694   113.6636     7.0764     7.1974     8.1645
  231.5000   -34.5676   114.2899     7.0247     7.1424     8.1645
  231.6000   -34.5658   114.7834     6.9849     7.0666     8.1645
  231.7000   -34.5639   115.2770     6.9349     7.0224     8.1645
  231.8000   -34.5621   115.7705     6.8579     6.9513     8.1645
  231.9000   -34.5603   116.0730     6.8119     6.8988     8.1645
  232.0000   -34.5585   116.3218     6.7804     6.8597     8.1562
  232.1000   -34.5568   116.4900     6.7419     6.8208     8.1078
  232.2000   -34.5586   116.4686     6.7037     6.7816     8.0208
  232.3000   -34.8008   116.1990     6.6657     6.7437     7.9628
  232.4000   -34.8516   115.9876     6.6248     6.7055     7.8738
  232.5000   -34.9174   115.5872     6.6249     6.6876     7.7408
  232.6000   -35.0376   114.7879     6.5989     6.6761     7.6114
  232.7000   -35.1467   113.5192     6.5615     6.6411     7.5092
  232.8000   -35.1445   112.0217     6.5243     6.6411     7.4068
  232.9000   -35.2482   111.7867     6.4874     6.6733     7.3056
  233.0000   -35.3684   111.7301     6.4506     6.6876     7.2232
  233.1000   -35.4886   111.8631     6.4432     6.6876     7.1366
  233.2000   -35.6088   112.1119     6.4223     6.6876     7.0035
  233.3000   -35.7362   112.3424     6.3859     6.6876     6.8631
  233.4000   -35.7345   112.3473     6.3541     6.6876     6.7597
  233.5000   -35.8193   112.5587     6.3542     6.6607     6.6670
  233.6000   -35.9395   112.9603     6.3218     6.6229     6.5697
  233.7000   -36.0598   113.6489     6.3102     6.5854     6.5318
  233.8000   -36.1778   114.5896     6.2942     6.5480     6.5318
  233.9000   -36.1760   115.3663     6.2585     6.5036     6.5598
  234.0000   -36.2703   116.2979     6.2230     6.4447     6.5972
  234.1000   -36.3225   117.2808     6.2231     6.3308     6.6347
  234.2000   -36.3606   118.1421     6.1686     6.2004     6.6724
  234.3000   -36.4692   118.8804     6.1178     6.0995     6.7166
  234.4000   -36.4670   119.5962     6.0719     6.0231     6.7486
  234.5000   -36.4655   119.8898     5.9996     5.9624     6.7871
  234.6000   -36.4637   119.8933     5.8856     5.8730     6.8406
  234.7000   -36.4619   119.6064     5.7983     5.7737     6.9125
  234.8000   -36.4389   119.1212     5.6792     5.6826     6.9548
  234.9000   -36.3080   118.6361     5.5647     5.6171     6.9915
  235.0000   -36.3063   118.1113     5.4641     5.5240     7.0592
  235.1000   -36.2175   117.8905     5.3383     5.3849     7.1207
  235.2000   -36.0937   117.6500     5.2499     5.2340     7.1515
  235.3000   -36.0006   117.2952     5.0956     5.0956     7.1520
  235.4000   -35.9988   116.8692     4.9537     4.9828     7.1927
  235.5000   -35.9970   116.6287     4.8421     4.8855     7.2336
  235.6000   -35.9952   116.3882     4.7328     4.8621     7.2748
  235.7000   -35.9934   116.1477     4.6111     4.8010     7.3027
  235.8000   -36.0318   115.7689     4.5222     4.7198     7.3027
  235.9000   -36.1401   115.3669     4.4205     4.6399     7.3027
  236.0000   -36.1379   115.0985     4.3308     4.5562     7.3388
  236.1000   -36.2423   114.5594     4.2573     4.4844     7.3538
  236.2000   -36.4404   114.3457     4.1822     4.4086     7.3538
  236.3000   -36.6329   113.9428     4.1368     4.2994     7.3462
  236.4000   -36.7531   113.4576     4.1071     4.1550     7.3027
  236.5000   -36.8798   113.0245     4.0839     4.0152     7.2633
  236.6000   -36.9936   112.7809     4.0673     3.8810     7.1633
  236.7000   -37.0264   112.5435     4.0674     3.7679     7.0034
  236.8000   -37.0839   112.1168     4.0674     3.6858     6.7871
  236.9000   -37.1729   111.7627     4.0481     3.6234     6.5120
  237.0000   -37.1712   111.4463     4.0392     3.5667     5.9244
  237.1000   -37.2943   110.9819     4.0393     3.5442     5.5852
  237.2000   -37.3177   110.7076     4.0432     3.5264     5.2717
  237.3000   -37.3159   110.2906     4.0677     3.5195     5.0569
  237.4000   -37.3141   109.8055     4.0678     3.5282     4.8905
  237.5000   -37.3123   109.3203     4.0679     3.5525     4.7396
  237.6000   -37.3103   108.7904     4.0793     3.5940     4.5978
  237.7000   -37.2023   108.0296     4.1026     3.6545     4.3467
  237.8000   -37.1568   107.0965     4.1252     3.7174     4.1192
  237.9000   -37.1550   106.3011     4.1252     3.7700     3.9856
  238.0000   -37.1311   105.5712     4.1445     3.8327     3.8720
  238.1000   -37.0011   104.9101     4.1683     3.9444     3.8291
  238.2000   -36.8835   104.4114     4.1922     4.1035     3.8184
  238.3000   -36.7597   103.5575     4.2162     4.1429     3.8414
  238.4000   -36.6359   103.3579     4.2423     4.2050     3.8986
  238.5000   -36.5435   103.1174     4.2871     4.2964     3.9879
  238.6000   -36.5383   102.8770     4.3536     4.4241     4.0941
  238.7000   -36.4145   102.6365     4.4287     4.5881     4.2138
