~VERSION INFORMATION
 VERS.                2.0:   CWLS LOG ASCII STANDARD - VERSION 2.0
 WRAP.                 NO:   ONE LINE PER DEPTH STEP
~WELL INFORMATION
#MNEM.UNIT      DATA TYPE    INFORMATION
#----------   ------------   ------------------------------
 STRT.F           30.0000:   START DEPTH
 STOP.F          444.0000:   STOP DEPTH
 STEP.F            0.5000:   STEP LENGTH
 NULL.          -999.2500:   NO VALUE
 COMP. FENIX & SCISSON INC:   COMPANY
 WELL.       SX 3FO #54-3:   WELL
 FLD .             TEAPOT:   FIELD
 LOC .       S3 T38N R78W:   LOCATION
 CNTY.            NATRONA:   COUNTY
 STAT.            WYOMING:   STATE
 CTRY. UNITED STATES OF AMERICA:   COUNTRY
 SRVC.              Welex:   SERVICE COMPANY
 DATE.        08-JUL-1980:   LOGDATE
 API .       490251082800:   API NUMBER
~CURVE INFORMATION
#MNEM.UNIT       API CODE    CURVE DESCRIPTION
#----------   ------------   ------------------------------
 DEPT.F                  :   
 GRD .GAPI   45 310 01 00:   GAMMA RAY FROM DENSITY LOG
 CALD.IN     45 280 60 00:   CALIPER
 RHOB.G/C3   45 350 01 00:   BULK DENSITY
 DPHI.DEC    45 890 12 00:   DENSITY POROSITY SANDSTONE
 CORR.G/C3   45 356 01 00:   DENSITY CORRECTION
~PARAMETER INFORMATION
#MNEM.UNIT          VALUE    DESCRIPTION
#----------   ------------   ------------------------------
 PD  .                 GL:   PERMANENT DATUM
 EPD .F              5162:   ELEVATION PERMANENT DATUM
 LMF .                 KB:   LOG MEASURED FROM
 DAPD.F                 5:   FEET ABOVE PERMANENT DATUM
 DMF .                 KB:   DRILLING MEASURED FROM
 EKB .F              5167:   KELLING BUSHING
 EGL .F              5162:   GROUND LEVEL
 DATE.             7-8-80:   RUN DATE
 RUN .                  1:   RUN NUMBER
 DD  .F               470:   DEPTH DRILLER
 DL  .F               446:   DEPTH LOGGER
 BLI .F               444:   BOTTOM LOG INTERVAL
 TLI .F                30:   TOP LOG INTERVAL
 CS  .IN                7:   CASING SIZE
 CBD .F                43:   CASING BOTTOM DRILLER
 BS  .IN             6.25:   BIT SIZE
 BSD .F               470:   BIT SIZE AT DEPTH
 DFT .        AIR DRILLED:   DRILLING FLUID TYPE
 BHT .F                75:   BOTTOM HOLE TEMPERATURE
 TCS .HRS             2.5:   TIME CURCULATED STOPPED
 MRT .F                75:   MAXIMUM RECORDED TEMPERATURE
 ENGI.               REIN:   RECORDING ENGINEER
 WITN.            RHOADES:   WITNESSED BY
 CLNT.            A2DTECH:   CLIENT CODE
 ORIG.           5" PRINT:   ORIGIN OF DATA
 UWI .       490251082800:   UNIQUE WELL ID
 DICO. A2D Technologies, Inc.:   DIGITIZING COMPANY
~OTHER INFORMATION
~A   DEPT       GRD      CALD       RHOB       DPHI       CORR   
# ...
   91.0000   110.8009     5.9455     2.5378     0.0882     0.0839
   91.5000   111.7463     5.9263     2.5388     0.0877     0.0838
   92.0000   110.9077     5.9057     2.5404     0.0879     0.0837
   92.5000   109.7994     5.9092     2.5356     0.0897     0.0818
   93.0000   108.6794     5.9204     2.5302     0.0914     0.0799
   93.5000   108.1821     5.9171     2.5274     0.0930     0.0779
   94.0000   109.7064     5.9118     2.5306     0.0909     0.0790
   94.5000   110.4960     5.9065     2.5350     0.0885     0.0804
   95.0000   108.1136     5.9014     2.5395     0.0861     0.0818
   95.5000   106.2804     5.9174     2.5432     0.0866     0.0831
   96.0000   104.1638     5.9363     2.5385     0.0889     0.0811
   96.5000   101.8928     5.9288     2.5335     0.0914     0.0709
   97.0000   100.3141     5.9312     2.5323     0.0911     0.0690
   97.5000   100.5436     5.9506     2.5314     0.0906     0.0678
   98.0000   101.6299     5.9555     2.5199     0.0975     0.0589
   98.5000   100.4987     5.9375     2.5070     0.1073     0.0489
   99.0000    98.9333     5.9200     2.5008     0.1094     0.0441
   99.5000    97.4782     5.9019     2.5065     0.1063     0.0476
  100.0000    96.1797     5.9145     2.5122     0.1033     0.0511
  100.5000    95.8656     5.9414     2.5129     0.1020     0.0557
  101.0000    96.7994     5.9586     2.5106     0.1024     0.0601
  101.5000    97.8706     5.9496     2.5103     0.1022     0.0645
  102.0000    98.9932     5.9414     2.5133     0.1002     0.0722
  102.5000    98.1216     5.9332     2.5164     0.0982     0.0814
  103.0000    96.8418     5.9250     2.5195     0.0982     0.0886
  103.5000    97.5052     5.9279     2.5225     0.0974     0.0956
  104.0000    98.4498     5.9420     2.5306     0.0932     0.1040
  104.5000    99.3958     5.9569     2.5406     0.0866     0.1298
  105.0000   100.3475     5.9464     2.5475     0.0826     0.1355
  105.5000   100.7640     5.9268     2.5432     0.0855     0.1395
  106.0000    99.6745     5.9070     2.5386     0.0895     0.1314
  106.5000    98.6216     5.8864     2.5314     0.0935     0.1223
  107.0000    97.5719     5.8867     2.5219     0.0975     0.1132
  107.5000    96.6535     5.8942     2.5167     0.0988     0.1040
  108.0000    97.2492     5.9008     2.5241     0.0944     0.0981
  108.5000    97.9996     5.8788     2.5332     0.0900     0.1005
  109.0000    97.0464     5.8540     2.5423     0.0856     0.1038
  109.5000    96.0359     5.8282     2.5484     0.0827     0.1037
  110.0000    96.3939     5.8301     2.5437     0.0862     0.1019
  110.5000    98.4328     5.8414     2.5447     0.0833     0.1019
  111.0000   100.1966     5.8532     2.5441     0.0806     0.1050
  111.5000   100.5432     5.8660     2.5361     0.0878     0.1045
  112.0000   101.8415     5.8831     2.5283     0.0931     0.1002
  112.5000   105.2922     5.9001     2.5223     0.0985     0.0961
  113.0000   104.2563     5.8812     2.5166     0.1007     0.0919
  113.5000   101.9759     5.8618     2.5109     0.1049     0.0888
  114.0000    99.6631     5.8887     2.5009     0.1114     0.0803
  114.5000    97.9373     5.9190     2.4874     0.1183     0.0702
  115.0000    96.3225     5.9379     2.4818     0.1214     0.0661
  115.5000    96.0633     5.9250     2.4946     0.1143     0.0738
  116.0000    98.9357     5.9130     2.5084     0.1050     0.0856
  116.5000   101.2488     5.9010     2.5222     0.0980     0.0970
  117.0000   100.5654     5.8890     2.5285     0.0929     0.1016
  117.5000   100.0570     5.8770     2.5349     0.0886     0.1059
  118.0000   101.3700     5.8639     2.5198     0.0989     0.0952
  118.5000   101.8233     5.8937     2.5006     0.1098     0.0772
  119.0000   101.1099     5.9394     2.4936     0.1134     0.0657
  119.5000    99.2160     5.9795     2.4897     0.1163     0.0659
  120.0000    97.4710     5.9191     2.4859     0.1176     0.0657
  120.5000    99.4138     5.9015     2.4835     0.1189     0.0645
  121.0000    98.1363     5.9009     2.4842     0.1198     0.0635
  121.5000    95.6196     5.9103     2.4840     0.1196     0.0624
  122.0000    92.9897     5.9290     2.4838     0.1186     0.0672
  122.5000    92.8492     5.9472     2.4952     0.1123     0.0761
  123.0000    92.9824     5.9548     2.5039     0.1071     0.0788
  123.5000    94.3635     5.9318     2.5073     0.1057     0.0804
  124.0000    95.6474     5.9098     2.5108     0.1044     0.0825
  124.5000    95.1506     5.8870     2.5154     0.1015     0.0890
  125.0000    95.3389     5.8879     2.5226     0.0968     0.0933
  125.5000    97.2999     5.8972     2.5296     0.0920     0.0951
  126.0000    99.1955     5.9066     2.5350     0.0896     0.0933
  126.5000   101.0760     5.9159     2.5287     0.0922     0.0916
  127.0000   102.1466     5.9092     2.5217     0.0976     0.0842
  127.5000   100.5118     5.8862     2.5146     0.1022     0.0765
  128.0000    98.9021     5.8625     2.5074     0.1028     0.0703
  128.5000    98.9201     5.8685     2.5007     0.1059     0.0642
  129.0000    99.7550     5.8769     2.5008     0.1095     0.0566
  129.5000   101.2154     5.8701     2.5025     0.1102     0.0516
  130.0000   102.7632     5.8471     2.5033     0.1110     0.0497
  130.5000   102.3310     5.8582     2.4961     0.1148     0.0488
  131.0000   101.0191     5.8812     2.4888     0.1172     0.0480
  131.5000    99.8046     5.9043     2.4887     0.1176     0.0478
  132.0000   100.7239     5.9188     2.4945     0.1178     0.0516
  132.5000   102.8934     5.9091     2.5001     0.1116     0.0561
  133.0000   104.4764     5.9001     2.5059     0.1056     0.0606
  133.5000   105.4747     5.8910     2.5122     0.1022     0.0653
  134.0000   106.4953     5.8813     2.5062     0.1067     0.0601
  134.5000   106.8887     5.8911     2.4954     0.1139     0.0512
  135.0000   105.2620     5.9054     2.4888     0.1198     0.0424
  135.5000   103.7001     5.9201     2.4825     0.1218     0.0340
  136.0000   102.5793     5.9103     2.4765     0.1238     0.0316
  136.5000   103.2405     5.8983     2.4747     0.1245     0.0299
  137.0000   104.5085     5.8863     2.4784     0.1224     0.0306
  137.5000   105.3215     5.8741     2.4822     0.1199     0.0316
  138.0000   103.4490     5.8622     2.4860     0.1186     0.0326
  138.5000   103.3308     5.8955     2.4895     0.1187     0.0336
  139.0000   105.7973     5.9334     2.4887     0.1189     0.0361
  139.5000   108.2209     5.9577     2.4876     0.1184     0.0395
  140.0000   110.6634     5.9443     2.4887     0.1167     0.0428
  140.5000   111.2011     5.9317     2.4938     0.1127     0.0498
  141.0000   107.4085     5.9216     2.4988     0.1093     0.0592
  141.5000   108.3907     5.9373     2.5038     0.1075     0.0618
  142.0000   109.9865     5.9527     2.5087     0.1036     0.0620
  142.5000   106.3522     5.9576     2.5161     0.0978     0.0658
  143.0000   104.9181     5.9521     2.5216     0.0988     0.0671
  143.5000   103.2503     5.9467     2.5177     0.1007     0.0643
  144.0000   102.0177     5.9412     2.5149     0.1022     0.0623
  144.5000   106.1154     5.9356     2.5205     0.0977     0.0726
  145.0000   105.1505     5.9300     2.5312     0.0926     0.0826
  145.5000   103.9018     5.9248     2.5296     0.0898     0.0763
  146.0000   102.8031     5.9274     2.5260     0.0961     0.0676
  146.5000   102.7791     5.9534     2.5162     0.1019     0.0586
  147.0000   103.5696     5.9790     2.5089     0.1030     0.0573
  147.5000   104.8723     5.9619     2.5129     0.1017     0.0601
  148.0000   106.6422     5.9411     2.5208     0.0990     0.0631
  148.5000   108.8002     5.9203     2.5265     0.0966     0.0626
  149.0000   109.2546     5.8995     2.5242     0.0981     0.0578
  149.5000   107.5059     5.8821     2.5154     0.1014     0.0531
  150.0000   105.9080     5.9002     2.5086     0.1050     0.0482
  150.5000   106.6377     5.9180     2.5139     0.1054     0.0479
  151.0000   108.2657     5.9362     2.5203     0.0945     0.0535
  151.5000   109.7827     5.9341     2.5314     0.0921     0.0646
