~VERSION INFORMATION
 VERS.                2.0:   CWLS LOG ASCII STANDARD - VERSION 2.0
 WRAP.                 NO:   ONE LINE PER DEPTH STEP
~WELL INFORMATION
#MNEM.UNIT      DATA TYPE    INFORMATION
#----------   ------------   ------------------------------
 STRT.F           19.0000:   START DEPTH
 STOP.F         1200.0000:   STOP DEPTH
 STEP.F            0.5000:   STEP LENGTH
 NULL.          -999.2500:   NO VALUE
 COMP.       INTEX OIL CO:   COMPANY
 WELL.     NPR 3 #73 S-14:   WELL
 FLD .             TEAPOT:   FIELD
 LOC .      S14 T38N R78W:   LOCATION
 CNTY.            NATRONA:   COUNTY
 STAT.            WYOMING:   STATE
 CTRY. UNITED STATES OF AMERICA:   COUNTRY
 SRVC.       Schlumberger:   SERVICE COMPANY
 DATE.        24-AUG-1966:   LOGDATE
 API .       490250970900:   API NUMBER
~CURVE INFORMATION
#MNEM.UNIT       API CODE    CURVE DESCRIPTION
#----------   ------------   ------------------------------
 DEPT.F                  :   
 SPR .MV     05 010 01 00:   SPONTANEOUS POTENTIAL FROM RES.
 ILD .OHMM   05 120 46 00:   INDUCTION LOG DEEP
 ASN .OHMM   05 041 16 00:   AMPLIFIED SHORT NORMAL 16"
 CILD.MMHO   05 110 46 00:   CONDUCTIVITY INDUCTION LOG DEEP
 CALD.IN     45 280 60 00:   CALIPER
 GRD .GAPI   45 310 01 00:   GAMMA RAY FROM DENSITY LOG
 CORR.G/C3   45 356 01 00:   DENSITY CORRECTION
 RHOB.G/C3   45 350 01 00:   BULK DENSITY
 DPHI.DEC    45 890 12 00:   DENSITY POROSITY SANDSTONE
~PARAMETER INFORMATION
#MNEM.UNIT          VALUE    DESCRIPTION
#----------   ------------   ------------------------------
 PD  .                 GL:   PERMANENT DATUM
 EPD .F              5274:   ELEVATION PERMANENT DATUM
 LMF .                 KB:   LOG MEASURED FROM
 DAPD.F                 5:   FEET ABOVE PERMANENT DATUM
 DMF .                 KB:   DRILLING MEASURED FROM
 EKB .F              5279:   KELLING BUSHING
 EGL .F              5274:   GROUND LEVEL
 DATE.            8-24-66:   RUN DATE
 RUN .                  1:   RUN NUMBER
 DD  .F              1200:   DEPTH DRILLER
 DL  .F              1200:   DEPTH LOGGER
 BLI .F              1199:   BOTTOM LOG INTERVAL
 TLI .F                86:   TOP LOG INTERVAL
 CS  .IN            8.625:   CASING SIZE
 CBD .F                10:   CASING BOTTOM DRILLER
 BS  .IN             6.75:   BIT SIZE
 BSD .F              1200:   BIT SIZE AT DEPTH
 DFT .                GEL:   DRILLING FLUID TYPE
 DFD .               10.1:   DRILLING FLUID DENSITY
 DFV .                 60:   DRILLING FLUID VISCOSITY
 MSS .          FLOW LINE:   MUD SAMPLE SOURCE
 RMS .OHMM            1.8:   RESISTIVITY MUD SAMPLE
 MST .F                67:   MUD SAMPLE TEMPERATURE
 RMF .OHMM            1.4:   RESISTIVITY MUD FILTRATE SAMPLE
 MFST.F                77:   MUD FILTRATE SAMPLE TEMPERATURE
 MFSS.                  M:   MUD FILTRATE SAMPLE SOURCE
 RMB .OHMM            1.1:   RESISTIVITY MUD AT BHT
 BHT .F               112:   BOTTOM HOLE TEMPERATURE
 TCS .HRS               1:   TIME CURCULATED STOPPED
 MRT .F               112:   MAXIMUM RECORDED TEMPERATURE
 LUN .               4507:   LOGGING UNIT NUMBER
 LUL .               CSPR:   LOGGING UNIT LOCATION
 ENGI.            MANGOLD:   RECORDING ENGINEER
 WITN.                MAY:   WITNESSED BY
 CLNT.            A2DTECH:   CLIENT CODE
 ORIG.           5" PRINT:   ORIGIN OF DATA
 UWI .       490250970900:   UNIQUE WELL ID
 DICO. A2D Technologies, Inc.:   DIGITIZING COMPANY
~OTHER INFORMATION
~A   DEPT      SPR        ILD        ASN       CILD       CALD         GRD        CORR     RHOB       DPHI   
# ...
 1004.5000   -39.9610     7.6070     9.0110   128.3720     7.1980   109.4380     0.0230     2.5490     0.0600
 1005.0000   -40.1420     7.6450     8.9770   128.3720     7.2030   108.4540     0.0270     2.5340     0.0750
 1005.5000   -40.4150     7.7000     8.8980   128.3720     7.2230   108.4200     0.0590     2.5200     0.0850
 1006.0000   -41.1370     7.8050     8.8370   126.4610     7.2250   109.9440     0.0570     2.5050     0.0910
 1006.5000   -41.5540     7.8960     8.7520   123.2580     7.2320   110.5950     0.0400     2.5020     0.0930
 1007.0000   -41.4210     7.9960     8.7680   120.0550     7.2350   110.9480     0.0340     2.5000     0.0890
 1007.5000   -41.3030     8.1080     8.9370   116.8520     7.2390   111.3920     0.0280     2.5080     0.0860
 1008.0000   -41.1880     8.1750     9.1480   113.3870     7.1810   104.4490     0.0220     2.5230     0.0750
 1008.5000   -41.0740     8.2660     9.4140   113.3870     7.1060   101.3640     0.0240     2.5260     0.0760
 1009.0000   -40.9720     8.0200     9.5330   120.4400     7.0490   102.5250     0.0270     2.5270     0.0730
 1009.5000   -40.7100     7.2900     9.7170   135.9590     7.1570   100.3810     0.0260     2.5280     0.0750
 1010.0000   -40.4530     6.6350     9.5940   152.5170     7.2230    99.3350     0.0250     2.5230     0.0810
 1010.5000   -40.2530     5.9510     9.3550   168.3320     7.2110   100.0250     0.0250     2.5040     0.0870
 1011.0000   -40.0150     5.2730     9.0130   183.4300     7.2110   104.0120     0.0330     2.4860     0.0990
 1011.5000   -39.7920     5.1750     7.6840   191.3090     7.2050   103.8720     0.0360     2.4660     0.1070
 1012.0000   -39.5710     5.2090     6.5020   190.0940     7.2020   107.8170     0.0350     2.4490     0.1230
 1012.5000   -39.3410     5.1100     6.0040   188.7450     7.1970   112.8130     0.0300     2.4320     0.1370
 1013.0000   -39.1780     5.3490     6.0990   187.3970     7.1930   116.8450     0.0390     2.4110     0.1480
 1013.5000   -39.1350     5.6690     6.1830   185.3150     7.1870   112.2240     0.0810     2.4340     0.1140
 1014.0000   -39.1110     5.9990     6.2640   170.7690     7.1820   102.6950     0.0730     2.5400     0.0730
 1014.5000   -39.0600     6.6590     7.7210   150.2700     7.1780    99.3150     0.0390     2.5380     0.0690
 1015.0000   -39.0600     7.4270     8.9010   127.3730     7.1730    98.1280     0.0240     2.5480     0.0660
 1015.5000   -38.9830     8.4210    10.0200   117.0870     7.1680    96.0450     0.0350     2.5530     0.0590
 1016.0000   -39.0000     9.3670    10.5350   102.3980     7.1620    92.6310     0.0340     2.5610     0.0510
 1016.5000   -39.4130     9.5290    10.8860    98.4020     7.1630    93.4560     0.0280     2.5560     0.0550
 1017.0000   -39.7870     9.4750    11.0210    99.4320     7.1950    96.3090     0.0440     2.5470     0.0630
 1017.5000   -39.8420     9.5540    11.1560   100.7810     7.2360    96.5810     0.0610     2.5380     0.0710
 1018.0000   -39.8880     9.4120    11.2910   102.1290     7.2240    95.1940     0.0470     2.5370     0.0700
 1018.5000   -39.9600     9.2920    11.2150   103.3970     7.1880    94.2550     0.0370     2.5440     0.0650
 1019.0000   -39.8410     9.1660    11.0220   102.9030     7.1580    94.4890     0.0340     2.5510     0.0590
 1019.5000   -39.5980     9.0510    10.8300   102.4370     7.1270    94.9250     0.0470     2.5590     0.0440
 1020.0000   -39.3860     9.2410    10.8920   101.9710     7.1350    96.5610     0.0530     2.5680     0.0530
 1020.5000   -39.1250     9.5090    11.1810   101.3990     7.1620   103.4560     0.0490     2.5690     0.0500
 1021.0000   -38.7310     9.7090    11.4710    99.3040     7.1790   102.4140     0.0490     2.5640     0.0530
 1021.5000   -38.2070     9.9540    11.7610    96.5910     7.1850   101.3260     0.0560     2.5590     0.0580
 1022.0000   -38.0100    10.3300    12.0380    93.8780     7.1920    98.7660     0.0620     2.5540     0.0560
 1022.5000   -38.4270    10.9520    12.8600    89.6990     7.1990    95.1110     0.0670     2.5410     0.0640
 1023.0000   -38.8220    11.6580    13.6490    83.7850     7.2060    89.6860     0.0630     2.5250     0.0800
 1023.5000   -39.2220    12.2370    14.6380    77.4230     7.2140    82.5330     0.0500     2.5170     0.0790
 1024.0000   -40.3630    12.8870    15.8200    73.9940     7.2130    73.6030     0.0440     2.5190     0.0780
 1024.5000   -42.0600    13.7650    17.0330    70.2820     7.1420    65.4040     0.0420     2.5120     0.0870
 1025.0000   -43.6460    14.7240    17.3830    66.5710     7.0480    63.8670     0.0330     2.4840     0.1000
 1025.5000   -44.8020    15.4880    17.7320    62.8600     7.0420    66.4050     0.0180     2.4490     0.1130
 1026.0000   -45.4360    15.8690    18.6330    59.1490     7.1090    69.6550     0.0200     2.4170     0.1300
 1026.5000   -46.2720    16.0520    18.8080    56.4440     7.1380    67.7610     0.0410     2.3950     0.1570
 1027.0000   -48.2260    16.2390    18.6220    56.2460     7.0980    64.5160     0.0380     2.3700     0.1790
 1027.5000   -50.2250    16.4360    18.6350    56.0910     7.0650    63.7050     0.0340     2.3550     0.1770
 1028.0000   -51.3470    16.6200    18.8360    55.9360     7.0290    62.8590     0.0330     2.3700     0.1710
 1028.5000   -52.2290    16.6460    19.0360    55.7800     7.0000    63.0820     0.0410     2.3930     0.1600
 1029.0000   -52.4070    16.5700    19.2370    55.6250     6.9980    62.7730     0.0470     2.4040     0.1500
 1029.5000   -51.8330    16.5890    19.4310    55.4450     6.9980    62.5080     0.0570     2.3990     0.1550
 1030.0000   -51.0620    16.5230    20.0300    56.7140     6.9980    60.6390     0.0310     2.3950     0.1550
 1030.5000   -50.2380    16.2100    19.7010    58.2280     6.9980    57.6750     0.0350     2.3850     0.1570
 1031.0000   -50.6830    15.8240    19.2090    59.7420     6.9960    54.8510     0.0440     2.3740     0.1750
 1031.5000   -51.5230    15.4690    18.7170    61.2560     6.9560    54.9520     0.0430     2.3650     0.1710
 1032.0000   -50.6970    15.1050    18.2250    62.7700     6.8800    56.2040     0.0680     2.3910     0.1590
 1032.5000   -49.4290    14.7310    17.6320    64.2850     6.8290    59.2460     0.0800     2.4190     0.1460
 1033.0000   -48.3650    14.3780    17.3830    65.7990     6.9840    64.5480     0.1150     2.4470     0.1270
 1033.5000   -47.2150    14.1140    17.0700    67.3130     6.9340    67.8090     0.1120     2.4760     0.1020
 1034.0000   -46.6650    13.9330    16.7570    68.4320     6.8620    68.3880     0.0980     2.4880     0.1090
 1034.5000   -46.2170    13.7470    16.5330    68.4320     6.7690    67.8650     0.1070     2.4870     0.1050
 1035.0000   -45.7850    13.5530    16.8330    68.4320     6.8090    67.4890     0.0910     2.4860     0.0990
 1035.5000   -45.9650    13.4560    16.6420    68.4320     6.9340    67.0340     0.0640     2.4710     0.1120
 1036.0000   -46.2150    13.4880    16.2670    68.4320     6.9800    66.6370     0.0540     2.4480     0.1280
 1036.5000   -46.2790    13.5440    16.1560    68.4320     6.9640    66.3460     0.0410     2.4260     0.1420
 1037.0000   -46.3930    13.5820    16.1540    68.4320     6.9520    66.5560     0.0250     2.4050     0.1530
 1037.5000   -46.3400    13.6280    16.1820    68.4320     6.9400    64.9720     0.0280     2.3820     0.1650
 1038.0000   -46.1880    13.6750    16.1950    68.4320     6.9920    61.2170     0.0440     2.3690     0.1700
 1038.5000   -46.2810    13.7170    16.2110    68.4320     7.0530    60.2580     0.0560     2.3820     0.1690
 1039.0000   -46.5360    13.7630    16.2370    68.4320     7.1140    61.9190     0.0730     2.3960     0.1510
 1039.5000   -47.3180    13.8110    16.1670    68.4320     7.1530    63.6160     0.0700     2.4090     0.1480
 1040.0000   -48.6060    13.7630    15.9890    69.0530     7.1160    64.0780     0.0610     2.4000     0.1470
 1040.5000   -48.9400    13.5870    15.8010    69.8700     7.0820    66.6990     0.0530     2.4030     0.1560
