~VERSION INFORMATION
 VERS.                2.0:   CWLS LOG ASCII STANDARD - VERSION 2.0
 WRAP.                 NO:   ONE LINE PER DEPTH STEP
~WELL INFORMATION
#MNEM.UNIT      DATA TYPE    INFORMATION
#----------   ------------   ------------------------------
 STRT.F           39.5000:   START DEPTH
 STOP.F          591.0000:   STOP DEPTH
 STEP.F            0.5000:   STEP LENGTH
 NULL.          -999.2500:   NO VALUE
 COMP. FENIX & SCISSON INC:   COMPANY
 WELL.      26 SX 3 #26-3:   WELL
 FLD .             TEAPOT:   FIELD
 LOC .       S3 T38N R78W:   LOCATION
 CNTY.            NATRONA:   COUNTY
 STAT.            WYOMING:   STATE
 CTRY. UNITED STATES OF AMERICA:   COUNTRY
 SRVC.           BIRDWELL:   SERVICE COMPANY
 DATE.        01-OCT-1978:   LOGDATE
 API .       490251071500:   API NUMBER
~CURVE INFORMATION
#MNEM.UNIT       API CODE    CURVE DESCRIPTION
#----------   ------------   ------------------------------
 DEPT.F                  :   
 SPR .MV     05 010 01 00:   SPONTANEOUS POTENTIAL FROM RES.
 SN  .OHMM   05 040 16 00:   SHORT NORMAL 16"
 ILD .OHMM   05 120 46 00:   INDUCTION LOG DEEP
 RHOB.G/C3   45 350 01 00:   BULK DENSITY
 CORR.G/C3   45 356 01 00:   DENSITY CORRECTION
 DPHI.DEC    45 890 12 00:   DENSITY POROSITY SANDSTONE
 GRD .GAPI   45 310 01 00:   GAMMA RAY FROM DENSITY LOG
 CALD.IN     45 280 60 00:   CALIPER
~PARAMETER INFORMATION
#MNEM.UNIT          VALUE    DESCRIPTION
#----------   ------------   ------------------------------
 PD  .                 GL:   PERMANENT DATUM
 EPD .F              5225:   ELEVATION PERMANENT DATUM
 LMF .                 KB:   LOG MEASURED FROM
 DAPD.F                 4:   FEET ABOVE PERMANENT DATUM
 DMF .                 KB:   DRILLING MEASURED FROM
 EKB .F              5229:   KELLING BUSHING
 EGL .F              5225:   GROUND LEVEL
 DATE.            10-1-78:   RUN DATE
 RUN .                  1:   RUN NUMBER
 DD  .F               600:   DEPTH DRILLER
 DL  .F               597:   DEPTH LOGGER
 BLI .F               591:   BOTTOM LOG INTERVAL
 TLI .F                60:   TOP LOG INTERVAL
 CS  .IN            8.625:   CASING SIZE
 CBD .F                40:   CASING BOTTOM DRILLER
 BS  .IN            7.875:   BIT SIZE
 BSD .F               600:   BIT SIZE AT DEPTH
 DFT .                KCL:   DRILLING FLUID TYPE
 DFD .                8.7:   DRILLING FLUID DENSITY
 DFV .                 34:   DRILLING FLUID VISCOSITY
 DFPH.                  9:   DRILLING FLUID PH
 DFL .                 10:   DRILLING FLUID LOSS
 MSS .            MUD PIT:   MUD SAMPLE SOURCE
 RMS .OHMM            .24:   RESISTIVITY MUD SAMPLE
 MST .F                65:   MUD SAMPLE TEMPERATURE
 RMF .OHMM            .45:   RESISTIVITY MUD FILTRATE SAMPLE
 MFST.F                65:   MUD FILTRATE SAMPLE TEMPERATURE
 RMC .OHMM             .4:   RESISTIVITY MUD CAKE
 MCST.F                65:   MUD CAKE SAMPLE TEMPERATURE
 MFSS.               MEAS:   MUD FILTRATE SAMPLE SOURCE
 TCS .HRS               3:   TIME CURCULATED STOPPED
 LUN .               2958:   LOGGING UNIT NUMBER
 LUL .               CASP:   LOGGING UNIT LOCATION
 ENGI.             MILLER:   RECORDING ENGINEER
 WITN.           DINSMORE:   WITNESSED BY
 CLNT.            A2DTECH:   CLIENT CODE
 ORIG.       2", 5" PRINT:   ORIGIN OF DATA
 UWI .       490251071500:   UNIQUE WELL ID
 DICO. A2D Technologies, Inc.:   DIGITIZING COMPANY
~OTHER INFORMATION
~A   DEPT      SPR         SN        ILD       RHOB       CORR       DPHI        GRD         CALD 
# ...
  444.5000    -3.9152    12.1019    14.2441     2.4778     0.1462     0.0952   126.6480     7.5873
  445.0000    -3.9083    12.0976    13.8800     2.5010     0.1423     0.0838   127.5612     7.5853
  445.5000    -3.9013    12.0933    13.6699     2.5243     0.1280     0.0879   128.4590     7.5841
  446.0000    -3.8951    12.0890    13.4615     2.5316     0.1140     0.0929   129.8094     7.5842
  446.5000    -3.8501    12.0846    13.3523     2.5251     0.1055     0.0979   130.0027     7.5842
  447.0000    -3.7877    12.0801    13.3523     2.5160     0.0999     0.1024   130.0032     7.5842
  447.5000    -3.7188    12.0760    13.3523     2.5077     0.0903     0.1064   130.0047     7.5842
  448.0000    -3.4138    12.0717    13.3523     2.5023     0.0755     0.1122   130.0327     7.5842
  448.5000    -2.9094    12.1981    13.7221     2.4953     0.0610     0.1200   129.2512     7.5841
  449.0000    -3.1159    12.4671    14.1495     2.4831     0.0517     0.1281   127.8194     7.5841
  449.5000    -3.2440    12.7420    14.5832     2.4674     0.0435     0.1434   123.6803     7.5842
  450.0000    -2.3210    13.0230    15.2365     2.4492     0.0322     0.1882   116.4971     7.5894
  450.5000    -1.4167    13.3102    15.9263     2.3906     0.0347     0.2048   109.5376     7.6111
  451.0000    -0.5329    13.6037    16.6516     2.3423     0.0389     0.2052   102.3882     7.6320
  451.5000     0.0000    13.9037    17.4100     2.3369     0.0375     0.1967    99.9790     7.6527
  452.0000     0.0000    14.2426    18.2028     2.3411     0.0256     0.1881   100.3564     7.6737
  452.5000     0.0000    14.1707    19.2787     2.3551     0.0210     0.1871   101.6009     7.6488
  453.0000     0.0000    14.0706    19.0315     2.3669     0.0182     0.1885   103.0278     7.5858
  453.5000     0.0000    13.9725    18.6905     2.3644     0.0207     0.1878   105.3428     7.5323
  454.0000     0.0000    13.8754    18.3532     2.3638     0.0276     0.1857   106.3109     7.5196
  454.5000     0.0000    13.7790    18.0224     2.3669     0.0290     0.1809   104.6385     7.6225
  455.0000     0.0000    13.6833    17.6981     2.3736     0.0290     0.1795   102.5216     7.6697
  455.5000     0.0000    13.5998    17.3796     2.3800     0.0290     0.1791   101.4629     7.6245
  456.0000     0.0000    13.4767    17.0668     2.3809     0.0290     0.1814   101.4072     7.5521
  456.5000     0.0000    13.3445    16.7374     2.3804     0.0290     0.1854   102.0560     7.6002
  457.0000     0.0000    13.2136    16.2630     2.3721     0.0290     0.1894   104.1516     7.5372
  457.5000     0.0000    13.0840    15.8020     2.3624     0.0290     0.1906   106.4759     7.5046
  458.0000     0.0000    12.9556    15.3242     2.3598     0.0330     0.1899   108.2547     7.4866
  458.5000     0.0000    12.8285    15.3242     2.3611     0.0389     0.1887   109.2384     7.4974
  459.0000     0.0000    12.7027    15.3242     2.3632     0.0390     0.1858   109.3697     7.5081
  459.5000     0.0000    12.5781    15.3245     2.3661     0.0390     0.1863   107.9433     7.5171
  460.0000     0.0000    12.4547    15.3242     2.3688     0.0390     0.1917   105.7418     7.4549
  460.5000     0.0000    12.3325    15.2299     2.3651     0.0390     0.2014   104.6691     7.3472
  461.0000     0.0000    12.1808    15.1300     2.3556     0.0375     0.2072   103.6089     7.2992
  461.5000     0.0000    12.1861    15.0453     2.3346     0.0344     0.2117   102.3351     7.1992
  462.0000     0.0000    12.1921    15.0656     2.3273     0.0313     0.2127    98.5680     7.1074
  462.5000     0.0000    12.1989    15.0836     2.3260     0.0310     0.2116    93.6626     7.0269
  463.0000     0.0000    12.2055    15.1012     2.3285     0.0310     0.2092    90.9560     6.9781
  463.5000     0.0000    12.2121    15.1191     2.3317     0.0309     0.2039    90.5940     7.0052
  464.0000     0.0000    12.2187    15.1368     2.3367     0.0268     0.1949    91.5118     6.8833
  464.5000     0.0000    12.2254    15.1543     2.3514     0.0160     0.1866    93.6983     7.1877
  465.0000     0.0000    12.2320    15.1725     2.3663     0.0134     0.1889    94.3511     7.3313
  465.5000     0.0000    12.2386    15.1809     2.3672     0.0109     0.1930    96.2511     7.3572
  466.0000     0.0000    12.2452    14.9015     2.3614     0.0110     0.1959   101.9049     7.3652
  466.5000     0.0000    12.2519    14.6972     2.3556     0.0110     0.1988   108.3757     7.3489
  467.0000     0.0000    12.2585    14.4958     2.3499     0.0110     0.2018   107.7123     7.3263
  467.5000     0.0000    12.2651    14.3527     2.3442     0.0110     0.2027   104.9786     7.3039
  468.0000     0.0000    12.2718    14.3056     2.3424     0.0110     0.2018   101.9730     7.2199
  468.5000     0.0000    12.2784    14.2388     2.3464     0.0110     0.1927   101.6509     7.4578
  469.0000     0.0000    12.2847    14.3614     2.3539     0.0110     0.1837   100.5305     7.4334
  469.5000     0.0000    12.2917    14.5773     2.3640     0.0110     0.1797   100.7552     7.4026
  470.0000     0.0000    12.4341    14.7965     2.3741     0.0110     0.1806   102.0820     7.4890
  470.5000     0.0000    12.6174    15.0189     2.3805     0.0110     0.1845   104.9971     7.4958
  471.0000     0.0000    12.8035    15.2447     2.3696     0.0110     0.1882   107.1098     7.5063
  471.5000    -0.0601    12.9934    15.4741     2.3666     0.0110     0.1914   106.3144     7.4210
  472.0000    -0.1354    13.1183    15.7064     2.3638     0.0110     0.1937   105.2523     7.4530
  472.5000    -0.2106    13.1433    15.9003     2.3592     0.0110     0.1931   103.5726     7.5563
  473.0000    -0.2859    13.1678    15.9149     2.3557     0.0110     0.1854   101.8711     7.6685
  473.5000    -0.3612    13.1924    15.9297     2.3613     0.0110     0.1777    98.5580     7.7013
  474.0000    -0.4365    13.2170    15.9442     2.3765     0.0110     0.1738    96.2781     7.6874
  474.5000    -0.5117    13.2417    15.9589     2.3867     0.0110     0.1817    97.5101     7.6690
  475.0000    -0.5870    13.2664    15.9736     2.3807     0.0110     0.1871    99.1084     7.6508
  475.5000    -0.6623    13.2912    15.9883     2.3695     0.0110     0.1907    99.9186     7.6328
  476.0000    -0.7375    13.3160    16.0030     2.3639     0.0162     0.1908   100.0000     7.6681
  476.5000    -0.8128    13.3409    16.0175     2.3611     0.0262     0.1896   100.0606     7.7420
  477.0000    -0.8881    13.3658    16.0328     2.3623     0.0363     0.1846   100.6191     7.7174
  477.5000    -0.9632    13.3907    16.0849     2.3667     0.0463     0.1762   103.0247     7.6945
  478.0000    -1.0386    13.4157    16.2895     2.3750     0.0619     0.1678   108.1167     7.6718
  478.5000    -1.1240    13.4406    16.4952     2.3891     0.0828     0.1590   113.2901     7.6488
  479.0000    -1.2560    13.4744    16.7035     2.4037     0.1098     0.1526   116.6654     7.6229
  479.5000    -1.3866    13.4284    16.9144     2.4266     0.1335     0.1231   116.9213     7.5958
  480.0000    -1.5169    13.3508    17.0444     2.4787     0.1324     0.0976   112.3168     7.5580
  480.5000    -1.6485    13.2742    17.1568     2.5239     0.1317     0.0878   100.5225     7.5129
  481.0000    -1.6959    13.1981    17.2672     2.5282     0.1306     0.0964    97.5765     7.4788
  481.5000    -1.6967    13.1224    16.2160     2.5228     0.1161     0.1074    98.2315     7.4632
  482.0000    -1.6967    13.0472    15.7920     2.5039     0.1072     0.1182    99.0768     7.4474
  482.5000    -1.6966    12.9895    15.4922     2.4711     0.1079     0.1464    98.8323     7.4316
  483.0000    -1.6966    12.5973    15.2860     2.4456     0.1086     0.1465    96.4168     7.4210
  483.5000    -1.6966    12.2281    15.1982     2.4303     0.1080     0.1455    94.7372     7.4133
  484.0000    -1.6966    11.8684    15.1119     2.4341     0.0813     0.1444    93.2587     7.4055
  484.5000    -1.6966    11.5792    15.0248     2.4436     0.0539     0.1557    93.0021     7.3979
