~VERSION INFORMATION
 VERS.                2.0:   CWLS LOG ASCII STANDARD - VERSION 2.0
 WRAP.                 NO:   ONE LINE PER DEPTH STEP
~WELL INFORMATION
#MNEM.UNIT      DATA TYPE    INFORMATION
#----------   ------------   ------------------------------
 STRT.F           93.0000:   START DEPTH
 STOP.F         1921.0000:   STOP DEPTH
 STEP.F            0.5000:   STEP LENGTH
 NULL.          -999.2500:   NO VALUE
 COMP. LAWRENCE-ALLISON &AS:   COMPANY
 WELL.  NPR 3 #15-1SHX2/T:   WELL
 FLD .             NPR #3:   :   FIELD
 LOC .       S2 T38N R78W:   LOCATION
 CNTY.            NATRONA:   COUNTY
 STAT.            WYOMING:   STATE
 CTRY. UNITED STATES OF AMERICA:   COUNTRY
 SRVC.       Schlumberger:   SERVICE COMPANY
 DATE.        10-JUN-1982:   LOGDATE
 API .       490251077600:   API NUMBER
~CURVE INFORMATION
#MNEM.UNIT       API CODE    CURVE DESCRIPTION
#----------   ------------   ------------------------------
 DEPT.F                  :   
 GR  .GAPI   70 310 01 00:   GAMMA RAY
 CALI.IN     70 280 01 00:   CALIPER
~PARAMETER INFORMATION
#MNEM.UNIT          VALUE    DESCRIPTION
#----------   ------------   ------------------------------
 PD  .                 GL:   PERMANENT DATUM
 EPD .F              5116:   ELEVATION PERMANENT DATUM
 LMF .                 KB:   LOG MEASURED FROM
 DAPD.F                10:   FEET ABOVE PERMANENT DATUM
 DMF .                 KB:   DRILLING MEASURED FROM
 EKB .F              5126:   KELLING BUSHING
 EGL .F              5116:   GROUND LEVEL
 DATE.        10-JUN-1982:   RUN DATE
 RUN .                  1:   RUN NUMBER
 DD  .F              2100:   DEPTH DRILLER
 DL  .F              1924:   DEPTH LOGGER
 BLI .F              1921:   BOTTOM LOG INTERVAL
 TLI .F               100:   TOP LOG INTERVAL
 CS  .IN            10.75:   CASING SIZE
 BS  .IN             8.75:   BIT SIZE
 BSD .F              2100:   BIT SIZE AT DEPTH
 DFT .                AIR:   DRILLING FLUID TYPE
 ENGI.        C. MARRINER:   RECORDING ENGINEER
 WITN.             SCOTTY:   WITNESSED BY
 CLNT.            A2DTECH:   CLIENT CODE
 ORIG.           5" PRINT:   ORIGIN OF DATA
 UWI .       490251077600:   UNIQUE WELL ID
 DICO. A2D Technologies, Inc.:   DIGITIZING COMPANY
~OTHER INFORMATION
~A   DEPT       GR       CALI   
# ...
 1672.5000   127.2612    13.9525
 1673.0000   127.0891    14.1324
 1673.5000   127.9919    15.3000
 1674.0000   127.1332    18.1344
 1674.5000   124.3808    18.7851
 1675.0000   122.7557    18.4930
 1675.5000   125.8684    17.6841
 1676.0000   130.9616    16.3590
 1676.5000   132.5253    15.6387
 1677.0000   132.7606    14.6823
 1677.5000   131.2409    13.6374
 1678.0000   131.0350    13.8168
 1678.5000   128.4125    13.8775
 1679.0000   124.9026    13.2905
 1679.5000   124.8389    13.6615
 1680.0000   130.4565    14.7701
 1680.5000   137.7555    16.8227
 1681.0000   139.9810    17.2528
 1681.5000   135.9948    17.4616
 1682.0000   132.2647    17.5525
 1682.5000   130.5257    17.8203
 1683.0000   133.5658    18.0138
 1683.5000   136.9956    17.6922
 1684.0000   134.5888    17.1341
 1684.5000   130.6378    15.9465
 1685.0000   129.3289    15.1436
 1685.5000   134.8681    14.0828
 1686.0000   138.4171    14.1350
 1686.5000   138.4367    14.6091
 1687.0000   139.5592    14.8769
 1687.5000   140.9024    15.0120
 1688.0000   141.3582    15.1766
 1688.5000   135.8680    15.0757
 1689.0000   126.1817    14.7683
 1689.5000   122.0101    13.8266
 1690.0000   123.3533    13.1653
 1690.5000   128.8876    12.2679
 1691.0000   136.0199    12.4472
 1691.5000   140.0187    13.1870
 1692.0000   141.5199    14.5083
 1692.5000   137.7944    15.4730
 1693.0000   129.8728    15.5392
 1693.5000   123.2747    14.9026
 1694.0000   122.8482    14.2977
 1694.5000   123.9757    13.1869
 1695.0000   125.5394    13.2187
 1695.5000   126.0001    12.9998
 1696.0000   127.1227    12.6482
 1696.5000   129.7893    12.9750
 1697.0000   133.7795    13.5083
 1697.5000   135.3432    14.1596
 1698.0000   130.0687    14.6044
 1698.5000   125.6765    15.4770
 1699.0000   126.5785    16.1137
 1699.5000   133.6569    16.2193
 1700.0000   141.0125    16.0206
 1700.5000   145.6100    14.9250
 1701.0000   141.4766    14.3953
 1701.5000   135.7111    14.6333
 1702.0000   132.0041    14.6791
 1702.5000   130.6969    14.8135
 1703.0000   138.4447    15.6558
 1703.5000   140.8929    16.4836
 1704.0000   137.3852    16.8093
 1704.5000   134.9805    16.5311
 1705.0000   134.5556    16.6208
 1705.5000   135.2445    16.1213
 1706.0000   135.0456    15.5622
 1706.5000   136.6115    15.5639
 1707.0000   138.6185    15.8605
 1707.5000   140.8461    15.9804
 1708.0000   142.6326    15.9967
 1708.5000   143.7572    16.4851
 1709.0000   139.9594    16.9583
 1709.5000   136.6806    16.6063
 1710.0000   135.0043    16.5780
 1710.5000   135.9084    17.0962
 1711.0000   137.0331    17.2748
 1711.5000   137.4906    17.4977
 1712.0000   134.8707    17.7350
 1712.5000   132.9071    16.2335
 1713.0000   132.0411    15.1280
 1713.5000   133.3918    14.2299
 1714.0000   135.3988    13.8771
 1714.5000   137.4058    14.1298
 1715.0000   138.5305    14.8984
 1715.5000   136.7875    15.9779
 1716.0000   134.6034    16.0667
 1716.5000   135.0663    17.0122
 1717.0000   135.5384    17.2813
 1717.5000   136.2574    17.5494
 1718.0000   137.5942    17.8430
 1718.5000   140.6734    17.6421
 1719.0000   143.3421    17.0453
 1719.5000   144.4614    16.0783
 1720.0000   136.9886    15.2981
 1720.5000   133.4809    14.8126
 1721.0000   133.7232    15.3013
 1721.5000   135.9508    16.0108
 1722.0000   137.2961    16.0192
 1722.5000   137.5330    17.0661
 1723.0000   137.3341    18.3132
 1723.5000   138.4642    19.6016
 1724.0000   140.2507    19.8831
 1724.5000   139.1694    19.5016
 1725.0000   139.4118    19.7835
 1725.5000   144.3534    20.2275
 1726.0000   148.5794    20.5536
 1726.5000   150.7270    20.4520
 1727.0000   137.0777    19.6719
 1727.5000   132.4670    18.4788
 1728.0000   133.1505    16.5335
 1728.5000   135.8193    15.8416
 1729.0000   137.8264    15.8875
 1729.5000   136.5246    15.6830
 1730.0000   131.9139    15.5519
 1730.5000   128.4063    15.4646
 1731.0000   127.3196    15.5551
 1731.5000   134.1850    15.9992
 1732.0000   139.5009    16.1925
 1732.5000   141.0667    17.2561
 1733.0000   140.8679    18.2164
 1733.5000   139.7824    18.8374
 1734.0000   138.9088    19.0599
 1734.5000   137.7839    18.9734
 1735.0000   134.7838    18.8128
 1735.5000   134.3589    18.0622
 1736.0000   139.4596    15.6157
 1736.5000   144.5548    15.3071
 1737.0000   145.0123    16.0022
 1737.5000   140.8483    16.0186
 1738.0000   137.3406    16.3299
 1738.5000   134.0535    16.7297
 1739.0000   129.8841    17.1443
 1739.5000   123.9499    17.8687
 1740.0000   118.2364    18.9322
 1740.5000   114.2875    20.2612
 1741.0000   114.0351    20.8381
 1741.5000   117.1986    20.9282
 1742.0000   119.2234    20.7947
 1742.5000   120.8158    20.1497
 1743.0000   122.1530    20.5000
 1743.5000   123.0263    20.8314
 1744.0000   120.4010    20.1354
 1744.5000   117.1139    17.4574
 1745.0000   114.4886    16.5736
 1745.5000   114.5103    17.2689
 1746.0000   114.5320    17.9342
 1746.5000   113.6714    18.5553
 1747.0000   113.0259    19.2796
 1747.5000   114.5972    19.8122
 1748.0000   115.2807    19.8580
 1748.5000   113.5377    19.7711
 1749.0000   108.4859    19.4187
 1749.5000   104.0959    17.6503
 1750.0000   105.6618    16.0145
 1750.5000   110.5456    16.1938
 1751.0000   114.7652    17.9214
 1751.5000   115.4555    19.3835
 1752.0000   114.8151    19.4586
 1752.5000   115.9536    18.5466
 1753.0000   115.7615    17.5898
 1753.5000   112.4812    16.2347
 1754.0000   105.8920    15.6173
 1754.5000   101.9566    14.9260
 1755.0000    99.1103    14.4702
 1755.5000   104.4334    15.5888
 1756.0000   112.8442    16.4068
 1756.5000   117.5108    17.2052
 1757.0000   116.8113    17.7086
 1757.5000   112.0187    18.3742
 1758.0000   111.1934    19.0251
 1758.5000   113.9228    19.4399
 1759.0000   115.0338    19.8991
 1759.5000   115.4701    20.7269
 1760.0000   111.7557    21.2303
 1760.5000   108.6959    21.4830
 1761.0000   106.5186    21.1161
 1761.5000   104.7823    20.3557
 1762.0000   104.1490    18.9516
 1762.5000   103.9498    18.3783
 1763.0000   103.3237    18.5464
 1763.5000   101.8080    19.4729
 1764.0000   100.5059    20.4373
 1764.5000   101.6444    20.9966
 1765.0000   106.7465    20.7508
 1765.5000   112.0690    20.3956
 1766.0000   115.6269    20.4123
 1766.5000   112.1260    19.2200
 1767.0000   108.4045    17.7170
 1767.5000   106.8889    18.5896
 1768.0000   108.9027    20.2729
 1768.5000   110.4753    21.6170
 1769.0000   110.9378    21.7807
 1769.5000   106.7822    21.6061
 1770.0000   101.2960    21.1360
 1770.5000    99.9939    20.4152
 1771.0000    99.8018    19.6796
 1771.5000   103.8080    19.6963
 1772.0000   108.2482    19.6392
 1772.5000   112.1531    19.6558
 1773.0000   115.8099    19.9085
 1773.5000   115.3972    20.3824
 1774.0000   112.1169    20.5612
 1774.5000   107.2924    20.4599
 1775.0000   104.8944    20.0931
 1775.5000   103.5994    19.3428
 1776.0000   105.3926    18.4745
 1776.5000   108.9505    17.6799
 1777.0000   111.6260    17.1066
 1777.5000   112.7575    16.5480
 1778.0000   112.9994    16.0244
 1778.5000   112.8073    15.7918
 1779.0000   111.9606    15.4623
 1779.5000   107.5773    15.0807
 1780.0000   105.8340    15.0974
 1780.5000   110.2813    15.6008
 1781.0000   114.0598    15.8829
 1781.5000   116.9560    15.8252
 1782.0000   117.8597    15.7097
 1782.5000   114.3659    15.8798
 1783.0000   111.3061    16.0234
 1783.5000   110.0111    15.9806
 1784.0000   110.4807    15.9977
 1784.5000   110.6495    16.9141
 1785.0000   106.1259    18.4942
 1785.5000   104.6103    19.2778
 1786.0000   105.0800    19.4714
 1786.5000   108.2529    19.3996
 1787.0000   110.6564    19.1950
 1787.5000   107.8173    18.5627
 1788.0000   104.7575    18.3581
 1788.5000   103.9036    18.7608
 1789.0000   103.7044    20.0600
 1789.5000   104.6224    20.6791
 1790.0000   106.1950    18.8969
 1790.5000   107.3264    15.6421
 1791.0000   106.4725    15.6830
 1791.5000   104.2951    16.3311
 1792.0000   103.8825    17.4295
 1792.5000   103.2492    19.6881
 1793.0000   101.0718    21.0174
 1793.5000    99.7696    20.9308
