~VERSION INFORMATION
 VERS.                2.0:   CWLS LOG ASCII STANDARD - VERSION 2.0
 WRAP.                 NO:   ONE LINE PER DEPTH STEP
~WELL INFORMATION
#MNEM.UNIT      DATA TYPE    INFORMATION
#----------   ------------   ------------------------------
 STRT.F            6.0000:   START DEPTH
 STOP.F          495.0000:   STOP DEPTH
 STEP.F            0.5000:   STEP LENGTH
 NULL.          -999.2500:   NO VALUE
 COMP. FENIX & SCISSON INC:   COMPANY
 WELL. FI NPR-3 #65-25 SX3:   WELL
 FLD .  NAVAL RESERVES #3:   FIELD
 LOC .       S3 T38N R78W:   LOCATION
 CNTY.            NATRONA:   COUNTY
 STAT.            WYOMING:   STATE
 CTRY. UNITED STATES OF AMERICA:   COUNTRY
 SRVC.       Schlumberger:   SERVICE COMPANY
 DATE.        22-MAY-1980:   LOGDATE
 API .       490251080300:   API NUMBER
~CURVE INFORMATION
#MNEM.UNIT       API CODE    CURVE DESCRIPTION
#----------   ------------   ------------------------------
 DEPT.F                  :   
 SPR .MV     07 010 01 00:   SPONTANEOUS POTENTIAL
 SFL .OHMM   07 220 01 00:   SHALLOW FOCUSED LOG RESISTIVITY
 ILD .OHMM   07 120 46 00:   INDUCTION LOG DEEP RESISTIVITY
 ILM .OHMM   07 120 44 00:   INDUCTION LOG MEDIUM
 GRD .GAPI   45 310 01 00:   GAMMA RAY FROM DENSITY LOG
 CALD.IN     45 280 60 00:   CALIPER
 DPHI.DEC    45 890 12 00:   DENSITY POROSITY SANDSTONE
 RHOB.G/C3   45 350 01 00:   BULK DENSITY
 CORR.G/C3   45 356 01 00:   DENSITY CORRECTION
 NPHI.DEC    42 890 03 00:   NEUTRON POROSITY SANDSTONE
~PARAMETER INFORMATION
#MNEM.UNIT          VALUE    DESCRIPTION
#----------   ------------   ------------------------------
 PD  .                 GL:   PERMANENT DATUM
 EPD .F              5162:   ELEVATION PERMANENT DATUM
 LMF .                 KB:   LOG MEASURED FROM
 DAPD.F                 4:   FEET ABOVE PERMANENT DATUM
 DMF .                 KB:   DRILLING MEASURED FROM
 EKB .F              5166:   KELLING BUSHING
 EGL .F              5162:   GROUND LEVEL
 DATE.            5-22-80:   RUN DATE
 RUN .                  1:   RUN NUMBER
 DD  .F               500:   DEPTH DRILLER
 DL  .F               498:   DEPTH LOGGER
 BLI .F               492:   BOTTOM LOG INTERVAL
 TLI .F                10:   TOP LOG INTERVAL
 BS  .IN            9.875:   BIT SIZE
 BSD .F               500:   BIT SIZE AT DEPTH
 DFT .                KCL:   DRILLING FLUID TYPE
 DFD .                9.6:   DRILLING FLUID DENSITY
 DFV .                 45:   DRILLING FLUID VISCOSITY
 DFL .                8.9:   DRILLING FLUID LOSS
 MSS .               PITS:   MUD SAMPLE SOURCE
 RMS .OHMM            .21:   RESISTIVITY MUD SAMPLE
 MST .F                76:   MUD SAMPLE TEMPERATURE
 RMF .OHMM            .19:   RESISTIVITY MUD FILTRATE SAMPLE
 MFST.F                76:   MUD FILTRATE SAMPLE TEMPERATURE
 MFSS.               MEAS:   MUD FILTRATE SAMPLE SOURCE
 TLAB.HRS            0845:   TIME LOGGER AT BOTTOM
 LUN .               8035:   LOGGING UNIT NUMBER
 LUL .               CSPR:   LOGGING UNIT LOCATION
 ENGI.           C. DRAKE:   RECORDING ENGINEER
 WITN.              AMEND:   WITNESSED BY
 CLNT.            A2DTECH:   CLIENT CODE
 ORIG.           5" PRINT:   ORIGIN OF DATA
 UWI .       490251080300:   UNIQUE WELL ID
 DICO. A2D Technologies, Inc.:   DIGITIZING COMPANY
~OTHER INFORMATION
~A    DEPT     SPR        SFL        ILD        ILM         GRD       CALD      DPHI       RHOB       CORR        NPHI  
# ...
  374.5000   -61.3522    33.0482    32.4233    21.4246    78.0316     9.8759     0.1091     2.5053    -0.0133     0.2240
  375.0000   -61.6747    41.6031    33.2184    24.3322    73.5008     9.8836     0.0846     2.5484    -0.0073     0.1900
  375.5000   -61.4711    52.3725    33.2177    25.6530    73.9492     9.8834     0.0748     2.5530    -0.0025     0.1559
  376.0000   -61.2773    60.4659    32.6414    24.9119    75.2847     9.8832     0.0805     2.5307     0.0019     0.1582
  376.5000   -61.0848    49.5592    32.2439    24.1705    81.7439     9.8792     0.1125     2.4771     0.0062     0.1860
  377.0000   -60.8924    37.1082    31.8513    22.8290    85.4623     9.8751     0.1408     2.4307     0.0059     0.2244
  377.5000   -60.7000    27.7853    30.7520    21.5699    88.5033     9.8711     0.1617     2.4048     0.0028     0.2573
  378.0000   -60.5075    23.5958    29.2921    20.3843    91.8432     9.8671     0.1736     2.3787    -0.0003     0.2762
  378.5000   -60.3143    22.5466    27.9007    19.8165    94.4062     9.8631     0.1931     2.3513    -0.0023     0.2801
  379.0000   -60.1216    22.9280    26.5783    19.5473    94.1008     9.8591     0.2038     2.3332    -0.0019     0.2701
  379.5000   -60.1398    23.2383    25.1843    19.1503    92.5848     9.8551     0.2095     2.3283    -0.0012     0.2605
  380.0000   -60.1860    23.3925    25.3498    18.7689    92.6749     9.8510     0.2088     2.3368    -0.0004     0.2589
  380.5000   -60.2321    23.1146    25.5357    18.5736    94.1210     9.8470     0.1888     2.3583     0.0027     0.2722
  381.0000   -60.2787    22.9298    25.7248    18.5780    93.6538     9.8430     0.1848     2.3684     0.0044     0.2756
  381.5000   -60.1858    22.7464    25.8928    18.5574    90.0476     9.8390     0.1920     2.3626     0.0009     0.2786
  382.0000   -59.9701    22.5646    25.7359    18.3983    86.7693     9.8350     0.2013     2.3459    -0.0027     0.2794
  382.5000   -59.7538    22.3842    25.4491    18.2402    85.8657     9.8309     0.2139     2.3232    -0.0062     0.2794
  383.0000   -59.5368    22.3397    25.1654    18.0834    86.0582     9.8269     0.2172     2.3172    -0.0075     0.2778
  383.5000   -59.3189    22.3397    24.8849    17.9283    86.2521     9.8229     0.2129     2.3218    -0.0064     0.2733
  384.0000   -59.1086    22.1166    24.6075    17.7394    86.4521     9.8189     0.2053     2.3317    -0.0033     0.2681
  384.5000   -59.1490    21.8889    24.3333    17.7624    86.6531     9.8149     0.1946     2.3482     0.0016     0.2700
  385.0000   -59.2022    21.6636    24.0620    17.8175    86.8561     9.8109     0.1893     2.3628     0.0043     0.2733
  385.5000   -59.2544    21.5309    23.7938    17.8729    86.4916     9.8068     0.1836     2.3709     0.0069     0.2767
  386.0000   -59.3061    21.5309    23.5286    18.2554    85.0377     9.7998     0.1839     2.3709     0.0055     0.2794
  386.5000   -59.3580    21.5660    23.2664    19.1254    81.5925     9.7877     0.1884     2.3638     0.0022     0.2762
  387.0000   -59.4102    21.7211    23.0071    19.6346    80.6768     9.7756     0.1908     2.3600     0.0018     0.2699
  387.5000   -59.4613    21.9316    22.9497    19.1057    81.1106     9.7636     0.1875     2.3656     0.0063     0.2609
  388.0000   -59.4739    21.5458    22.8830    18.4336    84.4331     9.7515     0.1733     2.3800     0.0162     0.2585
  388.5000   -59.3479    20.9685    22.8213    17.7851    89.0307     9.7329     0.1657     2.4035     0.0253     0.2636
  389.0000   -59.2262    20.4067    22.5465    17.4169    91.5480     9.7066     0.1701     2.3966     0.0226     0.2691
  389.5000   -59.1046    19.8599    22.5489    17.0226    92.4345     9.6803     0.1809     2.3781     0.0182     0.2703
  390.0000   -58.9860    19.2759    21.2534    16.7863    91.9237     9.6538     0.1893     2.3613     0.0154     0.2698
  390.5000   -58.9577    19.3185    20.1905    16.0855    91.3646     9.6274     0.1904     2.3614     0.0183     0.2730
  391.0000   -59.1642    19.3659    20.2999    15.3078    91.0469     9.6263     0.1859     2.3691     0.0231     0.2795
  391.5000   -59.3661    19.4152    20.4540    15.5282    92.5755     9.6264     0.1827     2.3730     0.0273     0.2850
  392.0000   -59.5664    19.4571    20.6147    15.7710    95.9152     9.6265     0.1815     2.3753     0.0260     0.2838
  392.5000   -59.7253    18.8261    20.7774    16.0177    97.7373     9.6266     0.1812     2.3758     0.0225     0.2750
  393.0000   -59.7924    18.1828    20.9484    16.3283    98.6156     9.6262     0.1864     2.3689     0.0169     0.2675
  393.5000   -59.8617    17.7505    20.6147    16.1363    97.5271     9.6120     0.1926     2.3596     0.0060     0.2625
  394.0000   -59.9305    17.4882    20.0360    15.8829    96.4763     9.5383     0.1944     2.3554    -0.0025     0.2601
  394.5000   -59.9993    17.2269    19.4755    13.8768    96.4259     9.5036     0.1840     2.3735    -0.0025     0.2634
  395.0000   -60.0682    16.9693    18.9313    11.8151    97.0662     9.4746     0.1771     2.3841    -0.0025     0.2653
  395.5000   -60.1368    16.7156    18.4075    10.8834    97.5348     9.4701     0.1728     2.3902    -0.0025     0.2645
  396.0000   -60.2067    16.4657    18.3268    10.9868    95.8475     9.5747     0.1715     2.3926    -0.0025     0.2595
  396.5000   -60.2698    16.2196    18.2565    11.1154    91.3223     9.7522     0.1691     2.3966    -0.0025     0.2565
  397.0000   -60.7123    15.9613    17.6960    11.2455    89.4945     9.8922     0.1679     2.3995    -0.0025     0.2581
  397.5000   -61.3490    15.7039    17.0680    11.2923    90.5524     9.9435     0.1659     2.4007    -0.0025     0.2589
  398.0000   -61.7748    15.4507    16.4610    11.1357    92.4564     9.9430     0.1657     2.4021    -0.0038     0.2528
  398.5000   -61.9351    15.2016    15.8564    10.8027    93.9703     9.9438     0.1650     2.4034    -0.0052     0.2485
  399.0000   -62.0970    14.9565    15.2200    10.4226    93.1049     9.9445     0.1620     2.4079    -0.0049     0.2521
  399.5000   -62.2576    14.7154    14.9164    10.0560    90.2307     9.9451     0.1562     2.4225    -0.0035     0.2574
  400.0000   -62.4196    14.4781    14.7543    10.0168    88.5458     9.9457     0.1466     2.4338    -0.0020     0.2621
  400.5000   -62.4984    14.2447    14.5941    10.4903    88.2013     9.9463     0.1428     2.4396     0.0000     0.2637
  401.0000   -62.5000    14.0150    14.3511    10.8834    90.6018     9.9469     0.1434     2.4391     0.0015     0.2628
  401.5000   -62.4997    13.7891    14.1334    10.8861    91.9525     9.9475     0.1431     2.4389     0.0011     0.2611
  402.0000   -62.5933    13.5667    13.8286    10.9101    91.3975     9.9481     0.1427     2.4391     0.0006     0.2605
  402.5000   -62.7763    13.3307    13.8655    10.9342    90.7402     9.9487     0.1440     2.4355     0.0021     0.2607
  403.0000   -63.0737    13.3307    13.9282    10.9583    90.3245     9.9493     0.1447     2.4354     0.0055     0.2609
  403.5000   -63.6252    13.3307    14.0135    10.9842    89.9172     9.9499     0.1425     2.4393     0.0088     0.2592
  404.0000   -64.1182    13.3307    14.1162    11.1847    89.5078     9.9505     0.1407     2.4421     0.0080     0.2565
  404.5000   -64.1425    13.3307    14.2197    11.4048    89.8040     9.9511     0.1428     2.4376    -0.0004     0.2578
  405.0000   -64.1765    13.3307    14.3522    11.6293    91.7949     9.9517     0.1467     2.4330    -0.0025     0.2604
  405.5000   -64.2124    13.3306    14.3506    11.8250    93.0599     9.9523     0.1475     2.4323    -0.0020     0.2642
  406.0000   -64.2480    13.3297    14.3513    11.7759    93.9669     9.9529     0.1418     2.4397    -0.0009     0.2680
  406.5000   -64.2846    13.3749    14.3512    11.7241    94.8719     9.9535     0.1351     2.4497    -0.0005     0.2718
  407.0000   -64.1975    13.4339    14.3511    11.6726    96.4850     9.9541     0.1323     2.4545    -0.0008     0.2727
  407.5000   -64.0193    13.4932    14.3512    11.6090    99.5237     9.9547     0.1329     2.4547    -0.0015     0.2719
