~VERSION INFORMATION
 VERS.                2.0:   CWLS LOG ASCII STANDARD - VERSION 2.0
 WRAP.                 NO:   ONE LINE PER DEPTH STEP
~WELL INFORMATION
#MNEM.UNIT      DATA TYPE    INFORMATION
#----------   ------------   ------------------------------
 STRT.F            0.0000:   START DEPTH
 STOP.F          790.0000:   STOP DEPTH
 STEP.F            0.1000:   STEP LENGTH
 NULL.          -999.2500:   NO VALUE
 COMP.   FLUOR DANIEL INC:   COMPANY
 WELL.   72-2 X-34 #72-34:   WELL
 FLD .          N.P.R. #3:   FIELD
 LOC .      S34 T39N R78W:   LOCATION
 CNTY.            NATRONA:   COUNTY
 STAT.            WYOMING:   STATE
 CTRY. UNITED STATES OF AMERICA:   COUNTRY
 SRVC.      Western Atlas:   SERVICE COMPANY
 DATE.        25-MAR-1995:   LOGDATE
 API .       490252269300:   API NUMBER
~CURVE INFORMATION
#MNEM.UNIT       API CODE    CURVE DESCRIPTION
#----------   ------------   ------------------------------
 DEPT.F                  :   
 GRR .GAPI   07 310 01 00:   GAMMA RAY
 RILD.OHMM   07 120 46 00:   INDUCTION LOG DEEP RESISTIVITY
 RILM.OHMM   07 120 44 00:   INDUCTION LOG MEDIUM RESISTIVITY
~PARAMETER INFORMATION
#MNEM.UNIT          VALUE    DESCRIPTION
#----------   ------------   ------------------------------
 PD  .                 GL:   PERMANENT DATUM
 EPD .F              5058:   ELEVATION PERMANENT DATUM
 LMF .                 KB:   LOG MEASURED FROM
 DAPD.F                10:   FEET ABOVE PERMANENT DATUM
 DMF .                 KB:   DRILLING MEASURED FROM
 EKB .F              5068:   KELLING BUSHING
 EDF .F              5067:   DRILLING FLOOR
 EGL .F              5058:   GROUND LEVEL
 DATE.        25-MAR-1995:   RUN DATE
 RUN .                  1:   RUN NUMBER
 DD  .F               796:   DEPTH DRILLER
 DL  .F               798:   DEPTH LOGGER
 BLI .F               790:   BOTTOM LOG INTERVAL
 TLI .F                96:   TOP LOG INTERVAL
 CS  .IN            9.625:   CASING SIZE
 CBD .F                95:   CASING BOTTOM DRILLER
 CBL .F                96:   CASING BOTTOM LOGGER
 BS  .IN             8.75:   BIT SIZE
 BSD .F               796:   BIT SIZE AT DEPTH
 DFT .                AIR:   DRILLING FLUID TYPE
 MRT .F                97:   MAXIMUM RECORDED TEMPERATURE
 LUN .            HL 6530:   LOGGING UNIT NUMBER
 LUL .             CASPER:   LOGGING UNIT LOCATION
 ENGI.             RAUTIO:   RECORDING ENGINEER
 WITN.             STRONG:   WITNESSED BY
 CLNT.            A2DTECH:   CLIENT CODE
 ORIG.       2", 5" PRINT:   ORIGIN OF DATA
 UWI .       490252269300:   UNIQUE WELL ID
 DICO. A2D Technologies, Inc.:   DIGITIZING COMPANY
~OTHER INFORMATION
~A    DEPT      GRR      RILD       RILM   
# ...
  309.4000   129.9208     6.2067     6.2184
  309.5000   130.3832     6.2065     6.2183
  309.6000   130.6529     6.2063     6.2182
  309.7000   131.1025     6.2062     6.2181
  309.8000   131.4271     6.2060     6.2180
  309.9000   131.6742     6.2407     6.2180
  310.0000   131.8608     6.2503     6.2179
  310.1000   131.8544     6.2501     6.2178
  310.2000   131.5569     6.2606     6.2176
  310.3000   131.1593     6.2947     6.2456
  310.4000   130.5199     6.2944     6.2609
  310.5000   129.6876     6.3258     6.2608
  310.6000   128.7298     6.3393     6.2647
  310.7000   127.9231     6.3391     6.3042
  310.8000   127.2423     6.3390     6.3358
  310.9000   126.6705     6.3388     6.3479
  311.0000   126.0575     6.3386     6.3479
  311.1000   125.4380     6.3107     6.3552
  311.2000   125.1827     6.2736     6.3919
  311.3000   124.5911     6.2479     6.3918
  311.4000   124.1905     6.2478     6.3917
  311.5000   123.8397     6.2475     6.4109
  311.6000   123.7720     6.2792     6.4362
  311.7000   124.0545     6.3160     6.4388
  311.8000   124.5882     6.3530     6.4808
  311.9000   125.0442     6.3902     6.4807
  312.0000   125.5391     6.4282     6.5036
  312.1000   126.0340     6.4653     6.5257
  312.2000   126.5287     6.5032     6.5256
  312.3000   127.0058     6.5412     6.5255
  312.4000   127.0050     6.5795     6.5604
  312.5000   127.0045     6.6180     6.5708
  312.6000   127.0040     6.6614     6.5890
  312.7000   127.0034     6.6958     6.6165
  312.8000   126.9656     6.7089     6.6178
  312.9000   126.6995     6.7087     6.6624
  313.0000   126.4690     6.7086     6.6623
  313.1000   126.2207     6.7084     6.6843
  313.2000   125.8522     6.7082     6.7086
  313.3000   125.2907     6.6774     6.7085
  313.4000   124.5473     6.6599     6.7084
  313.5000   123.6701     6.6597     6.7427
  313.6000   123.2631     6.6642     6.7549
  313.7000   123.0639     6.7072     6.7722
  313.8000   123.1569     6.7071     6.8019
  313.9000   123.3653     6.7335     6.8017
  314.0000   123.3646     6.7548     6.8402
  314.1000   123.8271     6.7640     6.8789
  314.2000   124.3220     6.8030     6.8966
  314.3000   124.6949     6.8028     6.8965
  314.4000   124.9420     6.8344     6.9000
  314.5000   125.1770     6.8744     6.9444
  314.6000   125.1763     6.9147     6.9443
  314.7000   125.1758     6.9498     6.9441
  314.8000   125.1752     6.9495     6.9441
  314.9000   125.1746     6.9494     6.9440
  315.0000   125.1337     6.9775     6.9439
  315.1000   124.8708     6.9989     6.9817
  315.2000   124.8702     6.9987     6.9921
  315.3000   124.6913     6.9985     6.9920
  315.4000   124.4430     6.9983     6.9919
  315.5000   124.1946     7.0315     6.9939
  315.6000   123.9465     7.0482     7.0404
  315.7000   123.6568     7.0633     7.0403
  315.8000   123.2430     7.0985     7.0643
  315.9000   122.5952     7.0982     7.0892
  316.0000   121.8518     7.0980     7.0891
  316.1000   121.1083     7.0978     7.0890
  316.2000   120.3255     7.1180     7.0889
  316.3000   119.6207     7.1485     7.1168
  316.4000   119.2367     7.1483     7.1382
  316.5000   119.1135     7.1480     7.1479
  316.6000   119.1128     7.1479     7.1877
  316.7000   119.1277     7.1477     7.1876
  316.8000   119.4141     7.1474     7.1875
  316.9000   119.8300     7.1473     7.1874
  317.0000   120.3249     7.1470     7.1873
  317.1000   120.9182     7.1468     7.1872
  317.2000   121.6169     7.1466     7.1871
  317.3000   122.1343     7.1675     7.2231
  317.4000   123.0794     7.1976     7.2370
  317.5000   123.8880     7.1974     7.2369
  317.6000   124.5038     7.1971     7.2368
  317.7000   125.0705     7.1616     7.2367
  317.8000   125.7790     7.1454     7.2366
  317.9000   126.0640     7.1452     7.2365
  318.0000   126.2734     7.1450     7.2364
  318.1000   126.6755     7.1448     7.2363
  318.2000   126.9701     7.1446     7.2362
  318.3000   127.0146     7.1135     7.2361
  318.4000   127.2714     7.0932     7.2016
  318.5000   127.5088     7.0930     7.1858
  318.6000   127.5728     7.0928     7.1857
  318.7000   127.7005     7.0925     7.1856
  318.8000   127.8007     7.0924     7.1855
  318.9000   127.5710     7.0921     7.1474
  319.0000   127.5703     7.0919     7.1355
  319.1000   127.5697     7.0837     7.1355
  319.2000   127.5691     7.0409     7.1354
  319.3000   127.4670     7.0407     7.1353
  319.4000   127.1718     7.0405     7.1351
  319.5000   126.6596     7.0403     7.1026
  319.6000   126.1797     7.0401     7.0856
  319.7000   125.4990     7.0399     7.0855
  319.8000   124.7553     7.0397     7.0854
  319.9000   124.0115     7.0396     7.0853
  320.0000   123.2681     7.0393     7.0852
  320.1000   122.4199     7.0214     7.0851
  320.2000   121.9935     6.9887     7.0850
  320.3000   121.6555     6.9885     7.0849
  320.4000   121.5104     6.9883     7.0848
  320.5000   121.4615     6.9881     7.0449
  320.6000   121.2066     6.9655     7.0355
  320.7000   121.2060     6.9378     7.0140
  320.8000   121.2055     6.9376     6.9867
  320.9000   121.2048     6.9374     6.9866
  321.0000   121.2808     6.9373     6.9865
  321.1000   121.5063     6.9100     6.9524
  321.2000   121.5055     6.8873     6.9379
  321.3000   121.7197     6.8871     6.9219
  321.4000   121.8070     6.8869     6.8897
  321.5000   121.9111     6.8867     6.8896
  321.6000   122.1083     6.8550     6.8524
  321.7000   122.1077     6.8147     6.8136
  321.8000   121.8642     6.7882     6.7943
  321.9000   121.8040     6.7880     6.7942
  322.0000   121.8034     6.7878     6.7922
  322.1000   121.8027     6.7877     6.7469
  322.2000   121.8254     6.7604     6.7468
  322.3000   122.1040     6.7388     6.7468
  322.4000   122.1035     6.7386     6.7326
  322.5000   122.2642     6.7384     6.6999
  322.6000   122.5114     6.7382     6.6998
  322.7000   122.8102     6.7380     6.6650
  322.8000   123.3113     6.7378     6.6532
  322.9000   123.7995     6.7235     6.6357
  323.0000   124.2944     6.6894     6.6070
  323.1000   124.7892     6.6892     6.6069
  323.2000   125.2840     6.6890     6.6068
  323.3000   125.7790     6.6888     6.6067
  323.4000   126.3334     6.6886     6.5858
  323.5000   126.3328     6.6884     6.5608
  323.6000   126.3322     6.6882     6.5607
  323.7000   126.3316     6.6880     6.5606
  323.8000   126.2245     6.6559     6.5605
  323.9000   125.7253     6.6399     6.5604
  324.0000   125.7247     6.6397     6.5604
  324.1000   125.3417     6.6396     6.5603
  324.2000   124.8457     6.6393     6.5602
  324.3000   124.3497     6.6391     6.5601
  324.4000   123.8274     6.6113     6.5600
  324.5000   122.9984     6.5914     6.5599
  324.6000   122.3393     6.5912     6.5598
  324.7000   121.5957     6.5910     6.5622
  324.8000   120.9617     6.5908     6.6053
  324.9000   120.4656     6.5907     6.6052
  325.0000   119.9697     6.5905     6.6052
  325.1000   119.4739     6.5902     6.6051
  325.2000   119.1706     6.5901     6.6050
  325.3000   118.7841     6.5899     6.6049
  325.4000   118.4545     6.5897     6.6048
  325.5000   118.4538     6.5895     6.6047
  325.6000   118.4532     6.5893     6.6046
  325.7000   118.4526     6.5892     6.6045
  325.8000   118.6183     6.5890     6.6044
  325.9000   118.8654     6.5887     6.6043
  326.0000   119.1689     6.5886     6.6343
  326.1000   119.6635     6.5884     6.6502
  326.2000   120.1585     6.5882     6.6501
  326.3000   120.6535     6.5880     6.6546
  326.4000   121.0087     6.5878     6.6963
  326.5000   121.2557     6.5876     6.6962
  326.6000   121.5026     6.5874     6.6960
  326.7000   121.7748     6.5872     6.6960
  326.8000   121.9970     6.5871     6.6959
  326.9000   122.0763     6.5869     6.6958
  327.0000   122.0756     6.5866     6.7334
  327.1000   122.0751     6.5865     6.7423
  327.2000   122.0744     6.5863     6.7422
  327.3000   122.0738     6.5861     6.7539
  327.4000   122.0732     6.5860     6.7890
  327.5000   122.3550     6.5857     6.7889
