~VERSION INFORMATION
 VERS.                2.0:   CWLS LOG ASCII STANDARD - VERSION 2.0
 WRAP.                 NO:   ONE LINE PER DEPTH STEP
~WELL INFORMATION
#MNEM.UNIT      DATA TYPE    INFORMATION
#----------   ------------   ------------------------------
 STRT.F           33.5000:   START DEPTH
 STOP.F          692.0000:   STOP DEPTH
 STEP.F            0.5000:   STEP LENGTH
 NULL.          -999.2500:   NO VALUE
 COMP. FENIX & SCISSON INC:   COMPANY
 WELL.       NPR-3 #65-34:   WELL
 FLD .  TEAPOT DOME NPR-3:   FIELD
 LOC .      S34 T39N R78W:   LOCATION
 CNTY.            NATRONA:   COUNTY
 STAT.            WYOMING:   STATE
 CTRY. UNITED STATES OF AMERICA:   COUNTRY
 SRVC.           BIRDWELL:   SERVICE COMPANY
 DATE.        14-AUG-1978:   LOGDATE
 API .       490251070400:   API NUMBER
~CURVE INFORMATION
#MNEM.UNIT       API CODE    CURVE DESCRIPTION
#----------   ------------   ------------------------------
 DEPT.F                  :   
 CALD.IN     45 280 60 00:   CALIPER
 GRD .GAPI   45 310 01 00:   GAMMA RAY FROM DENSITY LOG
 RHOB.G/C3   45 350 01 00:   BULK DENSITY
 CORR.G/C3   45 356 01 00:   DENSITY CORRECTION
 DPHI.DEC    45 890 12 00:   DENSITY POROSITY SANDSTONE
 SPR .MV     05 010 01 00:   SPONTANEOUS POTENTIAL
 SN  .OHMM   05 040 16 00:   SHORT NORMAL 16'
 ILD .OHMM   05 120 46 00:   INDUCTION LOG DEEP RESISTIVITY
~PARAMETER INFORMATION
#MNEM.UNIT          VALUE    DESCRIPTION
#----------   ------------   ------------------------------
 PD  .                 GL:   PERMANENT DATUM
 EPD .F              5083:   ELEVATION PERMANENT DATUM
 LMF .                 KB:   LOG MEASURED FROM
 DAPD.F                 4:   FEET ABOVE PERMANENT DATUM
 DMF .                 KB:   DRILLING MEASURED FROM
 EKB .F              5087:   KELLING BUSHING
 EGL .F              5083:   GROUND LEVEL
 DATE.            8-14-78:   RUN DATE
 RUN .                  1:   RUN NUMBER
 DD  .F               675:   DEPTH DRILLER
 DL  .F               682:   DEPTH LOGGER
 BLI .F               676:   BOTTOM LOG INTERVAL
 TLI .F                50:   TOP LOG INTERVAL
 CS  .IN            8.625:   CASING SIZE
 CBD .F                40:   CASING BOTTOM DRILLER
 BS  .IN            7.875:   BIT SIZE
 BSD .F               675:   BIT SIZE AT DEPTH
 DFT .                KCL:   DRILLING FLUID TYPE
 DFD .                8.7:   DRILLING FLUID DENSITY
 DFV .                 31:   DRILLING FLUID VISCOSITY
 DFPH.                  9:   DRILLING FLUID PH
 TCS .HRS               2:   TIME CURCULATED STOPPED
 LUN .               3006:   LOGGING UNIT NUMBER
 LUL .               CASP:   LOGGING UNIT LOCATION
 ENGI.             MILLER:   RECORDING ENGINEER
 WITN.           MCGINLEY:   WITNESSED BY
 CLNT.            A2DTECH:   CLIENT CODE
 ORIG.           5" PRINT:   ORIGIN OF DATA
 UWI .       490251070400:   UNIQUE WELL ID
 DICO. A2D Technologies, Inc.:   DIGITIZING COMPANY
~OTHER INFORMATION
~A   DEPT     CALD         GRD      RHOB       CORR       DPHI        SPR         SN        ILD   
# ...
  155.0000     8.2581    77.5719     2.3725     0.2027     0.2180   -27.1137     4.5400     4.0725
  155.5000     8.0752    79.5059     2.3122     0.1491     0.2574   -27.4406     4.2174     3.4776
  156.0000     7.8953    83.8417     2.2515     0.1188     0.2982   -27.6737     3.7869     2.9697
  156.5000     7.7534    87.2644     2.1928     0.0949     0.3162   -27.2097     3.4004     2.5359
  157.0000     7.6641    87.9533     2.1424     0.0740     0.3319   -26.7551     3.1428     2.2745
  157.5000     7.6385    92.6569     2.1265     0.0743     0.3273   -26.2820     3.0776     2.2084
  158.0000     7.6307    88.3216     2.1293     0.0749     0.3151   -25.2709     3.0853     2.2194
  158.5000     7.6238    83.3530     2.1526     0.0756     0.2582   -24.2606     3.2148     2.3627
  159.0000     7.6170    79.8282     2.2303     0.0809     0.2144   -23.2542     3.3952     2.5283
  159.5000     7.6622    75.1330     2.3285     0.0941     0.1928   -22.2466     3.5999     2.7063
  160.0000     8.1169    70.4720     2.3762     0.0896     0.1838   -21.2298     4.0252     3.2496
  160.5000     7.3943    67.7624     2.3746     0.0492     0.1801   -21.0229     4.6726     3.8938
  161.0000     7.4109    69.2808     2.3816     0.0563     0.1772   -20.9706     5.5374     4.6628
  161.5000     7.5633    69.4815     2.3913     0.0597     0.1663   -20.9184     6.1908     5.5836
  162.0000     7.7175    66.6625     2.4085     0.0580     0.1561   -20.8753     6.5773     6.6864
  162.5000     7.8709    64.9167     2.4265     0.0560     0.1473   -21.2005     6.9945     7.7378
  163.0000     8.0243    65.0752     2.4316     0.0566     0.1507   -21.5506     7.2322     8.0211
  163.5000     8.1783    65.0467     2.4239     0.0574     0.1571   -21.8992     7.3477     8.3301
  164.0000     8.3280    62.9068     2.4160     0.0693     0.1590   -22.2474     7.4576     8.2225
  164.5000     8.3551    60.8726     2.4156     0.0880     0.1573   -22.5959     7.2203     8.0281
  165.0000     8.3549    59.3419     2.4185     0.1172     0.1525   -22.9471     6.9658     7.7093
  165.5000     8.3541    62.1080     2.4269     0.1618     0.1470   -23.2896     6.3491     7.0058
  166.0000     8.3297    67.7135     2.4352     0.2064     0.1425   -23.4477     5.7273     6.3664
  166.5000     8.3044    73.3642     2.4390     0.2137     0.1574   -23.3525     5.3222     5.7854
  167.0000     8.2810    77.0575     2.4116     0.2008     0.1776   -23.3057     5.2535     5.6037
  167.5000     8.1857    85.0718     2.3717     0.1663     0.1980   -23.3778     5.3111     5.6037
  168.0000     8.0778    91.9469     2.3581     0.1438     0.1836   -23.4402     5.3602     5.6037
  168.5000     7.9701    90.8473     2.3911     0.1259     0.1689   -23.1028     5.4097     5.6037
  169.0000     7.8578    80.8250     2.3950     0.0994     0.1781   -21.0887     5.4598     5.6037
  169.5000     7.7449    69.3115     2.3737     0.0721     0.1850   -19.1259     5.5588     5.9794
  170.0000     7.6319    60.8659     2.3632     0.0623     0.1911   -17.3466     5.8981     6.5172
  170.5000     7.5378    62.6252     2.3621     0.0556     0.1921   -17.0654     6.2580     7.1034
  171.0000     7.5115    65.3259     2.3615     0.0495     0.1920   -16.7458     6.6400     7.7424
  171.5000     7.5130    68.0551     2.3608     0.0482     0.1913   -16.4115     7.0213     8.0301
  172.0000     7.5183    69.7136     2.3625     0.0467     0.1894   -15.7467     7.2561     8.2826
  172.5000     7.5569    69.2065     2.3652     0.0459     0.1890   -15.0860     7.4988     8.5431
  173.0000     7.5955    66.2517     2.3630     0.0459     0.1918   -14.4281     7.7378     8.7120
  173.5000     7.6339    64.2777     2.3580     0.0459     0.1945   -13.7699     7.9009     8.8738
  174.0000     7.6722    65.4073     2.3689     0.0459     0.1798   -13.1143     8.0600     9.0386
  174.5000     7.7127    65.6033     2.3769     0.0459     0.1822   -12.6646     8.1671     9.2065
  175.0000     7.7961    65.6671     2.3773     0.0449     0.1816   -12.2580     8.2555     9.3775
  175.5000     7.8850    65.8336     2.3780     0.0465     0.1799   -11.8558     8.3449     9.5517
  176.0000     7.9740    67.7130     2.3840     0.0542     0.1736   -11.5528     8.4352     9.7291
  176.5000     8.0635    69.5542     2.3927     0.0672     0.1697   -11.4517     8.5265     9.9249
  177.0000     8.1132    70.0028     2.3962     0.0801     0.1688   -11.3460     8.6188     9.9526
  177.5000     8.1430    68.7763     2.3984     0.0942     0.1657   -11.2402     8.7121     9.9830
  178.0000     8.1725    67.5503     2.4118     0.1141     0.1561   -10.8492     8.8039    10.0132
  178.5000     8.2020    66.9882     2.4246     0.1337     0.1489   -10.3768     8.8294    10.0437
  179.0000     8.2315    66.7323     2.4368     0.1514     0.1432   -10.3845     8.8542    10.0743
  179.5000     8.2610    66.5098     2.4439     0.1556     0.1429   -10.3825     8.8854    10.1049
  180.0000     8.2906    67.0843     2.4448     0.1544     0.1407   -10.3831     8.7664    10.1357
  180.5000     8.3200    69.5283     2.4512     0.1529     0.1341   -10.3831     8.6376    10.1665
  181.0000     8.3502    71.8954     2.4555     0.1503     0.1309   -10.3833     8.6118    10.1974
  181.5000     8.3907    71.7910     2.4458     0.1406     0.1527   -10.3848     8.5861    10.2285
  182.0000     8.3953    68.6053     2.4357     0.1314     0.1591   -10.3760     8.5604    10.2596
  182.5000     8.3925    68.8609     2.4255     0.1233     0.1656   -10.1317     8.5349    10.2912
  183.0000     8.3876    68.6238     2.4154     0.1216     0.1687    -9.8781     8.5094    10.3050
  183.5000     8.3829    68.0286     2.4048     0.1200     0.1665    -9.6257     8.4840    10.3143
  184.0000     8.3773    67.4225     2.4087     0.1304     0.1576    -9.3734     8.4586    10.3236
  184.5000     8.3372    67.1275     2.4167     0.1421     0.1520    -9.1228     8.4334    10.3329
  185.0000     8.2351    65.6946     2.4244     0.1494     0.1517    -8.9594     8.4072    10.3423
  185.5000     8.1340    62.7219     2.4181     0.1353     0.1592    -8.9333     8.3912    10.3516
  186.0000     8.0326    62.5084     2.4074     0.1199     0.1672    -8.9055     8.3745    10.3610
  186.5000     7.9313    63.8111     2.3822     0.1045     0.1753    -8.8782     8.3579    10.3702
  187.0000     7.8299    65.6919     2.3797     0.0891     0.1800    -8.8507     8.3409    10.3797
  187.5000     7.7321    67.2658     2.3787     0.0768     0.1773    -8.8232     8.3305    10.3890
  188.0000     7.6512    67.4901     2.3758     0.0661     0.1825    -8.7957     8.3735    10.4496
  188.5000     7.6535    66.8211     2.3704     0.0578     0.1865    -8.7683     8.4059    10.5501
  189.0000     7.6669    66.1429     2.3763     0.0585     0.1669    -8.7408     8.4386    10.7498
  189.5000     7.6807    66.2729     2.3985     0.0590     0.1608    -8.7133     8.4714    11.0101
  190.0000     7.6945    66.6925     2.4121     0.0595     0.1542    -8.6858     8.5044    11.2767
  190.5000     7.7082    66.1672     2.4245     0.0597     0.1438    -8.6583     8.5374    11.5497
  191.0000     7.7220    64.4295     2.4461     0.0579     0.1296    -8.6308     8.5779    11.8294
  191.5000     7.7358    64.0196     2.4689     0.0564     0.1230    -8.6033     8.6437    12.1159
  192.0000     7.7499    63.5599     2.4698     0.0478     0.1258    -8.5759     8.7759    12.4097
  192.5000     7.7634    60.6598     2.4671     0.0406     0.1285    -8.5484     8.9052    12.7088
  193.0000     7.7454    57.7192     2.4686     0.0478     0.1220    -8.5209     9.0358    12.9661
  193.5000     7.6082    57.9356     2.4718     0.0555     0.1238    -8.4934     9.1684    12.9071
  194.0000     7.4732    61.2879     2.4663     0.0513     0.1265    -8.4659     9.2192    12.8558
  194.5000     7.4920    62.5735     2.4554     0.0472     0.1411    -8.4384     9.2193    12.5045
  195.0000     7.5340    63.1854     2.4370     0.0438     0.1578    -8.4108     9.2193    12.1119
