~VERSION INFORMATION
 VERS.                2.0:   CWLS LOG ASCII STANDARD - VERSION 2.0
 WRAP.                 NO:   ONE LINE PER DEPTH STEP
~WELL INFORMATION
#MNEM.UNIT      DATA TYPE    INFORMATION
#----------   ------------   ------------------------------
 STRT.F           45.5000:   START DEPTH
 STOP.F          740.0000:   STOP DEPTH
 STEP.F            0.5000:   STEP LENGTH
 NULL.          -999.2500:   NO VALUE
 COMP. FENIX & SCISSON INC:   COMPANY
 WELL.       NPR 3 #22-14:   WELL
 FLD .             TEAPOT:   FIELD
 LOC .      S14 T38N R78W:   LOCATION
 CNTY.            NATRONA:   COUNTY
 STAT.            WYOMING:   STATE
 CTRY. UNITED STATES OF AMERICA:   COUNTRY
 SRVC.           BIRDWELL:   SERVICE COMPANY
 DATE.        23-DEC-1978:   LOGDATE
 API .       490251075800:   API NUMBER
~CURVE INFORMATION
#MNEM.UNIT       API CODE    CURVE DESCRIPTION
#----------   ------------   ------------------------------
 DEPT.F                  :   
 SPR .MV     05 010 01 00:   SPONTANEOUS POTENTIAL FROM RES.
 SN  .OHMM   05 040 16 00:   SHORT NORMAL 16"
 IL  .OHMM   05 120 00 00:   INDUCTION LOG
 CALD.IN     45 280 60 00:   CALIPER
 GRD .GAPI   45 310 01 00:   GAMMA RAY FROM DENSITY LOG
 RHOB.G/C3   45 350 01 00:   BULK DENSITY
 DPHI.DEC    45 890 12 00:   DENSITY POROSITY SANDSTONE
 CORR.G/C3   45 356 01 00:   DENSITY CORRECTION
~PARAMETER INFORMATION
#MNEM.UNIT          VALUE    DESCRIPTION
#----------   ------------   ------------------------------
 PD  .                 GL:   PERMANENT DATUM
 EPD .F              5212:   ELEVATION PERMANENT DATUM
 LMF .                 KB:   LOG MEASURED FROM
 DAPD.F                 4:   FEET ABOVE PERMANENT DATUM
 DMF .                 KB:   DRILLING MEASURED FROM
 EKB .F              5216:   KELLING BUSHING
 EGL .F              5212:   GROUND LEVEL
 DATE.           12-23-78:   RUN DATE
 RUN .                  1:   RUN NUMBER
 DD  .F               735:   DEPTH DRILLER
 DL  .F               740:   DEPTH LOGGER
 BLI .F               733:   BOTTOM LOG INTERVAL
 TLI .F                50:   TOP LOG INTERVAL
 CS  .IN            8.625:   CASING SIZE
 CBD .F                40:   CASING BOTTOM DRILLER
 CBL .F                40:   CASING BOTTOM LOGGER
 BS  .IN            7.875:   BIT SIZE
 BSD .F               735:   BIT SIZE AT DEPTH
 DFT .                KCL:   DRILLING FLUID TYPE
 DFD .                8.7:   DRILLING FLUID DENSITY
 DFV .                 35:   DRILLING FLUID VISCOSITY
 DFPH.               10.5:   DRILLING FLUID PH
 DFL .               11.6:   DRILLING FLUID LOSS
 MSS .           FLOWLINE:   MUD SAMPLE SOURCE
 RMS .OHMM             .5:   RESISTIVITY MUD SAMPLE
 MST .F                60:   MUD SAMPLE TEMPERATURE
 RMF .OHMM             .5:   RESISTIVITY MUD FILTRATE SAMPLE
 MFST.F                60:   MUD FILTRATE SAMPLE TEMPERATURE
 RMC .OHMM             .7:   RESISTIVITY MUD CAKE
 MCST.F                60:   MUD CAKE SAMPLE TEMPERATURE
 MFSS.           MEASURED:   MUD FILTRATE SAMPLE SOURCE
 MCSS.           MEASURED:   MUD CAKE SAMPLE SOURCE
 RMB .OHMM           .518:   RESISTIVITY MUD AT BHT
 BHT .F                58:   BOTTOM HOLE TEMPERATURE
 TCS .HRS               5:   TIME CURCULATED STOPPED
 MRT .F                58:   MAXIMUM RECORDED TEMPERATURE
 LUN .               2958:   LOGGING UNIT NUMBER
 LUL .             CASPER:   LOGGING UNIT LOCATION
 ENGI.         B. ROLLINS:   RECORDING ENGINEER
 WITN.              IMMEL:   WITNESSED BY
 CLNT.            A2DTECH:   CLIENT CODE
 ORIG.           5" PRINT:   ORIGIN OF DATA
 UWI .       490251075800:   UNIQUE WELL ID
 DICO. A2D Technologies, Inc.:   DIGITIZING COMPANY
~OTHER INFORMATION
~A   DEPT      SPR         SN         IL       CALD         GRD      RHOB       DPHI       CORR   
# ...
  491.0000  -999.2500     7.0210     6.8980     7.9260   111.7420     2.5270     0.1380     0.0870
  491.5000  -999.2500     7.0570     6.7870     7.9240   113.1050     2.4660     0.1500     0.1050
  492.0000  -999.2500     7.0940     6.6830     7.8600   114.6630     2.4300     0.1460     0.1230
  492.5000  -999.2500     7.1930     6.6830     7.7940   116.2520     2.4390     0.1380     0.1600
  493.0000  -999.2500     7.0480     6.6830     7.7910   116.6890     2.4580     0.1310     0.2010
  493.5000  -999.2500     6.8310     6.6830     7.8240   116.3950     2.4750     0.1240     0.2530
  494.0000  -999.2500     6.6140     6.6830     7.8570   114.9110     2.4790     0.1190     0.3050
  494.5000  -999.2500     6.5010     6.6830     7.8870   113.5480     2.4840     0.1130     0.3570
  495.0000  -999.2500     6.5010     6.8010     7.9120   114.9920     2.4920     0.1070     0.3930
  495.5000  -999.2500     6.8600     7.0470     7.9210   118.2250     2.4990     0.0760     0.2970
  496.0000  -999.2500     7.2680     7.2940     7.9290   119.2570     2.5140     0.0510     0.2140
  496.5000  -999.2500     7.6770     7.5400     7.9380   118.5430     2.5520     0.0780     0.2280
  497.0000  -999.2500     7.8860     7.7860     7.9470   116.7470     2.5960     0.1090     0.2400
  497.5000  -999.2500     7.8860     7.8140     7.9500   112.4500     2.5230     0.1170     0.2380
  498.0000  -999.2500     7.8860     7.6080     7.9500   110.6320     2.4760     0.1050     0.2210
  498.5000  -999.2500     7.8860     7.4630     7.9500   109.8590     2.4960     0.0910     0.1900
  499.0000  -999.2500     7.8860     7.4030     7.9500   109.8830     2.5170     0.0770     0.1600
  499.5000  -999.2500     7.8140     7.2840     7.9520   109.9160     2.5380     0.0720     0.1370
  500.0000   -99.4990     7.5700     7.1640     7.9590   109.9490     2.5590     0.0820     0.1320
  500.5000   -99.4990     7.3480     7.0450     7.9660   109.9920     2.5470     0.0890     0.1280
  501.0000   -99.4990     7.1260     6.9250     7.9340   110.0800     2.5310     0.0960     0.1180
  501.5000   -99.4990     6.9030     6.8060     7.8630   107.6830     2.5160     0.0990     0.1070
  502.0000   -99.3400     6.7450     6.7450     7.9150   104.5560     2.5100     0.0970     0.0990
  502.5000   -98.7250     6.7450     6.8230     7.9390   104.0120     2.5220     0.1080     0.1050
  503.0000   -98.2630     6.7450     6.9370     7.8540   104.1420     2.5110     0.1260     0.0890
  503.5000   -98.1860     7.0520     7.1790     7.8920   104.8980     2.4890     0.1220     0.0700
  504.0000   -98.1000     7.3370     7.5620     7.9150   107.4640     2.4720     0.1170     0.0670
  504.5000   -98.0150     7.6220     7.9450     7.9240   109.9650     2.4810     0.1130     0.0690
  505.0000   -97.9290     7.9070     8.3290     7.9320   110.0730     2.4900     0.1150     0.0700
  505.5000   -97.8430     8.1920     8.7120     7.9400   109.2440     2.4960     0.1180     0.0770
  506.0000   -97.7580     8.4780     9.0950     7.9490   108.3150     2.4920     0.1200     0.0850
  506.5000   -97.6810     8.7630     9.3250     7.9810   107.5810     2.4810     0.1220     0.0910
  507.0000   -97.6290     8.9300     9.4000     8.0160   109.6910     2.4790     0.1160     0.0940
  507.5000   -97.5750     9.0760     9.4750     8.0500   110.4280     2.4920     0.1100     0.1000
  508.0000   -97.5220     9.2220     9.5500     8.0860   109.4060     2.5070     0.1030     0.1180
  508.5000   -97.2620     9.3670     9.6250     8.1230   105.3990     2.5180     0.0990     0.1340
  509.0000   -96.7620     9.3920     9.7010     8.0700   101.0990     2.5210     0.0960     0.1510
  509.5000   -96.2560     9.4390     9.7760     7.9900    98.3220     2.5240     0.0930     0.1510
  510.0000   -95.3960     9.4950     9.8510     8.1050    99.1370     2.5300     0.0890     0.1370
  510.5000   -94.3430     9.5520     9.9250     8.0650   100.4970     2.5370     0.0830     0.1200
  511.0000   -93.2870     9.6080     9.9450     7.9900   101.8890     2.5440     0.0730     0.1020
  511.5000   -92.2350     9.6650     9.9650     7.9870   103.0030     2.5510     0.0800     0.1010
  512.0000   -92.3980     9.7210     9.9850     8.0140   103.3210     2.5560     0.0920     0.1260
  512.5000   -92.7650     9.7770    10.0050     8.0420   103.6100     2.5420     0.1060     0.1490
  513.0000   -93.1360     9.8340    10.0250     8.0300   103.8440     2.5240     0.0990     0.1500
  513.5000   -93.4790     9.8900    10.0450     8.0010   103.8910     2.5070     0.0880     0.1370
  514.0000   -93.3040     9.9250    10.0640     7.9710   103.9380     2.5220     0.0730     0.1160
  514.5000   -92.8840     9.8340    10.0850     7.9420   103.9760     2.5390     0.0770     0.0950
  515.0000   -92.4880     9.8330    10.1050     7.9110   103.6840     2.5560     0.0840     0.0730
  515.5000   -92.3360     9.8340    10.3260     7.9030   102.4310     2.5550     0.0920     0.0690
  516.0000   -92.1940     9.8340    10.7450     7.8960   101.2320     2.5420     0.0990     0.0770
  516.5000   -92.0370     9.8340    10.5790     7.8990   100.7850     2.5260     0.1090     0.0870
  517.0000   -91.7720     9.8340    10.0310     7.9550   102.0120     2.5090     0.1070     0.0980
  517.5000   -91.2670     9.8340     9.4830     7.9900   103.1410     2.5030     0.1030     0.0970
  518.0000   -90.7640     9.8340     8.9350     7.9920   105.3730     2.5150     0.0980     0.0970
  518.5000   -90.6820     9.6710     8.3870     7.9990   107.8030     2.5270     0.0940     0.0940
  519.0000   -90.6810     9.3760     7.8380     8.0060   107.8860     2.5340     0.0900     0.0890
  519.5000   -90.6800     9.0820     7.2600     7.9390   105.0760     2.5340     0.0910     0.0780
  520.0000   -90.6270     8.6170     7.2950     7.8760    99.7630     2.5330     0.0980     0.0630
  520.5000   -90.3570     7.8250     7.3320     8.0450    98.2510     2.5320     0.1120     0.0510
  521.0000   -90.0890     7.0320     7.3690     7.9620    98.2210     2.5280     0.1370     0.0560
  521.5000   -89.7400     6.5010     7.4130     7.8940    98.2170     2.5120     0.1670     0.0860
  522.0000   -89.0760     6.7300     7.5600     8.0050    98.5970     2.4350     0.2140     0.1370
  522.5000   -88.4480     6.9970     8.2050     7.8940    99.5430     2.3190     0.2590     0.1090
  523.0000   -86.7080     8.0050     9.0390     7.9240   103.3980     2.2710     0.2470     0.0630
  523.5000   -86.3920     9.1000     9.8740     8.0380   107.2830     2.2520     0.2090     0.0740
  524.0000   -86.1670    10.2970    10.7090     9.1270   111.1970     2.3010     0.1570     0.0930
  524.5000   -84.5640    10.9080    11.3480     7.8210   112.5260     2.3770     0.1040     0.1110
  525.0000   -82.9830    11.1630    11.5410     7.9870   109.0860     2.4520     0.0960     0.1300
  525.5000   -84.2320    11.3930    11.7340     7.9120   103.4970     2.5110     0.0940     0.1530
  526.0000   -85.6870    11.4980    11.9270     7.9170   100.2750     2.5320     0.0920     0.1760
  526.5000   -86.1970    11.6580    12.1200     7.9160    97.6280     2.5300     0.0900     0.1890
  527.0000   -86.0960    11.7170    12.3130     7.9170    95.0000     2.5290     0.0810     0.1950
  527.5000   -85.9910    11.7770    12.4910     7.9190    94.6240     2.5340     0.0710     0.1780
  528.0000   -85.8580    11.8840    12.7780     7.9200    94.6120     2.5510     0.0610     0.1540
  528.5000   -85.1060    12.1140    13.0440     7.9220    94.6110     2.5670     0.0510     0.1440
  529.0000   -84.1990    12.3440    14.1710     7.9230    94.6090     2.5890     0.0700     0.1620
  529.5000   -83.0800    12.5750    15.4250     7.9250    94.6090     2.5770     0.0940     0.1810
  530.0000   -82.6370    13.3550    16.6790     7.9260    94.6090     2.5560     0.0890     0.1670
  530.5000   -82.4660    14.2220    17.9330     7.9280    94.6080     2.5310     0.0790     0.1480
  531.0000   -82.4660    15.0900    19.1870     7.9310    94.6080     2.5420     0.0690     0.1370
