~VERSION INFORMATION
 VERS.                2.0:   CWLS LOG ASCII STANDARD - VERSION 2.0
 WRAP.                 NO:   ONE LINE PER DEPTH STEP
~WELL INFORMATION
#MNEM.UNIT      DATA TYPE    INFORMATION
#----------   ------------   ------------------------------
 STRT.F            4.0000:   START DEPTH
 STOP.F          508.0000:   STOP DEPTH
 STEP.F            0.5000:   STEP LENGTH
 NULL.          -999.2500:   NO VALUE
 COMP. LAWRENCE-ALLISON &AS:   COMPANY
 WELL. NPR ##3 58-65-SX-3-UPI:   WELL
 FLD .             TEAPOT:   FIELD
 LOC .       S3 T38N R78W:   LOCATION
 CNTY.            NATRONA:   COUNTY
 STAT.            WYOMING:   STATE
 CTRY. UNITED STATES OF AMERICA:   COUNTRY
 SRVC.      Dresser Atlas:   SERVICE COMPANY
 DATE.        07-DEC-1984:   LOGDATE
 API .       490251102500:   API NUMBER
~CURVE INFORMATION
#MNEM.UNIT       API CODE    CURVE DESCRIPTION
#----------   ------------   ------------------------------
 DEPT.F                  :   
 SPR .MV     07 010 01 00:   SPONTANEOUS POTENTIAL
 RILD.OHMM   07 120 46 00:   INDUCTION LOG DEEP RESISTIVITY
 RILM.OHMM   07 120 44 00:   INDUCTION LOG MEDIUM RESISTIVITY
 RFOC.OHMM   07 220 04 00:   RESISTIVITY FOCUSED LOG
 CALS.IN     60 280 50 00:   CALIPER FROM SONIC LOG
 GRS .GAPI   60 310 01 00:   GAMMA RAY FROM SONIC LOG
 AC  .US/F   60 520 00 00:   ACCOUSTIC SONIC
~PARAMETER INFORMATION
#MNEM.UNIT          VALUE    DESCRIPTION
#----------   ------------   ------------------------------
 PD  .                 GL:   PERMANENT DATUM
 EPD .F              5184:   ELEVATION PERMANENT DATUM
 LMF .                 GL:   LOG MEASURED FROM
 DMF .                 GL:   DRILLING MEASURED FROM
 EGL .F              5184:   GROUND LEVEL
 DATE.        07-DEC-1984:   RUN DATE
 RUN .                  1:   RUN NUMBER
 DD  .F               510:   DEPTH DRILLER
 DL  .F               510:   DEPTH LOGGER
 BLI .F               508:   BOTTOM LOG INTERVAL
 TLI .F                20:   TOP LOG INTERVAL
 CS  .IN            8.625:   CASING SIZE
 CBD .F                20:   CASING BOTTOM DRILLER
 CBL .F                20:   CASING BOTTOM LOGGER
 BS  .IN            7.875:   BIT SIZE
 BSD .F               510:   BIT SIZE AT DEPTH
 DFT .          KCL WATER:   DRILLING FLUID TYPE
 MSS .            MUD PIT:   MUD SAMPLE SOURCE
 RMS .OHMM            .14:   RESISTIVITY MUD SAMPLE
 MST .F                55:   MUD SAMPLE TEMPERATURE
 RMF .OHMM             .1:   RESISTIVITY MUD FILTRATE SAMPLE
 MFST.F                55:   MUD FILTRATE SAMPLE TEMPERATURE
 RMC .OHMM            .17:   RESISTIVITY MUD CAKE
 MCST.F                55:   MUD CAKE SAMPLE TEMPERATURE
 MFSS.               CALC:   MUD FILTRATE SAMPLE SOURCE
 MCSS.               CALC:   MUD CAKE SAMPLE SOURCE
 RMB .OHMM            .08:   RESISTIVITY MUD AT BHT
 BHT .F                86:   BOTTOM HOLE TEMPERATURE
 TCS .HRS               3:   TIME CURCULATED STOPPED
 MRT .F               100:   MAXIMUM RECORDED TEMPERATURE
 LUN .               6270:   LOGGING UNIT NUMBER
 LUL .                 FM:   LOGGING UNIT LOCATION
 ENGI.          E. GOVETT:   RECORDING ENGINEER
 WITN.      GROOMS, LUERS:   WITNESSED BY
 CLNT.            A2DTECH:   CLIENT CODE
 ORIG.           5" PRINT:   ORIGIN OF DATA
 UWI .       490251102500:   UNIQUE WELL ID
 DICO. A2D Technologies, Inc.:   DIGITIZING COMPANY
~OTHER INFORMATION
~A    DEPT     SPR       RILD       RILM       RFOC       CALS         GRS        AC   
# ...
  186.0000   -57.6025     6.4191     5.1772     7.4963     7.5930   108.7786   109.3777
  186.5000   -57.7414     5.9506     4.7341     7.7105     7.5941   108.6639   109.3723
  187.0000   -57.8769     5.5547     4.3591     7.8232     7.5951   109.8869   109.8195
  187.5000   -58.0124     5.2213     4.1553     7.6139     7.5960   111.6568   111.0471
  188.0000   -58.1479     4.9764     4.0724     6.2740     7.5970   112.2617   114.2174
  188.5000   -58.2834     4.8094     4.0749     4.8570     7.5832   111.2321   116.9048
  189.0000   -58.2665     4.6803     4.1344     4.7535     7.5842   107.5279   117.1901
  189.5000   -58.4053     4.6499     4.1948     5.1764     7.5853   100.4062   116.5814
  190.0000   -58.3884     4.6532     4.2554     5.7475     7.5863    98.9282   115.1432
  190.5000   -58.2259     4.7209     4.3826     5.9541     7.5874   103.3991   113.5542
  191.0000   -58.2123     4.8565     4.5737     6.2110     7.5884   108.1644   112.8701
  191.5000   -58.0498     5.1011     4.8346     6.5695     7.5895   110.4038   112.1860
  192.0000   -58.0362     5.4330     5.1103     6.9476     7.6054   111.4545   111.3511
  192.5000   -58.0227     5.8268     5.4406     6.6236     7.6065   108.1961   110.4408
  193.0000   -58.0119     6.1629     5.7146     6.8142     7.6075   102.4117   109.3042
  193.5000   -57.9985     6.5638     6.0024     7.5660     7.6086    99.4504   107.8660
  194.0000   -57.9851     6.8639     6.2612     8.1145     7.6096   100.3525   106.3524
  194.5000   -57.8227     7.2052     6.4861     8.4061     7.6107   102.5919   105.7437
  195.0000   -57.8092     7.5583     6.6265     8.5882     7.6266   104.1753   106.2663
  195.5000   -57.6468     7.7730     6.6768     8.6535     7.6277   106.0936   106.7888
  196.0000   -57.4842     7.9378     6.6810     8.5991     7.6287   107.5384   106.5572
  196.5000   -57.3216     7.9423     6.5932     8.4860     7.6447   106.1797   106.2502
  197.0000   -57.3081     7.9468     6.5066     8.3730     7.6606   104.2764   106.3957
  197.5000   -57.1455     7.8416     6.4201     8.2058     7.6617   103.8312   106.8429
  198.0000   -56.9830     7.7377     6.3357     8.0898     7.6774   107.5664   107.1684
  198.5000   -56.8204     7.5302     6.2524     7.9913     7.6933   111.5889   107.5981
  199.0000   -56.6578     7.3781     6.2131     7.9411     7.6957   108.6276   107.9663
  199.5000   -56.6443     7.1812     6.2180     7.8912     7.7103   103.7348   108.3381
  200.0000   -56.4740     6.9889     6.2462     7.8579     7.7264   104.1917   108.8080
  200.5000   -56.3555     6.8506     6.3998     7.7383     7.7273   105.8330   108.9285
  201.0000   -56.4551     6.7110     6.4479     7.4271     7.7283   105.5448   108.4659
  201.5000   -56.5891     6.3963     6.1888     7.2279     7.7293   106.0684   108.2956
  202.0000   -56.7230     6.0124     5.8990     7.1324     7.7305   107.5224   109.3601
  202.5000   -57.0021     5.6515     5.5454     7.0861     7.7464   107.8008   111.3210
  203.0000   -57.1398     5.3122     5.1771     6.9924     7.7773   106.4726   112.6681
  203.5000   -57.5680     5.0281     4.7666     6.7588     7.8081   105.2929   114.0202
  204.0000   -57.8548     4.8594     4.3887     6.1242     7.8389   103.8161   117.2577
  204.5000   -58.0115     4.7612     4.2410     5.0427     7.8570   102.1907   120.1935
  205.0000   -58.2716     4.7278     4.5171     4.7835     7.8854   100.5652   121.6964
  205.5000   -58.1073     4.7336     4.9802     4.7884     7.8864   100.1263   121.1632
  206.0000   -58.0924     4.7693     5.4151     5.2069     7.8875    99.9890   118.0658
  206.5000   -57.9282     4.8724     5.6482     6.5044     7.8737    98.5122   112.3289
  207.0000   -57.7641     5.1178     5.7778     7.7402     7.8599    97.0353   108.7036
  207.5000   -57.5999     5.5270     5.9950     8.0178     7.8609    97.3415   107.8700
  208.0000   -57.4358     6.0523     6.3726     8.1344     7.8620    99.2822   108.0155
  208.5000   -57.1226     6.4909     6.7343     8.1956     7.8630   104.9377   107.4809
  209.0000   -56.8094     6.8179     7.0694     8.1424     7.8641   106.8784   107.0703
  209.5000   -56.4962     7.1118     7.3737     8.1481     7.8651   107.8345   106.7074
  210.0000   -56.1830     7.3162     7.4808     8.1527     7.8362   109.0143   106.5612
  210.5000   -55.8699     7.4743     7.0814     8.1573     7.8075   109.5778   107.3109
  211.0000   -55.4076     7.5831     6.5653     8.2187     7.7936   106.7498   108.2096
  211.5000   -55.0945     7.6402     6.3885     8.2234     7.7652   103.3552   108.5815
  212.0000   -54.7813     7.6977     6.4374     8.2853     7.7511   103.8101   108.5902
  212.5000   -54.3191     7.8097     6.4858     8.3466     7.7227   109.3169   107.4393
  213.0000   -54.1292     7.8676     6.4895     8.3575     7.7058   111.7033   106.0765
  213.5000   -53.8246     7.9269     6.4474     8.4141     7.6461   112.3045   105.8462
  214.0000   -53.5320     7.9312     6.3622     8.4773     7.5447   109.7898   106.9708
  214.5000   -53.3681     7.8794     6.1926     8.4821     7.4737   106.5299   107.6441
  215.0000   -53.5022     7.7765     6.0678     8.4281     7.4449   105.3502   107.8650
  215.5000   -53.7854     7.7269     5.9060     8.3745     7.4162   105.0599   107.9364
  216.0000   -54.3661     7.6777     5.7796     8.3203     7.4024   106.5570   108.6084
  216.5000   -54.7988     7.6289     5.7055     8.2115     7.4035   111.3209   109.8851
  217.0000   -55.2300     7.5795     5.6350     8.2161     7.4045   116.2334   110.7106
  217.5000   -55.3677     7.5314     5.6382     8.1628     7.4205   115.6481   110.2351
  218.0000   -55.3488     7.5367     5.6414     8.2254     7.4215   115.3323   109.7154
  218.5000   -55.4827     7.5409     5.7631     8.2300     7.4226   114.5735   109.4879
  219.0000   -55.4676     7.4930     5.9285     8.2347     7.4385   110.5494   109.5581
  219.5000   -55.6053     7.4972     6.0564     8.2393     7.4396   108.4003   109.7036
  220.0000   -55.7392     7.2456     6.1020     8.3013     7.4555   111.3820   109.3964
  220.5000   -55.8731     6.7635     6.0624     8.3050     7.4566   112.8770   109.2402
  221.0000   -56.0070     6.1407     5.8600     8.3097     7.4576   110.8058   109.0840
  221.5000   -56.1410     5.6925     5.3582     8.3143     7.4587   107.5459   109.0787
  222.0000   -56.2749     5.5325     5.0022     8.3189     7.4595   109.1894   110.8078
  222.5000   -56.4088     5.4279     5.0749     7.5534     7.4457   115.2906   113.5928
  223.0000   -56.5427     5.4310     5.1131     5.4553     7.4467   116.9318   116.1516
  223.5000   -56.6766     5.4340     5.1874     5.1280     7.4478   115.7544   117.8053
  224.0000   -56.6615     5.3621     5.2264     5.6935     7.4488   114.2776   117.2721
  224.5000   -56.6464     5.3279     5.2293     6.7284     7.4350   112.6522   114.9288
  225.0000   -56.6313     5.2575     5.2256     7.5223     7.4361   112.2132   113.2780
  225.5000   -56.4671     5.1521     5.1190     7.8464     7.4520   113.5618   111.8039
  226.0000   -56.4520     5.0488     4.8477     7.8508     7.4531   115.3539   111.2188
  226.5000   -56.2878     4.9475     4.5621     7.4312     7.4541   114.8469   112.3446
  227.0000   -56.1237     4.8821     4.4399     6.3391     7.4552   112.9650   114.6771
  227.5000   -55.8105     4.8504     4.4733     4.8732     7.4411   112.1099   117.6883
  228.0000   -55.6464     4.9216     4.6658     4.6121     7.4424   113.7534   119.9454
  228.5000   -55.3332     5.0983     5.0733     5.0159     7.4435   114.9512   119.6384
  229.0000   -55.1690     5.3924     5.4782     6.0566     7.4445   116.4461   117.6722
  229.5000   -55.0049     5.8235     5.7938     7.6788     7.4456   118.5354   114.1224
  230.0000   -54.9898     6.3329     6.0014     7.7766     7.4466   119.1365   110.1954
  230.5000   -54.9776     6.6806     6.1310     7.7271     7.4475   116.7704   108.6818
  231.0000   -54.8137     6.9936     6.2200     7.6780     7.4485   112.6190   108.2994
