~VERSION INFORMATION
 VERS.                2.0:   CWLS LOG ASCII STANDARD - VERSION 2.0
 WRAP.                 NO:   ONE LINE PER DEPTH STEP
~WELL INFORMATION
#MNEM.UNIT      DATA TYPE    INFORMATION
#----------   ------------   ------------------------------
 STRT.F           34.0000:   START DEPTH
 STOP.F          555.0000:   STOP DEPTH
 STEP.F            0.5000:   STEP LENGTH
 NULL.          -999.2500:   NO VALUE
 COMP. FENIX & SCISSON-U.S. NAVY:   COMPANY
 WELL.    NPR #3 #17-S-11:   WELL
 FLD .             TEAPOT:   FIELD
 LOC .      S11 T38N R78W:   LOCATION
 CNTY.            NATRONA:   COUNTY
 STAT.            WYOMING:   STATE
 CTRY. UNITED STATES OF AMERICA:   COUNTRY
 SRVC.       Schlumberger:   SERVICE COMPANY
 DATE.        20-FEB-1977:   LOGDATE
 API .       490251028100:   API NUMBER
~CURVE INFORMATION
#MNEM.UNIT       API CODE    CURVE DESCRIPTION
#----------   ------------   ------------------------------
 DEPT.F                  :   
 SPR .MV     07 010 01 00:   SPONTANEOUS POTENTIAL
 ILD .OHMM   07 120 46 00:   INDUCTION LOG DEEP
 ILM .OHMM   07 120 44 00:   INDUCTION LOG MEDIUM
 LL8 .OHMM   07 220 08 00:   LATEROLOG-8 RES.
 CALD.IN     45 280 60 00:   CALIPER FROM DENSITY LOG
 GRD .GAPI   45 310 01 00:   GAMMA RAY FROM DENSITY LOG
 CORR.G/C3   45 356 01 00:   DENSITY CORRECTION
 RHOB.G/C3   45 350 01 00:   BULK DENSITY
 DPHI.DEC    45 890 12 00:   DENSITY POROSITY SANDSTONE
~PARAMETER INFORMATION
#MNEM.UNIT          VALUE    DESCRIPTION
#----------   ------------   ------------------------------
 PD  .                 GL:   PERMANENT DATUM
 EPD .F              5204:   ELEVATION PERMANENT DATUM
 LMF .                 GL:   LOG MEASURED FROM
 DMF .                 GL:   DRILLING MEASURED FROM
 EKB .F              5209:   KELLING BUSHING
 EGL .F              5204:   GROUND LEVEL
 DATE.        20-FEB-1977:   RUN DATE
 RUN .                  1:   RUN NUMBER
 DD  .F               556:   DEPTH DRILLER
 DL  .F               556:   DEPTH LOGGER
 BLI .F               555:   BOTTOM LOG INTERVAL
 TLI .F                42:   TOP LOG INTERVAL
 CS  .IN            8.625:   CASING SIZE
 CBD .F                42:   CASING BOTTOM DRILLER
 CBL .F                42:   CASING BOTTOM LOGGER
 BS  .IN            7.875:   BIT SIZE
 BSD .F               556:   BIT SIZE AT DEPTH
 DFT .            KCL MUD:   DRILLING FLUID TYPE
 DFD .                8.8:   DRILLING FLUID DENSITY
 DFV .                 33:   DRILLING FLUID VISCOSITY
 DFPH.                8.0:   DRILLING FLUID PH
 DFL .                7.6:   DRILLING FLUID LOSS
 MSS .           FLOWLINE:   MUD SAMPLE SOURCE
 RMS .OHMM            .44:   RESISTIVITY MUD SAMPLE
 MST .F                66:   MUD SAMPLE TEMPERATURE
 RMF .OHMM            .41:   RESISTIVITY MUD FILTRATE SAMPLE
 MFST.F                66:   MUD FILTRATE SAMPLE TEMPERATURE
 MFSS.               MEAS:   MUD FILTRATE SAMPLE SOURCE
 TCS .HRS               3:   TIME CURCULATED STOPPED
 LUN .               7680:   LOGGING UNIT NUMBER
 LUL .               CSPR:   LOGGING UNIT LOCATION
 ENGI.             TAYLOR:   RECORDING ENGINEER
 WITN.               JAPP:   WITNESSED BY
 CLNT.            A2DTECH:   CLIENT CODE
 ORIG.           5" PRINT:   ORIGIN OF DATA
 UWI .       490251028100:   UNIQUE WELL ID
 DICO. A2D Technologies, Inc.:   DIGITIZING COMPANY
~OTHER INFORMATION
~A   DEPT      SPR        ILD        ILM        LL8       CALD        GRD       CORR       RHOB       DPHI   
# ...
  180.0000   -59.2106     8.9690     8.3572    10.2692     8.2358   102.1264     0.0169     2.4626     0.1182
  180.5000   -59.2195     8.9672     8.3544    10.7013     8.2197   103.4822     0.0176     2.4656     0.1146
  181.0000   -59.2284     8.9035     8.3516    11.3184     8.2186   102.5745     0.0393     2.4717     0.1043
  181.5000   -59.3892     8.9017     8.3487    11.7827     8.2025   101.4410     0.0544     2.4825     0.0986
  182.0000   -59.3982     8.8999     8.3459    11.3785     8.1863   100.7601     0.0437     2.4912     0.0929
  182.5000   -59.4073     8.8981     8.3431    10.4696     8.1853    99.8529     0.0264     2.4950     0.1081
  183.0000   -59.4181     8.8963     8.2827    10.3230     8.1842    98.7194     0.0204     2.4987     0.1010
  183.5000   -59.5789     8.8945     8.2799    10.1785     8.1832    97.5860     0.0256     2.5025     0.1088
  184.0000   -59.5878     8.8923     8.2765    10.0360     8.1973    97.8341     0.0263     2.5063     0.1097
  184.5000   -59.5967     8.8905     8.2737    10.0333     8.2114    98.9385     0.0480     2.5108     0.0989
  185.0000   -59.6055     8.8887     8.2709    10.1704     8.2103    98.9362     0.0540     2.5161     0.0911
  185.5000   -59.4602     8.8256     8.2681    10.3094     8.2244    98.2553     0.0622     2.5191     0.0826
  186.0000   -59.4713     8.8238     8.2653    10.5301     8.2385    95.7644     0.0599     2.5176     0.0775
  186.5000   -59.3282     8.7611     8.2625    10.7400     8.2372    89.8798     0.0485     2.5055     0.0992
  187.0000   -59.3374     8.7593     8.2027    10.7364     8.2362    89.1994     0.0371     2.5047     0.1052
  187.5000   -59.1962     8.6971     8.2000    10.8080     8.2505    91.4591     0.0470     2.5117     0.0925
  188.0000   -59.2051     8.6953     8.1406    10.8051     8.2646    95.0768     0.0530     2.5100     0.0823
  188.5000   -59.2139     8.7540     8.1372    10.8022     8.2633    96.4320     0.0410     2.5032     0.0904
  189.0000   -59.2228     8.7518     8.1345    10.7993     8.2774    96.8823     0.0244     2.4956     0.1058
  189.5000   -59.0775     8.7500     8.1882    10.7220     8.2764    98.6900     0.0177     2.4798     0.1115
  190.0000   -58.7824     8.6879     8.1855    10.4990     8.2753   101.1916     0.0236     2.4760     0.1133
  190.5000   -58.7935     8.6861     8.2396    10.2072     8.2894   100.6222     0.0303     2.4805     0.1121
  191.0000   -58.6504     8.7452     8.1799    10.0668     8.2884    97.5516     0.0354     2.4926     0.1025
  191.5000   -58.6596     8.7430     8.2341    10.0635     8.3025    98.6806     0.0497     2.5024     0.0931
  192.0000   -58.6704     8.7412     8.2312    10.1313     8.3012   100.2621     0.0535     2.5077     0.0943
  192.5000   -58.6793     8.7434     8.2284    10.1279     8.3002    99.5812     0.0572     2.5092     0.0750
  193.0000   -58.6881     8.7984     8.2256     9.9173     8.2991    97.9952     0.0481     2.5083     0.0892
  193.5000   -58.6970     8.8573     8.2222     9.8463     8.2981    96.8618     0.0353     2.5039     0.1061
  194.0000   -58.7059     8.8555     8.2194     9.9126     8.2970    96.1814     0.0361     2.5001     0.0893
  194.5000   -58.7148     8.9157     8.1036    10.0472     8.2960   100.7035     0.0465     2.4986     0.0832
  195.0000   -58.8756     8.9134     7.9895    10.1844     8.2950   100.4750     0.0405     2.5031     0.0892
  195.5000   -58.7325     8.9116     7.9317    10.3951     8.3091    99.5678     0.0465     2.5129     0.0871
  196.0000   -58.7416     8.9098     7.8743    10.4644     8.3080   100.2504     0.0486     2.5167     0.0792
  196.5000   -58.7525     8.9080     7.9264    10.2461     8.3070   101.6719     0.0516     2.5121     0.0795
  197.0000   -58.7613     8.9062     7.9236    10.0330     8.3059   103.1811     0.0658     2.5279     0.0777
  197.5000   -58.9222     8.8429     7.9209     9.8926     8.3046   102.2733     0.0470     2.5342     0.0687
  198.0000   -58.9311     8.8407     7.9176    10.1673     8.3036   101.3661     0.0515     2.5211     0.0843
  198.5000   -58.9399     8.8389     7.9707     9.9558     8.3026   102.9476     0.0297     2.5015     0.1012
  199.0000   -58.9488     8.8371     8.0233     9.7488     8.3015   106.1128     0.0222     2.4872     0.1096
  199.5000   -58.8055     8.8353     8.0764     9.8820     8.3005   107.4681     0.0281     2.4796     0.1101
  200.0000   -58.8146     8.8954     8.1297    10.0863     8.2988   106.4959     0.0449     2.4733     0.0907
  200.5000   -58.8267     8.8913     8.1259    10.1532     8.2932   104.7460     0.0356     2.4687     0.0903
  201.0000   -58.8389     8.8876     8.1225    10.2202     8.2876   104.0628     0.0116     2.4665     0.1060
  201.5000   -58.8511     8.8840     8.1756     9.8687     8.2820   105.4158     0.0078     2.4657     0.1145
  202.0000   -58.8639     8.8190     8.2290     9.7974     8.2764   105.1852     0.0138     2.4680     0.1059
  202.5000   -58.8757     8.6934     8.2828     9.8628     8.2708   102.2395     0.0265     2.4773     0.0985
  203.0000   -58.8876     8.6299     8.3370     9.9960     8.2651    97.4840     0.0160     2.4957     0.0935
  203.5000   -58.8997     8.6264     8.3328    10.2728     8.2595    94.9909     0.0145     2.5130     0.0845
  204.0000   -58.9142     8.6229     8.3881    10.4846     8.2539    96.1176     0.0467     2.5302     0.0721
  204.5000   -58.9260     8.6195     8.4430    10.4684     8.2483   101.6183     0.0512     2.5362     0.0787
  205.0000   -58.9378     8.6758     8.4387    10.1908     8.2427   102.4436     0.0309     2.4986     0.0908
  205.5000   -58.9497     8.6723     8.4353    10.1874     8.2371   101.0806     0.0300     2.4790     0.1031
  206.0000   -58.9615     8.6688     8.4319    10.1840     8.2315   101.3024     0.0210     2.4714     0.1160
  206.5000   -58.9733     8.6653     8.4285    10.3232     8.2316   102.6555     0.0173     2.4684     0.1214
  207.0000   -58.9852     8.6617     8.4250    10.3913     8.2343   103.3309     0.0345     2.4706     0.1009
  207.5000   -58.8450     8.6574     8.4215    10.3869     8.2371   103.0991     0.0263     2.4793     0.0984
  208.0000   -58.8571     8.6539     8.4174    10.3118     8.2398   102.1897     0.0307     2.4886     0.1069
  208.5000   -58.8717     8.6504     8.4139    10.0271     8.2426   101.0540     0.0577     2.4923     0.0914
  209.0000   -58.8835     8.6469     8.4105     9.8861     8.2453   100.8233     0.0382     2.4938     0.0990
  209.5000   -58.8953     8.6434     8.4664     9.9586     8.2480    99.0090     0.0337     2.4915     0.0936
  210.0000   -58.9072     8.6399     8.3457    10.2261     8.2508    95.1584     0.0367     2.4877     0.1068
  210.5000   -58.9190     8.6965     8.1144    10.1522     8.2535    97.2277     0.0254     2.4839     0.1173
  211.0000   -58.9308     8.6921     7.8895    10.0788     8.2563    98.8446     0.0338     2.4824     0.1031
  211.5000   -58.9427     8.5698     7.7242     9.8686     8.2590    99.4437     0.0403     2.4869     0.0971
  212.0000   -58.8024     8.3894     7.5623     9.6627     8.2618    98.5332     0.0426     2.4966     0.1055
  212.5000   -58.8146     8.2136     7.5592     9.4611     8.2645    98.5288     0.0478     2.5081     0.0934
  213.0000   -58.6772     8.0415     7.5466     9.3280     8.2799    99.6556     0.0290     2.5180     0.0766
  213.5000   -58.6890     7.8730     7.5002     9.3249     8.2791   102.8185     0.0110     2.5236     0.0732
  214.0000   -58.7008     7.8155     7.4972     9.3082     8.2784   105.7553     0.0342     2.5176     0.0768
  214.5000   -58.5607     7.8123     7.4941     9.2463     8.2776   106.2044     0.0559     2.5070     0.0911
  215.0000   -58.5725     7.8091     7.4911     9.1844     8.2767   103.0315     0.0589     2.4950     0.0906
  215.5000   -58.5843     7.8060     7.4880     9.1208     8.2760    98.9547     0.0462     2.4844     0.0927
  216.0000   -58.5962     7.8028     7.4850     9.1810     8.2752    97.8190     0.0364     2.4738     0.1053
