~VERSION INFORMATION
 VERS.                2.0:   CWLS LOG ASCII STANDARD - VERSION 2.0
 WRAP.                 NO:   ONE LINE PER DEPTH STEP
~WELL INFORMATION
#MNEM.UNIT      DATA TYPE    INFORMATION
#----------   ------------   ------------------------------
 STRT.F          750.0000:   START DEPTH
 STOP.F         1490.0000:   STOP DEPTH
 STEP.F            0.5000:   STEP LENGTH
 NULL.          -999.2500:   NO VALUE
 COMP.    FENIX & SCISSON:   COMPANY
 WELL.  53 STX 15 #53 -15:   WELL
 FLD .             TEAPOT:   FIELD
 LOC .      S15 T38N R78W:   LOCATION
 CNTY.            NATRONA:   COUNTY
 STAT.            WYOMING:   STATE
 CTRY. UNITED STATES OF AMERICA:   COUNTRY
 SRVC.              Welex:   SERVICE COMPANY
 DATE.        01-JUN-1980:   LOGDATE
 API .       490251082000:   API NUMBER
~CURVE INFORMATION
#MNEM.UNIT       API CODE    CURVE DESCRIPTION
#----------   ------------   ------------------------------
 DEPT.F                  :   
 CALD.IN     45 280 60 00:   CALIPER
 GRD .GAPI   45 310 01 00:   GAMMA RAY FROM DENSITY LOG
 CORR.G/C3   45 356 01 00:   DENSITY CORRECTION
 RHOB.G/C3   45 350 01 00:   BULK DENSITY
 DPHI.DEC    45 890 12 00:   DENSITY POROSITY SANDSTONE
~PARAMETER INFORMATION
#MNEM.UNIT          VALUE    DESCRIPTION
#----------   ------------   ------------------------------
 PD  .                 GL:   PERMANENT DATUM
 EPD .F              5257:   ELEVATION PERMANENT DATUM
 LMF .                 KB:   LOG MEASURED FROM
 DAPD.F                10:   FEET ABOVE PERMANENT DATUM
 DMF .                 KB:   DRILLING MEASURED FROM
 EKB .F              5267:   KELLING BUSHING
 EGL .F              5257:   GROUND LEVEL
 DATE.             6-1-80:   RUN DATE
 RUN .                  1:   RUN NUMBER
 DD  .F              1498:   DEPTH DRILLER
 DL  .F              1492:   DEPTH LOGGER
 BLI .F              1490:   BOTTOM LOG INTERVAL
 TLI .F               750:   TOP LOG INTERVAL
 CS  .IN            9.625:   CASING SIZE
 CBD .F               772:   CASING BOTTOM DRILLER
 BS  .IN             8.75:   BIT SIZE
 BSD .F              1498:   BIT SIZE AT DEPTH
 DFT .        AIR DRILLED:   DRILLING FLUID TYPE
 TCS .HRS               4:   TIME CURCULATED STOPPED
 MRT .F                88:   MAXIMUM RECORDED TEMPERATURE
 ENGI.               REIN:   RECORDING ENGINEER
 WITN.            RHOADES:   WITNESSED BY
 CLNT.            A2DTECH:   CLIENT CODE
 ORIG.           5" PRINT:   ORIGIN OF DATA
 UWI .       490251082000:   UNIQUE WELL ID
 DICO. A2D Technologies, Inc.:   DIGITIZING COMPANY
~OTHER INFORMATION
~A   DEPT     CALD         GRD      CORR       RHOB       DPHI   
  750.0000  -999.2500    49.6479  -999.2500  -999.2500  -999.2500
  750.5000  -999.2500    49.6949  -999.2500  -999.2500  -999.2500
  751.0000  -999.2500    50.1356  -999.2500  -999.2500  -999.2500
  751.5000  -999.2500    50.4874  -999.2500  -999.2500  -999.2500
  752.0000  -999.2500    50.9289  -999.2500  -999.2500  -999.2500
  752.5000  -999.2500    51.3697  -999.2500  -999.2500  -999.2500
  753.0000  -999.2500    51.8112  -999.2500  -999.2500  -999.2500
  753.5000  -999.2500    52.2677  -999.2500  -999.2500  -999.2500
  754.0000  -999.2500    52.3041  -999.2500  -999.2500  -999.2500
  754.5000  -999.2500    52.2256  -999.2500  -999.2500  -999.2500
  755.0000  -999.2500    52.1415  -999.2500  -999.2500  -999.2500
  755.5000  -999.2500    52.0769  -999.2500  -999.2500  -999.2500
  756.0000  -999.2500    52.5847  -999.2500  -999.2500  -999.2500
  756.5000  -999.2500    53.1282  -999.2500  -999.2500  -999.2500
  757.0000  -999.2500    53.5458  -999.2500  -999.2500  -999.2500
  757.5000  -999.2500    53.3157  -999.2500  -999.2500  -999.2500
  758.0000  -999.2500    53.1080  -999.2500  -999.2500  -999.2500
  758.5000  -999.2500    53.5223  -999.2500  -999.2500  -999.2500
  759.0000  -999.2500    54.9523  -999.2500  -999.2500  -999.2500
  759.5000  -999.2500    56.3704  -999.2500  -999.2500  -999.2500
  760.0000  -999.2500    57.8504  -999.2500  -999.2500  -999.2500
  760.5000  -999.2500    59.4287  -999.2500  -999.2500  -999.2500
  761.0000  -999.2500    61.0037  -999.2500  -999.2500  -999.2500
  761.5000  -999.2500    62.5764  -999.2500  -999.2500  -999.2500
  762.0000  -999.2500    64.1585  -999.2500  -999.2500  -999.2500
  762.5000  -999.2500    65.9703  -999.2500  -999.2500  -999.2500
  763.0000  -999.2500    68.8150  -999.2500  -999.2500  -999.2500
  763.5000  -999.2500    71.6017  -999.2500  -999.2500  -999.2500
  764.0000  -999.2500    74.3837  -999.2500  -999.2500  -999.2500
  764.5000  -999.2500    77.1717  -999.2500  -999.2500  -999.2500
  765.0000  -999.2500    79.0385  -999.2500  -999.2500  -999.2500
  765.5000  -999.2500    79.8506  -999.2500  -999.2500  -999.2500
  766.0000  -999.2500    80.4310  -999.2500  -999.2500  -999.2500
  766.5000  -999.2500    80.9774  -999.2500  -999.2500  -999.2500
  767.0000  -999.2500    81.8186  -999.2500  -999.2500  -999.2500
  767.5000  -999.2500    83.3776  -999.2500  -999.2500  -999.2500
  768.0000  -999.2500    84.9348  -999.2500  -999.2500  -999.2500
  768.5000  -999.2500    86.4948  -999.2500  -999.2500  -999.2500
  769.0000  -999.2500    88.0543  -999.2500  -999.2500  -999.2500
  769.5000  -999.2500    89.6179  -999.2500  -999.2500  -999.2500
  770.0000     9.3731    91.1770     0.2649     2.2966     0.1634
  770.5000     9.3829    92.5587     0.1714     2.3410     0.1420
  771.0000     9.4658    91.8000     0.1447     2.3854     0.1223
  771.5000     9.6941    90.8492     0.1233     2.4211     0.0961
  772.0000    10.0583    89.8978     0.0994     2.4652     0.0632
  772.5000    10.7054    88.9422     0.1052     2.4773     0.0409
  773.0000    11.1477    88.0144     0.1094     2.4715     0.0434
  773.5000    11.1399    87.6452     0.1084     2.4697     0.0461
  774.0000    11.1609    87.0939     0.1069     2.4760     0.0439
  774.5000    11.1859    86.5339     0.1019     2.4633     0.0413
  775.0000    11.2151    85.9614     0.0994     2.4472     0.0557
  775.5000    11.2455    85.8828     0.0999     2.4413     0.0638
  776.0000    11.2701    86.4418     0.1004     2.4366     0.0668
  776.5000    11.2941    87.0250     0.1008     2.4317     0.0698
  777.0000    11.3162    87.6008     0.1014     2.4143     0.0784
  777.5000    11.3468    88.1724     0.1133     2.4097     0.0863
  778.0000    11.4363    88.5545     0.1266     2.4089     0.0830
  778.5000    11.5299    88.0922     0.1398     2.3991     0.0897
  779.0000    11.5626    87.6148     0.1582     2.4049     0.0940
  779.5000    11.6070    87.1352     0.1694     2.4257     0.0821
  780.0000    11.6535    87.1711     0.1362     2.4373     0.0753
  780.5000    11.6353    87.2877     0.0995     2.4162     0.0802
  781.0000    11.2520    87.4059     0.0956     2.4303     0.0790
  781.5000    10.9575    87.5227     0.1025     2.4419     0.0673
  782.0000    10.6655    87.6392     0.1112     2.4460     0.0631
  782.5000    10.4755    87.5833     0.0874     2.4316     0.0613
  783.0000    10.3912    87.3927     0.0859     2.4238     0.0729
  783.5000    10.3137    87.2037     0.0894     2.4390     0.0771
  784.0000    10.3066    87.0740     0.1042     2.4523     0.0561
  784.5000    10.2942    87.6389     0.1014     2.4476     0.0608
  785.0000    10.2814    88.2639     0.0828     2.4293     0.0697
  785.5000    10.2871    88.8931     0.0771     2.4105     0.0791
  786.0000    10.3792    89.1178     0.0729     2.3985     0.0885
  786.5000    10.4776    88.6376     0.0635     2.4101     0.0932
  787.0000    10.5179    88.1505     0.0854     2.4485     0.0815
  787.5000    10.5560    87.6630     0.1076     2.4663     0.0624
  788.0000    10.5293    87.1781     0.1257     2.4727     0.0444
  788.5000    10.4750    86.7567     0.1157     2.4648     0.0477
  789.0000    10.4727    86.5662     0.1002     2.4558     0.0530
  789.5000    10.4689    85.9892     0.0921     2.4487     0.0577
  790.0000    10.4649    85.3881     0.0836     2.4501     0.0604
  790.5000    10.4610    84.7504     0.0751     2.4524     0.0593
  791.0000    10.4587    85.1380     0.0685     2.4511     0.0564
  791.5000    10.3764    85.4579     0.0636     2.4493     0.0611
  792.0000    10.2866    85.7786     0.0585     2.4455     0.0593
  792.5000    10.2470    86.0965     0.0536     2.4275     0.0706
  793.0000    10.2066    86.4204     0.0476     2.4152     0.0777
  793.5000    10.1661    86.4465     0.0410     2.4118     0.0858
  794.0000    10.1259    85.8276     0.0500     2.4025     0.0826
  794.5000    10.0925    85.1880     0.0555     2.4011     0.0924
  795.0000    10.0599    85.1286     0.0653     2.4170     0.0840
  795.5000    10.0339    85.5049     0.0818     2.4408     0.0721
  796.0000    10.0454    85.3518     0.1084     2.4646     0.0577
  796.5000    10.0718    84.8747     0.1015     2.4491     0.0483
  797.0000    10.0260    84.3979     0.0912     2.4315     0.0646
  797.5000     9.9539    84.0155     0.1039     2.4304     0.0728
  798.0000     9.8836    85.1320     0.1294     2.4344     0.0709
  798.5000     9.8663    86.3743     0.1478     2.4416     0.0738
  799.0000     9.9308    87.6182     0.1607     2.4544     0.0611
  799.5000     9.9756    88.8704     0.1841     2.4810     0.0556
  800.0000     9.9456    89.7233     0.1972     2.4877     0.0476
  800.5000     9.9138    89.3349     0.1659     2.4904     0.0374
  801.0000     9.8822    88.6951     0.1450     2.5065     0.0276
  801.5000     9.8483    88.0477     0.1520     2.5163     0.0191
  802.0000     9.8335    87.4004     0.1610     2.5108     0.0146
  802.5000     9.8329    87.0059     0.1607     2.5042     0.0226
  803.0000     9.8330    86.7298     0.1572     2.5051     0.0260
  803.5000     9.8330    86.4632     0.1516     2.5002     0.0221
  804.0000     9.8330    86.1979     0.1434     2.4824     0.0280
  804.5000     9.8330    85.9320     0.1286     2.4658     0.0482
  805.0000     9.8333    85.6663     0.1178     2.4564     0.0551
  805.5000     9.8499    85.4002     0.1071     2.4456     0.0568
  806.0000     9.8856    85.2567     0.0964     2.4349     0.0570
  806.5000     9.9210    85.4281     0.1013     2.4451     0.0625
  807.0000     9.9532    85.5819     0.1098     2.4450     0.0609
  807.5000     9.9453    85.0026     0.1190     2.4451     0.0630
  808.0000     9.9269    84.3570     0.1338     2.4556     0.0587
  808.5000     9.9135    83.7089     0.1234     2.4532     0.0528
  809.0000     9.8950    83.0527     0.1319     2.4513     0.0616
  809.5000     9.8679    82.8760     0.1462     2.4636     0.0563
  810.0000     9.8406    83.4569     0.1462     2.4579     0.0476
  810.5000     9.8134    84.0387     0.1461     2.4711     0.0439
