~VERSION INFORMATION
 VERS.                2.0:   CWLS LOG ASCII STANDARD - VERSION 2.0
 WRAP.                 NO:   ONE LINE PER DEPTH STEP
~WELL INFORMATION
#MNEM.UNIT      DATA TYPE    INFORMATION
#----------   ------------   ------------------------------
 STRT.F           12.0000:   START DEPTH
 STOP.F          551.0000:   STOP DEPTH
 STEP.F            0.5000:   STEP LENGTH
 NULL.          -999.2500:   NO VALUE
 COMP. LAWRENCE-ALLISON &AS:   COMPANY
 WELL. NPR 3 #58-46SX3LP4:   WELL
 FLD .             TEAPOT:   FIELD
 LOC .       S3 T38N R78W:   LOCATION
 CNTY.            NATRONA:   COUNTY
 STAT.            WYOMING:   STATE
 CTRY. UNITED STATES OF AMERICA:   COUNTRY
 SRVC.      Dresser Atlas:   SERVICE COMPANY
 DATE.        14-DEC-1984:   LOGDATE
 API .       490251099900:   API NUMBER
~CURVE INFORMATION
#MNEM.UNIT       API CODE    CURVE DESCRIPTION
#----------   ------------   ------------------------------
 DEPT.F                  :   
 RD  .OHMM   11 220 10 00:   RESISTIVITY DEEP
 RS  .OHMM   11 220 09 00:   RESISTIVITY SHALLOW
 SPR .MV     11 010 01 00:   SPONTANEOUS POTENTIAL FROM RES.
 AC  .US/F   60 520 00 00:   ACOUSTIC SONIC
 CALD.IN     45 280 60 00:   CALIPER FROM DENSITY
 CORR.G/C3   45 356 01 00:   DENSITY CORRECTION
 DEN .G/C3   45 350 01 00:   COMPENSATED BULK DENSTIY
 GRD .GAPI   45 310 01 00:   GAMMA RAY FROM DENSITY LOG
 PORD.DEC    45 890 12 00:   POROSITY DENSITY SANDSTONE
 CNC .DEC    42 890 03 00:   NEUTRON POROSITY SANDSTONE
~PARAMETER INFORMATION
#MNEM.UNIT          VALUE    DESCRIPTION
#----------   ------------   ------------------------------
 PD  .                 GL:   PERMANENT DATUM
 EPD .F              5201:   ELEVATION PERMANENT DATUM
 LMF .                 GL:   LOG MEASURED FROM
 DMF .                 GL:   DRILLING MEASURED FROM
 EGL .F              5201:   GROUND LEVEL
 DATE.        14-DEC-1984:   RUN DATE
 RUN .                  1:   RUN NUMBER
 DD  .F               552:   DEPTH DRILLER
 DL  .F               552:   DEPTH LOGGER
 BLI .F               550:   BOTTOM LOG INTERVAL
 TLI .F                20:   TOP LOG INTERVAL
 CS  .IN            8.625:   CASING SIZE
 CBD .F                20:   CASING BOTTOM DRILLER
 CBL .F                20:   CASING BOTTOM LOGGER
 BS  .IN            7.875:   BIT SIZE
 BSD .F               552:   BIT SIZE AT DEPTH
 DFT .          KCL WATER:   DRILLING FLUID TYPE
 MSS .            MUDTANK:   MUD SAMPLE SOURCE
 RMS .OHMM          0.152:   RESISTIVITY MUD SAMPLE
 MST .F                76:   MUD SAMPLE TEMPERATURE
 RMF .OHMM           0.11:   RESISTIVITY MUD FILTRATE SAMPLE
 MFST.F                76:   MUD FILTRATE SAMPLE TEMPERATURE
 RMC .OHMM           0.19:   RESISTIVITY MUD CAKE
 MCST.F                76:   MUD CAKE SAMPLE TEMPERATURE
 MFSS.               CALC:   MUD FILTRATE SAMPLE SOURCE
 MCSS.               CALC:   MUD CAKE SAMPLE SOURCE
 TCS .HRS               5:   TIME CURCULATED STOPPED
 MRT .F               100:   MAXIMUM RECORDED TEMPERATURE
 LUN .               6270:   LOGGING UNIT NUMBER
 ENGI.            LEBSOCK:   RECORDING ENGINEER
 WITN.        GREG GROOMS:   WITNESSED BY
 CLNT.            A2DTECH:   CLIENT CODE
 ORIG.           5" PRINT:   ORIGIN OF DATA
 UWI .       490251099900:   UNIQUE WELL ID
 DICO. A2D Technologies, Inc.:   DIGITIZING COMPANY
~OTHER INFORMATION
~A   DEPT       RD         RS        SPR         AC       CALD       CORR        DEN        GRD       PORD          CNC 
# ...
  146.0000    16.6957    10.2447   -70.7174   105.5627     7.7293     0.0367     2.4625    97.9554     0.1242     0.2857
  146.5000    16.5876    10.0472   -70.4088   105.9324     7.7293     0.0291     2.4565    95.3897     0.1268     0.2994
  147.0000    16.2563     9.9094   -70.1001   106.4523     7.7143     0.0276     2.4541    94.3297     0.1309     0.3030
  147.5000    15.7152     9.5744   -70.0882   107.1224     7.6992     0.0366     2.4534    94.7734     0.1327     0.3024
  148.0000    14.8783     8.8765   -69.9309   108.3185     7.6992     0.0531     2.4526    96.8712     0.1342     0.2809
  148.5000    13.9891     8.1223   -70.0674   110.1157     7.6992     0.0591     2.4472    96.1119     0.1354     0.2785
  149.0000    13.2441     7.7994   -70.0525   110.1097     7.6992     0.0545     2.4396    93.9992     0.1391     0.2849
  149.5000    12.7134     7.6449   -70.0406   109.8031     7.6992     0.0333     2.4245    93.5406     0.1476     0.2982
  150.0000    13.1307     7.8095   -70.1800   108.5950     7.6992     0.0196     2.4163    93.8358     0.1558     0.3106
  150.5000    14.2162     8.6171   -70.1662   107.3827     7.6992     0.0378     2.4131    93.8301     0.1564     0.3208
  151.0000    15.2426     9.3129   -70.3029   106.4783     7.6992     0.0468     2.4312    98.8581     0.1537     0.2933
  151.5000    15.6794     9.6277   -70.4395   106.0962     7.6980     0.0464     2.4546   102.8541     0.1346     0.2882
  152.0000    16.1287     9.7678   -70.7245   105.7841     7.6842     0.0324     2.4652   102.9896     0.1258     0.2970
  152.5000    16.4767     9.8429   -71.0095   105.5635     7.6842     0.0254     2.4637   101.7293     0.1270     0.3033
  153.0000    16.6012     9.8490   -71.1461   105.6409     7.6992     0.0253     2.4463   100.2105     0.1364     0.3075
  153.5000    16.6114     9.9923   -71.2827   105.9462     7.6992     0.0247     2.4440    97.7649     0.1382     0.2749
  154.0000    16.7369    10.0678   -71.4193   106.4593     7.6992     0.0262     2.4470    94.8330     0.1376     0.2689
  154.5000    16.7472    10.0740   -71.5530   106.5945     7.6842     0.0141     2.4470    93.3431     0.1377     0.2821
  155.0000    16.6422    10.0802   -71.6926   106.4262     7.6842    -0.0011     2.4394    95.5931     0.1406     0.2909
  155.5000    16.4239    10.0153   -72.1230   106.1330     7.6992    -0.0041     2.4334    96.3416     0.1432     0.2957
  156.0000    16.2085     9.9524   -72.5563   106.0515     7.6842     0.0321     2.4424    96.6368     0.1416     0.3018
  156.5000    16.1068     9.8899   -72.8413   106.1966     7.6992     0.0411     2.4439    97.6849     0.1392     0.3160
  157.0000    15.9914     9.8278   -72.9809   106.6421     7.6992     0.0184     2.4409    98.7331     0.1429     0.3274
  157.5000    15.6695     9.6320   -72.3727   107.0125     7.6992     0.0063     2.4333    99.4805     0.1486     0.3268
  158.0000    15.1661     9.4415   -71.9159   107.4581     7.6992     0.0048     2.4189   100.0775     0.1532     0.3126
  158.5000    14.8641     9.2534   -71.7557   107.9036     7.6842     0.0229     2.4159    99.4715     0.1541     0.2921
  159.0000    14.5682     9.1317   -71.5956   108.2741     7.6842     0.0198     2.4242    98.2640     0.1538     0.2897
  159.5000    14.3771     9.0120   -71.4355   108.6445     7.6842     0.0122     2.4257    97.9588     0.1517     0.2939
  160.0000    14.0887     8.8937   -71.2754   109.0900     7.6992     0.0032     2.4257    98.2562     0.1505     0.3069
  160.5000    13.6207     8.7165   -71.1153   109.9112     7.6992    -0.0165     2.4257    97.6491     0.1505     0.3111
  161.0000    12.9856     8.4224   -70.9551   111.1832     7.6842    -0.0165     2.4256    96.7423     0.1502     0.3075
  161.5000    11.6337     7.7477   -70.6467   113.9579     7.6692    -0.0045     2.4256    95.5348     0.1502     0.2939
  162.0000     9.7267     6.7806   -70.3382   116.2066     7.6692     0.0227     2.4241    93.7258     0.1502     0.2972
  162.5000     9.0816     6.1273   -70.1780   116.0511     7.6842     0.0332     2.4045    92.5183     0.1539     0.3184
  163.0000     9.1516     5.9362   -70.1662   114.3929     7.6842     0.0422     2.3755    92.3646     0.1675     0.3344
  163.5000     9.6110     6.1497   -70.1543   112.0586     7.6842     0.0467     2.3629    98.6748     0.1830     0.3401
  164.0000    11.0421     6.9691   -70.1424   109.9497     7.6992     0.0376     2.3798    99.8744     0.1845     0.3404
  164.5000    12.7743     8.1192   -70.1306   108.8175     7.6992     0.0466     2.4201    98.3651     0.1661     0.3174
  165.0000    13.6022     8.8270   -70.1163   107.9107     7.6992     0.0466     2.4550    94.6012     0.1416     0.2773
  165.5000    14.1867     9.2705   -70.1046   107.0039     7.6992     0.0496     2.4710    92.4914     0.1310     0.2884
  166.0000    14.2939     9.6025   -70.0928   105.6463     7.6992     0.0481     2.4716    93.0884     0.1250     0.3023
  166.5000    14.3027     9.9464   -70.0811   105.3405     7.6992     0.0405     2.4700    94.7381     0.1233     0.3065
  167.0000    14.3116    10.0911   -70.0693   105.4855     7.6992     0.0224     2.4693    96.9892     0.1233     0.2883
  167.5000    14.5197    10.1674   -70.0576   105.7808     7.6992     0.0223     2.4693   100.2930     0.1237     0.2797
  168.0000    14.7308    10.1737   -70.0458   106.0010     7.6992     0.0389     2.4640   102.3938     0.1252     0.2825
  168.5000    14.9450    10.1799   -69.8857   105.9957     7.7143     0.0404     2.4556   104.1938     0.1300     0.3044
  169.0000    15.1623    10.1862   -69.8740   105.6900     7.7293     0.0433     2.4541   104.4902     0.1322     0.3053
  169.5000    15.4894    10.2632   -69.7138   105.0837     7.7293     0.0343     2.4541   104.4722     0.1325     0.3002
  170.0000    15.9333    10.4125   -69.5537   104.6277     7.7293     0.0341     2.4503   105.9849     0.1325     0.2999
  170.5000    15.9432    10.7111   -69.5420   104.5473     7.7293     0.0402     2.4458   105.8300     0.1340     0.2896
  171.0000    15.9529    10.7177   -69.3818   104.6923     7.7293     0.0478     2.4578   105.2240     0.1340     0.2823
  171.5000    15.7331    10.7243   -69.3701   104.8373     7.7293     0.0492     2.4601   104.7679     0.1325     0.2799
  172.0000    15.7683    10.7310   -69.3583   104.9837     7.7267     0.0280     2.4555   105.2271     0.1304     0.2781
  172.5000    15.9829    10.8947   -69.4979   104.8269     7.6992     0.0219     2.4525   107.1655     0.1322     0.2666
  173.0000    16.2174    11.2109   -69.6320   104.0703     7.6992     0.0113     2.4495   106.2035     0.1371     0.2693
  173.5000    16.5673    11.3639   -69.7685   103.5392     7.6992     0.0084     2.4449   102.5143     0.1407     0.2796
  174.0000    16.9247    11.4498   -69.9050   103.4588     7.6992     0.0082     2.4389    99.7474     0.1432     0.2866
  174.5000    17.2898    11.3779   -70.0415   103.5289     7.6992     0.0036     2.4358    99.3280     0.1447     0.2941
  175.0000    17.5412    11.3849   -70.3264   103.4483     7.6992    -0.0025     2.4343    99.7995     0.1453     0.2983
  175.5000    17.7963    11.3117   -70.6114   103.1426     7.6992    -0.0083     2.4343   100.6647     0.1447     0.3038
  176.0000    17.8073    11.4780   -70.9080   102.6865     7.6992    -0.0008     2.4365   103.3736     0.1435     0.3062
  176.5000    17.9418    11.5648   -71.1814   102.6062     7.6992     0.0248     2.4433   103.5206     0.1416     0.3050
  177.0000    18.0773    11.5719   -71.4896   102.8263     7.6992     0.0383     2.4516   101.1089     0.1385     0.2769
  177.5000    17.9612    11.3413   -71.8968   103.4973     7.6992     0.0383     2.4599    98.8488     0.1332     0.2748
  178.0000    17.6063    11.2683   -72.4785   104.3185     7.6992     0.0277     2.4614   101.8519     0.1299     0.2745
  178.5000    17.4931    11.0455   -72.9118   104.3884     7.6992     0.0217     2.4584   103.6519     0.1293     0.2797
  179.0000    17.2664    10.9005   -73.4936   104.0075     7.6992     0.0231     2.4576   103.3466     0.1302     0.2889
