~VERSION INFORMATION
 VERS.                2.0:   CWLS LOG ASCII STANDARD - VERSION 2.0
 WRAP.                 NO:   ONE LINE PER DEPTH STEP
~WELL INFORMATION
#MNEM.UNIT      DATA TYPE    INFORMATION
#----------   ------------   ------------------------------
 STRT.F           30.0000:   START DEPTH
 STOP.F          597.0000:   STOP DEPTH
 STEP.F            0.5000:   STEP LENGTH
 NULL.          -999.2500:   NO VALUE
 COMP. FENIX & SCISSON-U.S. NAVY:   COMPANY
 WELL.    NPR #3 #15-S-11:   WELL
 FLD .             TEAPOT:   FIELD
 LOC .      S11 T38N R78W:   LOCATION
 CNTY.            NATRONA:   COUNTY
 STAT.            WYOMING:   STATE
 CTRY. UNITED STATES OF AMERICA:   COUNTRY
 SRVC.       Schlumberger:   SERVICE COMPANY
 DATE.        22-FEB-1977:   LOGDATE
 API .       490251028000:   API NUMBER
~CURVE INFORMATION
#MNEM.UNIT       API CODE    CURVE DESCRIPTION
#----------   ------------   ------------------------------
 DEPT.F                  :   
 SPR .MV     07 010 01 00:   SPONTANEOUS POTENTIAL
 ILD .OHMM   07 120 46 00:   INDUCTION LOG DEEP RES
 ILM .OHMM   07 120 44 00:   INDUCTION LOG MEDIUM RES
 LL8 .OHMM   07 220 08 00:   LATEROLOG-8 RES
 CALD.IN     45 280 60 00:   CALIPER FROM DENSITY LOG
 GRD .GAPI   45 310 01 00:   GAMMA RAY FROM DENSITY LOG
 CORR.G/C3   45 356 01 00:   DENSITY CORRECTION
 RHOB.G/C3   45 350 01 00:   BULK DENSITY
 DPHI.DEC    45 890 12 00:   DENSITY POROSITY SANDSTONE
~PARAMETER INFORMATION
#MNEM.UNIT          VALUE    DESCRIPTION
#----------   ------------   ------------------------------
 PD  .                 GL:   PERMANENT DATUM
 EPD .F              5188:   ELEVATION PERMANENT DATUM
 LMF .                 KB:   LOG MEASURED FROM
 DAPD.F                 5:   FEET ABOVE PERMANENT DATUM
 DMF .                 KB:   DRILLING MEASURED FROM
 EKB .F              5193:   KELLING BUSHING
 EGL .F              5188:   GROUND LEVEL
 DATE.         22FEB-1977:   RUN DATE
 RUN .                  1:   RUN NUMBER
 DD  .F               598:   DEPTH DRILLER
 DL  .F               598:   DEPTH LOGGER
 BLI .F               597:   BOTTOM LOG INTERVAL
 TLI .F                35:   TOP LOG INTERVAL
 CS  .IN            8.625:   CASING SIZE
 CBD .F                42:   CASING BOTTOM DRILLER
 CBL .F                45:   CASING BOTTOM LOGGER
 BS  .IN            7.875:   BIT SIZE
 BSD .F               598:   BIT SIZE AT DEPTH
 DFT .                KCL:   DRILLING FLUID TYPE
 DFD .                8.7:   DRILLING FLUID DENSITY
 DFV .                 31:   DRILLING FLUID VISCOSITY
 DFPH.                  8:   DRILLING FLUID PH
 DFL .                7.2:   DRILLING FLUID LOSS
 MSS .           MUD TANK:   MUD SAMPLE SOURCE
 RMS .OHMM           .526:   RESISTIVITY MUD SAMPLE
 MST .F                70:   MUD SAMPLE TEMPERATURE
 RMF .OHMM           .515:   RESISTIVITY MUD FILTRATE SAMPLE
 MFST.F                71:   MUD FILTRATE SAMPLE TEMPERATURE
 RMC .OHMM            .77:   RESISTIVITY MUD CAKE
 MCST.F                70:   MUD CAKE SAMPLE TEMPERATURE
 MFSS.               MEAS:   MUD FILTRATE SAMPLE SOURCE
 MCSS.               CALC:   MUD CAKE SAMPLE SOURCE
 RMB .OHMM            .67:   RESISTIVITY MUD AT BHT
 BHT .F                55:   BOTTOM HOLE TEMPERATURE
 TCS .HRS            0600:   TIME CURCULATED STOPPED
 MRT .F                55:   MAXIMUM RECORDED TEMPERATURE
 LUN .               5642:   LOGGING UNIT NUMBER
 LUL .               CSPR:   LOGGING UNIT LOCATION
 ENGI.                FIX:   RECORDING ENGINEER
 WITN.         STUEBINGER:   WITNESSED BY
 CLNT.            A2DTECH:   CLIENT CODE
 ORIG.           5" PRINT:   ORIGIN OF DATA
 UWI .       490251028000:   UNIQUE WELL ID
 DICO. A2D Technologies, Inc.:   DIGITIZING COMPANY
~OTHER INFORMATION
~A   DEPT      SPR        ILD        ILM        LL8       CALD         GRD      CORR       RHOB       DPHI   
# ...
  395.0000   -25.1051    22.3762    28.1110    23.0734     8.0822    82.1780     0.0186     2.4086     0.1498
  395.5000   -25.1021    22.5397    30.1345    24.9010     8.0683    80.3866     0.0164     2.4116     0.1356
  396.0000   -25.4214    23.0205    32.0811    31.0665     8.0544    79.9440     0.0036     2.4613     0.1148
  396.5000   -26.0480    23.1886    32.9927    36.9298     8.0405    80.8579     0.0044     2.4824     0.1010
  397.0000   -26.7737    23.1971    31.6634    36.1830     8.0266    80.4179     0.0090     2.4890     0.0995
  397.5000   -27.6421    23.0435    30.1782    30.8789     8.0446    77.7256     0.0164     2.4435     0.1190
  398.0000   -27.7900    22.7353    29.5693    27.8488     8.0736    77.3994     0.0095     2.4198     0.1449
  398.5000   -27.6361    22.5868    29.5801    26.3598     8.0897    78.6474     0.0045     2.3846     0.1582
  399.0000   -27.3328    22.2847    30.2110    25.4725     8.1057    76.7059     0.0030     2.3937     0.1607
  399.5000   -26.7292    21.9866    30.0137    26.3747     8.1068    75.2148     0.0090     2.3974     0.1536
  400.0000   -26.2758    21.9946    29.6123    27.7463     8.1075    73.8172     0.0270     2.3793     0.1569
  400.5000   -26.2728    21.9700    29.4781    28.4673     8.0997    73.1306     0.0233     2.3419     0.1798
  401.0000   -26.7203    22.1130    29.1548    28.2541     8.0926    80.1990     0.0128     2.3193     0.2003
  401.5000   -27.0183    22.5895    29.3576    27.4604     8.0854    83.2110     0.0105     2.3216     0.2051
  402.0000   -26.8644    23.0838    30.3909    26.0031     8.0782    81.8687     0.0068     2.3164     0.2015
  402.5000   -26.2609    23.7215    31.4605    26.0793     8.0711    79.3252     0.0030     2.2983     0.2153
  403.0000   -25.6573    24.2248    32.3434    28.7037     8.0700    77.8304     0.0023     2.3111     0.2171
  403.5000   -25.2038    24.7108    33.0219    28.4251     8.0712    78.4423     0.0031     2.3307     0.1957
  404.0000   -24.6002    25.0894    33.2517    27.5083     8.0724    77.4003     0.0083     2.3352     0.1897
  404.5000   -24.4471    25.2335    33.4830    28.5679     8.0736    74.8567     0.0166     2.3217     0.2017
  405.0000   -24.2940    25.2357    33.7159    29.9629     8.0748    74.1128     0.0233     2.3097     0.2089
  405.5000   -24.4419    24.8913    33.4841    31.1620     8.0760    75.9258     0.0068     2.3150     0.2110
  406.0000   -24.5883    24.8934    33.0249    27.5253     8.0772    78.6376     0.0001     2.3390     0.1981
  406.5000   -25.0358    24.2164    31.9031    26.0499     8.0784    80.7487     0.0016     2.3443     0.1869
  407.0000   -25.3331    23.5578    30.3963    25.6955     8.0796    81.6586     0.0046     2.3458     0.1848
  407.5000   -25.6311    22.9167    28.9606    25.8782     8.0808    82.4184     0.0129     2.3518     0.1824
  408.0000   -26.0779    22.1403    27.5927    25.8819     8.0820    85.2803     0.0106     2.3594     0.1794
  408.5000   -26.2258    21.2424    26.2894    25.7063     8.0832    88.4425     0.0091     2.3729     0.1745
  409.0000   -26.5231    20.5223    25.0476    24.8386     8.0844    89.5003     0.0136     2.3947     0.1634
  409.5000   -26.5194    20.1027    24.0301    23.3455     8.0707    85.1572     0.0182     2.4030     0.1510
  410.0000   -26.3662    19.6917    23.3750    21.6412     8.0719    84.1129     0.0069     2.3902     0.1564
  410.5000   -26.2131    19.0241    22.8955    20.7661     8.0731    84.1242     0.0017     2.3767     0.1646
  411.0000   -26.2101    18.5068    22.5815    20.3426     8.0743    84.2834     0.0009     2.3685     0.1704
  411.5000   -26.0570    18.1280    22.2717    20.3462     8.0904    85.7939     0.0137     2.3715     0.1706
  412.0000   -25.7537    17.8806    22.1106    20.3492     8.0916    88.8059     0.0182     2.3632     0.1719
  412.5000   -25.6005    17.7589    22.1190    20.2121     8.1078    87.7639     0.0107     2.3550     0.1774
  413.0000   -25.2973    17.7608    22.2729    19.5291     8.1239    86.4193     0.0077     2.3565     0.1814
  413.5000   -24.9940    17.7623    22.5835    18.9999     8.1251    86.7309     0.0130     2.3490     0.1790
  414.0000   -24.8408    17.7639    22.7406    19.1343     8.1263    86.4396     0.0137     2.3375     0.1904
  414.5000   -24.6861    17.8887    23.0577    19.6729     8.1275    84.6446     0.0100     2.3340     0.1931
  415.0000   -24.5346    18.2652    23.2181    20.0876     8.1286    85.8571     0.0085     2.3359     0.1931
  415.5000   -24.9904    18.6497    23.2186    20.3698     8.1298    90.0703     0.0070     2.3440     0.1877
  416.0000   -25.5796    18.9110    23.2190    20.5139     8.1310    93.8331     0.0054     2.3516     0.1819
  416.5000   -26.0271    19.0439    23.2194    20.3757     8.1322    94.2925     0.0016     2.3596     0.1762
  417.0000   -26.1743    19.0455    23.2198    20.2385     8.1334    94.4495    -0.0028     2.3487     0.1786
  417.5000   -26.1712    19.0472    23.2202    19.8264     8.1346    92.3586    -0.0065     2.3354     0.1943
  418.0000   -26.1682    19.1810    23.2206    19.8293     8.1358    90.5659    -0.0011     2.3396     0.1924
  418.5000   -25.8643    19.1826    23.2210    19.8322     8.1370    91.9262     0.0085     2.3539     0.1834
  419.0000   -25.7111    19.1843    23.3825    19.8351     8.1230    94.3377     0.0130     2.3612     0.1771
  419.5000   -25.5580    18.9225    23.3830    19.7014     8.1245    94.4946     0.0033     2.3454     0.1813
  420.0000   -25.5550    18.9241    23.2222    19.4341     8.1105    92.8542    -0.0027     2.3477     0.1852
  420.5000   -25.4019    18.7953    22.7459    19.1681     8.1120    91.5119     0.0026     2.3507     0.1858
  421.0000   -25.0986    18.5388    22.1258    18.7801     8.0833    90.0171     0.0056     2.3477     0.1821
  421.5000   -24.9455    18.2857    21.5226    18.7828     8.0845    92.7311     0.0063     2.3432     0.1873
  422.0000   -24.6422    17.9119    20.6483    19.0555     8.0707    94.2417     0.0093     2.3440     0.1891
  422.5000   -24.3389    17.6614    19.8095    19.5943     8.0567    95.4519     0.0146     2.3553     0.1845
  423.0000   -24.3359    17.4175    19.1367    20.0096     8.0429    94.8603     0.0274     2.3606     0.1743
  423.5000   -24.0326    17.0587    18.7440    20.4172     8.0444    90.2147     0.0484     2.3764     0.1577
  424.0000   -23.8795    16.8370    18.4869    20.4201     8.0456    90.2237     0.0439     2.3983     0.1496
  424.5000   -24.1768    16.4927    18.3599    20.1222     8.0618    90.9835     0.0304     2.3779     0.1652
  425.0000   -24.4741    16.2676    18.3603    19.5747     8.0630    93.2448     0.0289     2.3719     0.1709
  425.5000   -24.9216    16.0456    18.6163    18.9112     8.0642    96.4069     0.0289     2.3652     0.1724
  426.0000   -24.9186    16.0473    19.0068    18.0448     8.0803    97.4670     0.0117     2.3590     0.1751
  426.5000   -25.0665    16.2722    19.2718    17.4350     8.0815    96.8754     0.0064     2.3765     0.1793
  427.0000   -25.3631    16.3865    19.6761    16.9625     8.0977    93.8814     0.0147     2.3697     0.1673
  427.5000   -25.5102    16.5016    19.9505    16.8476     8.0989    91.3357     0.0162     2.3570     0.1763
  428.0000   -25.5072    16.6176    20.3690    17.4426     8.1150    92.6983     0.0139     2.3472     0.1862
  428.5000   -25.5043    16.6190    20.5107    18.8216     8.1160    90.6052     0.0094     2.3397     0.1926
  429.0000   -25.5013    16.6205    20.3697    19.3507     8.1172    88.3620     0.0027     2.3337     0.1953
  429.5000   -25.4983    16.5074    20.2297    18.4411     8.1183    86.7171     0.0019     2.3585     0.1841
  430.0000   -25.4953    16.5088    19.9339    17.9414     8.1195    89.1308     0.0050     2.3638     0.1766
  430.5000   -25.4923    16.5102    19.6563    17.6973     8.1207    90.4912     0.0057     2.3653     0.1751
  431.0000   -25.3392    16.3979    19.3828    17.7005     8.1070    90.8005     0.0035     2.3661     0.1711
