~VERSION INFORMATION
 VERS.                2.0:   CWLS LOG ASCII STANDARD - VERSION 2.0
 WRAP.                 NO:   ONE LINE PER DEPTH STEP
~WELL INFORMATION
#MNEM.UNIT      DATA TYPE    INFORMATION
#----------   ------------   ------------------------------
 STRT.F           32.0000:   START DEPTH
 STOP.F          738.0000:   STOP DEPTH
 STEP.F            0.5000:   STEP LENGTH
 NULL.          -999.2500:   NO VALUE
 COMP. FENIX & SCISSON INC:   COMPANY
 WELL.       NPR-3 #43-34:   WELL
 FLD .             TEAPOT:   FIELD
 LOC .      S34 T39N R78W:   LOCATION
 CNTY.            NATRONA:   COUNTY
 STAT.            WYOMING:   STATE
 CTRY. UNITED STATES OF AMERICA:   COUNTRY
 SRVC.            Unknown:   SERVICE COMPANY
 DATE.        26-AUG-1978:   LOGDATE
 API .       490251069900:   API NUMBER
~CURVE INFORMATION
#MNEM.UNIT       API CODE    CURVE DESCRIPTION
#----------   ------------   ------------------------------
 DEPT.F                  :   
 GRD .GAPI   45 310 01 00:   GAMMA RAY FROM DENSITY LOG
 CALD.IN     45 280 60 00:   CALIPER
 RHOB.G/C3   45 350 01 00:   BULK DENSITY
 DPHI.DEC    45 890 12 00:   DENSITY POROSITY SANDSTONE
 CORR.G/C3   45 356 01 00:   DENSITY CORRECTION
 SPR .MV     05 010 01 00:   SPONTANEOUS POTENTIAL FROM RES.
 SN  .OHMM   05 040 16 00:   SHORT NORMAL 16"
 ILD .OHMM   05 120 46 00:   INDUCTION LOG DEEP
~PARAMETER INFORMATION
#MNEM.UNIT          VALUE    DESCRIPTION
#----------   ------------   ------------------------------
 PD  .                 GL:   PERMANENT DATUM
 EPD .F              5110:   ELEVATION PERMANENT DATUM
 LMF .                 KB:   LOG MEASURED FROM
 DAPD.F                 4:   FEET ABOVE PERMANENT DATUM
 DMF .                 KB:   DRILLING MEASURED FROM
 EKB .F              5114:   KELLING BUSHING
 EGL .F              5110:   GROUND LEVEL
 DATE.            8-26-78:   RUN DATE
 RUN .                  1:   RUN NUMBER
 DD  .F               748:   DEPTH DRILLER
 DL  .F               738:   DEPTH LOGGER
 BLI .F               732:   BOTTOM LOG INTERVAL
 TLI .F                40:   TOP LOG INTERVAL
 CS  .IN            8.625:   CASING SIZE
 CBD .F                40:   CASING BOTTOM DRILLER
 CBL .F                40:   CASING BOTTOM LOGGER
 BS  .IN            7.875:   BIT SIZE
 BSD .F               748:   BIT SIZE AT DEPTH
 DFT .                KCL:   DRILLING FLUID TYPE
 DFD .                8.7:   DRILLING FLUID DENSITY
 DFV .                 33:   DRILLING FLUID VISCOSITY
 DFPH.                  9:   DRILLING FLUID PH
 DFL .                 10:   DRILLING FLUID LOSS
 MSS .          FLOW LINE:   MUD SAMPLE SOURCE
 RMS .OHMM            .36:   RESISTIVITY MUD SAMPLE
 MST .F                80:   MUD SAMPLE TEMPERATURE
 RMF .OHMM             .3:   RESISTIVITY MUD FILTRATE SAMPLE
 MFST.F                80:   MUD FILTRATE SAMPLE TEMPERATURE
 RMC .OHMM            .48:   RESISTIVITY MUD CAKE
 MCST.F                82:   MUD CAKE SAMPLE TEMPERATURE
 MFSS.               MEAS:   MUD FILTRATE SAMPLE SOURCE
 MCSS.               MEAS:   MUD CAKE SAMPLE SOURCE
 TCS .HRS               2:   TIME CURCULATED STOPPED
 LUN .               2958:   LOGGING UNIT NUMBER
 LUL .               CASP:   LOGGING UNIT LOCATION
 ENGI.             MILLER:   RECORDING ENGINEER
 WITN.              AMEND:   WITNESSED BY
 CLNT.            A2DTECH:   CLIENT CODE
 ORIG.           5" PRINT:   ORIGIN OF DATA
 UWI .       490251069900:   UNIQUE WELL ID
 DICO. A2D Technologies, Inc.:   DIGITIZING COMPANY
~OTHER INFORMATION
~A   DEPT       GRD      CALD       RHOB       DPHI       CORR        SPR         SN        ILD   
# ...
  275.0000   104.6812     7.3089     2.4629     0.1216     0.0534   -34.6485     9.8547     9.2265
  275.5000   103.1655     7.3049     2.4801     0.1052     0.0679   -35.0923     9.6308     9.2549
  276.0000   101.6532     7.3009     2.4971     0.0887     0.0825   -35.2975     9.7332     9.2832
  276.5000   100.7918     7.2969     2.5217     0.0732     0.0971   -35.4878     9.8360     9.3114
  277.0000    98.0184     7.2929     2.5545     0.0790     0.1055   -35.6785     9.9399     9.3796
  277.5000    95.3508     7.2889     2.5612     0.0882     0.0842   -35.8719    10.0838     9.4483
  278.0000    92.7017     7.2849     2.5393     0.0933     0.0612   -35.9397    10.0698     9.5176
  278.5000    90.0882     7.2809     2.5264     0.0944     0.0381   -35.9408    10.0478     9.5427
  279.0000    88.3710     7.2769     2.5225     0.1132     0.0292   -35.9407    10.0256     9.4407
  279.5000    92.2667     7.2729     2.5116     0.1186     0.0259   -35.9406    10.0047     9.3814
  280.0000    95.7360     7.2689     2.4885     0.1276     0.0235   -35.9406     9.9214     9.3224
  280.5000    96.6014     7.2650     2.4713     0.1280     0.0238   -35.9406     9.7697     9.2638
  281.0000    95.7729     7.2607     2.4727     0.1225     0.0250   -35.9406     9.6202     9.2056
  281.5000    94.4842     7.2554     2.4829     0.1158     0.0263   -35.9404     9.4731     9.1478
  282.0000    93.2052     7.2814     2.4983     0.1104     0.0275   -35.9387     9.3636     9.0903
  282.5000    93.4468     7.2930     2.4932     0.1203     0.0260   -35.9533     9.3448     9.0331
  283.0000    97.7802     7.3041     2.4818     0.1325     0.0236   -35.7298     9.3260     8.9764
  283.5000   102.3437     7.3151     2.4705     0.1344     0.0213   -35.7445     9.3073     8.9480
  284.0000   102.8779     7.3161     2.4619     0.1344     0.0280   -35.7427     9.2827     8.9480
  284.5000   100.9214     7.3135     2.4628     0.1234     0.0417   -35.7423     9.2820     8.9480
  285.0000   101.5598     7.3110     2.4796     0.1119     0.0553   -35.7427     9.1982     8.9480
  285.5000   102.6822     7.3085     2.4958     0.1004     0.0691   -35.7419     9.2158     8.9480
  286.0000   103.5800     7.3060     2.5118     0.0940     0.0721   -35.9527     9.2495     8.9480
  286.5000   103.8233     7.3036     2.5239     0.0990     0.0674   -36.3561     9.2833     8.9480
  287.0000   102.2714     7.3011     2.5184     0.1000     0.0445   -36.5446     9.3173     8.9481
  287.5000   100.5696     7.2987     2.5136     0.0900     0.0375   -36.3721     9.3513     8.9470
  288.0000    99.1751     7.2936     2.5270     0.0845     0.0374   -36.4196     9.3855     8.9806
  288.5000   100.8542     7.2757     2.5358     0.0888     0.0376   -36.4699     9.4199     9.0402
  289.0000   103.3937     7.2579     2.5283     0.1056     0.0320   -36.5246     9.4554     9.1007
  289.5000   103.9610     7.2401     2.5147     0.1168     0.0258   -36.5121     9.3652     9.1141
  290.0000   104.1566     7.2224     2.5011     0.1172     0.0196   -36.4830     9.3435     9.1028
  290.5000   102.8186     7.2046     2.4912     0.1068     0.0173   -36.4536     9.3220     9.0728
  291.0000   101.5077     7.1868     2.4898     0.1001     0.0177   -36.4242     9.3004     9.0428
  291.5000   100.5128     7.1687     2.4997     0.1004     0.0192   -36.3949     9.2789     9.0130
  292.0000   102.0942     7.1541     2.5132     0.1066     0.0206   -36.3655     9.2576     8.9833
  292.5000   103.8796     7.1803     2.5101     0.1212     0.0219   -36.3374     9.2362     8.9536
  293.0000   105.5586     7.2244     2.4894     0.1358     0.0233   -36.3364     9.2147     8.9243
  293.5000   105.6516     7.2773     2.4689     0.1471     0.0249   -36.3366     9.1824     8.8956
  294.0000   102.0054     7.2897     2.4485     0.1471     0.0350   -36.3366     9.1084     8.8662
  294.5000    98.7077     7.2744     2.4408     0.1321     0.0564   -36.3362     9.0354     8.6580
  295.0000    99.7103     7.2588     2.4565     0.1135     0.0777   -36.3363     8.9631     8.4601
  295.5000   100.3755     7.2431     2.4824     0.0948     0.0991   -36.3406     8.8913     8.3898
  296.0000   100.4202     7.2354     2.5079     0.0804     0.1076   -36.5737     8.7737     8.3709
  296.5000   101.2041     7.2726     2.5322     0.0844     0.1093   -37.1077     8.6328     8.3484
  297.0000   102.2346     7.3474     2.5487     0.1012     0.0834   -37.6366     8.4943     8.3272
  297.5000   102.5662     7.3549     2.5038     0.1128     0.0435   -37.9222     8.3579     8.2269
  298.0000   102.1731     7.3519     2.4956     0.1124     0.0258   -37.9205     8.1916     8.0479
  298.5000   102.7724     7.3488     2.4929     0.1124     0.0235   -37.9222     8.0132     7.8707
  299.0000   104.7193     7.3458     2.4940     0.1128     0.0242   -37.9451     7.8384     7.6979
  299.5000   106.5528     7.3428     2.4906     0.1159     0.0248   -37.9680     7.6675     7.5290
  300.0000   110.1536     7.3398     2.4855     0.1180     0.0255   -37.9906     7.5831     7.4454
  300.5000   110.9065     7.3368     2.4808     0.1161     0.0261   -38.0133     7.6288     7.4454
  301.0000   112.8791     7.3366     2.4842     0.1136     0.0268   -38.0360     7.7138     7.5598
  301.5000   114.9529     7.3367     2.4929     0.1091     0.0275   -38.0587     7.8337     7.6502
  302.0000   116.4354     7.3367     2.4998     0.1060     0.0255   -38.0813     7.9553     7.7417
  302.5000   111.1492     7.3367     2.5051     0.1095     0.0243   -38.1038     8.0789     7.8343
  303.0000   105.2478     7.3367     2.5031     0.1137     0.0230   -38.1188     8.2045     7.9280
  303.5000    99.3151     7.3367     2.4961     0.1155     0.0218   -38.1055     8.3318     8.0228
  304.0000    93.5877     7.3367     2.4892     0.1147     0.0206   -38.0915     8.4679     8.1187
  304.5000    93.6163     7.3367     2.4889     0.1148     0.0195   -38.0774     8.4543     8.2376
  305.0000    94.7874     7.3367     2.4900     0.1156     0.0200   -38.0633     8.4363     8.2376
  305.5000    92.0193     7.3367     2.4899     0.1130     0.0208   -38.0493     8.4180     8.2376
  306.0000   102.2975     7.3367     2.4929     0.1086     0.0216   -38.0352     8.3999     8.2376
  306.5000   108.1143     7.3367     2.4971     0.1042     0.0224   -38.0211     8.3819     8.2376
  307.0000   107.5361     7.3367     2.5012     0.1040     0.0232   -38.0071     8.3639     8.2376
  307.5000   103.1052     7.3367     2.5054     0.1043     0.0240   -37.9930     8.3459     8.2376
  308.0000    99.3813     7.3367     2.5060     0.1055     0.0248   -37.9790     8.3279     8.2376
  308.5000    96.1108     7.3367     2.5060     0.1068     0.0255   -37.9649     8.3132     8.2376
  309.0000    95.6962     7.3367     2.5060     0.1049     0.0249   -37.9505     8.3245     8.2376
  309.5000    96.9331     7.3367     2.5060     0.1032     0.0241   -37.9401     8.3380     8.2376
  310.0000    98.7165     7.3367     2.5059     0.1020     0.0233   -37.9361     8.3516     8.2376
  310.5000    98.6287     7.3367     2.5112     0.0988     0.0225   -37.7291     8.3651     8.2376
  311.0000    97.5015     7.3367     2.5212     0.0957     0.0216   -37.7243     8.3787     8.2376
  311.5000    94.7958     7.3367     2.5258     0.0954     0.0208   -37.7304     8.3923     8.2376
  312.0000    96.6589     7.3367     2.5205     0.1001     0.0200   -37.7654     8.4059     8.2376
  312.5000    98.9895     7.3367     2.5145     0.1048     0.0192   -37.7987     8.4196     8.2376
  313.0000    99.6550     7.3367     2.5085     0.1038     0.0184   -37.8320     8.4333     8.2376
  313.5000   101.5446     7.3367     2.5032     0.1014     0.0176   -37.8654     8.4471     8.2378
  314.0000    99.5969     7.3367     2.5067     0.0988     0.0180   -37.8986     8.4604     8.2392
  314.5000    97.2717     7.3390     2.5174     0.1000     0.0190   -37.9199     8.4679     8.1824
  315.0000    98.0577     7.3416     2.5164     0.1004     0.0201   -37.8373     8.3378     8.1199
