~VERSION INFORMATION
 VERS.                2.0:   CWLS LOG ASCII STANDARD - VERSION 2.0
 WRAP.                 NO:   ONE LINE PER DEPTH STEP
~WELL INFORMATION
#MNEM.UNIT      DATA TYPE    INFORMATION
#----------   ------------   ------------------------------
 STRT.F           39.0000:   START DEPTH
 STOP.F          590.0000:   STOP DEPTH
 STEP.F            0.5000:   STEP LENGTH
 NULL.          -999.2500:   NO VALUE
 COMP. FENIX & SCISSON INC:   COMPANY
 WELL.    NPR-3 SX #41-34:   WELL
 FLD .             TEAPOT:   FIELD
 LOC .      S34 T39N R78W:   LOCATION
 CNTY.            NATRONA:   COUNTY
 STAT.            WYOMING:   STATE
 CTRY. UNITED STATES OF AMERICA:   COUNTRY
 SRVC.           BIRDWELL:   SERVICE COMPANY
 DATE.        28-AUG-1978:   LOGDATE
 API .       490251069800:   API NUMBER
~CURVE INFORMATION
#MNEM.UNIT       API CODE    CURVE DESCRIPTION
#----------   ------------   ------------------------------
 DEPT.F                  :   
 SPR .MV     05 010 01 00:   SPONTANEOUS POTENTIAL FROM RES.
 SN  .OHMM   05 040 16 00:   SHORT NORMAL 16"
 ILD .OHMM   05 120 46 00:   INDUCTION LOG DEEP
 CALD.IN     45 280 60 00:   CALIPER
 GRD .GAPI   45 310 01 00:   GAMMA RAY FROM DENSITY LOG
 RHOB.G/C3   45 350 01 00:   BULK DENSITY
 DPHI.DEC    45 890 12 00:   DENSITY POROSITY SANDSTONE
 CORR.G/C3   45 356 01 00:   DENSITY CORRECTION
~PARAMETER INFORMATION
#MNEM.UNIT          VALUE    DESCRIPTION
#----------   ------------   ------------------------------
 PD  .                 GL:   PERMANENT DATUM
 EPD .F              5064:   ELEVATION PERMANENT DATUM
 LMF .                 KB:   LOG MEASURED FROM
 DAPD.F                 4:   FEET ABOVE PERMANENT DATUM
 DMF .                 KB:   DRILLING MEASURED FROM
 EKB .F              5068:   KELLING BUSHING
 EGL .F              5064:   GROUND LEVEL
 DATE.          8-28-1978:   RUN DATE
 RUN .                  1:   RUN NUMBER
 DD  .F               600:   DEPTH DRILLER
 DL  .F               596:   DEPTH LOGGER
 BLI .F               590:   BOTTOM LOG INTERVAL
 TLI .F                50:   TOP LOG INTERVAL
 CS  .IN            8.625:   CASING SIZE
 CBD .F                40:   CASING BOTTOM DRILLER
 BS  .IN            7.875:   BIT SIZE
 BSD .F               600:   BIT SIZE AT DEPTH
 DFT .                KCL:   DRILLING FLUID TYPE
 DFD .                8.7:   DRILLING FLUID DENSITY
 DFV .                 35:   DRILLING FLUID VISCOSITY
 DFPH.                  9:   DRILLING FLUID PH
 DFL .                 10:   DRILLING FLUID LOSS
 MSS .          FLOW LINE:   MUD SAMPLE SOURCE
 RMS .OHMM             .4:   RESISTIVITY MUD SAMPLE
 MST .F                76:   MUD SAMPLE TEMPERATURE
 RMF .OHMM             .3:   RESISTIVITY MUD FILTRATE SAMPLE
 MFST.F                80:   MUD FILTRATE SAMPLE TEMPERATURE
 RMC .OHMM             .4:   RESISTIVITY MUD CAKE
 MCST.F                80:   MUD CAKE SAMPLE TEMPERATURE
 MFSS.               MEAS:   MUD FILTRATE SAMPLE SOURCE
 MCSS.               MEAS:   MUD CAKE SAMPLE SOURCE
 TCS .HRS               3:   TIME CURCULATED STOPPED
 LUN .               2958:   LOGGING UNIT NUMBER
 LUL .               CASP:   LOGGING UNIT LOCATION
 ENGI.             MILLER:   RECORDING ENGINEER
 WITN.              AMEND:   WITNESSED BY
 CLNT.            A2DTECH:   CLIENT CODE
 ORIG.           5" PRINT:   ORIGIN OF DATA
 UWI .       490251069800:   UNIQUE WELL ID
 DICO. A2D Technologies, Inc.:   DIGITIZING COMPANY
~OTHER INFORMATION
~A   DEPT      SPR         SN        ILD       CALD        GRD         RHOB       DPHI      CORR  
# ...
  363.0000   -27.5764     9.6404     9.4667     7.0239    43.5361     2.5032     0.1150     0.0100
  363.5000   -27.5379    10.7113     9.6732     7.0242    43.1020     2.4862     0.1275     0.0116
  364.0000   -27.4996    10.9182     9.8841     7.0228    43.2367     2.4690     0.1400     0.0137
  364.5000   -27.4630    10.9354    10.0996     7.0472    43.2538     2.4518     0.1525     0.0159
  365.0000   -27.4419    10.9511    10.3250     7.0569    43.1897     2.4348     0.1651     0.0181
  365.5000   -27.2848    10.9672    10.6134     7.0680    43.1428     2.4020     0.1805     0.0209
  366.0000   -26.8818    10.9829    11.2192     7.0789    43.9859     2.3703     0.2034     0.0236
  366.5000   -26.2913    10.9998    11.8841     7.0721    46.9785     2.3385     0.2264     0.0264
  367.0000   -25.6496    11.0081    12.9115     7.0507    49.9106     2.3068     0.2455     0.0291
  367.5000   -24.3917    11.8467    14.0276     7.0291    51.0239     2.2804     0.2392     0.0319
  368.0000   -23.1283    12.5998    15.2403     7.0075    49.5954     2.2834     0.2272     0.0336
  368.5000   -21.8648    13.4007    16.5578     6.9860    47.3706     2.3098     0.2101     0.0316
  369.0000   -20.6017    14.2526    17.9891     6.9644    46.6417     2.3359     0.1948     0.0284
  369.5000   -19.3396    15.1586    19.5443     6.9428    47.9608     2.3620     0.1944     0.0161
  370.0000   -18.0555    16.1222    21.1329     6.9213    49.1912     2.3640     0.1978     0.0082
  370.5000   -17.3423    16.7980    21.1380     6.9035    48.6822     2.3557     0.2023     0.0100
  371.0000   -16.6600    16.9529    20.7626     6.9142    49.1500     2.3472     0.2083     0.0117
  371.5000   -15.9893    17.0104    20.5120     6.9266    49.5716     2.3419     0.2054     0.0134
  372.0000   -15.4482    17.0864    20.3681     6.9390    51.4852     2.3461     0.2012     0.0152
  372.5000   -15.2560    17.1628    20.6153     6.9515    53.6252     2.3490     0.2084     0.0169
  373.0000   -15.2817    17.2395    21.1576     6.9636    53.7150     2.3455     0.2220     0.0186
  373.5000   -15.0779    17.3165    21.7141     6.9607    50.0711     2.3223     0.2357     0.0203
  374.0000   -15.0707    17.3939    22.2853     6.9571    47.4629     2.2992     0.2393     0.0220
  374.5000   -15.0693    17.4716    22.8715     6.9535    47.0848     2.2922     0.2402     0.0191
  375.0000   -15.0698    17.5492    23.3790     6.9499    47.8032     2.2859     0.2465     0.0199
  375.5000   -15.0728    17.6001    23.1955     6.9465    49.9792     2.2795     0.2495     0.0239
  376.0000   -15.0617    17.6229    22.9942     6.9476    52.3936     2.2731     0.2495     0.0278
  376.5000   -15.2652    17.6464    22.9515     6.9580    54.9577     2.2738     0.2479     0.0275
  377.0000   -14.8005    17.6699    23.2200     6.9683    56.4862     2.2851     0.2343     0.0270
  377.5000   -14.3442    17.6933    23.3786     6.9786    54.0073     2.2961     0.2307     0.0265
  378.0000   -13.8880    17.7169    23.4148     6.9889    49.7686     2.3036     0.2299     0.0261
  378.5000   -13.4328    17.7406    23.5173     6.9992    47.6600     2.3062     0.2197     0.0218
  379.0000   -12.9784    17.8727    23.6416     7.0095    47.3689     2.3202     0.2100     0.0171
  379.5000   -12.4808    18.1605    23.8442     7.0199    46.6913     2.3332     0.2124     0.0124
  380.0000   -11.9153    18.4531    24.0472     7.0215    45.0917     2.3310     0.2156     0.0078
  380.5000   -11.8714    18.5834    24.2554     7.0176    43.9274     2.3101     0.2353     0.0049
  381.0000   -11.8753    18.3085    24.2532     7.0137    44.6277     2.2882     0.2531     0.0125
  381.5000   -11.8763    18.0334    24.2539     7.0097    45.8509     2.2659     0.2598     0.0220
  382.0000   -11.8763    17.7625    24.2542     7.0060    48.3945     2.2572     0.2702     0.0319
  382.5000   -11.8763    17.5872    24.2592     6.9585    53.3385     2.2490     0.2736     0.0333
  383.0000   -11.8763    17.5872    24.2537     6.8784    58.9791     2.2408     0.2751     0.0326
  383.5000   -11.8763    17.7122    25.6841     6.7979    64.6765     2.2383     0.2699     0.0332
  384.0000   -11.8763    17.8672    26.9452     6.7174    64.3251     2.2453     0.2617     0.0396
  384.5000   -11.8763    18.0240    27.3290     6.6368    62.9041     2.2758     0.2420     0.0457
  385.0000   -11.8763    18.1811    27.5811     6.5561    61.5981     2.3058     0.2208     0.0500
  385.5000   -11.8763    18.2466    27.5811     6.4694    61.1727     2.3356     0.1996     0.0499
  386.0000   -11.8758    18.2457    26.8162     6.4202    59.4151     2.3654     0.1784     0.0500
  386.5000   -11.8764    18.2184    23.8124     6.3779    58.2385     2.3953     0.1572     0.0532
  387.0000   -11.8738    17.9631    23.1653     6.3355    59.3279     2.4189     0.1495     0.0612
  387.5000   -12.1937    17.7112    22.7157     6.3043    60.3740     2.4382     0.1410     0.0690
  388.0000   -12.7389    17.4632    22.1657     6.3038    61.4030     2.4554     0.1280     0.0653
  388.5000   -13.2878    17.2188    21.5932     6.3414    59.5545     2.4730     0.1230     0.0601
  389.0000   -13.8365    16.9777    21.0394     6.4304    57.2285     2.4776     0.1336     0.0549
  389.5000   -14.3852    16.7400    20.5002     6.5188    54.9012     2.4627     0.1445     0.0516
  390.0000   -14.9345    16.7980    20.3707     6.5994    52.5887     2.4362     0.1569     0.0509
  390.5000   -15.4809    16.6444    20.1845     6.6598    51.8822     2.4098     0.1767     0.0502
  391.0000   -15.8763    16.6303    20.0000     6.7195    51.4364     2.3897     0.1868     0.0464
  391.5000   -15.8690    16.6140    20.0000     6.7793    50.9909     2.3751     0.1925     0.0395
  392.0000   -15.8381    16.5978    20.0000     6.8391    50.5498     2.3609     0.1972     0.0336
  392.5000   -15.6553    16.5816    20.0000     6.8993    50.4500     2.3597     0.1752     0.0323
  393.0000   -15.4753    16.5653    20.1845     6.9595    50.8859     2.3972     0.1231     0.0376
  393.5000   -15.2955    16.5491    20.3707     6.9924    51.2710     2.4595     0.0954     0.0465
  394.0000   -15.1159    16.5329    20.5586     7.0244    51.2694     2.5233     0.1093     0.0554
  394.5000   -14.9347    16.5164    20.8682     7.0570    51.2554     2.5375     0.1249     0.0445
  395.0000   -14.8719    16.5012    21.6660     7.0895    54.6570     2.4942     0.1409     0.0318
  395.5000   -14.9157    16.4923    22.4942     7.1220    58.8316     2.4488     0.1741     0.0220
  396.0000   -15.0107    16.6444    23.3540     7.1546    60.9577     2.4034     0.2027     0.0323
  396.5000   -15.1053    16.7980    24.2537     7.1872    60.1950     2.3581     0.2142     0.0419
  397.0000   -15.2002    17.2986    24.4775     7.2082    59.4588     2.3319     0.2156     0.0382
  397.5000   -15.2951    17.7875    24.2537     7.2176    58.7144     2.3289     0.2149     0.0339
  398.0000   -15.3899    18.2882    22.8561     7.2270    57.9685     2.3293     0.2139     0.0279
  398.5000   -15.4713    18.4136    22.0519     7.2368    57.6638     2.3298     0.2129     0.0206
  399.0000   -15.4693    17.9055    21.2759     7.2413    57.6289     2.3302     0.2119     0.0134
  399.5000   -15.4691    17.0725    20.5273     7.1752    58.3576     2.3306     0.2127     0.0077
  400.0000   -15.4691    16.2784    19.8050     7.1082    61.6802     2.3303     0.2156     0.0072
  400.5000   -15.4689    15.5212    19.1081     7.0414    62.6321     2.3278     0.2176     0.0067
  401.0000   -15.4686    14.7715    18.1101     6.9741    61.5197     2.3258     0.2171     0.0061
  401.5000   -15.4706    14.7646    16.9758     6.9089    60.9659     2.3258     0.2150     0.0119
  402.0000   -15.5773    14.7727    15.9125     6.9699    60.7802     2.3272     0.2117     0.0152
  402.5000   -15.8527    14.6902    14.9159     7.2282    60.5116     2.3337     0.2083     0.0184
  403.0000   -16.1254    14.6397    13.9790     6.9641    59.9044     2.3406     0.2049     0.0201
