~VERSION INFORMATION
 VERS.                2.0:   CWLS LOG ASCII STANDARD - VERSION 2.0
 WRAP.                 NO:   ONE LINE PER DEPTH STEP
~WELL INFORMATION
#MNEM.UNIT      DATA TYPE    INFORMATION
#----------   ------------   ------------------------------
 STRT.F           93.0000:   START DEPTH
 STOP.F         1921.0000:   STOP DEPTH
 STEP.F            0.5000:   STEP LENGTH
 NULL.          -999.2500:   NO VALUE
 COMP. LAWRENCE-ALLISON &AS:   COMPANY
 WELL.  NPR 3 #15-1SHX2/T:   WELL
 FLD .             NPR #3:   :   FIELD
 LOC .       S2 T38N R78W:   LOCATION
 CNTY.            NATRONA:   COUNTY
 STAT.            WYOMING:   STATE
 CTRY. UNITED STATES OF AMERICA:   COUNTRY
 SRVC.       Schlumberger:   SERVICE COMPANY
 DATE.        10-JUN-1982:   LOGDATE
 API .       490251077600:   API NUMBER
~CURVE INFORMATION
#MNEM.UNIT       API CODE    CURVE DESCRIPTION
#----------   ------------   ------------------------------
 DEPT.F                  :   
 GR  .GAPI   70 310 01 00:   GAMMA RAY
 CALI.IN     70 280 01 00:   CALIPER
~PARAMETER INFORMATION
#MNEM.UNIT          VALUE    DESCRIPTION
#----------   ------------   ------------------------------
 PD  .                 GL:   PERMANENT DATUM
 EPD .F              5116:   ELEVATION PERMANENT DATUM
 LMF .                 KB:   LOG MEASURED FROM
 DAPD.F                10:   FEET ABOVE PERMANENT DATUM
 DMF .                 KB:   DRILLING MEASURED FROM
 EKB .F              5126:   KELLING BUSHING
 EGL .F              5116:   GROUND LEVEL
 DATE.        10-JUN-1982:   RUN DATE
 RUN .                  1:   RUN NUMBER
 DD  .F              2100:   DEPTH DRILLER
 DL  .F              1924:   DEPTH LOGGER
 BLI .F              1921:   BOTTOM LOG INTERVAL
 TLI .F               100:   TOP LOG INTERVAL
 CS  .IN            10.75:   CASING SIZE
 BS  .IN             8.75:   BIT SIZE
 BSD .F              2100:   BIT SIZE AT DEPTH
 DFT .                AIR:   DRILLING FLUID TYPE
 ENGI.        C. MARRINER:   RECORDING ENGINEER
 WITN.             SCOTTY:   WITNESSED BY
 CLNT.            A2DTECH:   CLIENT CODE
 ORIG.           5" PRINT:   ORIGIN OF DATA
 UWI .       490251077600:   UNIQUE WELL ID
 DICO. A2D Technologies, Inc.:   DIGITIZING COMPANY
~OTHER INFORMATION
~A   DEPT       GR       CALI   
# ...
  943.5000   129.1946    13.1313
  944.0000   131.0414    13.2649
  944.5000   134.3702    13.0743
  945.0000   137.3230    12.7217
  945.5000   140.7733    12.8846
  946.0000   142.5607    13.3273
  946.5000   141.2508    13.4311
  947.0000   139.0559    13.0934
  947.5000   137.3034    12.8881
  948.0000   135.5466    13.0215
  948.5000   137.1172    13.7882
  949.0000   138.2408    14.2457
  949.5000   138.4796    14.2024
  950.0000   136.1487    13.9234
  950.5000   132.5475    13.8507
  951.0000   131.0206    14.5775
  951.5000   126.8388    14.1800
  952.0000   121.5508    13.3076
  952.5000   118.0328    12.8380
  953.0000   118.9395    16.0082
  953.5000   124.7135    17.9478
  954.0000   129.6025    20.6216
  954.5000   132.7216    21.4452
  955.0000   134.7345    21.5347
  955.5000   136.1135    21.5506
  956.0000   138.8793    21.5520
  956.5000   143.8760    21.5533
  957.0000   147.2164    21.5546
  957.5000   149.4505    21.5559
  958.0000   147.0387    21.6012
  958.5000   142.8569    21.6759
  959.0000   138.2326    21.7800
  959.5000   136.4845    21.6190
  960.0000   136.9487    21.2305
  960.5000   137.1917    20.6486
  961.0000   135.4436    19.5865
  961.5000   132.0044    19.3343
  962.0000   128.2477    19.4828
  962.5000   124.6700    18.8233
  963.0000   121.3731    16.6219
  963.5000   118.9613    15.9448
  964.0000   119.8680    14.1528
  964.5000   124.9782    12.3235
  965.0000   129.4248    12.7506
  965.5000   133.7245    13.0015
  966.0000   135.4418    12.9588
  966.5000   131.2654    12.5343
  967.0000   125.5350    11.6839
  967.5000   122.2381    11.3471
  968.0000   120.9325    11.3487
  968.5000   121.8392    11.3500
  969.0000   124.0733    11.3513
  969.5000   127.6349    11.3527
  970.0000   130.9753    11.3540
  970.5000   133.4252    11.3699
  971.0000   131.4613    11.5034
  971.5000   130.7891    11.6369
  972.0000   133.2747    11.7445
  972.5000   132.8540    11.8189
  973.0000   129.7199    11.8758
  973.5000   126.3937    11.8918
  974.0000   123.8539    11.8931
  974.5000   122.9853    11.9972
  975.0000   125.4461    12.4391
  975.5000   130.1139    12.8269
  976.0000   135.4454    12.7832
  976.5000   136.3466    12.4777
  977.0000   127.5243    12.2390
  977.5000   121.1301    12.1375
  978.0000   118.4916    12.0214
  978.5000   121.3949    11.9783
  979.0000   123.8503    12.5673
  979.5000   123.8720    13.3909
  980.0000   123.6726    14.1411
  980.5000   124.1813    14.3917
  981.0000   126.9320    14.1731
  981.5000   131.0442    14.0863
  982.0000   133.7208    13.8673
  982.5000   133.0788    13.1491
  983.0000   130.2245    12.4015
  983.5000   126.4852    12.1972
  984.0000   121.1972    12.0076
  984.5000   117.2367    12.0681
  985.0000   118.8071    12.1728
  985.5000   120.5988    12.1584
  986.0000   122.6117    12.1770
  986.5000   124.4034    12.2051
  987.0000   126.1951    11.9277
  987.5000   125.1106    11.7381
  988.0000   122.6695    11.6803
  988.5000   120.7294    11.7994
  989.0000   121.8628    11.9623
  989.5000   123.2120    12.1104
  990.0000   122.1275    12.2292
  990.5000   120.6006    12.1718
  991.0000   119.2949    12.0115
  991.5000   121.9716    11.8513
  992.0000   125.9756    11.7498
  992.5000   127.9831    11.7198
  993.0000   126.4616    11.8259
  993.5000   125.5984    12.2824
  994.0000   126.0627    13.0357
  994.5000   127.4119    13.2542
  995.0000   128.0974    12.8747
  995.5000   127.2341    12.5034
  996.0000   127.5369    12.2889
  996.5000   125.7344    12.5695
  997.0000   122.6589    12.6883
  997.5000   122.0115    12.3666
  998.0000   130.2245    12.0595
  998.5000   137.1047    11.9283
  999.0000   139.1121    12.3705
  999.5000   134.7146    12.6948
 1000.0000   128.9841    12.4682
 1000.5000   124.8023    12.0786
 1001.0000   123.2754    12.1126
 1001.5000   123.2972    12.4632
 1002.0000   126.4163    13.0411
 1002.5000   129.3142    13.2076
 1003.0000   130.7475    13.3127
 1003.5000   132.0972    13.1819
 1004.0000   135.2206    12.9178
 1004.5000   137.6643    13.2004
 1005.0000   131.1181    13.6448
 1005.5000   124.5446    13.6172
 1006.0000   122.9635    13.2799
 1006.5000   129.6139    13.0458
 1007.0000   134.2724    13.0325
 1007.5000   136.0567    13.5953
 1008.0000   131.6777    14.2167
 1008.5000   129.0568    14.8380
 1009.0000   131.0683    15.2082
 1009.5000   133.3004    14.7533
 1010.0000   134.2024    13.7080
 1010.5000   128.9410    13.1642
 1011.0000   124.3348    13.1808
 1011.5000   122.1486    13.9645
 1012.0000   128.1372    14.5003
 1012.5000   133.9248    14.7647
 1013.0000   134.8029    14.5136
 1013.5000   130.2032    13.7430
 1014.0000   128.6853    14.9921
 1014.5000   137.9762    16.2028
 1015.0000   142.1936    17.5180
 1015.5000   140.8962    18.2721
 1016.0000   133.2018    19.1442
 1016.5000   131.2427    20.4441
 1017.0000   132.3718    21.0359
 1017.5000   135.4863    21.2586
 1018.0000   140.1448    20.5678
 1018.5000   141.9357    20.3037
 1019.0000   140.8589    20.7043
 1019.5000   140.2234    21.2372
 1020.0000   142.2794    21.5635
 1020.5000   142.7022    21.6097
 1021.0000   139.0646    21.6116
 1021.5000   136.7987    21.5991
 1022.0000   138.8167    21.6010
 1022.5000   141.2694    21.5586
 1023.0000   142.6191    21.1918
 1023.5000   142.8659    20.5889
 1024.0000   142.2303    19.8681
 1024.5000   140.4918    19.2061
 1025.0000   138.7533    19.1588
 1025.5000   136.1324    19.3739
 1026.0000   129.9821    18.7841
 1026.5000   126.4789    16.0723
 1027.0000   124.0786    15.8826
 1027.5000   123.4365    14.7193
 1028.0000   129.6457    15.0015
 1028.5000   135.1866    15.8673
 1029.0000   138.3010    15.9693
 1029.5000   135.4595    15.6561
 1030.0000   132.1473    14.4486
 1030.5000   134.1884    13.8305
 1031.0000   135.7588    13.9947
 1031.5000   135.3023    13.4661
 1032.0000   131.7226    13.0255
 1032.5000   129.4081    12.4374
 1033.0000   130.3553    12.2328
 1033.5000   132.8079    11.9692
 1034.0000   134.8194    12.1186
 1034.5000   135.9485    12.3122
 1035.0000   133.1071    11.8997
 1035.5000   131.1480    11.5469
 1036.0000   130.5058    11.5067
 1036.5000   131.4209    11.5430
 1037.0000   132.5501    11.7322
 1037.5000   133.6792    11.9849
 1038.0000   134.1400    11.9425
 1038.5000   131.9669    11.6937
 1039.0000   129.7872    11.8136
 1039.5000   126.2839    11.9335
 1040.0000   123.2219    11.8174
 1040.5000   122.7366    11.4800
 1041.0000   126.5831    11.4229
 1041.5000   130.5799    11.4396
 1042.0000   132.8120    11.5300
 1042.5000   129.2914    11.5609
 1043.0000   125.9999    11.4890
 1043.5000   124.9271    11.5062
 1044.0000   124.5343    11.6113
 1044.5000   124.5618    11.5837
 1045.0000   125.9168    11.5560
 1045.5000   126.6047    11.6760
 1046.0000   127.0721    12.8431
 1046.5000   129.5248    14.0575
 1047.0000   133.3045    14.4927
 1047.5000   138.4007    15.8579
 1048.0000   139.7504    16.2431
 1048.5000   138.0119    16.6433
 1049.0000   134.0674    16.6009
 1049.5000   131.8878    16.7061
 1050.0000   132.4564    17.1501
 1050.5000   134.4464    16.0017
 1051.0000   136.4014    16.0036
 1051.5000   133.3129    15.8284
 1052.0000   131.3514    15.6531
 1052.5000   134.0224    15.9813
 1053.0000   137.3551    16.2616
 1053.5000   138.2613    16.7649
 1054.0000   135.4175    16.8256
 1054.5000   131.6913    16.9306
 1055.0000   130.3917    17.1536
 1055.5000   129.5332    17.3471
 1056.0000   128.4541    17.1718
 1056.5000   127.7861    16.1708
 1057.0000   131.1489    15.9069
 1057.5000   134.2610    15.3924
 1058.0000   136.5058    14.8189
 1058.5000   133.5597    15.1599
 1059.0000   131.6856    15.9152
 1059.5000   133.9213    16.0042
 1060.0000   135.2627    16.0945
 1060.5000   133.3073    16.2880
 1061.0000   134.8752    17.7351
 1061.5000   137.9873    19.2413
 1062.0000   139.7759    20.8295
 1062.5000   140.4615    20.6940
 1063.0000   140.7060    19.5127
 1063.5000   142.2740    18.9533
 1064.0000   143.8420    19.5602
 1064.5000   141.5663    19.3997
