~VERSION INFORMATION
 VERS.                2.0:   CWLS LOG ASCII STANDARD - VERSION 2.0
 WRAP.                 NO:   ONE LINE PER DEPTH STEP
~WELL INFORMATION
#MNEM.UNIT      DATA TYPE    INFORMATION
#----------   ------------   ------------------------------
 STRT.F           33.5000:   START DEPTH
 STOP.F          680.0000:   STOP DEPTH
 STEP.F            0.5000:   STEP LENGTH
 NULL.          -999.2500:   NO VALUE
 COMP. FENIX & SCISSON INC:   COMPANY
 WELL.       NPR 3 #66-34:   WELL
 FLD .             TEAPOT:   FIELD
 LOC .      S34 T39N R78W:   LOCATION
 CNTY.            NATRONA:   COUNTY
 STAT.            WYOMING:   STATE
 CTRY. UNITED STATES OF AMERICA:   COUNTRY
 SRVC.           BIRDWELL:   SERVICE COMPANY
 DATE.        12-AUG-1978:   LOGDATE
 API .       490251068400:   API NUMBER
~CURVE INFORMATION
#MNEM.UNIT       API CODE    CURVE DESCRIPTION
#----------   ------------   ------------------------------
 DEPT.F                  :   
 SPR .MV     05 010 01 00:   SPONTANEOUS POTENTIAL FROM RES.
 SN  .OHMM   05 040 16 00:   SHORT NORMAL 16"
 IL  .OHMM   05 120 00 00:   INDUCTION LOG
 CORR.G/C3   45 356 01 00:   DENSITY CORRECTION
 GRD .GAPI   45 310 01 00:   GAMMA RAY FROM DENSITY LOG
 RHOB.G/C3   45 350 01 00:   BULK DENSITY
 DPHI.DEC    45 890 12 00:   DENSITY POROSITY SANDSTONE
 CALD.IN     45 280 60 00:   CALIPER
~PARAMETER INFORMATION
#MNEM.UNIT          VALUE    DESCRIPTION
#----------   ------------   ------------------------------
 PD  .                 GL:   PERMANENT DATUM
 EPD .F              5078:   ELEVATION PERMANENT DATUM
 LMF .                 KB:   LOG MEASURED FROM
 DAPD.F                 4:   FEET ABOVE PERMANENT DATUM
 DMF .                 KB:   DRILLING MEASURED FROM
 EKB .F              5082:   KELLING BUSHING
 EGL .F              5078:   GROUND LEVEL
 DATE.            8-12-78:   RUN DATE
 RUN .                  1:   RUN NUMBER
 DD  .F               675:   DEPTH DRILLER
 DL  .F               686:   DEPTH LOGGER
 BLI .F               680:   BOTTOM LOG INTERVAL
 TLI .F                50:   TOP LOG INTERVAL
 CS  .IN            8.625:   CASING SIZE
 CBD .F                40:   CASING BOTTOM DRILLER
 BS  .IN            7.875:   BIT SIZE
 BSD .F               675:   BIT SIZE AT DEPTH
 DFT .                KCL:   DRILLING FLUID TYPE
 DFL .               10.4:   DRILLING FLUID LOSS
 MSS .          FLOW LINE:   MUD SAMPLE SOURCE
 RMS .OHMM            .18:   RESISTIVITY MUD SAMPLE
 MST .F                90:   MUD SAMPLE TEMPERATURE
 RMF .OHMM            .16:   RESISTIVITY MUD FILTRATE SAMPLE
 MFST.F                90:   MUD FILTRATE SAMPLE TEMPERATURE
 RMC .OHMM            .32:   RESISTIVITY MUD CAKE
 MCST.F                90:   MUD CAKE SAMPLE TEMPERATURE
 MFSS.               MEAS:   MUD FILTRATE SAMPLE SOURCE
 TCS .HRS               3:   TIME CURCULATED STOPPED
 LUN .               3006:   LOGGING UNIT NUMBER
 LUL .               CASP:   LOGGING UNIT LOCATION
 ENGI.             MILLER:   RECORDING ENGINEER
 WITN.           MCGINLEY:   WITNESSED BY
 CLNT.            A2DTECH:   CLIENT CODE
 ORIG.           5" PRINT:   ORIGIN OF DATA
 UWI .       490251068400:   UNIQUE WELL ID
 DICO. A2D Technologies, Inc.:   DIGITIZING COMPANY
~OTHER INFORMATION
~A   DEPT      SPR         SN         IL       CORR         GRD      RHOB       DPHI       CALD   
# ...
  398.0000   -53.7093     5.9513     5.4079     0.0485    82.5779     2.4783     0.1213     7.9460
  398.5000   -53.8428     5.9678     5.3798     0.0541    81.5248     2.4760     0.1190     7.9620
  399.0000   -53.9772     5.9984     5.4088     0.0602    80.9278     2.4863     0.1102     7.9471
  399.5000   -54.0938     6.0288     5.4304     0.0598    80.6935     2.4955     0.1100     7.9275
  400.0000   -53.9851     6.0616     5.3173     0.0453    80.8371     2.4825     0.1215     7.9070
  400.5000   -53.8744     5.9940     5.1936     0.0310    81.3203     2.4668     0.1282     7.9130
  401.0000   -53.7667     5.9201     5.0911     0.0275    82.9426     2.4684     0.1251     7.9277
  401.5000   -53.7382     5.8470     5.1227     0.0246    85.4231     2.4753     0.1219     7.9426
  402.0000   -53.8385     5.7754     5.1635     0.0217    87.8832     2.4792     0.1195     7.9577
  402.5000   -53.9372     5.6994     5.1853     0.0186    87.2318     2.4742     0.1238     7.9594
  403.0000   -54.0353     5.6215     5.1133     0.0207    86.9167     2.4684     0.1248     7.9555
  403.5000   -54.1014     5.5439     5.0057     0.0206    88.4633     2.4681     0.1233     7.9515
  404.0000   -54.1058     5.4675     4.7445     0.0154    94.0607     2.4700     0.1250     7.9474
  404.5000   -53.8811     5.3922     4.4971     0.0101    96.9023     2.4660     0.1283     7.9434
  405.0000   -53.6100     5.2649     4.2760     0.0092    94.0684     2.4600     0.1314     7.9422
  405.5000   -53.3381     5.1300     4.1982     0.0103    89.7983     2.4470     0.1381     7.9568
  406.0000   -53.0702     5.0570     4.2421     0.0083    85.5713     2.4379     0.1447     7.9836
  406.5000   -52.9278     4.9985     4.2760     0.0055    84.0698     2.4287     0.1538     8.0106
  407.0000   -53.0113     5.0216     4.2564     0.0058    83.3523     2.4300     0.1496     8.0376
  407.5000   -53.0955     5.1205     4.2395     0.0077    83.2436     2.4365     0.1456     8.0643
  408.0000   -52.9190     5.3037     4.2369     0.0096    91.7007     2.4429     0.1427     8.0750
  408.5000   -52.7090     5.4935     4.5913     0.0094    95.6524     2.4429     0.1436     8.0292
  409.0000   -52.5101     5.6901     4.8919     0.0076    97.7090     2.4423     0.1447     8.0219
  409.5000   -52.7551     5.8984     5.2129     0.0075    97.4406     2.4478     0.1439     8.0218
  410.0000   -53.4014     5.8805     5.5534     0.0131    96.3596     2.4603     0.1320     8.0228
  410.5000   -54.0334     5.8590     5.6842     0.0227    95.5182     2.4723     0.1219     7.9777
  411.0000   -54.1016     5.8439     5.6564     0.0325    97.3327     2.4813     0.1206     7.9450
  411.5000   -54.1703     6.0070     5.6322     0.0366   100.0281     2.4823     0.1176     7.9613
  412.0000   -54.6189     6.1167     5.6782     0.0394   102.8537     2.4836     0.1167     7.9254
  412.5000   -55.0627     6.0839     5.7404     0.0422   103.5857     2.4901     0.1131     7.8856
  413.0000   -55.2585     6.0616     5.7890     0.0419    99.8821     2.4989     0.1096     7.9640
  413.5000   -55.1673     6.2152     5.6779     0.0412    95.1034     2.5078     0.1061     8.0519
  414.0000   -55.0773     6.4049     5.5808     0.0405    90.7487     2.5113     0.1026     8.0815
  414.5000   -54.9855     6.3998     5.6263     0.0404    91.3084     2.5146     0.0998     8.0738
  415.0000   -54.9051     6.3899     5.6767     0.0427    93.9945     2.5192     0.0971     8.0622
  415.5000   -54.9968     6.3802     5.7366     0.0476    95.1712     2.5286     0.0934     8.0506
  416.0000   -55.0923     6.3704     5.7131     0.0520    92.3160     2.5376     0.0897     8.0437
  416.5000   -55.1871     6.3606     5.6845     0.0452    88.8992     2.5425     0.0860     8.0542
  417.0000   -55.2853     6.3509     5.6561     0.0383    88.2070     2.5293     0.0902     8.0643
  417.5000   -55.2174     6.3464     5.6322     0.0461    92.2627     2.5158     0.0981     8.0743
  418.0000   -55.1137     6.3464     5.6871     0.0491    97.6357     2.5018     0.1064     8.0845
  418.5000   -55.0094     6.3464     5.7350     0.0505   102.6492     2.5040     0.1065     8.0944
  419.0000   -54.9054     6.3458     5.7895     0.0545   102.8066     2.5126     0.1048     8.0959
  419.5000   -54.8005     6.3825     5.7796     0.0588   100.4097     2.5040     0.1032     8.0708
  420.0000   -54.7053     6.4037     5.7681     0.0633    99.4305     2.5022     0.1045     8.0463
  420.5000   -54.7945     6.3524     5.7567     0.0644    98.3676     2.5071     0.1065     8.0467
  421.0000   -54.8906     6.3131     5.7453     0.0623    96.5185     2.5041     0.1069     8.0547
  421.5000   -55.0555     6.2740     5.7273     0.0595    96.3052     2.4989     0.1084     8.0588
  422.0000   -55.2289     6.2352     5.6885     0.0568    98.1339     2.4937     0.1114     8.0312
  422.5000   -55.4006     6.1626     5.6500     0.0543   100.1814     2.4883     0.1132     8.0035
  423.0000   -55.4728     6.0866     5.6117     0.0522   102.1938     2.4862     0.1145     7.9875
  423.5000   -55.4064     6.0115     5.5589     0.0503   103.8435     2.4839     0.1180     8.0190
  424.0000   -55.3438     5.9374     5.4426     0.0524    99.6972     2.4747     0.1224     8.0494
  424.5000   -55.3727     5.8747     5.3198     0.0542    94.1227     2.4711     0.1235     8.0796
  425.0000   -55.5918     5.8256     5.1889     0.0528    94.1469     2.4720     0.1231     8.1101
  425.5000   -55.8078     5.7769     5.0612     0.0511    95.8649     2.4729     0.1235     8.1212
  426.0000   -56.0243     5.7046     4.9366     0.0464    97.5458     2.4718     0.1251     8.1226
  426.5000   -56.2509     5.5156     4.8263     0.0393    99.2109     2.4628     0.1360     8.1403
  427.0000   -56.2057     5.3329     4.6492     0.0321    98.2420     2.4454     0.1496     8.1208
  427.5000   -56.0774     5.1562     4.4787     0.0247    97.3683     2.4169     0.1618     8.0982
  428.0000   -55.9444     4.9854     4.2588     0.0264    97.9311     2.3917     0.1729     8.0757
  428.5000   -55.9803     4.7545     3.8867     0.0372    97.3032     2.3865     0.1786     8.0533
  429.0000   -56.1014     4.4769     3.3593     0.0482    97.8016     2.3792     0.1810     8.0308
  429.5000   -56.2192     4.1894     2.9005     0.0503   102.0755     2.3686     0.1889     8.0083
  430.0000   -56.1168     3.9173     2.6034     0.0490   103.4889     2.3444     0.2111     7.9857
  430.5000   -55.4524     3.6629     2.3653     0.0504    97.9647     2.3204     0.2320     7.9817
  431.0000   -54.7025     3.4437     2.2692     0.0541    92.3396     2.2966     0.2426     8.0057
  431.5000   -53.9506     3.2763     2.2279     0.0531    88.4351     2.2726     0.2508     8.0399
  432.0000   -53.2910     3.2464     2.2272     0.0570    90.0897     2.2671     0.2508     8.0753
  432.5000   -53.3957     3.2464     2.2272     0.0792    92.8252     2.3065     0.2316     8.1175
  433.0000   -53.4901     3.2820     2.3007     0.0711    94.7721     2.3629     0.1961     8.1053
  433.5000   -53.3226     3.3678     2.5918     0.0555    96.6630     2.3828     0.1778     8.0281
  434.0000   -53.1032     3.6055     2.9480     0.0768   102.8813     2.4068     0.1564     7.9537
  434.5000   -52.8836     3.8845     3.3572     0.0958   105.3770     2.4494     0.1285     7.9031
  435.0000   -52.7183     4.1850     3.7078     0.0783   102.8955     2.4842     0.1155     7.8918
  435.5000   -52.8885     4.5088     3.9659     0.0704    99.7866     2.4986     0.1208     7.9159
  436.0000   -53.0533     4.8576     4.2931     0.0570    99.1964     2.4824     0.1251     7.9031
  436.5000   -53.2149     5.1977     4.6155     0.0526   101.6357     2.4737     0.1139     7.8765
  437.0000   -53.1901     5.2975     4.7266     0.0586   104.0901     2.4989     0.1136     7.8491
  437.5000   -52.9668     5.3804     4.7741     0.0648   105.5889     2.4949     0.1127     7.8223
  438.0000   -52.7369     5.3802     4.7173     0.0663   105.0182     2.4974     0.1092     7.8156
