~VERSION INFORMATION
 VERS.                2.0:   CWLS LOG ASCII STANDARD - VERSION 2.0
 WRAP.                 NO:   ONE LINE PER DEPTH STEP
~WELL INFORMATION
#MNEM.UNIT      DATA TYPE    INFORMATION
#----------   ------------   ------------------------------
 STRT.F         1160.0000:   START DEPTH
 STOP.F         2086.0000:   STOP DEPTH
 STEP.F            0.5000:   STEP LENGTH
 NULL.          -999.2500:   NO VALUE
 COMP. LAWRENCE/ALLISON INC:   COMPANY
 WELL.      17 STX #27-27:   WELL
 FLD .             TEAPOT:   FIELD
 LOC .      S27 T39N R78W:   LOCATION
 CNTY.            NATRONA:   COUNTY
 STAT.            WYOMING:   STATE
 CTRY. UNITED STATES OF AMERICA:   COUNTRY
 SRVC.            Unknown:   SERVICE COMPANY
 DATE.        09-JUN-1991:   LOGDATE
 API .       490251118200:   API NUMBER
~CURVE INFORMATION
#MNEM.UNIT       API CODE    CURVE DESCRIPTION
#----------   ------------   ------------------------------
 DEPT.F                  :   
 ROP .MIN/FT 91 810 01 00:   RAT OF DRILLING PENETRATION
 TGAS.UNITS  91 830 01 00:   TOTAL GAS UNIT
~PARAMETER INFORMATION
#MNEM.UNIT          VALUE    DESCRIPTION
#----------   ------------   ------------------------------
 EKB .F              5078:   KELLING BUSHING
 EGL .F              5068:   GROUND LEVEL
 DATE.         9-JUN-1991:   RUN DATE
 RUN .                  1:   RUN NUMBER
 BLI .F              2120:   BOTTOM LOG INTERVAL
 TLI .F              1160:   TOP LOG INTERVAL
 CLNT.            A2DTECH:   CLIENT CODE
 ORIG.           5" PRINT:   ORIGIN OF DATA
 UWI .       490251118200:   UNIQUE WELL ID
 DICO. A2D Technologies, Inc.:   DIGITIZING COMPANY
~OTHER INFORMATION
~A  DEPT         ROP      TGAS  
# ...
 1524.5000     0.6508   170.2249
 1525.0000     0.6793   170.2406
 1525.5000     0.6889   170.2563
 1526.0000     0.6985   170.2720
 1526.5000     0.7176   170.2876
 1527.0000     0.7083   170.3033
 1527.5000     0.6896   170.3190
 1528.0000     0.6615   170.3347
 1528.5000     0.6334   170.3504
 1529.0000     0.6147   170.3661
 1529.5000     0.6055   170.3818
 1530.0000     0.5962   170.3975
 1530.5000     0.5981   170.4132
 1531.0000     0.6060   170.4289
 1531.5000     0.6063   170.4445
 1532.0000     0.6159   170.4603
 1532.5000     0.6255   170.4759
 1533.0000     0.6351   170.4916
 1533.5000     0.7013   170.5073
 1534.0000     0.7487   170.5230
 1534.5000     0.6734   170.5387
 1535.0000     0.6170   170.5544
 1535.5000     0.5795   170.5701
 1536.0000     0.5607   170.5858
 1536.5000     0.5610   170.6015
 1537.0000     0.5800   170.6172
 1537.5000     0.5802   170.6328
 1538.0000     0.5804   170.6485
 1538.5000     0.5806   170.6642
 1539.0000     0.5713   170.6799
 1539.5000     0.5715   170.6956
 1540.0000     0.5811   170.7113
 1540.5000     0.6317   170.7288
 1541.0000     0.6977   170.7427
 1541.5000     0.7421   170.7584
 1542.0000     0.7234   170.7741
 1542.5000     0.6670   170.7897
 1543.0000     0.6295   170.8054
 1543.5000     0.6202   170.8211
 1544.0000     0.6298   170.8368
 1544.5000     0.7055   170.8525
 1545.0000     0.7529   170.8682
 1545.5000     0.7719   170.8839
 1546.0000     0.7721   170.8996
 1546.5000     0.7534   170.9153
 1547.0000     0.7347   170.9310
 1547.5000     0.7066   170.9467
 1548.0000     0.7068   170.9623
 1548.5000     0.7447   170.9780
 1549.0000     0.7826   170.9937
 1549.5000     0.8111   171.0094
 1550.0000     0.7925   171.0251
 1550.5000     0.7352   171.0408
 1551.0000     0.6787   171.0565
 1551.5000     0.6313   171.0722
 1552.0000     0.6234   171.0879
 1552.5000     0.6236   171.1036
 1553.0000     0.6238   171.1192
 1553.5000     0.6146   171.1349
 1554.0000     0.6147   171.1506
 1554.5000     0.6055   171.1663
 1555.0000     0.6151   171.1820
 1555.5000     0.6059   171.1977
 1556.0000     0.6061   171.2134
 1556.5000     0.6157   171.2291
 1557.0000     0.6159   171.2448
 1557.5000     0.6255   171.2605
 1558.0000     0.6351   171.2776
 1558.5000     0.6636   171.3389
 1559.0000     0.7393   171.4064
 1559.5000     0.7772   171.4738
 1560.0000     0.7969   171.5413
 1560.5000     0.7681   171.6088
 1561.0000     0.7395   171.6763
 1561.5000     0.7024   171.7438
 1562.0000     0.6732   171.8112
 1562.5000     0.6541   171.8787
 1563.0000     0.6464   171.9462
 1563.5000     0.6372   172.0137
 1564.0000     0.6185   172.0812
 1564.5000     0.5904   172.1487
 1565.0000     0.5529   172.2161
 1565.5000     0.4776   172.2836
 1566.0000     0.4023   172.3511
 1566.5000     0.4685   172.4186
 1567.0000     0.5253   172.4861
 1567.5000     0.5915   172.5535
 1568.0000     0.5917   172.6210
 1568.5000     0.5919   172.6517
 1569.0000     0.6015   172.6674
 1569.5000     0.6017   172.6831
 1570.0000     0.6019   172.6987
 1570.5000     0.6115   172.7144
 1571.0000     0.6778   172.7301
 1571.5000     0.7345   172.7458
 1572.0000     0.7442   172.7615
 1572.5000     0.7066   172.7772
 1573.0000     0.6691   172.7929
 1573.5000     0.6315   172.8086
 1574.0000     0.5940   172.8243
 1574.5000     0.5942   172.8400
 1575.0000     0.5943   172.8557
 1575.5000     0.5851   172.8713
 1576.0000     0.5758   172.8870
 1576.5000     0.5747   172.9027
 1577.0000     0.5350   172.9184
 1577.5000     0.4066   172.9341
 1578.0000     0.3596   172.9498
 1578.5000     0.4447   172.9655
 1579.0000     0.4921   172.9812
 1579.5000     0.5489   172.9969
 1580.0000     0.5774   173.0125
 1580.5000     0.5587   173.0282
 1581.0000     0.5306   173.0439
 1581.5000     0.4930   173.0579
 1582.0000     0.4461   173.0396
 1582.5000     0.4179   173.0231
 1583.0000     0.3898   173.0066
 1583.5000     0.3711   172.9901
 1584.0000     0.3713   172.9737
 1584.5000     0.3715   172.9572
 1585.0000     0.3717   172.9407
 1585.5000     0.3719   172.9242
 1586.0000     0.3721   172.9077
 1586.5000     0.3723   172.8913
 1587.0000     0.3725   172.8748
 1587.5000     0.3726   172.8583
 1588.0000     0.3728   172.8418
 1588.5000     0.3730   172.8253
 1589.0000     0.3732   172.8088
 1589.5000     0.3734   172.7923
 1590.0000     0.3925   172.7759
 1590.5000     0.4398   172.7594
 1591.0000     0.5155   172.7429
 1591.5000     0.6195   172.7264
 1592.0000     0.5913   172.7099
 1592.5000     0.5349   172.6935
 1593.0000     0.5256   172.6770
 1593.5000     0.5259   172.6605
 1594.0000     0.5260   172.6440
 1594.5000     0.5262   172.6275
 1595.0000     0.5264   172.6110
 1595.5000     0.5266   172.5946
 1596.0000     0.5362   172.5781
 1596.5000     0.5364   172.5616
 1597.0000     0.4894   172.5451
 1597.5000     0.4519   172.5286
 1598.0000     0.5020   172.5336
 1598.5000     0.6032   169.4110
 1599.0000     0.6883   165.2423
 1599.5000     0.7263   160.0277
 1600.0000     0.7547   153.7631
 1600.5000     0.7549   154.8323
 1601.0000     0.7551   149.4907
 1601.5000     0.7553   144.4184
 1602.0000     0.7649   139.2089
 1602.5000     0.7937   133.9993
 1603.0000     0.8599   126.6978
 1603.5000     0.9262   118.3501
 1604.0000     0.9453   110.0025
 1604.5000     0.8701   102.7010
 1605.0000     0.8231    94.3533
 1605.5000     0.7668    88.0978
 1606.0000     0.7481    77.6581
 1606.5000     0.7106    69.3105
 1607.0000     0.6731    64.1010
 1607.5000     0.6544    57.8454
 1608.0000     0.6547    51.5609
 1608.5000     0.6455    47.3459
 1609.0000     0.6458    44.3089
 1609.5000     0.6554    43.2835
 1610.0000     0.6745    40.1711
 1610.5000     0.6842    39.1406
 1611.0000     0.7222    39.1663
 1611.5000     0.7507    38.1357
 1612.0000     0.7698    38.1615
 1612.5000     0.7803    36.0849
 1613.0000     0.7797    35.0594
 1613.5000     0.7705    35.0852
 1614.0000     0.7613    34.9759
 1614.5000     0.7521    34.7020
 1615.0000     0.7147    34.4281
 1615.5000     0.6960    34.1542
 1616.0000     0.6774    33.8803
 1616.5000     0.6871    33.6064
 1617.0000     0.6967    33.3325
 1617.5000     0.7041    33.0586
 1618.0000     0.7160    32.7847
 1618.5000     0.7163    32.5108
 1619.0000     0.7070    32.2369
 1619.5000     0.6978    31.9630
 1620.0000     0.6792    31.6891
 1620.5000     0.6417    31.4152
 1621.0000     0.5760    31.2134
 1621.5000     0.5384    31.0118
 1622.0000     0.5387    30.5930
 1622.5000     0.5578    30.1742
 1623.0000     0.5675    29.7555
 1623.5000     0.5771    29.3367
 1624.0000     0.5868    30.2929
 1624.5000     0.5965    31.3220
 1625.0000     0.6061    31.2036
 1625.5000     0.5970    31.0851
 1626.0000     0.5877    30.9667
 1626.5000     0.5597    30.8483
 1627.0000     0.5316    30.7298
 1627.5000     0.5319    30.6114
 1628.0000     0.5132    30.4929
 1628.5000     0.4945    30.3745
 1629.0000     0.4477    30.2561
 1629.5000     0.4573    30.1376
 1630.0000     0.4576    30.0192
 1630.5000     0.4578    29.9008
 1631.0000     0.4203    29.7823
 1631.5000     0.3922    29.6639
 1632.0000     0.3830    29.6059
 1632.5000     0.3738    29.7206
 1633.0000     0.3835    29.8353
 1633.5000     0.4026    29.9499
 1634.0000     0.4217    30.0646
 1634.5000     0.4219    30.1793
 1635.0000     0.4316    30.2940
 1635.5000     0.4224    30.4087
 1636.0000     0.4226    30.5233
 1636.5000     0.4229    30.6380
 1637.0000     0.4232    30.7527
 1637.5000     0.4328    30.8674
 1638.0000     0.4614    30.9820
 1638.5000     0.4710    31.0967
 1639.0000     0.4996    31.2114
 1639.5000     0.5375    31.3261
 1640.0000     0.5755    31.4408
 1640.5000     0.5852    31.5554
 1641.0000     0.5665    31.6701
 1641.5000     0.5290    31.7848
 1642.0000     0.5009    31.8995
 1642.5000     0.5012    32.0142
 1643.0000     0.5014    32.1350
 1643.5000     0.5017    32.1548
 1644.0000     0.5019    32.1757
 1644.5000     0.5021    32.1967
 1645.0000     0.5307    32.2176
 1645.5000     0.5875    32.2385
