~VERSION INFORMATION
 VERS.                2.0:   CWLS LOG ASCII STANDARD - VERSION 2.0
 WRAP.                 NO:   ONE LINE PER DEPTH STEP
~WELL INFORMATION
#MNEM.UNIT      DATA TYPE    INFORMATION
#----------   ------------   ------------------------------
 STRT.F           27.0000:   START DEPTH
 STOP.F          713.0000:   STOP DEPTH
 STEP.F            0.5000:   STEP LENGTH
 NULL.          -999.2500:   NO VALUE
 COMP. FENIX & SCISSON INC:   COMPANY
 WELL.       NPR 3 #44-34:   WELL
 FLD .        TEAPOT DOME:   FIELD
 LOC .      S34 T39N R78W:   LOCATION
 CNTY.            NATRONA:   COUNTY
 STAT.            WYOMING:   STATE
 CTRY. UNITED STATES OF AMERICA:   COUNTRY
 SRVC.           BIRDWELL:   SERVICE COMPANY
 DATE.        24-AUG-1978:   LOGDATE
 API .       490251070000:   API NUMBER
~CURVE INFORMATION
#MNEM.UNIT       API CODE    CURVE DESCRIPTION
#----------   ------------   ------------------------------
 DEPT.F                  :   
 SPR .MV     05 010 01 00:   SPONTANEOUS POTENTIAL FROM RES.
 ILD .OHMM   05 120 46 00:   INDUCTION LOG DEEP
 SN  .OHMM   05 040 16 00:   SHORT NORMAL 16"
 CALD.IN     45 280 60 00:   CALIPER
 GRD .GAPI   45 310 01 00:   GAMMA RAY FROM DENSITY LOG
 DEN .G/C3   45 350 01 00:   COMPENSATED BULK DENSTIY
 DPHI.DEC    45 890 12 00:   DENSITY POROSITY SANDSTONE
 CORR.G/C3   45 356 01 00:   DENSITY CORRECTION
~PARAMETER INFORMATION
#MNEM.UNIT          VALUE    DESCRIPTION
#----------   ------------   ------------------------------
 PD  .                 GL:   PERMANENT DATUM
 EPD .F              5124:   ELEVATION PERMANENT DATUM
 LMF .                 KB:   LOG MEASURED FROM
 DAPD.F                 4:   FEET ABOVE PERMANENT DATUM
 DMF .                 KB:   DRILLING MEASURED FROM
 EKB .F              5128:   KELLING BUSHING
 EGL .F              5124:   GROUND LEVEL
 DATE.            8-24-78:   RUN DATE
 RUN .                  1:   RUN NUMBER
 DD  .F               716:   DEPTH DRILLER
 DL  .F               713:   DEPTH LOGGER
 BLI .F               707:   BOTTOM LOG INTERVAL
 TLI .F                50:   TOP LOG INTERVAL
 CS  .IN            8.625:   CASING SIZE
 CBD .F                40:   CASING BOTTOM DRILLER
 BS  .IN            7.875:   BIT SIZE
 BSD .F               716:   BIT SIZE AT DEPTH
 DFT .            MUD KCL:   DRILLING FLUID TYPE
 DFD .                8.6:   DRILLING FLUID DENSITY
 DFV .                 34:   DRILLING FLUID VISCOSITY
 DFL .                7.4:   DRILLING FLUID LOSS
 MSS .          FLOW LINE:   MUD SAMPLE SOURCE
 RMS .OHMM            .18:   RESISTIVITY MUD SAMPLE
 MST .F                76:   MUD SAMPLE TEMPERATURE
 RMF .OHMM            .16:   RESISTIVITY MUD FILTRATE SAMPLE
 MFST.F                92:   MUD FILTRATE SAMPLE TEMPERATURE
 RMC .OHMM             .3:   RESISTIVITY MUD CAKE
 MCST.F                86:   MUD CAKE SAMPLE TEMPERATURE
 MFSS.               MEAS:   MUD FILTRATE SAMPLE SOURCE
 TCS .HRS               3:   TIME CURCULATED STOPPED
 MRT .F                72:   MAXIMUM RECORDED TEMPERATURE
 LUN .               2958:   LOGGING UNIT NUMBER
 LUL .               CASP:   LOGGING UNIT LOCATION
 ENGI.           REYNOLDS:   RECORDING ENGINEER
 WITN.              AMEND:   WITNESSED BY
 CLNT.            A2DTECH:   CLIENT CODE
 ORIG.           5" PRINT:   ORIGIN OF DATA
 UWI .       490251070000:   UNIQUE WELL ID
 DICO. A2D Technologies, Inc.:   DIGITIZING COMPANY
~OTHER INFORMATION
~A   DEPT      SPR        ILD         SN       CALD         GRD       DEN       DPHI       CORR   
# ...
  513.0000   -65.8379     7.7533     8.1236     8.5133   109.4684     2.5300     0.1027     0.0649
  513.5000   -65.7831     7.7536     8.1167     8.5110   114.4848     2.5235     0.1048     0.0644
  514.0000   -65.7261     7.7530     8.1613     8.5086   115.9549     2.5207     0.1107     0.0639
  514.5000   -65.6698     7.8449     8.1999     8.5063   113.4426     2.5130     0.1126     0.0635
  515.0000   -65.6670     7.9225     8.2387     8.5040   110.3690     2.5100     0.1128     0.0649
  515.5000   -65.7345     8.0008     8.2778     8.5016   108.4648     2.5100     0.1184     0.0663
  516.0000   -65.8013     8.0799     8.3170     8.4992   106.5815     2.5071     0.1196     0.0675
  516.5000   -65.8684     8.1156     8.3427     8.4973   105.4093     2.5038     0.1170     0.0624
  517.0000   -65.9355     8.1214     8.3181     8.5050   104.8252     2.5087     0.1148     0.0550
  517.5000   -66.0025     7.2101     8.2528     8.5115   105.3623     2.5097     0.1148     0.0508
  518.0000   -66.0697     6.6143     8.1881     8.5169   106.0285     2.5143     0.1090     0.0487
  518.5000   -66.1365     6.1111     8.1239     8.2704    99.5118     2.5234     0.1008     0.0512
  519.0000   -66.2038     6.1730     7.9817     8.2786    98.2649     2.5226     0.1164     0.0737
  519.5000   -66.1955     6.2634     7.8257     8.2767    97.3764     2.4981     0.1381     0.0760
  520.0000   -66.1229     6.3370     7.3644     8.2928    92.9314     2.4694     0.1665     0.0684
  520.5000   -66.0533     6.1668     6.9078     8.3292    90.2371     2.4228     0.1909     0.0674
  521.0000   -65.9397     6.2234     6.4804     8.3686   105.2311     2.3750     0.1999     0.0674
  521.5000   -65.5110     6.7887     6.2813     8.3991   116.7788     2.3714     0.1847     0.0674
  522.0000   -64.2047     7.4208     6.2813     8.4246   122.9175     2.4322     0.1524     0.0675
  522.5000   -64.2391     8.1118     7.0511     8.4776   110.3613     2.4954     0.1147     0.0674
  523.0000   -64.2429     8.8672     7.6192     8.9032   106.0892     2.5382     0.0956     0.0639
  523.5000   -64.2432     9.6929     8.2329     8.3878   106.5685     2.5475     0.0920     0.0547
  524.0000   -64.2428    10.2043     8.8961     8.4083   106.3198     2.5513     0.0900     0.0515
  524.5000   -64.2452    10.2043     9.3309     8.4200   103.0889     2.5570     0.0833     0.0514
  525.0000   -64.1264    10.2043     9.6294     8.4332   102.5253     2.5620     0.0800     0.0527
  525.5000   -63.9531    10.3117     9.8112     8.4460   102.2160     2.5618     0.0869     0.0542
  526.0000   -63.5483    10.4651     9.9826     8.4572   101.6369     2.5499     0.0931     0.0553
  526.5000   -62.7492    10.6207    10.1570     8.4569   101.2228     2.5374     0.0993     0.0542
  527.0000   -62.2825    11.0731    10.3345     8.4613   101.3035     2.5292     0.1056     0.0530
  527.5000   -61.8134    11.7467    10.5151     8.4856   101.3834     2.5236     0.1072     0.0518
  528.0000   -61.0973    12.4613    10.6823     8.5096   101.4269     2.5198     0.1084     0.0519
  528.5000   -60.2828    13.0897    11.0078     8.5170   101.3060     2.5154     0.1199     0.0631
  529.0000   -58.5512    13.9564    11.3153     8.5171   100.7010     2.4999     0.1427     0.0743
  529.5000   -56.4822    14.8805    11.8076     8.5170    97.0647     2.4663     0.1651     0.0744
  530.0000   -54.9800    16.5186    12.3788     8.5170    90.6618     2.4203     0.1875     0.0501
  530.5000   -53.9917    18.8325    12.9776     8.5170    78.1400     2.3714     0.2107     0.0176
  531.0000   -53.2308    19.7500    13.6058     8.5170    65.6304     2.3220     0.2426    -0.0136
  531.5000   -52.5922    20.1063    14.2628     8.5171    56.7205     2.2815     0.2560    -0.0165
  532.0000   -52.2992    20.0512    14.9537     8.5162    49.7660     2.2795     0.2562     0.0949
  532.5000   -51.9972    19.9769    15.2752     8.5692    42.6417     2.2803     0.2503     0.0799
  533.0000   -51.6979    19.9273    15.4733     8.6759    42.8079     2.2802     0.2606     0.0657
  533.5000   -51.3960    19.9087    15.5812     8.7195    46.8371     2.2522     0.2760     0.0596
  534.0000   -51.2340    19.5847    15.6339     8.4524    47.4035     2.2322     0.2831     0.0618
  534.5000   -51.1398    19.2099    15.6914     8.4213    47.1828     2.5188     0.0955     0.0696
  535.0000   -51.0963    18.8422    15.5397     8.3987    46.9716     2.5083     0.1269     0.0773
  535.5000   -51.0956    18.4815    15.3748     8.4133    48.7745     2.4517     0.1590     0.0836
  536.0000   -51.0960    18.3340    15.2117     8.4327    53.9859     2.4131     0.1757     0.0817
  536.5000   -51.0962    18.6378    15.0503     8.4527    60.7123     2.3971     0.1848     0.0724
  537.0000   -51.0180    18.8606    14.8906     8.4658    63.6345     2.3990     0.1777     0.0698
  537.5000   -50.7253    19.1154    14.7326     8.4813    63.4677     2.4102     0.1667     0.0703
  538.0000   -50.0125    19.4698    14.7004     8.4987    61.1021     2.4191     0.1691     0.0710
  538.5000   -49.6083    19.9118    14.6816     8.5573    58.7130     2.4127     0.1821     0.0731
  539.0000   -49.1121    19.9074    14.6629     8.6162    57.5098     2.3959     0.1951     0.0850
  539.5000   -48.0781    19.9092    14.6442     8.6601    59.5437     2.3693     0.2081     0.0968
  540.0000   -47.0543    19.9087    14.6255     8.6664    63.3285     2.3399     0.2211     0.1086
  540.5000   -46.5087    19.9087    14.6068     8.6732    62.7581     2.3101     0.2341     0.1155
  541.0000   -46.4339    19.9087    14.5882     8.6715    60.6919     2.2977     0.2463     0.1130
  541.5000   -46.3600    19.9087    14.5696     8.6364    57.0214     2.2983     0.2427     0.1102
  542.0000   -46.3304    19.6913    14.5510     8.6020    52.3653     2.3041     0.2345     0.1074
  542.5000   -46.4358    19.4102    14.5324     8.5915    50.6330     2.3245     0.2191     0.1046
  543.0000   -46.5887    19.1331    14.5139     8.5833    50.4207     2.3414     0.2163     0.1036
  543.5000   -46.9407    18.8600    14.4953     8.5750    51.8091     2.3476     0.2126     0.1040
  544.0000   -47.2802    18.6635    14.4769     8.5666    55.2511     2.3537     0.2058     0.1044
  544.5000   -47.5617    18.6322    14.4504     8.5583    54.0177     2.3725     0.1927     0.1049
  545.0000   -47.6976    18.6025    14.4979     8.5499    51.7940     2.3984     0.1741     0.1052
  545.5000   -47.9813    18.5726    14.5843     8.5416    50.9695     2.4248     0.1554     0.1062
  546.0000   -48.2997    18.5422    14.6706     8.5370    62.1403     2.4536     0.1460     0.1089
  546.5000   -48.3284    18.5121    14.7173     8.5370    62.8991     2.4418     0.1658     0.1229
  547.0000   -48.3502    18.3939    14.3075     8.5364    62.0065     2.4089     0.1837     0.1368
  547.5000   -48.3733    18.2366    14.0337     8.5717    65.8105     2.3744     0.2017     0.1378
  548.0000   -48.3967    18.1669    13.7651     8.6187    69.9348     2.3504     0.2196     0.1226
  548.5000   -48.4201    18.1669    13.5461     8.6370    69.8943     2.3343     0.2231     0.1191
  549.0000   -48.4431    17.8751    13.5098     8.6373    63.2071     2.3328     0.2182     0.1262
  549.5000   -48.4652    17.4116    13.4736     8.6373    62.6764     2.3438     0.2124     0.1496
  550.0000   -48.4921    16.9602    13.4376     8.6373    61.8169     2.3568     0.2056     0.1607
  550.5000   -48.7500    16.5775    13.4016     8.6583    59.9815     2.3683     0.1899     0.1336
  551.0000   -49.5357    16.3114    13.3657     8.6947    58.1787     2.3892     0.1743     0.1062
  551.5000   -50.3092    16.0326    13.3299     8.6335    56.8721     2.4139     0.1586     0.0790
  552.0000   -50.8999    15.9452    13.2942     8.5818    62.9040     2.4401     0.1412     0.0479
  552.5000   -50.8372    15.8871    13.2586     8.5768    67.9870     2.4639     0.1472     0.0304
  553.0000   -50.7881    15.8293    13.2231     8.5938    70.1240     2.4596     0.1479     0.0281
