~VERSION INFORMATION
 VERS.                2.0:   CWLS LOG ASCII STANDARD - VERSION 2.0
 WRAP.                 NO:   ONE LINE PER DEPTH STEP
~WELL INFORMATION
#MNEM.UNIT      DATA TYPE    INFORMATION
#----------   ------------   ------------------------------
 STRT.F            0.0000:   START DEPTH
 STOP.F          404.0000:   STOP DEPTH
 STEP.F            0.1000:   STEP LENGTH
 NULL.          -999.2500:   NO VALUE
 COMP.   FLUOR DANIEL INC:   COMPANY
 WELL.   62-1 X 10 #62-10:   WELL
 FLD .             TEAPOT:   FIELD
 LOC .      S10 T38N R78W:   LOCATION
 CNTY.            NATRONA:   COUNTY
 STAT.            WYOMING:   STATE
 CTRY. UNITED STATES OF AMERICA:   COUNTRY
 SRVC.      Western Atlas:   SERVICE COMPANY
 DATE.        29-MAR-1995:   LOGDATE
 API .       490252270300:   API NUMBER
~CURVE INFORMATION
#MNEM.UNIT       API CODE    CURVE DESCRIPTION
#----------   ------------   ------------------------------
 DEPT.F                  :   
 GRR .GAPI   07 310 01 00:   GAMMA RAY
 RILD.OHMM   07 120 46 00:   INDUCTION LOG DEEP RESISTIVITY
 RILM.OHMM   07 120 44 00:   RESITIVITY LONG MEDIUM
~PARAMETER INFORMATION
#MNEM.UNIT          VALUE    DESCRIPTION
#----------   ------------   ------------------------------
 PD  .                 GL:   PERMANENT DATUM
 EPD .F              5160:   ELEVATION PERMANENT DATUM
 LMF .                 KB:   LOG MEASURED FROM
 DAPD.F                10:   FEET ABOVE PERMANENT DATUM
 DMF .                 KB:   DRILLING MEASURED FROM
 EKB .F              5170:   KELLING BUSHING
 EDF .F              5169:   DRILLING FLOOR
 EGL .F              5160:   GROUND LEVEL
 DATE.        29-MAR-1995:   RUN DATE
 RUN .                  1:   RUN NUMBER
 DD  .F               455:   DEPTH DRILLER
 DL  .F               416:   DEPTH LOGGER
 BLI .F               408:   BOTTOM LOG INTERVAL
 TLI .F                95:   TOP LOG INTERVAL
 CS  .IN            9.625:   CASING SIZE
 CBD .F                95:   CASING BOTTOM DRILLER
 CBL .F                95:   CASING BOTTOM LOGGER
 BS  .IN             8.75:   BIT SIZE
 BSD .F               455:   BIT SIZE AT DEPTH
 DFT .                AIR:   DRILLING FLUID TYPE
 MRT .F               204:   MAXIMUM RECORDED TEMPERATURE
 LUN .            HL 6530:   LOGGING UNIT NUMBER
 LUL .             CASPER:   LOGGING UNIT LOCATION
 ENGI.        VERN RAUTIO:   RECORDING ENGINEER
 WITN.        GARY STRONG:   WITNESSED BY
 CLNT.            A2DTECH:   CLIENT CODE
 ORIG.           5" PRINT:   ORIGIN OF DATA
 UWI .       490252270300:   UNIQUE WELL ID
 DICO. A2D Technologies, Inc.:   DIGITIZING COMPANY
~OTHER INFORMATION
~A    DEPT      GRR      RILD       RILM   
# ...
  291.2000    95.4529     2.9499     3.0595
  291.3000    94.8065     2.9326     3.0595
  291.4000    94.0428     2.9154     3.0595
  291.5000    93.2349     2.9001     3.0595
  291.6000    92.2063     2.9001     3.0595
  291.7000    91.6045     2.9001     3.0595
  291.8000    91.3995     2.8875     3.0486
  291.9000    91.3050     2.8801     3.0384
  292.0000    91.4189     2.8737     3.0384
  292.1000    91.7410     2.8601     3.0384
  292.2000    92.2521     2.8601     3.0384
  292.3000    92.8182     2.8601     3.0225
  292.4000    93.0470     2.8462     3.0174
  292.5000    93.3032     2.8403     3.0174
  292.6000    93.6937     2.8403     3.0174
  292.7000    94.2050     2.8403     3.0174
  292.8000    94.7572     2.8403     3.0174
  292.9000    95.5403     2.8403     3.0174
  293.0000    96.0403     2.8403     3.0030
  293.1000    96.7543     2.8280     2.9965
  293.2000    97.3643     2.8207     2.9965
  293.3000    97.7661     2.8207     2.9965
  293.4000    98.0851     2.8207     2.9965
  293.5000    98.5802     2.8207     2.9965
  293.6000    98.8671     2.8207     2.9965
  293.7000    98.8682     2.8207     2.9965
  293.8000    98.8694     2.8207     2.9965
  293.9000    98.8706     2.8207     2.9965
  294.0000    98.7873     2.8207     2.9965
  294.1000    98.5335     2.8207     2.9965
  294.2000    98.2709     2.8207     2.9965
  294.3000    97.5337     2.8207     2.9965
  294.4000    96.5704     2.8207     2.9965
  294.5000    95.5515     2.8207     2.9965
  294.6000    94.6389     2.8207     2.9965
  294.7000    93.9942     2.8207     2.9965
  294.8000    93.7532     2.8207     2.9965
  294.9000    93.7546     2.8207     2.9965
  295.0000    93.7557     2.8207     2.9965
  295.1000    93.9314     2.8314     2.9965
  295.2000    94.4435     2.8403     2.9965
  295.3000    95.1284     2.8403     2.9965
  295.4000    95.6396     2.8403     2.9965
  295.5000    96.1750     2.8403     2.9965
  295.6000    96.6621     2.8403     3.0115
  295.7000    97.1732     2.8403     3.0174
  295.8000    97.8341     2.8403     3.0174
  295.9000    98.3944     2.8403     3.0174
  296.0000    98.6506     2.8435     3.0174
  296.1000    98.8971     2.8601     3.0174
  296.2000    98.8985     2.8601     3.0174
  296.3000    98.8995     2.8601     3.0174
  296.4000    99.0721     2.8710     3.0278
  296.5000    99.2036     2.8801     3.0384
  296.6000    99.2048     2.8801     3.0384
  296.7000    99.1746     2.8801     3.0384
  296.8000    98.9057     2.8801     3.0384
  296.9000    98.6671     2.8801     3.0384
  297.0000    98.0272     2.8925     3.0384
  297.1000    97.2633     2.9001     3.0474
  297.2000    96.5994     2.9001     3.0595
  297.3000    96.1967     2.9001     3.0595
  297.4000    96.1979     2.9001     3.0595
  297.5000    96.1993     2.9001     3.0769
  297.6000    96.4150     2.9142     3.0809
  297.7000    97.0075     2.9203     3.0918
  297.8000    97.5308     2.9282     3.1023
  297.9000    97.9366     2.9455     3.1023
  298.0000    98.6465     2.9612     3.1023
  298.1000    98.9214     2.9612     3.1023
  298.2000    99.3955     2.9771     3.1023
  298.3000    99.9066     2.9818     3.0895
  298.4000   100.5611     2.9818     3.0714
  298.5000   101.1343     2.9883     3.0595
  298.6000   101.3406     3.0026     3.0566
  298.7000   101.3386     3.0026     3.0384
  298.8000   101.0415     3.0026     3.0384
  298.9000   100.8310     3.0171     3.0384
  299.0000   100.4123     3.0236     3.0273
  299.1000    99.9035     3.0236     3.0174
  299.2000    99.3946     3.0187     3.0128
  299.3000    98.8859     3.0026     2.9965
  299.4000    98.3337     3.0026     2.9965
  299.5000    97.6349     2.9866     2.9965
  299.6000    97.0578     2.9818     2.9838
  299.7000    96.5491     2.9723     2.9758
  299.8000    96.0403     2.9549     2.9695
  299.9000    95.5780     2.9407     2.9552
  300.0000    95.3243     2.9407     2.9552
  300.1000    95.3249     2.9203     2.9551
  300.2000    95.4345     2.9203     2.9410
  300.3000    95.6278     2.9093     2.9346
  300.4000    95.6452     2.8846     2.9268
  300.5000    95.9307     2.8554     2.9142
  300.6000    95.9312     2.8401     2.9128
  300.7000    96.1122     2.8400     2.8940
  300.8000    96.3684     2.8249     2.8940
  300.9000    96.7129     2.8203     2.8939
  301.0000    97.1825     2.8113     2.8939
  301.1000    97.4425     2.8007     2.8939
  301.2000    97.4433     2.7977     2.8938
  301.3000    97.6495     2.7812     2.8938
  301.4000    97.9057     2.7812     2.8937
  301.5000    98.0483     2.7812     2.8937
  301.6000    98.0489     2.7811     2.8936
  301.7000    98.0280     2.7737     2.8936
  301.8000    97.7485     2.7618     2.8936
  301.9000    97.5179     2.7618     2.8935
  302.0000    97.2629     2.7617     2.8935
  302.1000    96.7300     2.7617     2.8934
  302.2000    96.1496     2.7617     2.8934
  302.3000    95.8946     2.7616     2.8934
  302.4000    95.6396     2.7616     2.8933
  302.5000    95.3395     2.7615     2.8933
  302.6000    95.3400     2.7615     2.8932
  302.7000    95.1762     2.7615     2.8767
  302.8000    95.0395     2.7614     2.8732
  302.9000    95.0401     2.7614     2.8731
  303.0000    95.0407     2.7613     2.8659
  303.1000    95.0414     2.7613     2.8532
  303.2000    95.0419     2.7599     2.8531
  303.3000    95.2322     2.7421     2.8531
  303.4000    95.4884     2.7421     2.8384
  303.5000    95.7446     2.7420     2.8333
  303.6000    96.0008     2.7420     2.8332
  303.7000    96.2570     2.7420     2.8332
  303.8000    96.5539     2.7391     2.8332
  303.9000    96.9844     2.7229     2.8331
  304.0000    97.1584     2.7229     2.8331
  304.1000    97.1590     2.7228     2.8330
  304.2000    97.2364     2.7228     2.8330
  304.3000    97.4618     2.7228     2.8330
  304.4000    97.1608     2.7270     2.8329
  304.5000    97.1614     2.7417     2.8329
  304.6000    96.9677     2.7416     2.8328
  304.7000    96.5645     2.7416     2.8328
  304.8000    96.0538     2.7415     2.8328
  304.9000    95.5433     2.7415     2.8327
  305.0000    95.0327     2.7415     2.8327
  305.1000    94.4502     2.7442     2.8326
  305.2000    94.0114     2.7605     2.8326
  305.3000    93.6744     2.7605     2.8326
  305.4000    93.2919     2.7604     2.8325
  305.5000    92.8627     2.7604     2.8325
  305.6000    92.6077     2.7676     2.8324
  305.7000    92.3421     2.7795     2.8324
  305.8000    92.3427     2.7795     2.8330
  305.9000    92.3433     2.7795     2.8521
  306.0000    92.4967     2.7942     2.8520
  306.1000    92.7529     2.7988     2.8520
  306.2000    93.0699     2.7987     2.8519
  306.3000    93.5817     2.7987     2.8570
  306.4000    94.1563     2.8015     2.8717
  306.5000    94.6054     2.8181     2.8717
  306.6000    95.1172     2.8181     2.8716
  306.7000    95.6289     2.8180     2.8843
  306.8000    96.2269     2.8180     2.8916
  306.9000    96.9543     2.8180     2.8981
  307.0000    97.4781     2.8179     2.9116
  307.1000    98.2274     2.8179     2.9120
  307.2000    98.5879     2.8178     2.9318
  307.3000    99.0015     2.8178     2.9318
  307.4000    99.4019     2.8178     2.9431
  307.5000    99.5928     2.8177     2.9521
  307.6000    99.5934     2.8177     2.9571
  307.7000    99.5940     2.8204     2.9726
  307.8000    99.3657     2.8372     2.9725
  307.9000    98.9278     2.8372     2.9887
  308.0000    98.5540     2.8372     3.0062
  308.1000    98.2083     2.8371     3.0140
  308.2000    97.7424     2.8371     3.0206
  308.3000    97.4860     2.8371     3.0349
  308.4000    97.4867     2.8370     3.0348
  308.5000    97.4872     2.8370     3.0348
  308.6000    97.4878     2.8369     3.0348
  308.7000    97.6044     2.8369     3.0347
  308.8000    97.8606     2.8369     3.0347
  308.9000    98.1407     2.8368     3.0297
  309.0000    98.6969     2.8368     3.0136
  309.1000    99.3978     2.8367     3.0136
  309.2000    99.7904     2.8367     3.0135
  309.3000   100.3293     2.8367     3.0006
