~VERSION INFORMATION
 VERS.                2.0:   CWLS LOG ASCII STANDARD - VERSION 2.0
 WRAP.                 NO:   ONE LINE PER DEPTH STEP
~WELL INFORMATION
#MNEM.UNIT      DATA TYPE    INFORMATION
#----------   ------------   ------------------------------
 STRT.F           32.0000:   START DEPTH
 STOP.F          517.0000:   STOP DEPTH
 STEP.F            0.5000:   STEP LENGTH
 NULL.          -999.2500:   NO VALUE
 COMP.    FENIX & SCISSON:   COMPANY
 WELL.        NPR #75-S-3:   WELL
 FLD .             TEAPOT:   FIELD
 LOC .       S3 T38N R78W:   LOCATION
 CNTY.            NATRONA:   COUNTY
 STAT.            WYOMING:   STATE
 CTRY. UNITED STATES OF AMERICA:   COUNTRY
 SRVC.              Welex:   SERVICE COMPANY
 DATE.        08-MAR-1977:   LOGDATE
 API .       490251030900:   API NUMBER
~CURVE INFORMATION
#MNEM.UNIT       API CODE    CURVE DESCRIPTION
#----------   ------------   ------------------------------
 DEPT.F                  :   
 SPR .MV     07 010 01 00:   SPONTANEOUS POTENTIAL
 ILD .OHMM   07 120 46 00:   INDUCTION LOG DEEP RES
 ILM .OHMM   07 120 44 00:   INDUCTION LOG MEDIUM RES
 SGRD.OHMM   07 220 05 00:   SHALLOW  GUARD RESISTIVITY
 CALD.IN     45 280 60 00:   CALIPER FROM DENSITY
 GRD .GAPI   45 310 01 00:   GAMMA RAY FROM DENSITY LOG
 CORR.G/C3   45 356 01 00:   DENSITY CORRECTION
 DPHI.DEC    45 890 12 00:   DENSITY POROSITY SANDSTONE
 RHOB.G/C3   45 350 01 00:   BULK DENSITY
~PARAMETER INFORMATION
#MNEM.UNIT          VALUE    DESCRIPTION
#----------   ------------   ------------------------------
 PD  .                 GL:   PERMANENT DATUM
 EPD .F              5141:   ELEVATION PERMANENT DATUM
 LMF .                 GL:   LOG MEASURED FROM
 DMF .                 GL:   DRILLING MEASURED FROM
 EGL .F              5141:   GROUND LEVEL
 DATE.         03-08-1977:   RUN DATE
 RUN .                  1:   RUN NUMBER
 DD  .F               521:   DEPTH DRILLER
 DL  .F               521:   DEPTH LOGGER
 BLI .F               519:   BOTTOM LOG INTERVAL
 TLI .F                35:   TOP LOG INTERVAL
 CS  .IN            8.625:   CASING SIZE
 CBD .F                40:   CASING BOTTOM DRILLER
 CBL .F                42:   CASING BOTTOM LOGGER
 BS  .IN            7.875:   BIT SIZE
 BSD .F               521:   BIT SIZE AT DEPTH
 DFT .            KCL MUD:   DRILLING FLUID TYPE
 DFD .                8.5:   DRILLING FLUID DENSITY
 DFV .                 32:   DRILLING FLUID VISCOSITY
 DFPH.                  8:   DRILLING FLUID PH
 DFL .                8.5:   DRILLING FLUID LOSS
 MSS .            MUD PIT:   MUD SAMPLE SOURCE
 RMS .OHMM            .65:   RESISTIVITY MUD SAMPLE
 MST .F                53:   MUD SAMPLE TEMPERATURE
 RMF .OHMM            .51:   RESISTIVITY MUD FILTRATE SAMPLE
 MFST.F                58:   MUD FILTRATE SAMPLE TEMPERATURE
 RMC .OHMM            .67:   RESISTIVITY MUD CAKE
 MCST.F                54:   MUD CAKE SAMPLE TEMPERATURE
 MFSS.           FANN KIT:   MUD FILTRATE SAMPLE SOURCE
 MCSS.           FANN KIT:   MUD CAKE SAMPLE SOURCE
 RMB .OHMM            .53:   RESISTIVITY MUD AT BHT
 BHT .F                64:   BOTTOM HOLE TEMPERATURE
 TCS .HRS             1.5:   TIME CURCULATED STOPPED
 MRT .F                64:   MAXIMUM RECORDED TEMPERATURE
 LUN .               8611:   LOGGING UNIT NUMBER
 LUL .           GILLETTE:   LOGGING UNIT LOCATION
 ENGI.               DOAK:   RECORDING ENGINEER
 WITN.           S. BURKE:   WITNESSED BY
 CLNT.            A2DTECH:   CLIENT CODE
 ORIG.           5" PRINT:   ORIGIN OF DATA
 UWI .       490251030900:   UNIQUE WELL ID
 DICO. A2D Technologies, Inc.:   DIGITIZING COMPANY
~OTHER INFORMATION
~A   DEPT      SPR        ILD        ILM       SGRD       CALD        GRD        CORR        DPHI       RHOB 
# ...
  251.0000   -44.6627     5.1731     5.4644     5.0075     7.9740   121.9895     0.0358     0.1361     2.4085
  251.5000   -44.5019     5.2847     5.7780     5.7900     7.9743   116.3955     0.0345     0.1349     2.4214
  252.0000   -44.1937     5.4361     6.1510     9.3851     7.9747   114.5017     0.0377     0.1237     2.4418
  252.5000   -44.0330     5.6694     6.6388     9.7855     7.9750   114.5358     0.0424     0.1138     2.4659
  253.0000   -43.8722     5.9536     7.0674    10.2030     7.9753   115.9112     0.0471     0.1029     2.4780
  253.5000   -43.7115     6.2953     7.3697    10.3490     7.9757   118.3173     0.0503     0.0975     2.4849
  254.0000   -43.5508     6.6109     7.6000    10.4249     7.9760   120.8761     0.0505     0.0965     2.4857
  254.5000   -43.3901     6.9423     7.9131    10.2864     7.9764   123.7352     0.0491     0.0986     2.4813
  255.0000   -43.3768     7.1412     8.1378    10.0653     7.9767   126.9827     0.0478     0.0995     2.4822
  255.5000   -43.2161     7.2453     8.2457     9.8768     7.9770   129.0594     0.0480     0.0991     2.4845
  256.0000   -43.2028     7.2005     8.2503    10.6851     7.9774   130.8592     0.0482     0.0981     2.4846
  256.5000   -43.1896     7.2055     8.1417    10.8868     7.9777   132.9556     0.0499     0.0952     2.4870
  257.0000   -43.3238     7.2105     7.9742    10.8913     7.9781   134.7280     0.0516     0.0896     2.4946
  257.5000   -43.3106     7.2653     7.9292    10.6726     7.9784   135.1366     0.0533     0.0850     2.5044
  258.0000   -43.2974     7.4222     7.9885    10.3866     7.9787   133.3750     0.0565     0.0802     2.5128
  258.5000   -43.2841     7.5824     8.1626    10.6894     7.9791   132.2061     0.0566     0.0810     2.5084
  259.0000   -43.4184     7.6929     8.3367    10.9848     7.9794   132.5186     0.0568     0.0851     2.5024
  259.5000   -43.4051     7.7514     8.5145    11.0653     7.9798   133.5719     0.0570     0.0887     2.4958
  260.0000   -43.5394     7.8104     8.6961    11.0699     7.9801   134.9215     0.0572     0.0913     2.4913
  260.5000   -43.5261     7.7608     8.7611    10.9983     7.9806   132.7155     0.0559     0.0934     2.4899
  261.0000   -43.5129     7.5564     8.6460    10.7777     7.9812   130.2132     0.0560     0.0939     2.4908
  261.5000   -43.4997     7.4069     8.5324    10.7081     7.9819   129.9291     0.0562     0.0935     2.4916
  262.0000   -43.4864     7.3094     8.4202    10.4211     7.9825   131.7272     0.0564     0.0932     2.4932
  262.5000   -43.6207     7.3157     8.2526    10.2827     7.9832   132.3360     0.0566     0.0923     2.4963
  263.0000   -43.6074     7.3208     8.1442    10.2163     7.9839   132.5004     0.0537     0.0922     2.4949
  263.5000   -43.5942     7.3258     8.0926    10.2206     7.9845   132.2204     0.0524     0.0955     2.4860
  264.0000   -43.5809     7.3309     7.9865    10.3667     7.9852   129.1255     0.0495     0.1030     2.4733
  264.5000   -43.5677     7.2843     7.9909    10.4428     7.9858   125.8784     0.0452     0.1098     2.4659
  265.0000   -43.7020     7.2906     8.0506    10.5194     7.9865   127.8247     0.0408     0.1134     2.4615
  265.5000   -43.6887     7.2443     8.0550    10.5966     7.9872   130.0631     0.0365     0.1158     2.4563
  266.0000   -43.6755     7.1996     8.0039    10.6743     7.9878   132.4497     0.0337     0.1172     2.4542
  266.5000   -43.8097     7.1072     7.8979    10.6787     7.9885   134.9845     0.0323     0.1172     2.4550
  267.0000   -43.7965     6.9666     7.6358    10.6832     7.9891   135.5933     0.0326     0.1157     2.4581
  267.5000   -43.9307     6.8289     7.3307    10.5413     7.9898   131.9059     0.0327     0.1141     2.4620
  268.0000   -44.0650     6.6938     7.1354     9.3794     7.9904   130.5847     0.0344     0.1141     2.4613
  268.5000   -44.1992     6.5164     6.9923     7.7361     7.9911   135.0495     0.0376     0.1140     2.4584
  269.0000   -44.1860     6.3875     6.9005     7.9010     7.9918   135.5101     0.0408     0.1138     2.4600
  269.5000   -44.1728     6.2182     6.8098     9.0729     7.9924   136.1190     0.0440     0.1111     2.4661
  270.0000   -44.3070     6.1363     6.7668     9.7245     7.9931   137.1723     0.0472     0.1045     2.4767
  270.5000   -44.2938     6.0984     6.7715     9.9318     7.9937   138.3737     0.0504     0.0984     2.4843
  271.0000   -44.2805     6.0617     6.7752     9.9359     7.9944   139.5751     0.0551     0.0942     2.4889
  271.5000   -44.4148     6.0233     6.7315     9.9400     7.9951   140.7766     0.0568     0.0939     2.4897
  272.0000   -44.5490     5.9041     6.5081     9.8080     7.9957   141.2372     0.0555     0.0963     2.4854
  272.5000   -44.6833     5.7486     6.2052     9.1584     7.9964   141.1013     0.0541     0.1055     2.4719
  273.0000   -44.6700     5.6739     5.9163     7.5539     7.9970   140.8253     0.0498     0.1175     2.4555
  273.5000   -44.6568     5.6379     5.7977     5.7754     7.9977   140.1008     0.0440     0.1223     2.4481
  274.0000   -44.4961     5.7606     5.9229     7.5601     7.9984   136.8578     0.0411     0.1234     2.4429
  274.5000   -44.1878     5.8445     6.3052     9.1736     7.9990   135.8370     0.0398     0.1163     2.4498
  275.0000   -44.0271     6.0120     6.6203     9.6978     7.9997   134.5199     0.0400     0.1081     2.4664
  275.5000   -43.8664     6.2700     6.8091     9.7690     8.0003   132.1657     0.0402     0.0991     2.4770
  276.0000   -43.5581     6.4496     7.0032     9.7059     8.0010   129.5153     0.0403     0.0966     2.4831
  276.5000   -43.3974     6.6344     7.1534     9.5111     8.0017   126.4164     0.0405     0.0975     2.4847
  277.0000   -43.3842     6.6390     7.2068     9.3848     8.0023   127.1774     0.0407     0.1005     2.4765
  277.5000   -43.3709     6.6436     7.2108     9.2601     8.0030   128.6752     0.0409     0.1044     2.4706
  278.0000   -43.5052     6.6482     7.1643     9.3281     8.0036   129.8766     0.0412     0.1074     2.4669
  278.5000   -43.9344     6.6059     7.0226     9.4615     8.0043   129.4484     0.0427     0.1088     2.4648
  279.0000   -44.5111     6.5651     6.9303     9.6632     8.0050   126.9461     0.0459     0.1094     2.4664
  279.5000   -44.7929     6.5246     6.7914     9.8014     8.0056   125.7772     0.0476     0.1073     2.4725
  280.0000   -45.0746     6.3870     6.5209     9.8055     8.0063   124.6082     0.0510     0.1036     2.4771
  280.5000   -45.2089     6.0000     5.8436     8.6053     8.0064   124.4202     0.0525     0.1039     2.4757
  281.0000   -45.1956     5.6900     4.8880     5.0980     8.0063   126.1222     0.0510     0.1123     2.4705
  281.5000   -44.8874     5.5456     4.8907     4.6947     8.0062   128.0644     0.0481     0.1183     2.4623
  282.0000   -44.5792     5.5114     5.3519     9.2309     8.0062   129.4139     0.0455     0.1204     2.4519
  282.5000   -44.1235     5.5204     5.9378     9.0457     8.0061   130.4672     0.0442     0.1194     2.4573
  283.0000   -43.8152     5.6827     6.4088     7.6160     8.0060   130.0390     0.0444     0.1116     2.4754
  283.5000   -43.5070     6.0077     7.0131     9.2424     8.0059   128.2775     0.0446     0.1052     2.4875
  284.0000   -43.1988     6.3952     7.3326     9.9062     8.0058   122.0715     0.0478     0.0968     2.4966
  284.5000   -43.1855     6.7146     7.6347    10.3288     8.0057   119.5689     0.0495     0.0859     2.5035
  285.0000   -43.0248     7.0953     7.8514    10.6220     8.0056   119.8818     0.0542     0.0838     2.5081
  285.5000   -42.8641     7.4018     7.9638    10.8485     8.0056   121.8239     0.0559     0.0829     2.5112
  286.0000   -42.7033     7.7138     8.0150    11.0798     8.0055   122.8772     0.0560     0.0835     2.5128
  286.5000   -42.5426     7.8262     8.0194    11.2383     8.0054   121.4120     0.0547     0.0822     2.5114
  287.0000   -42.6752     7.8316     8.0793    11.3207     8.0053   119.7986     0.0518     0.0825     2.5077
