~VERSION INFORMATION
 VERS.                2.0:   CWLS LOG ASCII STANDARD - VERSION 2.0
 WRAP.                 NO:   ONE LINE PER DEPTH STEP
~WELL INFORMATION
#MNEM.UNIT      DATA TYPE    INFORMATION
#----------   ------------   ------------------------------
 STRT.F            0.0000:   START DEPTH
 STOP.F          479.0000:   STOP DEPTH
 STEP.F            0.5000:   STEP LENGTH
 NULL.          -999.2500:   NO VALUE
 COMP. BROWN JOHN E&C INC:   COMPANY
 WELL.  63-3 SX-10 #63-10:   WELL
 FLD .             TEAPOT:   FIELD
 LOC .      S10 T38N R78W:   LOCATION
 CNTY.            NATRONA:   COUNTY
 STAT.            WYOMING:   STATE
 CTRY. UNITED STATES OF AMERICA:   COUNTRY
 SRVC.     Atlas Wireline:   SERVICE COMPANY
 DATE.        25-APR-1992:   LOGDATE
 API .       490252252900:   API NUMBER
~CURVE INFORMATION
#MNEM.UNIT       API CODE    CURVE DESCRIPTION
#----------   ------------   ------------------------------
 DEPT.F                  :   
 GRR .GAPI   07 310 01 00:   GAMMA RAY
 SPR .MV     07 010 01 00:   SPONTANEOUS POTENTIAL
 RILD.OHMM   07 120 46 00:   INDUCTION LOG DEEP RESISTIVITY
 RILM.OHMM   07 120 44 00:   INDUCTION LOG MEDIUM RESISTIVITY
 RFOC.OHMM   07 220 04 00:   RESISTIVITY FOCUSED LOG
 PORD.DEC    45 890 12 00:   POROSITY DENSITY SANDSTONE
 CNC .DEC    42 890 03 00:   NEUTRON POROSITY SANDSTONE
 CALD.IN     45 280 60 00:   CALIPER FROM DENSITY
 CORR.G/C3   45 356 01 00:   DENSITY CORRECTION
 DEN .G/C3   45 350 01 00:   COMPENSATED BULK DENSTIY
~PARAMETER INFORMATION
#MNEM.UNIT          VALUE    DESCRIPTION
#----------   ------------   ------------------------------
 PD  .                 GL:   PERMANENT DATUM
 EPD .F              5189:   ELEVATION PERMANENT DATUM
 LMF .                 KB:   LOG MEASURED FROM
 DAPD.F                10:   FEET ABOVE PERMANENT DATUM
 DMF .                 KB:   DRILLING MEASURED FROM
 EKB .F              5199:   KELLING BUSHING
 EGL .F              5189:   GROUND LEVEL
 DATE.        25-APR-1992:   RUN DATE
 RUN .                  1:   RUN NUMBER
 DD  .F               480:   DEPTH DRILLER
 DL  .F               482:   DEPTH LOGGER
 BLI .F               480:   BOTTOM LOG INTERVAL
 CS  .IN            8.625:   CASING SIZE
 CBD .F               130:   CASING BOTTOM DRILLER
 CBL .F               143:   CASING BOTTOM LOGGER
 BS  .IN            7.875:   BIT SIZE
 BSD .F               480:   BIT SIZE AT DEPTH
 DFT .     DISP. WEIGHTED:   DRILLING FLUID TYPE
 DFD .               15.1:   DRILLING FLUID DENSITY
 DFV .                 44:   DRILLING FLUID VISCOSITY
 DFPH.                8.4:   DRILLING FLUID PH
 DFL .                  7:   DRILLING FLUID LOSS
 MSS .           FLOWLINE:   MUD SAMPLE SOURCE
 TCS .HRS            0230:   TIME CURCULATED STOPPED
 LUN .           HL- 6272:   LOGGING UNIT NUMBER
 LUL .             CASPER:   LOGGING UNIT LOCATION
 ENGI.       P. RASMUSSEN:   RECORDING ENGINEER
 WITN.          G. STRONG:   WITNESSED BY
 CLNT.            A2DTECH:   CLIENT CODE
 ORIG.           5" PRINT:   ORIGIN OF DATA
 UWI .       490252252900:   UNIQUE WELL ID
 DICO. A2D Technologies, Inc.:   DIGITIZING COMPANY
~OTHER INFORMATION
~A    DEPT      GRR       SPR       RILD       RILM       RFOC       PORD        CNC       CALD       CORR        DEN   
# ...
  402.0000    85.5910   -55.5013    10.0342     9.9913    10.0212     0.0950     0.2774     7.6401    -0.0020     2.4898
  402.5000    81.9511   -55.1986     9.9646     9.8620     9.8233     0.0977     0.2789     7.6398    -0.0036     2.4860
  403.0000    79.7661   -55.0708     9.8267     9.7925     9.7542     0.0968     0.2808     7.6395    -0.0096     2.4867
  403.5000    82.2356   -54.9229     9.6907     9.7237     9.5518     0.0939     0.2844     7.6392    -0.0142     2.4943
  404.0000    83.7395   -54.9267     9.4244     9.5219     9.2887     0.0884     0.2856     7.6389    -0.0127     2.5019
  404.5000    82.5201   -54.9297     9.1654     9.2596     8.9701     0.0866     0.2859     7.6386    -0.0082     2.5071
  405.0000    80.6957   -54.9327     8.7901     8.8801     8.9072     0.0866     0.2866     7.6383    -0.0037     2.5032
  405.5000    84.3175   -54.9357     8.1353     8.1677     8.8447     0.0887     0.2888     7.6380    -0.0007     2.4995
  406.0000    89.1497   -54.9387     7.1965     6.8624     8.7827     0.0911     0.3101     7.6377     0.0023     2.4980
  406.5000    90.3510   -55.0925     6.2045     6.0116     8.6004     0.0947     0.3253     7.6374     0.0038     2.4888
  407.0000    89.1316   -55.3972     5.3601     5.4910     8.0772     0.1005     0.3455     7.6371     0.0098     2.4602
  407.5000    88.8200   -55.7018     4.9302     5.5675     6.7856     0.1258     0.3567     7.6368     0.0113     2.4171
  408.0000    88.8475   -56.0065     4.9302     5.6060     5.4671     0.1433     0.3787     7.6365     0.0127     2.4012
  408.5000    94.0418   -56.3111     4.9993     5.7237     4.7557     0.1475     0.3769     7.6362     0.0127     2.4201
  409.0000    98.2251   -56.6158     5.2127     5.8848     4.5927     0.1294     0.3477     7.6359     0.0127     2.4572
  409.5000    99.7096   -56.9204     5.6279     6.3970     6.7837     0.0980     0.3293     7.6356     0.0157     2.5101
  410.0000    99.0216   -57.2251     6.2045     7.1005     9.2810     0.0832     0.3106     7.6353     0.0172     2.5169
  410.5000    96.8400   -57.5297     6.9362     7.8268    10.0197     0.0790     0.3076     7.6350     0.0096     2.5199
  411.0000    93.6821   -57.6836     7.9732     8.4489     9.4757     0.0781     0.3067     7.6347     0.0065     2.5252
  411.5000    89.0481   -57.8374     8.7901     9.1206     9.0871     0.0757     0.3030     7.6344     0.0080     2.5289
  412.0000    87.5262   -57.9912     9.1654     9.4428     9.1500     0.0739     0.2992     7.6340     0.0110     2.5289
  412.5000    87.8198   -57.9942     9.3589     9.5744     9.7415     0.0727     0.2930     7.6337     0.0125     2.5282
  413.0000    90.2313   -58.1480     9.5636     9.5736     9.6060     0.0730     0.2892     7.6334     0.0094     2.5266
  413.5000    91.4349   -58.4527     9.9646     9.6396     9.5386     0.0745     0.2904     7.6331     0.0064     2.5228
  414.0000    89.3056   -58.6065    10.1750     9.7739     9.6736     0.0763     0.2940     7.6328     0.0063     2.5213
  414.5000    86.2708   -58.4587    10.3303    10.1212     9.8112     0.0775     0.2943     7.6325     0.0048     2.5213
  415.0000    82.9335   -58.0092    10.6094    10.4814    10.0133     0.0772     0.2925     7.6322     0.0063     2.5206
  415.5000    82.6219   -57.4089    10.8334    10.7790    10.3054     0.0775     0.2901     7.6319     0.0078     2.5228
  416.0000    82.9155   -56.8085    10.9855    11.0853    10.8225     0.0760     0.2889     7.6316     0.0092     2.5251
  416.5000    85.6296   -56.0574    11.1396    11.4001    10.9601     0.0748     0.2908     7.6313     0.0092     2.5273
  417.0000    86.5305   -55.6078    11.3749    11.6260    10.8077     0.0739     0.2911     7.6310     0.0092     2.5296
  417.5000    84.4013   -55.9126    11.4544    11.7880    10.8825     0.0736     0.2859     7.6307     0.0091     2.5273
  418.0000    82.8794   -56.2172    11.6151    11.9520    11.3463     0.0748     0.2799     7.6304     0.0076     2.5228
  418.5000    84.6858   -56.5219    11.7781    12.0345    11.8298     0.0766     0.2766     7.6301     0.0091     2.5190
  419.0000    85.8870   -56.9774    11.9434    12.1177    11.8290     0.0778     0.2754     7.6298     0.0091     2.5205
  419.5000    85.8780   -57.4329    12.1110    12.2013    11.5835     0.0763     0.2760     7.6295     0.0090     2.5265
  420.0000    88.2896   -57.8984    12.1956    12.3711    11.5827     0.0748     0.2748     7.6140     0.0090     2.5288
  420.5000    90.0982   -58.0423    12.2809    12.4567    11.8265     0.0730     0.2712     7.5964     0.0090     2.5280
  421.0000    85.2458   -58.0453    12.4532    12.5426    12.1599     0.0736     0.2677     7.5830     0.0089     2.5250
  421.5000    80.3956   -58.0704    12.4532    12.7171    12.3299     0.0760     0.2652     7.5827     0.0089     2.5220
  422.0000    83.1097   -58.5299    12.5403    12.8051    11.8648     0.0787     0.2640     7.5824     0.0089     2.5174
  422.5000    89.4547   -59.1107    12.7162    12.8038    11.7411     0.0796     0.2647     7.5844     0.0088     2.5167
  423.0000    90.9586   -59.5662    12.8051    12.8924    11.6588     0.0798     0.2674     7.5970     0.0058     2.5136
  423.5000    90.0418   -59.8708    12.8947    12.9813    11.8216     0.0832     0.2688     7.6119     0.0027     2.5053
  424.0000    87.6122   -60.0247    13.0756    12.9799    12.0704     0.0869     0.2676     7.6116     0.0012     2.5023
  424.5000    85.1826   -59.8761    13.0756    12.9788    12.4974     0.0881     0.2652     7.6113    -0.0003     2.5015
  425.0000    83.3582   -59.5782    12.8947    12.8877    12.7607     0.0872     0.2616     7.6110    -0.0004     2.5045
  425.5000    81.5337   -58.6762    12.8051    12.7971    12.4957     0.0854     0.2598     7.6107    -0.0004     2.5083
  426.0000    80.3144   -57.6234    12.8051    12.7960    12.0671     0.0838     0.2595     7.6103     0.0026     2.5113
  426.5000    81.2131   -57.1739    12.8051    12.7949    11.8167     0.0835     0.2616     7.6100     0.0101     2.5114
  427.0000    82.7169   -56.8745    12.8051    12.7051    11.6523     0.0845     0.2674     7.6097     0.0161     2.5098
  427.5000    82.1028   -56.5758    12.8947    12.7040    11.6515     0.0835     0.2695     7.6094     0.0176     2.5105
  428.0000    81.4886   -56.2779    12.8947    12.7029    11.6507     0.0811     0.2691     7.6091     0.0146     2.5151
  428.5000    81.1770   -56.2809    12.8051    12.7018    12.3177     0.0793     0.2674     7.6240     0.0085     2.5188
  429.0000    80.8654   -56.1323    12.8051    12.7007    12.4032     0.0790     0.2665     7.6237     0.0054     2.5188
  429.5000    81.1852   -55.9845    12.8051    12.6917    11.9775     0.0790     0.2701     7.6264     0.0039     2.5188
  430.0000    84.8009   -55.8367    12.6279    12.6104    11.8109     0.0775     0.2741     7.6383     0.0054     2.5211
  430.5000    85.6795   -55.8404    12.5403    12.4350    11.8927     0.0760     0.2768     7.6379     0.0069     2.5249
  431.0000    83.1467   -55.8434    12.3667    12.3475    12.0587     0.0739     0.2765     7.6224     0.0098     2.5286
  431.5000    78.9217   -55.6956    12.1110    12.0913    11.9742     0.0712     0.2764     7.6221     0.0128     2.5324
  432.0000    75.3162   -55.6986    11.9434    11.9231    11.8066     0.0688     0.2780     7.6066     0.0143     2.5369
  432.5000    77.9426   -55.7016    11.7781    11.7572    11.4824     0.0678     0.2805     7.6063     0.0158     2.5384
  433.0000    80.4884   -55.8554    11.5345    11.6743    11.2373     0.0678     0.2832     7.6060     0.0097     2.5339
  433.5000    81.6896   -56.0092    11.3749    11.4323    10.9249     0.0683     0.2850     7.6057     0.0036     2.5301
  434.0000    84.1012   -56.3139    11.2175    11.1892    10.6331     0.0730     0.2871     7.6054     0.0006     2.5278
  434.5000    88.6307   -56.3169    10.9855    10.8783    10.5583     0.0733     0.2896     7.6051     0.0021     2.5278
  435.0000    88.0166   -56.4707    10.7582    10.5760    10.5576     0.0718     0.2917     7.6201     0.0081     2.5301
