~VERSION INFORMATION
 VERS.                2.0:   CWLS LOG ASCII STANDARD - VERSION 2.0
 WRAP.                 NO:   ONE LINE PER DEPTH STEP
~WELL INFORMATION
#MNEM.UNIT      DATA TYPE    INFORMATION
#----------   ------------   ------------------------------
 STRT.F           16.5000:   START DEPTH
 STOP.F          640.0000:   STOP DEPTH
 STEP.F            0.5000:   STEP LENGTH
 NULL.          -999.2500:   NO VALUE
 COMP. FENIX & SCISSON INC:   COMPANY
 WELL.     11 SX 14 #3-14:   WELL
 FLD .             TEAPOT:   FIELD
 LOC .      S14 T38N R78W:   LOCATION
 CNTY.            NATRONA:   COUNTY
 STAT.            WYOMING:   STATE
 CTRY. UNITED STATES OF AMERICA:   COUNTRY
 SRVC.            Unknown:   SERVICE COMPANY
 DATE.        18-DEC-1978:   LOGDATE
 API .       490251075700:   API NUMBER
~CURVE INFORMATION
#MNEM.UNIT       API CODE    CURVE DESCRIPTION
#----------   ------------   ------------------------------
 DEPT.F                  :   
 SPR .MV     05 010 01 00:   SPONTANEOUS POTENTIAL FROM RES.
 SN  .OHMM   05 040 16 00:   SHORT NORMAL 16"
 IL  .OHMM   05 120 00 00:   INDUCTION LOG
 GRD .GAPI   45 310 01 00:   GAMMA RAY FROM DENSITY LOG
 CALD.IN     45 280 60 00:   CALIPER
 RHOB.G/C3   45 350 01 00:   BULK DENSITY
 DPHI.DEC    45 890 12 00:   DENSITY POROSITY SANDSTONE
 CORR.G/C3   45 356 01 00:   DENSITY CORRECTION
~PARAMETER INFORMATION
#MNEM.UNIT          VALUE    DESCRIPTION
#----------   ------------   ------------------------------
 PD  .                 GL:   PERMANENT DATUM
 EPD .F              5217:   ELEVATION PERMANENT DATUM
 LMF .                 KB:   LOG MEASURED FROM
 DAPD.F                 4:   FEET ABOVE PERMANENT DATUM
 DMF .                 KB:   DRILLING MEASURED FROM
 EKB .F              5221:   KELLING BUSHING
 EGL .F              5217:   GROUND LEVEL
 DATE.           12-18-78:   RUN DATE
 RUN .                  1:   RUN NUMBER
 DD  .F               653:   DEPTH DRILLER
 DL  .F               640:   DEPTH LOGGER
 BLI .F               634:   BOTTOM LOG INTERVAL
 TLI .F                32:   TOP LOG INTERVAL
 CS  .IN            8.625:   CASING SIZE
 CBD .F                40:   CASING BOTTOM DRILLER
 CBL .F                30:   CASING BOTTOM LOGGER
 BS  .IN            7.875:   BIT SIZE
 BSD .F               653:   BIT SIZE AT DEPTH
 DFT .                KCL:   DRILLING FLUID TYPE
 DFD .                8.3:   DRILLING FLUID DENSITY
 DFV .                 36:   DRILLING FLUID VISCOSITY
 DFPH.               12.5:   DRILLING FLUID PH
 DFL .               12.3:   DRILLING FLUID LOSS
 MSS .           FLOWLINE:   MUD SAMPLE SOURCE
 MST .F                56:   MUD SAMPLE TEMPERATURE
 RMF .OHMM            .44:   RESISTIVITY MUD FILTRATE SAMPLE
 MFST.F                58:   MUD FILTRATE SAMPLE TEMPERATURE
 RMC .OHMM            .58:   RESISTIVITY MUD CAKE
 MCST.F                66:   MUD CAKE SAMPLE TEMPERATURE
 MFSS.           MEASURED:   MUD FILTRATE SAMPLE SOURCE
 MCSS.           MEASURED:   MUD CAKE SAMPLE SOURCE
 BHT .F                58:   BOTTOM HOLE TEMPERATURE
 TCS .HRS               4:   TIME CURCULATED STOPPED
 MRT .F                58:   MAXIMUM RECORDED TEMPERATURE
 LUL .             CASPER:   LOGGING UNIT LOCATION
 ENGI.         B. ROLLINS:   RECORDING ENGINEER
 WITN.              AMEND:   WITNESSED BY
 CLNT.            A2DTECH:   CLIENT CODE
 ORIG.           5" PRINT:   ORIGIN OF DATA
 UWI .       490251075700:   UNIQUE WELL ID
 DICO. A2D Technologies, Inc.:   DIGITIZING COMPANY
~OTHER INFORMATION
~A   DEPT      SPR         SN         IL         GRD      CALD       RHOB       DPHI       CORR   
# ...
   57.0000   -29.0600     7.8210     7.5960    76.1750     8.0700     2.4260     0.1730     0.1140
   57.5000   -29.7890     8.1630     7.4310    76.6820     8.0830     2.4060     0.1870     0.1180
   58.0000   -30.5120     8.4070     7.0560    76.8870     8.0850     2.3730     0.2000     0.1320
   58.5000   -30.8460     8.4850     6.5690    76.8770     8.0880     2.3500     0.2120     0.1640
   59.0000   -29.4320     7.5910     6.0810    77.3880     8.0910     2.3370     0.2150     0.1790
   59.5000   -28.1080     6.7740     5.6650    81.9930     8.0940     2.3360     0.2050     0.1780
   60.0000   -27.9150     6.0970     5.7400    88.6420     8.0960     2.3460     0.1860     0.1530
   60.5000   -28.8410     5.4700     5.8150    89.8300     8.0510     2.3690     0.1740     0.1210
   61.0000   -29.0550     4.8440     5.8900    89.3760     7.9360     2.3910     0.1680     0.0910
   61.5000   -29.0180     4.4090     6.0190    87.5210     7.8220     2.3990     0.1710     0.0710
   62.0000   -28.9720     5.0030     6.2780    82.8600     7.7090     2.4030     0.1770     0.0630
   62.5000   -28.9260     5.7660     6.8820    79.6770     7.6620     2.3950     0.1810     0.0550
   63.0000   -28.8790     6.5280     8.0140    78.4410     7.7440     2.3890     0.1810     0.0530
   63.5000   -28.8310     7.2980     9.1460    77.6540     7.8220     2.3870     0.1800     0.0510
   64.0000   -28.7840     8.0950    10.2780    76.9350     7.8820     2.3880     0.1800     0.0510
   64.5000   -28.7340     8.8920    10.7650    76.2200     7.8770     2.3890     0.1790     0.0510
   65.0000   -28.6080     9.6890    10.8830    75.6770     7.8740     2.3920     0.1760     0.0500
   65.5000   -28.1280    10.4860    11.1400    75.6620     7.8710     2.3950     0.1770     0.0500
   66.0000   -27.6520    11.2260    11.3830    77.0820     7.8680     2.3970     0.1830     0.0490
   66.5000   -27.1760    11.9590    11.6250    79.0690     7.8650     2.3890     0.1900     0.0520
   67.0000   -27.0000    12.6130    11.8680    81.1600     7.8620     2.3760     0.1860     0.0600
   67.5000   -27.2350    12.9270    12.1100    82.1920     7.8820     2.3750     0.1810     0.0680
   68.0000   -27.2960    13.2110    12.3530    82.0260     7.9720     2.3810     0.1800     0.0630
   68.5000   -27.2640    13.4950    12.5950    80.3220     8.0710     2.3840     0.1960     0.0480
   69.0000   -27.1170    13.7790    12.8480    77.7640     8.1590     2.3700     0.1990     0.0380
   69.5000   -26.9730    13.9890    13.0310    75.2570     8.1710     2.3590     0.1980     0.0440
   70.0000   -26.8310    14.0700    13.2230    74.1970     8.1760     2.3640     0.1740     0.0510
   70.5000   -26.7370    14.1520    13.4540    74.4990     8.1690     2.3900     0.1500     0.0550
   71.0000   -27.0150    14.2330    13.4090    75.6980     8.1610     2.4160     0.1360     0.0560
   71.5000   -27.5880    14.3140    13.3380    78.1140     8.1860     2.4430     0.1250     0.0510
   72.0000   -28.2560    14.3960    13.8480    78.6650     8.2360     2.4680     0.1190     0.0440
   72.5000   -28.7180    14.4770    14.6820    77.7050     8.2280     2.4830     0.1350     0.0310
   73.0000   -28.7510    14.5580    15.3250    75.0250     8.1500     2.4690     0.1470     0.0270
   73.5000   -28.7900    14.6180    15.3940    72.3800     8.0180     2.4510     0.1580     0.0260
   74.0000   -28.8300    14.6180    15.4630    70.5210     8.0050     2.4320     0.1650     0.0240
   74.5000   -28.8710    14.6180    15.5310    71.5870     8.0570     2.4120     0.1710     0.0200
   75.0000   -28.9560    14.6180    15.6000    74.8280     8.0210     2.4030     0.1740     0.0150
   75.5000   -29.2460    14.6180    15.6690    78.0820     7.9210     2.4000     0.1740     0.0110
   76.0000   -29.5350    14.6180    15.7380    80.0370     7.8280     2.3990     0.1790     0.0030
   76.5000   -29.8230    14.6180    15.8070    79.9890     7.7820     2.3940     0.1870    -0.0040
   77.0000   -30.0950    14.6180    15.8760    79.9680     7.8130     2.3850     0.1880    -0.0020
   77.5000   -30.1710    14.6180    15.9450    79.9420     7.8440     2.3770     0.1860    -0.0010
   78.0000   -30.2390    14.6180    16.0130    79.9090     7.8740     2.3780     0.1830     0.0010
   78.5000   -30.2660    14.6510    16.0820    79.8650     7.9040     2.3820     0.1830     0.0020
   79.0000   -29.5860    14.8340    16.1510    80.3690     7.9620     2.3850     0.1840     0.0030
   79.5000   -28.9780    15.0170    16.2000    81.1430     8.0560     2.3850     0.1860     0.0040
   80.0000   -28.5270    15.1990    16.2350    81.9170     8.1480     2.3810     0.1880     0.0050
   80.5000   -28.4620    15.3820    16.2700    82.6920     8.2200     2.3780     0.1870     0.0060
   81.0000   -28.7730    15.5650    16.3060    83.4680     8.2220     2.3770     0.1850     0.0070
   81.5000   -29.1010    15.7370    16.3410    84.1520     8.2260     2.3800     0.1850     0.0080
   82.0000   -29.7310    15.7370    16.3760    83.8030     8.2290     2.3800     0.1860     0.0090
   82.5000   -30.4020    15.7370    16.4120    83.1540     8.2330     2.3790     0.1810     0.0100
   83.0000   -31.2060    15.7370    16.4470    81.4590     8.2370     2.3820     0.1780     0.0100
   83.5000   -32.1170    15.7370    16.4820    79.7270     8.2160     2.3910     0.1790     0.0100
   84.0000   -32.4740    15.7370    16.5180    77.5170     8.1660     2.3930     0.1780     0.0110
   84.5000   -32.4410    15.7370    16.5530    75.1050     8.0450     2.3910     0.1770     0.0110
   85.0000   -32.4100    15.7360    16.5880    74.4780     8.0080     2.3940     0.1680     0.0110
   85.5000   -32.3780    15.7390    16.6320    74.3820     8.0140     2.4030     0.1650     0.0110
   86.0000   -32.3380    15.5820    16.5410    74.2670     8.0330     2.4140     0.1680     0.0120
   86.5000   -32.2710    15.4200    16.4200    76.2560     8.0510     2.4100     0.1710     0.0120
   87.0000   -33.3530    15.2580    16.2990    77.7290     8.1140     2.4020     0.1760     0.0120
   87.5000   -34.2970    15.0950    16.1780    78.1200     8.2140     2.3960     0.1760     0.0130
   88.0000   -34.1300    14.9330    15.8430    78.0100     8.2450     2.3970     0.1760     0.0130
   88.5000   -34.6210    14.7710    15.5070    77.9430     8.2300     2.3970     0.1800     0.0130
   89.0000   -35.3930    14.6080    15.1720    78.0370     8.2060     2.3920     0.1840     0.0130
   89.5000   -36.0900    14.4460    14.8360    79.0940     8.2290     2.3840     0.1860     0.0120
   90.0000   -36.1050    14.2840    14.5010    81.3420     8.3430     2.3780     0.1840     0.0100
   90.5000   -36.2460    14.1210    14.1650    83.6730     8.4450     2.3830     0.1820     0.0080
   91.0000   -37.4680    13.9590    13.8300    85.7950     8.0660     2.3850     0.1810     0.0060
   91.5000   -38.7190    13.7970    13.4940    87.0930     8.0290     2.3860     0.1790     0.0040
   92.0000   -39.0660    13.6340    13.1590    87.6080     8.2630     2.3880     0.1780     0.0020
   92.5000   -38.6470    13.4720    12.8230    89.7620     8.2960     2.3930     0.1760     0.0020
   93.0000   -38.3540    13.2600    12.3200    90.8620     8.2970     2.3940     0.1740     0.0040
   93.5000   -40.8570    12.7160    11.7520    88.6490     8.2970     2.3950     0.1710     0.0050
   94.0000   -43.3390    12.1730    11.1250    86.6870     8.2970     2.4060     0.1590     0.0060
   94.5000   -43.9750    11.6290    10.4780    88.2460     8.2970     2.4190     0.1470     0.0070
   95.0000   -44.1240    10.9570     9.8310    91.6760     8.2970     2.4370     0.1370     0.0090
   95.5000   -44.3300    10.1880     9.1840    93.3990     8.2630     2.4550     0.1330     0.0100
   96.0000   -45.4010     9.4200     8.7580    95.8970     8.1850     2.4640     0.1310     0.0110
   96.5000   -46.5060     8.8190     8.3910    98.2860     8.1080     2.4660     0.1280     0.0120
   97.0000   -47.1050     8.2540     8.0230    98.8510     8.0310     2.4700     0.1240     0.0130
