~VERSION INFORMATION
 VERS.                2.0:   CWLS LOG ASCII STANDARD - VERSION 2.0
 WRAP.                 NO:   ONE LINE PER DEPTH STEP
~WELL INFORMATION
#MNEM.UNIT      DATA TYPE    INFORMATION
#----------   ------------   ------------------------------
 STRT.F           20.0000:   START DEPTH
 STOP.F          599.0000:   STOP DEPTH
 STEP.F            0.5000:   STEP LENGTH
 NULL.          -999.2500:   NO VALUE
 COMP. FENIX & SCISSON INC:   COMPANY
 WELL.    47 SX 34 #47-34:   WELL
 FLD .             TEAPOT:   FIELD
 LOC .      S34 T39N R78W:   LOCATION
 CNTY.            NATRONA:   COUNTY
 STAT.            WYOMING:   STATE
 CTRY. UNITED STATES OF AMERICA:   COUNTRY
 SRVC.       Schlumberger:   SERVICE COMPANY
 DATE.        24-JAN-1979:   LOGDATE
 API .       490251077000:   API NUMBER
~CURVE INFORMATION
#MNEM.UNIT       API CODE    CURVE DESCRIPTION
#----------   ------------   ------------------------------
 DEPT.F                  :   
 SN  .OHMM   05 040 16 00:   SHORT NORMAL 16"
 ILD .OHMM   05 120 46 00:   INDUCTION LOG DEEP
 SPR .MV     05 010 01 00:   SPONTANEOUS POTENTIAL FROM RES.
 CALD.IN     45 280 60 00:   CALIPER
 GRD .GAPI   45 310 01 00:   GAMMA RAY FROM DENSITY LOG
 DPHI.DEC    45 890 12 00:   DENSITY POROSITY SANDSTONE
 CORR.G/C3   45 356 01 00:   DENSITY CORRECTION
 RHOB.G/C3   45 350 01 00:   BULK DENSITY
~PARAMETER INFORMATION
#MNEM.UNIT          VALUE    DESCRIPTION
#----------   ------------   ------------------------------
 PD  .                 GL:   PERMANENT DATUM
 EPD .F              5132:   ELEVATION PERMANENT DATUM
 LMF .                 KB:   LOG MEASURED FROM
 DAPD.F                 4:   FEET ABOVE PERMANENT DATUM
 DMF .                 KB:   DRILLING MEASURED FROM
 EKB .F              5136:   KELLING BUSHING
 EGL .F              5132:   GROUND LEVEL
 DATE.            1-24-79:   RUN DATE
 RUN .                  1:   RUN NUMBER
 DD  .F               600:   DEPTH DRILLER
 DL  .F               600:   DEPTH LOGGER
 BLI .F               594:   BOTTOM LOG INTERVAL
 TLI .F                28:   TOP LOG INTERVAL
 CS  .IN            8.625:   CASING SIZE
 CBD .F                40:   CASING BOTTOM DRILLER
 BS  .IN            7.875:   BIT SIZE
 BSD .F               600:   BIT SIZE AT DEPTH
 DFT .                KCL:   DRILLING FLUID TYPE
 DFD .                8.8:   DRILLING FLUID DENSITY
 DFV .                 60:   DRILLING FLUID VISCOSITY
 DFPH.                9.5:   DRILLING FLUID PH
 DFL .               10.8:   DRILLING FLUID LOSS
 MSS .           FLOWLINE:   MUD SAMPLE SOURCE
 RMS .OHMM            .22:   RESISTIVITY MUD SAMPLE
 MST .F                60:   MUD SAMPLE TEMPERATURE
 RMF .OHMM             .2:   RESISTIVITY MUD FILTRATE SAMPLE
 MFST.F                61:   MUD FILTRATE SAMPLE TEMPERATURE
 RMC .OHMM             .3:   RESISTIVITY MUD CAKE
 MCST.F                61:   MUD CAKE SAMPLE TEMPERATURE
 MFSS.           MEASURED:   MUD FILTRATE SAMPLE SOURCE
 MCSS.           MEASURED:   MUD CAKE SAMPLE SOURCE
 RMB .OHMM            .23:   RESISTIVITY MUD AT BHT
 BHT .F                58:   BOTTOM HOLE TEMPERATURE
 TCS .HRS               4:   TIME CURCULATED STOPPED
 MRT .F                58:   MAXIMUM RECORDED TEMPERATURE
 LUN .               3029:   LOGGING UNIT NUMBER
 LUL .             CASPER:   LOGGING UNIT LOCATION
 ENGI.         B. ROLLINS:   RECORDING ENGINEER
 WITN.         RICHARDSON:   WITNESSED BY
 CLNT.            A2DTECH:   CLIENT CODE
 ORIG.           5" PRINT:   ORIGIN OF DATA
 UWI .       490251077000:   UNIQUE WELL ID
 DICO. A2D Technologies, Inc.:   DIGITIZING COMPANY
~OTHER INFORMATION
~A   DEPT       SN        ILD        SPR         CALD       GRD        DPHI       CORR       RHOB 
   20.0000  -999.2500  -999.2500  -999.2500     8.0439    93.5000     0.1717     0.0239     2.4012
   20.5000  -999.2500  -999.2500  -999.2500     8.0439    90.3000     0.1734     0.0190     2.3957
   21.0000  -999.2500  -999.2500  -999.2500     8.0439    95.1000     0.1759     0.0180     2.3827
   21.5000  -999.2500  -999.2500  -999.2500     8.0439    90.9254     0.1774     0.0279     2.3892
   22.0000  -999.2500  -999.2500  -999.2500     8.0439    87.8932     0.1795     0.0341     2.3816
   22.5000  -999.2500  -999.2500  -999.2500     8.0439    86.4103     0.1914     0.0257     2.3569
   23.0000  -999.2500  -999.2500  -999.2500     8.0439    86.9704     0.2026     0.0264     2.3380
   23.5000  -999.2500  -999.2500  -999.2500     8.0437    85.2422     0.2032     0.0281     2.3374
   24.0000  -999.2500  -999.2500  -999.2500     8.0315    83.6542     0.1988     0.0299     2.3461
   24.5000  -999.2500  -999.2500  -999.2500     8.0047    85.3818     0.1916     0.0273     2.3547
   25.0000  -999.2500  -999.2500  -999.2500     7.9774    86.1307     0.1897     0.0243     2.3611
   25.5000  -999.2500  -999.2500  -999.2500     7.9094    82.4022     0.1935     0.0212     2.3526
   26.0000  -999.2500  -999.2500  -999.2500     7.7908    81.2483     0.1991     0.0180     2.3432
   26.5000  -999.2500  -999.2500  -999.2500     7.6730    86.2482     0.2052     0.0217     2.3408
   27.0000  -999.2500  -999.2500  -999.2500     7.5548    83.2945     0.2060     0.0259     2.3371
   27.5000  -999.2500  -999.2500  -999.2500     7.4365    80.6825     0.2120     0.0287     2.3296
   28.0000     7.3361     9.9388   -20.3000     7.3179    82.5154     0.2112     0.0286     2.3267
   28.5000     7.4039    10.0941   -28.7000     7.2069    82.8732     0.2106     0.0241     2.3281
   29.0000     7.5874    10.3027   -15.0000     7.2379    82.0027     0.2102     0.0293     2.3296
   29.5000     7.7986    10.4996   -14.4808     7.2740    81.8731     0.2067     0.0307     2.3357
   30.0000     8.0708    10.6892   -12.6206     7.4669    84.7434     0.2018     0.0284     2.3423
   30.5000     8.3526    10.9101    -9.1364     7.5478    86.8779     0.1985     0.0262     2.3492
   31.0000     8.6575    11.1356   -11.0178     7.6473    86.4655     0.1999     0.0296     2.3480
   31.5000     8.6575    11.3658   -13.1991     7.8514    86.1089     0.2004     0.0367     2.3437
   32.0000     8.7375    11.6007   -14.2275     7.9019    86.1035     0.1944     0.0400     2.3524
   32.5000     8.7375    11.8405   -11.9385     7.9236    87.1837     0.1855     0.0316     2.3656
   33.0000     8.9722    12.0852   -10.1226     7.9436    88.2324     0.1773     0.0258     2.3790
   33.5000     9.2177    12.3350    -8.4736     7.9442    89.3129     0.1733     0.0287     2.3854
   34.0000     9.4699    12.5899    -8.4822     7.9442    88.2235     0.1828     0.0325     2.3735
   34.5000     9.7289    12.7871    -8.2143     7.9444    85.8452     0.1874     0.0362     2.3666
   35.0000     9.9951    12.8975    -7.9291     7.9462    85.3061     0.1882     0.0311     2.3677
   35.5000    10.2686    13.0089    -7.6429     7.8271    86.3137     0.1890     0.0253     2.3646
   36.0000    10.5495    13.1212    -7.3574     7.9122    85.0065     0.1911     0.0260     2.3565
   36.5000    10.8381    13.2345    -7.0712     8.0462    82.8510     0.1940     0.0302     2.3510
   37.0000    10.9974    13.3415    -6.7713     8.1818    85.7074     0.1925     0.0395     2.3562
   37.5000    10.7670    13.3415    -6.6106     8.3173    88.3900     0.1903     0.0466     2.3615
   38.0000    10.6119    13.3415    -6.4270     8.4520    89.2343     0.1927     0.0455     2.3551
   38.5000    10.4591    13.3415    -6.0820     8.5559    89.7303     0.1924     0.0419     2.3585
   39.0000    10.3084    13.3415    -5.4216     8.4914    88.7880     0.1899     0.0492     2.3628
   39.5000    10.1600    13.5579    -4.7995     8.4297    87.5956     0.1874     0.0577     2.3663
   40.0000    10.0307    13.8021    -4.1728     8.3684    88.5555     0.1856     0.0623     2.3653
   40.5000    10.0297    14.0508    -3.5198     8.3072    91.0140     0.1880     0.0658     2.3639
   41.0000    10.1359    14.3039    -3.9630     8.2444    90.5123     0.1845     0.0657     2.3733
   41.5000    10.2306    14.5616    -4.4889     8.1659    89.6988     0.1800     0.0598     2.3791
   42.0000    10.3261    14.8512    -5.0136     8.0850    91.9928     0.1872     0.0433     2.3670
   42.5000    10.4224    15.1559    -5.5283     8.0014    94.4692     0.1805     0.0302     2.3777
   43.0000    10.5196    15.6005    -5.9231     7.9930    89.2880     0.1703     0.0200     2.3938
   43.5000    10.6177    15.5785    -5.9807     8.0043    83.6928     0.1677     0.0089     2.4031
   44.0000    10.7168    15.5405    -6.0453     8.0159    78.2517     0.1677     0.0125     2.3997
   44.5000    10.7969    15.5026    -6.0939     8.0158    81.2338     0.1779     0.0266     2.3832
   45.0000    10.6089    15.4647    -5.9445     7.9884    84.8825     0.1859     0.0309     2.3669
   45.5000    10.4545    15.2997    -5.8000     8.0512    88.5069     0.1914     0.0315     2.3573
   46.0000    10.3023    15.1072    -5.6527     8.1406    92.2561     0.1972     0.0302     2.3516
   46.5000    10.1524    14.9172    -5.4890     8.1955    92.8464     0.1945     0.0350     2.3538
   47.0000    10.0046    14.7295    -6.1266     8.1643    89.4518     0.1924     0.0343     2.3559
   47.5000     9.8590    14.5442    -6.8279     8.1960    87.2382     0.1962     0.0324     2.3526
   48.0000     9.7156    14.3612    -7.5357     8.2408    90.0185     0.1988     0.0344     2.3486
   48.5000     9.6596    14.1805    -8.2524     8.2099    92.0806     0.1936     0.0377     2.3535
   49.0000     9.6278    14.0021    -8.6776     8.1722    90.4955     0.1988     0.0378     2.3543
   49.5000     9.5960    13.8417    -9.2028     8.1316    88.9807     0.2052     0.0351     2.3452
   50.0000     9.5644    13.8417    -9.7141     8.1946    87.4446     0.2052     0.0324     2.3386
   50.5000     9.5329    13.8417    -9.7350     8.2372    86.6046     0.1998     0.0298     2.3432
   51.0000     9.5015    13.8451    -9.8569     8.1942    87.5017     0.1956     0.0262     2.3512
   51.5000     9.3351    13.8460   -11.0101     8.1638    88.3257     0.1901     0.0202     2.3594
   52.0000     9.1141    13.4537   -12.2237     8.2173    88.3087     0.1815     0.0143     2.3710
   52.5000     8.8984    13.0972   -13.4734     8.2359    89.0094     0.1729     0.0167     2.3851
   53.0000     8.6878    12.5398   -14.6835     8.2231    90.7276     0.1644     0.0196     2.3992
   53.5000     8.4997    11.4922   -15.0862     8.2621    92.8428     0.1553     0.0226     2.4134
   54.0000     8.0359    10.5380   -14.6793     8.2749   101.5401     0.1484     0.0198     2.4274
   54.5000     7.6314     9.6734   -18.5530     8.2522   110.1310     0.1422     0.0124     2.4386
   55.0000     7.2472     8.8877   -20.3493     8.2869   118.4713     0.1425     0.0074     2.4410
   55.5000     6.8824     8.2900   -22.2611     8.3413   114.3678     0.1429     0.0100     2.4427
   56.0000     6.5359     7.8783   -23.4607     8.3213   112.6354     0.1394     0.0157     2.4440
   56.5000     6.2069     7.4839   -23.5012     8.3028   112.2643     0.1354     0.0213     2.4559
   57.0000     6.1030     7.1355   -23.9419     8.2843   109.6225     0.1324     0.0269     2.4580
   57.5000     6.1030     7.0558   -24.8558     8.2648   106.8624     0.1287     0.0325     2.4662
   58.0000     6.1030     6.9814   -25.7444     8.3113   104.1170     0.1253     0.0352     2.4704
   58.5000     6.1030     6.9421   -26.6341     8.3624   102.4288     0.1300     0.0333     2.4640
   59.0000     6.1030     7.0393   -27.5352     8.3635   104.4249     0.1351     0.0314     2.4573
   59.5000     6.1031     7.1327   -28.4803     8.3634   106.6485     0.1394     0.0290     2.4506
   60.0000     6.1029     7.2038   -27.5497     8.3636   105.3910     0.1425     0.0243     2.4440
