~VERSION INFORMATION
 VERS.                2.0:   CWLS LOG ASCII STANDARD - VERSION 2.0
 WRAP.                 NO:   ONE LINE PER DEPTH STEP
~WELL INFORMATION
#MNEM.UNIT      DATA TYPE    INFORMATION
#----------   ------------   ------------------------------
 STRT.F           40.0000:   START DEPTH
 STOP.F          950.5000:   STOP DEPTH
 STEP.F            0.5000:   STEP LENGTH
 NULL.          -999.2500:   NO VALUE
 COMP. FENIX & SCISSON INC:   COMPANY
 WELL.       NPR 3 #44-14:   WELL
 FLD .             TEAPOT:   FIELD
 LOC .      S14 T38N R78W:   LOCATION
 CNTY.            NATRONA:   COUNTY
 STAT.            WYOMING:   STATE
 CTRY. UNITED STATES OF AMERICA:   COUNTRY
 SRVC.            Unknown:   SERVICE COMPANY
 DATE.        05-JAN-1979:   LOGDATE
 API .       490251076100:   API NUMBER
~CURVE INFORMATION
#MNEM.UNIT       API CODE    CURVE DESCRIPTION
#----------   ------------   ------------------------------
 DEPT.F                  :   
 SPR .MV     05 010 01 00:   SPONTANEOUS POTENTIAL FROM RES.
 SN  .OHMM   05 040 16 00:   SHORT NORMAL 16"
 IL  .OHMM   05 120 00 00:   INDUCTION LOG
 CALD.IN     45 280 60 00:   CALIPER
 GRD .GAPI   45 310 01 00:   GAMMA RAY FROM DENSITY LOG
 RHOB.G/C3   45 350 01 00:   BULK DENSITY
 DPHI.DEC    45 890 12 00:   DENSITY POROSITY SANDSTONE
 CORR.G/C3   45 356 01 00:   DENSITY CORRECTION
~PARAMETER INFORMATION
#MNEM.UNIT          VALUE    DESCRIPTION
#----------   ------------   ------------------------------
 PD  .                 GL:   PERMANENT DATUM
 EPD .F              5266:   ELEVATION PERMANENT DATUM
 LMF .                 KB:   LOG MEASURED FROM
 DAPD.F                 4:   FEET ABOVE PERMANENT DATUM
 DMF .                 KB:   DRILLING MEASURED FROM
 EKB .F              5270:   KELLING BUSHING
 EGL .F              5266:   GROUND LEVEL
 DATE.             1-5-79:   RUN DATE
 RUN .                  1:   RUN NUMBER
 DD  .F               950:   DEPTH DRILLER
 DL  .F               943:   DEPTH LOGGER
 BLI .F               937:   BOTTOM LOG INTERVAL
 TLI .F                40:   TOP LOG INTERVAL
 CS  .IN            8.625:   CASING SIZE
 CBL .F                40:   CASING BOTTOM LOGGER
 BS  .IN            7.875:   BIT SIZE
 BSD .F               950:   BIT SIZE AT DEPTH
 DFT .                KCL:   DRILLING FLUID TYPE
 DFV .                 42:   DRILLING FLUID VISCOSITY
 DFL .               10.5:   DRILLING FLUID LOSS
 MSS .           FLOWLINE:   MUD SAMPLE SOURCE
 RMS .OHMM            .23:   RESISTIVITY MUD SAMPLE
 RMF .OHMM            .23:   RESISTIVITY MUD FILTRATE SAMPLE
 RMC .OHMM             .2:   RESISTIVITY MUD CAKE
 MFSS.           MEASURED:   MUD FILTRATE SAMPLE SOURCE
 MCSS.           MEASURED:   MUD CAKE SAMPLE SOURCE
 RMB .OHMM             .2:   RESISTIVITY MUD AT BHT
 BHT .F                70:   BOTTOM HOLE TEMPERATURE
 TCS .HRS               5:   TIME CURCULATED STOPPED
 MRT .F                70:   MAXIMUM RECORDED TEMPERATURE
 LUL .             CASPER:   LOGGING UNIT LOCATION
 ENGI.             MILLER:   RECORDING ENGINEER
 WITN.           DINSMORE:   WITNESSED BY
 CLNT.            A2DTECH:   CLIENT CODE
 ORIG.           5" PRINT:   ORIGIN OF DATA
 UWI .       490251076100:   UNIQUE WELL ID
 DICO. A2D Technologies, Inc.:   DIGITIZING COMPANY
~OTHER INFORMATION
~A   DEPT      SPR           SN         IL     CALD        GRD       RHOB       DPHI       CORR   
# ...
  161.5000   -39.8000     6.4410     6.8700     7.8750   105.7260     2.5130     0.1040     0.2650
  162.0000   -39.5680     6.5080     6.8700     7.8060   103.7920     2.5230     0.0990     0.2260
  162.5000   -39.3350     6.5930     6.9100     7.7370   102.3230     2.4830     0.1210     0.1640
  163.0000   -39.1010     6.6780     6.9830     7.6680   110.3980     2.4510     0.1460     0.1010
  163.5000   -38.7990     6.7640     7.0560     7.6030   104.9940     2.4230     0.1670     0.0450
  164.0000   -38.3690     6.8490     7.1280     7.5790   106.3590     2.4090     0.1720     0.0260
  164.5000   -37.9380     6.9340     7.2010     7.5560   103.6590     2.4140     0.1680     0.0210
  165.0000   -37.4870     7.0200     7.2740     7.5340    98.8620     2.4220     0.1650     0.0150
  165.5000   -37.8070     7.1050     7.3470     7.5110    99.8540     2.4190     0.1670     0.0090
  166.0000   -38.3620     7.1900     7.4190     7.4870   102.2230     2.4120     0.1700     0.0080
  166.5000   -38.0720     7.2760     7.4920     7.5230   107.0950     2.4060     0.1760     0.0080
  167.0000   -37.7380     7.3610     7.5650     7.5710   113.5720     2.3990     0.1790     0.0080
  167.5000   -37.4020     7.4630     7.6380     7.6200   112.5870     2.3870     0.1850     0.0080
  168.0000   -37.0710     7.4340     7.7100     7.6690   110.9200     2.3750     0.1980     0.0080
  168.5000   -36.7760     7.3980     7.7830     7.7210   114.1570     2.3630     0.2030     0.0090
  169.0000   -36.7840     7.3620     7.8140     7.7980   112.6260     2.3550     0.2050     0.0090
  169.5000   -36.7870     7.3260     7.8590     7.8810   112.9090     2.3580     0.2020     0.0100
  170.0000   -36.7820     7.2910     7.9050     7.9640   113.0740     2.3610     0.2000     0.0110
  170.5000   -36.4350     7.2560     7.9520     8.0460   108.4840     2.3700     0.1950     0.0190
  171.0000   -36.0410     7.2260     7.9990     8.1160   103.8250     2.3880     0.1830     0.0430
  171.5000   -36.3640     7.1970     8.0450     8.1810   103.0820     2.4070     0.1690     0.0840
  172.0000   -36.7770     7.1680     8.1070     8.2470   105.3120     2.4250     0.1610     0.1040
  172.5000   -37.1970     7.1380     7.9760     8.3120   110.4600     2.4360     0.1560     0.1130
  173.0000   -37.6140     7.1090     7.7010     8.3820   113.6100     2.4240     0.1640     0.0860
  173.5000   -38.0390     7.0790     7.4260     8.4560   115.2340     2.4130     0.1730     0.0700
  174.0000   -38.3990     7.0500     7.3160     8.4590   112.7730     2.4110     0.1750     0.0710
  174.5000   -38.7710     7.0210     7.2990     8.4590   108.3570     2.4070     0.1830     0.0740
  175.0000   -38.9440     6.9970     7.2820     8.4590   105.1880     2.3940     0.1810     0.0850
  175.5000   -38.7880     6.9970     7.2650     8.4600   105.7960     2.4110     0.1740     0.1110
  176.0000   -38.6380     6.9970     7.2480     8.4210   106.2760     2.4340     0.1570     0.1380
  176.5000   -38.4880     6.9970     7.2310     8.3660   104.7100     2.4570     0.1350     0.1580
  177.0000   -38.3380     6.9970     7.2150     8.3110   101.7430     2.4870     0.1250     0.1660
  177.5000   -38.1880     6.9970     7.1980     8.2560   101.0020     2.4820     0.1270     0.1600
  178.0000   -38.0370     6.9970     7.0920     8.2010   102.2800     2.4740     0.1310     0.1500
  178.5000   -37.8870     6.9180     6.9540     8.1450   108.6770     2.4690     0.1340     0.1510
  179.0000   -37.7360     6.8320     6.8150     8.0900   113.5180     2.4760     0.1340     0.1520
  179.5000   -37.5850     6.7450     6.6760     8.0340   116.4680     2.4660     0.1380     0.1380
  180.0000   -37.7400     6.6590     6.5370     8.0190   120.4380     2.4540     0.1440     0.1180
  180.5000   -37.9220     6.5730     6.3990     8.0080   120.0780     2.4420     0.1560     0.0980
  181.0000   -38.1030     6.4860     6.2600     7.9980   120.9700     2.4190     0.1680     0.0790
  181.5000   -38.2840     6.4000     6.1210     7.9890   111.4870     2.3960     0.1820     0.0590
  182.0000   -38.4650     6.3140     6.0960     7.9900   107.3340     2.3910     0.1850     0.0460
  182.5000   -38.6460     6.2090     6.1000     8.0250   109.2070     2.3860     0.1870     0.0330
  183.0000   -38.8280     6.2300     6.1060     8.0590   112.5300     2.3810     0.1890     0.0200
  183.5000   -39.0090     6.2570     6.1120     8.0930   114.9710     2.3870     0.1840     0.0180
  184.0000   -39.1900     6.2830     6.1180     8.1180   110.4550     2.3940     0.1820     0.0230
  184.5000   -39.3710     6.3100     6.1250     8.1020   108.4350     2.3880     0.1870     0.0270
  185.0000   -39.5520     6.3370     6.1310     8.0870   110.6890     2.4240     0.1580     0.0640
  185.5000   -39.7340     6.3640     6.1370     8.0720   103.4070     2.4490     0.1450     0.0870
  186.0000   -39.9150     6.3820     6.1430     8.0570   104.8800     2.4530     0.1460     0.0860
  186.5000   -39.9220     6.3590     6.1510     8.0410   103.3420     2.4540     0.1460     0.0800
  187.0000   -39.9020     6.3400     6.1280     8.0290   108.3080     2.4400     0.1560     0.0680
  187.5000   -39.8820     6.3220     6.0770     8.0170   112.2370     2.4270     0.1620     0.0580
  188.0000   -39.8620     6.3040     6.0260     8.0050   115.4400     2.4240     0.1630     0.0570
  188.5000   -39.8410     6.2850     5.9750     7.9620   114.3620     2.4260     0.1630     0.0570
  189.0000   -39.8200     6.2670     5.9240     7.9040   114.0290     2.4310     0.1580     0.0560
  189.5000   -39.8000     6.2480     5.8730     7.8470   114.9160     2.4320     0.1600     0.0490
  190.0000   -39.7790     6.2300     5.8220     7.7950   111.4800     2.4220     0.1680     0.0330
  190.5000   -39.7580     6.2120     5.8140     7.7700   106.6340     2.4100     0.1770     0.0170
  191.0000   -39.7250     6.1930     5.8050     7.7440   108.9770     2.4070     0.1720     0.0170
  191.5000   -39.6470     6.1750     5.7950     7.7260   111.9030     2.4130     0.1690     0.0250
  192.0000   -39.5710     6.1570     5.7860     7.7530   114.3910     2.4150     0.1680     0.0330
  192.5000   -39.4940     6.1380     5.7770     7.7800   113.5600     2.4180     0.1660     0.0410
  193.0000   -39.4180     6.1200     5.7680     7.8060   113.1040     2.4330     0.1600     0.0450
  193.5000   -39.3430     6.1010     5.7410     7.8320   116.7540     2.4280     0.1630     0.0390
  194.0000   -39.2690     6.0960     5.7100     7.8590   118.8240     2.4200     0.1680     0.0240
  194.5000   -39.1930     6.0240     5.6790     7.8990   116.0380     2.4040     0.1790     0.0080
  195.0000   -39.4520     5.9420     5.6480     7.9410   113.9940     2.3890     0.1850    -0.0010
  195.5000   -40.0300     5.8590     5.6170     7.9830   112.4250     2.3860     0.1870    -0.0060
  196.0000   -40.6040     5.7770     5.6060     8.0250   113.4310     2.3870     0.1860    -0.0010
  196.5000   -41.1800     5.6940     5.5980     8.0410   114.2730     2.3880     0.1860     0.0030
  197.0000   -41.5200     5.6110     5.5900     8.0410   115.2200     2.3880     0.1860     0.0080
  197.5000   -41.3810     5.5290     5.5820     8.0410   116.0520     2.3890     0.1860     0.0090
  198.0000   -41.2250     5.4460     5.5740     8.0400   111.4580     2.3850     0.1870     0.0090
  198.5000   -41.0660     5.3590     5.5650     8.0310   108.3300     2.3760     0.1930     0.0070
  199.0000   -40.9050     5.3100     5.5600     8.0230   109.8040     2.3840     0.1890     0.0180
  199.5000   -40.6970     5.3510     5.5600     8.0150   111.5180     2.3950     0.1820     0.0400
  200.0000   -40.5500     5.3830     5.6360     8.0060   109.5950     2.4060     0.1740     0.0680
  200.5000   -40.5520     5.4140     5.6850     7.9900   105.5920     2.4160     0.1670     0.0950
  201.0000   -40.5620     5.4450     5.7340     7.9460   102.8220     2.4270     0.1590     0.1020
  201.5000   -40.5720     5.4760     5.7820     7.9030   100.5210     2.4380     0.1550     0.0990
