~VERSION INFORMATION
 VERS.                2.0:   CWLS LOG ASCII STANDARD - VERSION 2.0
 WRAP.                 NO:   ONE LINE PER DEPTH STEP
~WELL INFORMATION
#MNEM.UNIT      DATA TYPE    INFORMATION
#----------   ------------   ------------------------------
 STRT.F            3.5000:   START DEPTH
 STOP.F          523.0000:   STOP DEPTH
 STEP.F            0.5000:   STEP LENGTH
 NULL.          -999.2500:   NO VALUE
 COMP.       F D SERV INC:   COMPANY
 WELL.    88-8 SX 3 #88-3:   WELL
 FLD .             TEAPOT:   FIELD
 LOC .       S3 T38N R78W:   LOCATION
 CNTY.            NATRONA:   COUNTY
 STAT.            WYOMING:   STATE
 CTRY. UNITED STATES OF AMERICA:   COUNTRY
 SRVC.      Western Atlas:   SERVICE COMPANY
 DATE.        28-NOV-1992:   LOGDATE
 API .       490252256200:   API NUMBER
~CURVE INFORMATION
#MNEM.UNIT       API CODE    CURVE DESCRIPTION
#----------   ------------   ------------------------------
 DEPT.F                  :   
 GRR .GAPI   07 310 01 00:   GAMMA RAY
 RILD.OHMM   07 120 46 00:   INDUCTION LOG DEEP RESISTIVITY
 RILM.OHMM   07 120 44 00:   RESITIVITY LONG MEDIUM
 C13 .IN     45 280 13 00:   CALIPER X
 PORZ.DEC    45 890 12 00:   DENSITY POROSITY SANDSTONE
 NPHI.DEC    42 890 03 00:   NEUTRON POROSITY SANDSTONE
 ZCOR.G/C3   45 356 01 00:   DENSITY CORRECTION
 ZDEN.G/C3   45 350 01 00:   BULK DENSITY
~PARAMETER INFORMATION
#MNEM.UNIT          VALUE    DESCRIPTION
#----------   ------------   ------------------------------
 PD  .                 GL:   PERMANENT DATUM
 EPD .F              5126:   ELEVATION PERMANENT DATUM
 LMF .                 KB:   LOG MEASURED FROM
 DAPD.F                10:   FEET ABOVE PERMANENT DATUM
 DMF .                 KB:   DRILLING MEASURED FROM
 EKB .F              5136:   KELLING BUSHING
 EDF .F              5135:   DRILLING FLOOR
 EGL .F              5126:   GROUND LEVEL
 DATE.        28-NOV-1992:   RUN DATE
 RUN .                  1:   RUN NUMBER
 DD  .F               525:   DEPTH DRILLER
 DL  .F               525:   DEPTH LOGGER
 BLI .F               516:   BOTTOM LOG INTERVAL
 TLI .F                76:   TOP LOG INTERVAL
 CS  .IN            8.625:   CASING SIZE
 CBD .F                95:   CASING BOTTOM DRILLER
 CBL .F                76:   CASING BOTTOM LOGGER
 BS  .IN            7.875:   BIT SIZE
 BSD .F               525:   BIT SIZE AT DEPTH
 DFT .           AIR FOAM:   DRILLING FLUID TYPE
 MRT .F                70:   MAXIMUM RECORDED TEMPERATURE
 LUN .            HL-6274:   LOGGING UNIT NUMBER
 LUL .             CASPER:   LOGGING UNIT LOCATION
 ENGI.             RAUTIO:   RECORDING ENGINEER
 WITN.           ED REISH:   WITNESSED BY
 CLNT.            A2DTECH:   CLIENT CODE
 ORIG.           5" PRINT:   ORIGIN OF DATA
 UWI .       490252256200:   UNIQUE WELL ID
 DICO. A2D Technologies, Inc.:   DIGITIZING COMPANY
~OTHER INFORMATION
~A    DEPT     GRR       RILD       RILM        C13       PORZ       NPHI       ZCOR       ZDEN   
# ...
  449.0000   109.9282    13.0679    13.1057     8.0184     0.1489     0.2564     0.0577     2.4035
  449.5000   111.1388    12.9778    12.9948     8.0032     0.1443     0.2600     0.0623     2.4135
  450.0000   113.8554    12.7112    12.8392     8.0030     0.1357     0.2630     0.0697     2.4267
  450.5000   116.5735    12.4500    12.5773     7.9878     0.1296     0.2618     0.0727     2.4358
  451.0000   115.3744    12.3642    12.4051     8.0027     0.1230     0.2594     0.0727     2.4470
  451.5000   113.5729    12.1101    12.2370     8.0026     0.1209     0.2585     0.0727     2.4510
  452.0000   112.9748    12.1046    12.2390     8.0024     0.1206     0.2588     0.0577     2.4500
  452.5000   112.6807    11.9437    12.1561     8.0022     0.1306     0.2603     0.0532     2.4335
  453.0000   112.6868    11.9437    12.0735     8.0021     0.1360     0.2612     0.0562     2.4260
  453.5000   112.3912    11.9437    11.8272     8.0020     0.1381     0.2615     0.0547     2.4207
  454.0000   112.3984    11.9437    11.7471     8.0169     0.1378     0.2609     0.0517     2.4237
  454.5000   111.5005    11.9437    11.8307     8.0167     0.1348     0.2609     0.0487     2.4267
  455.0000   110.3000    11.7795    11.8323     8.0015     0.1321     0.2612     0.0472     2.4320
  455.5000   110.0060    11.7795    11.9161     8.0164     0.1300     0.2627     0.0442     2.4350
  456.0000   110.6156    11.6983    11.9177     8.0464     0.1282     0.2639     0.0457     2.4388
  456.5000   109.7163    11.6176    11.9192     8.0312     0.1255     0.2633     0.0442     2.4434
  457.0000   110.3259    11.6176    11.9209     8.0310     0.1231     0.2624     0.0412     2.4479
  457.5000   111.2353    11.6176    11.9228     8.0007     0.1204     0.2627     0.0457     2.4524
  458.0000   112.4459    11.6176    11.9244     8.0157     0.1168     0.2648     0.0472     2.4567
  458.5000   115.8705    11.5375    11.9260     8.0155     0.1171     0.2666     0.0487     2.4552
  459.0000   118.1817    11.4948    11.7634     8.0154     0.1186     0.2660     0.0412     2.4537
  459.5000   117.2839    11.4457    11.7235     8.0303     0.1167     0.2651     0.0337     2.4604
  460.0000   114.5788    11.3965    11.6051     8.0150     0.1125     0.2642     0.0412     2.4694
  460.5000   118.6111    11.3474    11.4470     8.0149     0.1083     0.2635     0.0472     2.4740
  461.0000   119.8137    11.2982    11.4486     8.0148     0.1068     0.2624     0.0517     2.4724
  461.5000   118.6054    11.2047    11.4501     8.0146     0.1071     0.2630     0.0517     2.4671
  462.0000   117.3970    11.0498    11.3725     8.0145     0.1119     0.2642     0.0502     2.4596
  462.5000   116.1893    10.8972    11.2956     8.0143     0.1167     0.2642     0.0532     2.4498
  463.0000   114.9817    10.8213    11.2191     8.0142     0.1203     0.2621     0.0624     2.4476
  463.5000   114.3764    10.8206    11.1432     8.0140     0.1224     0.2606     0.0727     2.4476
  464.0000   113.7711    10.7453    11.0681     8.0139     0.1200     0.2624     0.0757     2.4528
  464.5000   115.8761    10.6703    10.9027     8.0137     0.1101     0.2654     0.0547     2.4716
  465.0000   118.5841    10.6696    10.7204     8.0136     0.1020     0.2684     0.0487     2.4799
  465.5000   122.1957    10.6689    10.7009     8.0134     0.0998     0.2678     0.0487     2.4859
  466.0000   124.3013    10.6682    10.7746     8.0133     0.1023     0.2672     0.0457     2.4849
  466.5000   121.8881    10.6675    10.7737     8.0131     0.1059     0.2660     0.0412     2.4776
  467.0000   117.9696    10.6667    10.7730     8.0130     0.1107     0.2648     0.0382     2.4708
  467.5000   118.8704    10.6660    10.8472     8.0128     0.1147     0.2636     0.0382     2.4633
  468.0000   120.7309    10.6653    10.7714     8.0277     0.1158     0.2627     0.0412     2.4580
  468.5000   122.4784    10.6644    10.8458     8.0270     0.1140     0.2618     0.0489     2.4610
  469.0000   122.4756    10.6637    10.7700     8.0262     0.1128     0.2609     0.0547     2.4618
  469.5000   121.5692    10.6630    10.7693     8.0255     0.1131     0.2612     0.0517     2.4603
  470.0000   121.9276    10.6623    10.6941     8.0247     0.1134     0.2627     0.0532     2.4610
  470.5000   124.5748    10.6615    10.6197     8.0240     0.1128     0.2636     0.0577     2.4633
  471.0000   124.8739    10.5873    10.4729     8.0232     0.1127     0.2630     0.0532     2.4617
  471.5000   124.2679    10.5136    10.1861     8.0225     0.1161     0.2624     0.0487     2.4610
  472.0000   123.3374    10.3655    10.1150     8.0217     0.1167     0.2648     0.0442     2.4565
  472.5000   120.3459    10.1545    10.0445     8.0210     0.1155     0.2642     0.0442     2.4587
  473.0000   117.9334    10.0143     9.9430     8.0202     0.1125     0.2636     0.0472     2.4640
  473.5000   116.7257    10.0137     9.8994     8.0195     0.1092     0.2639     0.0517     2.4700
  474.0000   120.3657    10.0130     9.7680     8.0187     0.1059     0.2642     0.0532     2.4752
  474.5000   125.1531     9.9433     9.6331     8.0180     0.1038     0.2654     0.0487     2.4782
  475.0000   125.1503     9.9425     9.5659     8.0172     0.1035     0.2672     0.0442     2.4805
  475.5000   126.3522     9.8733     9.3579     8.0165     0.1017     0.2687     0.0442     2.4812
  476.0000   127.5542     9.8046     9.1120     8.0157     0.0989     0.2705     0.0490     2.4850
  476.5000   126.3458     9.6023     8.9860     8.0150     0.0971     0.2757     0.0547     2.4880
  477.0000   122.7285     9.4044     8.9596     8.0142     0.0965     0.2789     0.0577     2.4895
  477.5000   120.9185     9.2106     8.8613     8.0135     0.0980     0.2810     0.0562     2.4857
  478.0000   122.7229     9.0208     8.7994     8.0127     0.1005     0.2819     0.0517     2.4827
  478.5000   125.4302     8.7133     8.7381     8.0120     0.1017     0.2837     0.0472     2.4819
  479.0000   125.1261     8.5337     8.6174     8.0112     0.1023     0.2877     0.0427     2.4819
  479.5000   123.9184     8.4159     8.4934     8.0105     0.1026     0.2910     0.0365     2.4817
  480.0000   123.6144     8.1856     8.2084     8.0097     0.1020     0.2934     0.0352     2.4804
  480.5000   125.4181     7.8521     7.7655     8.0089     0.1020     0.2961     0.0337     2.4774
  481.0000   128.4273     7.4287     7.0965     8.0238     0.1038     0.2997     0.0307     2.4736
  481.5000   130.5329     6.3792     6.4777     8.0236     0.1089     0.3024     0.0382     2.4638
  482.0000   133.8433     5.7898     5.7644     8.0084     0.1140     0.3144     0.0427     2.4511
  482.5000   136.6867     5.4608     5.4158     8.0083     0.1254     0.3289     0.0502     2.4230
  483.0000   139.2586     5.1110     5.1591     7.9780     0.1399     0.3304     0.0532     2.4127
  483.5000   141.6654     5.0057     5.0849     7.9464     0.1417     0.3199     0.0502     2.4210
  484.0000   142.0000     5.0401     5.0175     7.9174     0.1354     0.2977     0.0427     2.4555
  484.5000   137.2942     5.1144     5.1225     7.9173     0.1167     0.2783     0.0397     2.4863
  485.0000   132.9212     5.2168     5.3765     7.9322     0.0995     0.2702     0.0380     2.4908
  485.5000   132.9184     5.4001     5.8085     7.9320     0.0959     0.2747     0.0352     2.4893
  486.0000   131.4095     5.7071     6.2604     7.9319     0.0965     0.2771     0.0337     2.4893
  486.5000   126.1116     6.1706     7.1900     7.9167     0.0965     0.2768     0.0352     2.4893
  487.0000   121.7646     6.9744     7.7050     7.9166     0.0968     0.2756     0.0427     2.4893
  487.5000   122.0637     7.6833     8.3721     7.9164     0.0959     0.2738     0.0472     2.4908
  488.0000   123.2649     8.2333     8.4882     7.9313     0.0950     0.2729     0.0517     2.4930
  488.5000   125.7138     8.5309     8.6061     7.9161     0.0941     0.2738     0.0517     2.4930
  489.0000   128.0778     8.7612     8.7861     7.9160     0.0941     0.2762     0.0487     2.4930
