~VERSION INFORMATION
 VERS.                2.0:   CWLS LOG ASCII STANDARD - VERSION 2.0
 WRAP.                 NO:   ONE LINE PER DEPTH STEP
~WELL INFORMATION
#MNEM.UNIT      DATA TYPE    INFORMATION
#----------   ------------   ------------------------------
 STRT.F         1379.5000:   START DEPTH
 STOP.F         2168.0000:   STOP DEPTH
 STEP.F            0.5000:   STEP LENGTH
 NULL.          -999.2500:   NO VALUE
 COMP.   FLUOR DANIEL INC:   COMPANY
 WELL. NAVAL PETROLEUM RESERVE 3  83-5-STX-10 #83-5-10:   WELL
 FLD .            WILDCAT:   FIELD
 LOC .      S10 T38N R78W:   LOCATION
 CNTY.            NATRONA:   COUNTY
 STAT.            WYOMING:   STATE
 CTRY. UNITED STATES OF AMERICA:   COUNTRY
 SRVC.            Unknown:   SERVICE COMPANY
 DATE.        20-JAN-1995:   LOGDATE
 API .       490252265500:   API NUMBER
~CURVE INFORMATION
#MNEM.UNIT       API CODE    CURVE DESCRIPTION
#----------   ------------   ------------------------------
 DEPT.F                  :   
 C1  .VF     91 831 01 00:   METHANE
 C2  .VF     91 832 01 00:   ETHANE
 ROP .FT/HR  91 810 01 00:   RAT OF DRILLING PENETRATION
 TGAS.TC/CC  91 830 01 00:   TOTAL GAS UNIT
~PARAMETER INFORMATION
#MNEM.UNIT          VALUE    DESCRIPTION
#----------   ------------   ------------------------------
 DATE.        20-JAN-1995:   RUN DATE
 BLI .F              2165:   BOTTOM LOG INTERVAL
 TLI .F              1380:   TOP LOG INTERVAL
 CLNT.            A2DTECH:   CLIENT CODE
 ORIG.         2.5" PRINT:   ORIGIN OF DATA
 UWI .       490252265500:   UNIQUE WELL ID
 DICO. A2D Technologies, Inc.:   DIGITIZING COMPANY
~OTHER INFORMATION
~A  DEPT        C1         C2        ROP        TGAS  
 1379.5000  -999.2500  -999.2500  -999.2500   641.1744
 1380.0000  -999.2500    25.9649  -999.2500   192.5926
 1380.5000    22.1053    27.0227     1.0163   192.5926
 1381.0000    22.1053    27.5592     1.0344   188.8889
 1381.5000    22.8070    27.5743     1.0341   188.4861
 1382.0000    22.8070    28.1108     0.8141   188.0185
 1382.5000    22.8070    28.6473     0.7595   187.5509
 1383.0000    22.8070    29.1839     0.7604   187.0834
 1383.5000    22.8070    29.1995     0.7613   186.6158
 1384.0000    23.5088    29.7392     0.7623   186.1482
 1384.5000    23.5088    29.7544     0.7632   185.6806
 1385.0000    23.5088    30.2909     0.7641   185.2130
 1385.5000    23.5088    30.3060     0.7650   184.7454
 1386.0000    24.2105    30.8425     0.7659   184.2778
 1386.5000    24.2105    30.8577     0.7669   183.8102
 1387.0000    24.2105    30.8730     0.7678   183.3426
 1387.5000    24.2105    30.8886     0.7687   182.8750
 1388.0000    24.2105    30.9069     0.7696   182.4074
 1388.5000    23.5088    30.3970     0.7706   181.9398
 1389.0000    23.5088    30.4159     0.7715   203.7037
 1389.5000    23.5088    30.4311     0.7724   414.8148
 1390.0000    25.5000    30.4463     0.7733   547.8926
 1390.5000    86.3786    30.4614     1.3413   705.0648
 1391.0000   113.5679    32.6456     1.4694   877.7778
 1391.5000   182.3077    41.9647     1.4691   844.4445
 1392.0000   173.3304    42.5012     1.4689   670.3704
 1392.5000   137.4261    39.9097     1.7617   418.5185
 1393.0000   100.0381    36.7969     1.7614   270.3704
 1393.5000    56.6145    34.7268     1.7796   211.1111
 1394.0000    31.5789    32.6566     1.7793   196.2963
 1394.5000    22.6901    31.6291     2.2736   196.2963
 1395.0000    21.1112    30.6016     2.2733   240.7407
 1395.5000    27.0175    30.6206     2.2731   344.4445
 1396.0000    59.2982    30.6358     2.2729   544.4445
 1396.5000   110.7143    31.1722     1.9796   618.5185
 1397.0000   133.5714    32.7514     1.9794   551.8519
 1397.5000   145.3846    34.3305     1.9791   444.4445
 1398.0000   132.8571    34.8645     1.9789   281.4815
 1398.5000    80.7692    29.6702     2.2351   233.3333
 1399.0000    62.3077    28.1176     2.2715   192.5926
 1399.5000    42.4561    26.0512     2.2713   174.0741
 1400.0000    22.1053    23.4597     1.0256   159.2593
 1400.5000    18.3979    19.6276     1.0255   155.5349
 1401.0000    15.1914    15.6739     1.0438   140.7023
 1401.5000    11.3461    13.0824     1.0254   133.2742
 1402.0000     7.4362     9.9696     1.0253   125.8490
 1402.5000     5.2243     7.8995     0.8237   122.1276
 1403.0000     4.6154     7.3895     0.8236   122.1098
 1403.5000     4.6154     7.3487     0.8235   122.0891
 1404.0000     4.6154     7.9518     0.8234   118.3676
 1404.5000     4.6154     9.5246     0.8233   110.9425
 1405.0000     4.9358     7.9791     0.8049   110.9247
 1405.5000     5.3846     7.4691     0.8781   110.9040
 1406.0000     5.3846     7.4881     1.0246   892.3677
 1406.5000     6.9871    11.1525     1.0244   818.2759
 1407.0000    17.1531    16.3810     1.0243   673.8138
 1407.5000    63.8462    30.9933     1.0243   570.0894
 1408.0000    75.3846    36.2218     1.0242   510.8123
 1408.5000    71.5385    35.1149     0.8043   473.7575
 1409.0000    66.9231    33.6492     0.8042   432.9991
 1409.5000    60.7692    33.1392     0.8041   403.3487
 1410.0000    57.8947    31.0729     0.8223   377.4050
 1410.5000    54.3860    27.9601     0.8222   362.5725
 1411.0000    52.2807    26.4074     0.8222   344.0362
 1411.5000    49.4737    24.8624     0.8221   329.2007
 1412.0000    48.0702    22.7719     0.8220   314.3681
 1412.5000    45.2044    20.2008     0.8219   299.5356
 1413.0000    43.0995    24.3904     0.8218   277.2926
 1413.5000    41.6666    24.9268     0.8217   255.0527
 1414.0000    40.1172    20.2501     0.6568   240.2201
 1414.5000    37.9533    16.6159     0.6567   225.3875
 1415.0000    35.9647    16.1060     0.6566   210.5520
 1415.5000    34.5322    16.1249     0.6565   192.0157
 1416.0000    33.0994    15.5911     0.6015   180.8869
 1416.5000    31.6665    14.5913     0.4915   166.0543
 1417.0000    30.2339    14.0851     0.4914   151.2188
 1417.5000    29.1228    14.1040     0.4913   136.3862
 1418.0000    28.7719    14.1192     0.4912   125.2574
 1418.5000    28.0408    13.6130     0.4911   117.8322
 1419.0000    27.0175    13.6282     0.4910   106.7004
 1419.5000    27.0175    13.6434     0.4909    99.2752
 1420.0000    25.6140    13.1372     0.6007    95.5538
 1420.5000    24.2105    12.6310     0.6006    91.8323
 1421.0000    23.5088    12.6462     0.6005    84.4042
 1421.5000    22.8070    12.5955     0.6004    76.9791
 1422.0000    21.4035    12.5485     0.7286    76.9613
 1422.5000    21.4035    12.5015     0.7285    76.9436
 1423.0000    21.4035    12.4544     0.7284    76.9229
 1423.5000    21.4035    12.4074     0.7466    76.9051
 1424.0000    20.7018    12.3604     0.7282    73.1836
 1424.5000    20.0000    12.3134     1.2409    73.1659
 1425.0000    20.0000    12.2664     1.2408    73.1452
 1425.5000    19.9041    12.2193     1.2407    69.4237
 1426.0000    19.2308    12.1723     1.2406    65.7023
 1426.5000    18.4615    12.1253     1.2406    65.6816
 1427.0000    18.4615    12.0783     1.2405    65.6638
 1427.5000    19.2308    12.0313     2.2843    65.6461
 1428.0000    18.9744    11.9842     2.2842    65.6283
 1428.5000    18.4615    11.9372     2.2842    65.6076
 1429.0000    18.4615    11.8902     2.3207    65.5899
 1429.5000    18.4615    11.8706     2.3206    65.5721
 1430.0000    18.8462    11.8863     1.8077    65.5544
 1430.5000    19.2308    11.9019     1.7710    65.5337
 1431.0000    19.6796    11.9175     1.7709    65.5159
 1431.5000    19.2308    11.9332     1.4777    65.4982
 1432.0000    19.2308    11.9488     0.9465    65.4804
 1432.5000    19.2308    11.9661     0.9464    65.4597
 1433.0000    18.4615    12.5026     0.9463    65.4420
 1433.5000    18.4615    12.5177     0.9462    65.4242
 1434.0000    18.4615    12.5329     0.9461    65.4065
 1434.5000    18.4615    12.5483     0.9460    65.3857
 1435.0000    18.4615    13.0883     0.9460    65.3680
 1435.5000    18.4615    13.1035     0.9459    65.3503
 1436.0000    18.4615    14.1613     0.9458    65.3325
 1436.5000    18.4615    14.6978     0.9457    65.3118
 1437.0000    18.4615    14.7130     0.9456    65.2940
 1437.5000    18.4615    15.2494     0.9455    72.6837
 1438.0000    25.4930    15.7859     0.9454    87.4808
 1438.5000   157.4691    16.3679     0.9453   598.8120
 1439.0000   180.0000    17.3840     0.9452  1079.3301
 1439.5000   180.0000    17.3992     0.9451  1356.7609
 1440.0000   180.7692    18.4570     0.9450  1634.1918
 1440.5000  -999.2500    18.4722     0.9449  1800.0000
 1441.0000  -999.2500  -999.2500     0.9632  1800.0000
 1441.5000  -999.2500  -999.2500     0.9265  1782.1785
 1442.0000  -999.2500  -999.2500     0.7982   992.7989
 1442.5000  -999.2500  -999.2500     0.7981   992.7635
 1443.0000  -999.2500  -999.2500     0.7980   992.5418
 1443.5000  -999.2500  -999.2500     0.7979   992.1948
 1444.0000  -999.2500  -999.2500     0.5231   991.8477
 1444.5000  -999.2500  -999.2500     0.5230   991.5006
 1445.0000  -999.2500  -999.2500     0.5412   991.1536
 1445.5000  -999.2500  -999.2500     0.5594   990.8065
 1446.0000  -999.2500  -999.2500     0.7974   990.4594
 1446.5000  -999.2500  -999.2500     0.7973   990.1124
 1447.0000  -999.2500  -999.2500     0.7972   989.7653
 1447.5000  -999.2500  -999.2500     0.7971   989.4182
 1448.0000  -999.2500  -999.2500     0.8154   989.0712
 1448.5000  -999.2500  -999.2500     0.8153   988.7241
 1449.0000  -999.2500  -999.2500     0.8152   988.3770
 1449.5000  -999.2500  -999.2500     0.8151   988.0300
 1450.0000  -999.2500  -999.2500     0.8150   987.6829
 1450.5000  -999.2500  -999.2500     0.8149   987.3358
 1451.0000  -999.2500  -999.2500     0.7965   986.9888
 1451.5000  -999.2500  -999.2500     0.6682   986.6417
 1452.0000  -999.2500  -999.2500     0.5216   986.2947
