~VERSION INFORMATION
 VERS.                2.0:   CWLS LOG ASCII STANDARD - VERSION 2.0
 WRAP.                 NO:   ONE LINE PER DEPTH STEP
~WELL INFORMATION
#MNEM.UNIT      DATA TYPE    INFORMATION
#----------   ------------   ------------------------------
 STRT.F         1050.0000:   START DEPTH
 STOP.F         2592.5000:   STOP DEPTH
 STEP.F            0.5000:   STEP LENGTH
 NULL.          -999.2500:   NO VALUE
 COMP. LAWRENCE/ALLISON INC:   COMPANY
 WELL. NAVAL PETROLEUM RESERVE 3 X15 #34-15:   WELL
 FLD .            WILDCAT:   FIELD
 LOC .      S15 T38N R78W:   LOCATION
 CNTY.            NATRONA:   COUNTY
 STAT.            WYOMING:   STATE
 CTRY. UNITED STATES OF AMERICA:   COUNTRY
 SRVC.            Unknown:   SERVICE COMPANY
 DATE.        07-AUG-1988:   LOGDATE
 API .       490251125500:   API NUMBER
~CURVE INFORMATION
#MNEM.UNIT       API CODE    CURVE DESCRIPTION
#----------   ------------   ------------------------------
 DEPT.F                  :   
 ROP .MIN/FT 91 810 01 00:   RATE OF DRILLING PENETRATION
 TGAS.UNITS  91 830 01 00:   TOTAL GAS FROM HOTWIRE
~PARAMETER INFORMATION
#MNEM.UNIT          VALUE    DESCRIPTION
#----------   ------------   ------------------------------
 EKB .F              5286:   KELLING BUSHING
 EGL .F              5276:   GROUND LEVEL
 DATE.           9-7-1988:   RUN DATE
 RUN .                  1:   RUN NUMBER
 DD  .F              2592:   DEPTH DRILLER
 CBD .F              1044:   CASING BOTTOM DRILLER
 ENGI.               HUSK:   RECORDING ENGINEER
 CLNT.            A2DTECH:   CLIENT CODE
 ORIG.           5" PRINT:   ORIGIN OF DATA
 UWI .       490251125500:   UNIQUE WELL ID
 DICO. A2D Technologies, Inc.:   DIGITIZING COMPANY
~OTHER INFORMATION
~A  DEPT         ROP     TGAS   
# ...
 2265.0000     0.3370     8.7989
 2265.5000     0.3421     8.7989
 2266.0000     0.3472     8.7991
 2266.5000     0.3519     8.7995
 2267.0000     0.3725     8.7988
 2267.5000     0.3969     8.7581
 2268.0000     0.4212     8.5124
 2268.5000     0.4420     8.2673
 2269.0000     0.4275     8.0228
 2269.5000     0.4050     7.7779
 2270.0000     0.3773     7.5319
 2270.5000     0.3792     7.2975
 2271.0000     0.3810     7.3270
 2271.5000     0.3825     7.3669
 2272.0000     0.3842     7.4055
 2272.5000     0.3858     7.4438
 2273.0000     0.3874     7.4821
 2273.5000     0.3890     7.5204
 2274.0000     0.3904     7.5587
 2274.5000     0.4096     7.5969
 2275.0000     0.4378     7.6352
 2275.5000     0.4661     7.6735
 2276.0000     0.4956     7.7118
 2276.5000     0.4942     7.7503
 2277.0000     0.4735     7.7883
 2277.5000     0.4524     7.7587
 2278.0000     0.4315     7.7188
 2278.5000     0.4288     7.6788
 2279.0000     0.4288     7.6389
 2279.5000     0.4286     7.5990
 2280.0000     0.4302     7.5591
 2280.5000     0.4607     7.5192
 2281.0000     0.4901     7.4793
 2281.5000     0.5163     7.4394
 2282.0000     0.4992     7.3994
 2282.5000     0.4626     7.3593
 2283.0000     0.4290     7.3203
 2283.5000     0.4212     7.3117
 2284.0000     0.4163     7.4057
 2284.5000     0.4280     7.4967
 2285.0000     0.4728     7.5876
 2285.5000     0.5147     7.6786
 2286.0000     0.5536     7.7695
 2286.5000     0.5547     7.8605
 2287.0000     0.5544     7.9514
 2287.5000     0.5534     8.0430
 2288.0000     0.5833     8.1353
 2288.5000     0.6181     8.2226
 2289.0000     0.6531     8.1756
 2289.5000     0.6882     7.5386
 2290.0000     0.7248     6.9032
 2290.5000     0.6910     6.8516
 2291.0000     0.6429     6.9264
 2291.5000     0.5947     7.0059
 2292.0000     0.5506     7.0847
 2292.5000     0.5423     7.1628
 2293.0000     0.5418     7.2410
 2293.5000     0.5417     7.3192
 2294.0000     0.5316     7.3973
 2294.5000     0.5139     7.4755
 2295.0000     0.4961     7.5537
 2295.5000     0.4781     7.6320
 2296.0000     0.4654     7.7110
 2296.5000     0.4933     7.7898
 2297.0000     0.5429     7.7523
 2297.5000     0.5913     7.7068
 2298.0000     0.6399     7.6617
 2298.5000     0.6291     7.6169
 2299.0000     0.5979     7.5720
 2299.5000     0.5696     7.5272
 2300.0000     0.5413     7.4823
 2300.5000     0.5128     7.4375
 2301.0000     0.4845     7.3927
 2301.5000     0.4563     7.3478
 2302.0000     0.4414     7.3018
 2302.5000     0.4419     7.2907
 2303.0000     0.4509     7.2903
 2303.5000     0.4778     7.2903
 2304.0000     0.5049     7.2908
 2304.5000     0.4787     7.3112
 2305.0000     0.4489     7.3335
 2305.5000     0.4192     7.3557
 2306.0000     0.3891     7.3778
 2306.5000     0.3788     7.4000
 2307.0000     0.3786     7.4222
 2307.5000     0.3785     7.4443
 2308.0000     0.3788     7.4665
 2308.5000     0.3868     7.4886
 2309.0000     0.4273     7.5108
 2309.5000     0.4671     7.5330
 2310.0000     0.4924     7.5551
 2310.5000     0.4639     7.5773
 2311.0000     0.4300     7.5995
 2311.5000     0.3955     7.6216
 2312.0000     0.3607     7.6438
 2312.5000     0.3613     7.6659
 2313.0000     0.3823     7.6881
 2313.5000     0.4031     7.7103
 2314.0000     0.4014     7.7329
 2314.5000     0.3849     7.7557
 2315.0000     0.3686     7.7743
 2315.5000     0.3523     7.6941
 2316.0000     0.3360     7.2987
 2316.5000     0.3285     7.3476
 2317.0000     0.3280     7.4072
 2317.5000     0.3449     7.4642
 2318.0000     0.3673     7.5211
 2318.5000     0.3898     7.5778
 2319.0000     0.4123     7.6347
 2319.5000     0.4353     7.6914
 2320.0000     0.4338     7.7482
 2320.5000     0.4054     7.8050
 2321.0000     0.3777     7.8618
 2321.5000     0.3531     7.9186
 2322.0000     0.3290     7.9754
 2322.5000     0.3386     8.0322
 2323.0000     0.3474     8.0890
 2323.5000     0.3575     8.1458
 2324.0000     0.3623     8.2026
 2324.5000     0.3382     8.2594
 2325.0000     0.3143     8.3161
 2325.5000     0.2906     8.3729
 2326.0000     0.2671     8.4297
 2326.5000     0.2532     8.4865
 2327.0000     0.2532     8.5433
 2327.5000     0.2530     8.6003
 2328.0000     0.2528     8.6573
 2328.5000     0.2546     8.7129
 2329.0000     0.2935     8.7688
 2329.5000     0.3319     8.6033
 2330.0000     0.3700     8.2134
 2330.5000     0.4041     7.8113
 2331.0000     0.3840     7.8581
 2331.5000     0.3564     7.9371
 2332.0000     0.3286     8.0142
 2332.5000     0.3160     8.0872
 2333.0000     0.3159     8.1576
 2333.5000     0.3159     8.2592
 2334.0000     0.3159     9.0748
 2334.5000     0.3159    12.0683
 2335.0000     0.3158    15.0305
 2335.5000     0.3273    17.3867
 2336.0000     0.3459    19.3312
 2336.5000     0.3643    16.7048
 2337.0000     0.3762    13.6406
 2337.5000     0.3622    12.2496
 2338.0000     0.3488    11.3880
 2338.5000     0.3355    10.5577
 2339.0000     0.3284     9.7247
 2339.5000     0.3286     9.3715
 2340.0000     0.3367     9.5004
 2340.5000     0.3688     9.6293
 2341.0000     0.3999     9.7658
 2341.5000     0.4321     9.8293
 2342.0000     0.4332     9.8681
 2342.5000     0.4162     9.9055
 2343.0000     0.3989     9.9431
 2343.5000     0.3816     9.9808
 2344.0000     0.3763    10.0185
 2344.5000     0.3734    10.0562
 2345.0000     0.3706    10.0940
 2345.5000     0.3680    10.1317
 2346.0000     0.3798    10.1694
 2346.5000     0.4169    10.2077
 2347.0000     0.4533    10.2462
 2347.5000     0.4889    10.2793
 2348.0000     0.4821    10.1815
 2348.5000     0.4415     9.7495
 2349.0000     0.4015     9.3349
 2349.5000     0.3612     8.9098
 2350.0000     0.3412     8.7356
 2350.5000     0.3411     8.6404
 2351.0000     0.3410     8.5486
 2351.5000     0.3409     8.4562
 2352.0000     0.3407     8.3663
 2352.5000     0.3421     8.3555
 2353.0000     0.3751     8.6299
 2353.5000     0.4082     8.8970
 2354.0000     0.4410     9.1635
 2354.5000     0.4660     9.4296
 2355.0000     0.4160     9.6980
 2355.5000     0.3650     9.7635
 2356.0000     0.3137     9.6998
 2356.5000     0.3045     9.6348
 2357.0000     0.3059     9.5690
 2357.5000     0.3076     9.5035
 2358.0000     0.3094     9.4379
 2358.5000     0.3110     9.3719
 2359.0000     0.3127     9.3042
 2359.5000     0.3143     9.2851
 2360.0000     0.3160     9.2681
 2360.5000     0.3351     9.2507
 2361.0000     0.3566     9.2333
 2361.5000     0.3780     9.2158
 2362.0000     0.3995     9.1984
 2362.5000     0.4209     9.1810
 2363.0000     0.4424     9.1635
 2363.5000     0.4638     9.1461
 2364.0000     0.4858     9.1286
 2364.5000     0.4859     9.1112
 2365.0000     0.4643     9.0937
 2365.5000     0.4423     9.0763
 2366.0000     0.4412     9.0588
 2366.5000     0.4331     9.0414
 2367.0000     0.4285     9.0239
 2367.5000     0.4174     9.0065
 2368.0000     0.4069     8.9890
 2368.5000     0.3965     8.9716
 2369.0000     0.3910     8.9542
 2369.5000     0.3916     8.9367
 2370.0000     0.4456     8.9193
 2370.5000     0.5064     8.9018
 2371.0000     0.5671     8.8844
 2371.5000     0.6279     8.8669
 2372.0000     0.6892     8.8495
 2372.5000     0.7524     8.8320
 2373.0000     0.7502     8.8145
 2373.5000     0.7135     8.7990
 2374.0000     0.6715     8.7988
 2374.5000     0.6297     8.7989
 2375.0000     0.5879     8.7989
 2375.5000     0.5460     8.7989
 2376.0000     0.5076     8.7989
 2376.5000     0.4758     8.7989
 2377.0000     0.4444     8.7989
 2377.5000     0.4165     8.7989
 2378.0000     0.4181     8.7989
 2378.5000     0.4204     8.7989
 2379.0000     0.4226     8.7989
 2379.5000     0.4248     8.7989
 2380.0000     0.4270     8.7989
 2380.5000     0.4282     8.7989
 2381.0000     0.4220     8.7989
 2381.5000     0.4150     8.7989
 2382.0000     0.4041     8.7989
 2382.5000     0.3931     8.7989
 2383.0000     0.3821     8.7989
 2383.5000     0.3711     8.7989
 2384.0000     0.3703     8.7989
 2384.5000     0.4001     8.7990
 2385.0000     0.4303     8.7990
 2385.5000     0.4600     8.7987
 2386.0000     0.4925     8.8020
