~VERSION INFORMATION
 VERS.                2.0:   CWLS LOG ASCII STANDARD - VERSION 2.0
 WRAP.                 NO:   ONE LINE PER DEPTH STEP
~WELL INFORMATION
#MNEM.UNIT      DATA TYPE    INFORMATION
#----------   ------------   ------------------------------
 STRT.F           26.0000:   START DEPTH
 STOP.F         1071.0000:   STOP DEPTH
 STEP.F            0.5000:   STEP LENGTH
 NULL.          -999.2500:   NO VALUE
 COMP. FENIX & SCISSON INC:   COMPANY
 WELL.       NRP 3 #61-14:   WELL
 FLD .        TEAPOT DOME:   FIELD
 LOC .      S14 T38N R78W:   LOCATION
 CNTY.            NATRONA:   COUNTY
 STAT.            WYOMING:   STATE
 CTRY. UNITED STATES OF AMERICA:   COUNTRY
 SRVC.            Unknown:   SERVICE COMPANY
 DATE.        09-JAN-1979:   LOGDATE
 API .       490251076300:   API NUMBER
~CURVE INFORMATION
#MNEM.UNIT       API CODE    CURVE DESCRIPTION
#----------   ------------   ------------------------------
 DEPT.F                  :   
 SPR .MV     05 010 01 00:   SPONTANEOUS POTENTIAL FROM RES.
 SN  .OHMM   05 040 16 00:   SHORT NORMAL 16"
 IL  .OHMM   05 120 00 00:   INDUCTION LOG
 CALD.IN     45 280 60 00:   CALIPER
 GRD .GAPI   45 310 01 00:   GAMMA RAY FROM DENSITY LOG
 RHOB.G/C3   45 350 01 00:   BULK DENSITY
 DPHI.DEC    45 890 12 00:   DENSITY POROSITY SANDSTONE
 CORR.G/C3   45 356 01 00:   DENSITY CORRECTION
~PARAMETER INFORMATION
#MNEM.UNIT          VALUE    DESCRIPTION
#----------   ------------   ------------------------------
 PD  .                 GL:   PERMANENT DATUM
 EPD .F              5240:   ELEVATION PERMANENT DATUM
 LMF .                 KB:   LOG MEASURED FROM
 DAPD.F                 4:   FEET ABOVE PERMANENT DATUM
 DMF .                 KB:   DRILLING MEASURED FROM
 EKB .F              5244:   KELLING BUSHING
 EGL .F              5240:   GROUND LEVEL
 DATE.             1-9-79:   RUN DATE
 RUN .                  1:   RUN NUMBER
 DD  .F              1061:   DEPTH DRILLER
 DL  .F              1071:   DEPTH LOGGER
 BLI .F              1064:   BOTTOM LOG INTERVAL
 TLI .F                50:   TOP LOG INTERVAL
 CS  .IN            8.625:   CASING SIZE
 CBD .F                40:   CASING BOTTOM DRILLER
 CBL .F                38:   CASING BOTTOM LOGGER
 BS  .IN            7.875:   BIT SIZE
 BSD .F              1061:   BIT SIZE AT DEPTH
 DFT .                KCL:   DRILLING FLUID TYPE
 DFD .                8.8:   DRILLING FLUID DENSITY
 DFV .                 36:   DRILLING FLUID VISCOSITY
 DFPH.                9.2:   DRILLING FLUID PH
 MSS .           FLOWLINE:   MUD SAMPLE SOURCE
 RMS .OHMM             .3:   RESISTIVITY MUD SAMPLE
 MST .F                58:   MUD SAMPLE TEMPERATURE
 RMF .OHMM             .3:   RESISTIVITY MUD FILTRATE SAMPLE
 MFST.F                58:   MUD FILTRATE SAMPLE TEMPERATURE
 RMC .OHMM            .34:   RESISTIVITY MUD CAKE
 MCST.F                62:   MUD CAKE SAMPLE TEMPERATURE
 MFSS.           MEASURED:   MUD FILTRATE SAMPLE SOURCE
 MCSS.           MEASURED:   MUD CAKE SAMPLE SOURCE
 RMB .OHMM            .29:   RESISTIVITY MUD AT BHT
 BHT .F                61:   BOTTOM HOLE TEMPERATURE
 TCS .HRS               4:   TIME CURCULATED STOPPED
 MRT .F                61:   MAXIMUM RECORDED TEMPERATURE
 LUN .               3006:   LOGGING UNIT NUMBER
 LUL .             CASPER:   LOGGING UNIT LOCATION
 ENGI.            ROLLINS:   RECORDING ENGINEER
 WITN.           DINSMORE:   WITNESSED BY
 CLNT.            A2DTECH:   CLIENT CODE
 ORIG.           5" PRINT:   ORIGIN OF DATA
 UWI .       490251076300:   UNIQUE WELL ID
 DICO. A2D Technologies, Inc.:   DIGITIZING COMPANY
~OTHER INFORMATION
~A   DEPT      SPR         SN         IL       CALD         GRD      RHOB       DPHI       CORR   
   26.0000  -999.2500  -999.2500  -999.2500  -999.2500    96.9140  -999.2500  -999.2500  -999.2500
   26.5000  -999.2500  -999.2500  -999.2500  -999.2500    90.1180  -999.2500  -999.2500  -999.2500
   27.0000  -999.2500  -999.2500  -999.2500  -999.2500    91.5710  -999.2500  -999.2500  -999.2500
   27.5000  -999.2500  -999.2500  -999.2500  -999.2500    90.8420  -999.2500  -999.2500  -999.2500
   28.0000  -999.2500  -999.2500  -999.2500  -999.2500    93.1770  -999.2500  -999.2500  -999.2500
   28.5000  -999.2500  -999.2500  -999.2500  -999.2500    91.3220  -999.2500  -999.2500  -999.2500
   29.0000  -999.2500  -999.2500  -999.2500  -999.2500    93.4770  -999.2500  -999.2500  -999.2500
   29.5000  -999.2500  -999.2500  -999.2500  -999.2500    93.7980  -999.2500  -999.2500  -999.2500
   30.0000  -999.2500  -999.2500  -999.2500  -999.2500    94.0460  -999.2500  -999.2500  -999.2500
   30.5000  -999.2500  -999.2500  -999.2500  -999.2500    93.0610  -999.2500  -999.2500  -999.2500
   31.0000  -999.2500  -999.2500  -999.2500  -999.2500    92.0260  -999.2500  -999.2500  -999.2500
   31.5000  -999.2500  -999.2500  -999.2500  -999.2500    90.9900  -999.2500  -999.2500  -999.2500
   32.0000  -999.2500  -999.2500  -999.2500  -999.2500    89.9100  -999.2500  -999.2500  -999.2500
   32.5000  -999.2500  -999.2500  -999.2500  -999.2500    89.8790  -999.2500  -999.2500  -999.2500
   33.0000  -999.2500  -999.2500  -999.2500  -999.2500    91.2050  -999.2500  -999.2500  -999.2500
   33.5000  -999.2500  -999.2500  -999.2500  -999.2500    91.8150  -999.2500  -999.2500  -999.2500
   34.0000  -999.2500  -999.2500  -999.2500  -999.2500    91.6870  -999.2500  -999.2500  -999.2500
   34.5000  -999.2500  -999.2500  -999.2500  -999.2500    94.2960  -999.2500  -999.2500  -999.2500
   35.0000  -999.2500  -999.2500  -999.2500  -999.2500    95.6330  -999.2500  -999.2500  -999.2500
   35.5000  -999.2500  -999.2500  -999.2500  -999.2500    88.4870  -999.2500  -999.2500  -999.2500
   36.0000  -999.2500  -999.2500  -999.2500  -999.2500    84.9270  -999.2500  -999.2500  -999.2500
   36.5000  -999.2500  -999.2500  -999.2500  -999.2500    84.8360  -999.2500  -999.2500  -999.2500
   37.0000  -999.2500  -999.2500  -999.2500  -999.2500    84.7050  -999.2500  -999.2500  -999.2500
   37.5000  -999.2500  -999.2500  -999.2500  -999.2500    84.6340  -999.2500  -999.2500  -999.2500
   38.0000  -999.2500  -999.2500  -999.2500     7.6880    82.3160  -999.2500  -999.2500    -0.0670
   38.5000  -999.2500  -999.2500  -999.2500     7.7330    79.5830  -999.2500  -999.2500     0.5900
   39.0000  -999.2500  -999.2500  -999.2500     7.8440    77.9950  -999.2500  -999.2500     0.5190
   39.5000  -999.2500  -999.2500  -999.2500     7.8870    77.7570  -999.2500  -999.2500     0.4240
   40.0000  -999.2500  -999.2500  -999.2500     7.9280    75.8810     2.2460     0.2130     0.3290
   40.5000  -999.2500  -999.2500  -999.2500     7.9760    69.9010     2.0690     0.2130     0.2340
   41.0000  -999.2500  -999.2500  -999.2500     8.0320    76.4100     1.8570     0.2880     0.1540
   41.5000  -999.2500  -999.2500  -999.2500     8.0590    88.1430     2.0570     0.3410     0.1260
   42.0000  -999.2500  -999.2500  -999.2500     8.0750    94.4290     2.3890     0.2800     0.1130
   42.5000  -999.2500  -999.2500  -999.2500     8.4820    92.9930     2.2290     0.2770     0.1090
   43.0000  -999.2500  -999.2500  -999.2500     8.1840    92.0340     2.2300     0.2770     0.1100
   43.5000  -999.2500  -999.2500  -999.2500     7.9050    91.2350     2.2320     0.3030     0.1110
   44.0000  -999.2500  -999.2500  -999.2500     7.7500    92.2750     2.1930     0.3210     0.1160
   44.5000  -999.2500  -999.2500  -999.2500     7.6290    92.6710     2.1530     0.3240     0.1220
   45.0000  -999.2500  -999.2500  -999.2500     7.7320    92.7000     2.1610     0.3000     0.1270
   45.5000  -999.2500  -999.2500  -999.2500     8.0030    93.2800     2.1790     0.3060     0.1370
   46.0000  -999.2500  -999.2500  -999.2500     7.3090    95.9270     2.1810     0.3070     0.1530
   46.5000  -999.2500  -999.2500  -999.2500     7.2370    94.5630     2.1810     0.3060     0.1700
   47.0000  -999.2500  -999.2500  -999.2500     7.2380    93.1330     2.1830     0.3020     0.1850
   47.5000  -999.2500  -999.2500  -999.2500     7.2230    92.2490     2.1860     0.2990     0.1950
   48.0000  -999.2500  -999.2500  -999.2500     7.1610    91.1890     2.1870     0.3010     0.2000
   48.5000  -999.2500  -999.2500  -999.2500     7.1540    89.3530     2.1860     0.3030     0.2130
   49.0000  -999.2500  -999.2500  -999.2500     7.2460    87.1990     2.1860     0.2930     0.2470
   49.5000  -999.2500  -999.2500  -999.2500     7.3460    90.3950     2.1990     0.2790     0.2810
   50.0000   -23.8050  -999.2500     7.3480     7.3520    95.8590     2.2230     0.2650     0.3210
   50.5000   -23.8050     4.6320     7.3480     7.3530   100.8160     2.2480     0.2560     0.2830
   51.0000   -24.0040     4.6320     7.3480     7.4270    99.3010     2.2590     0.2520     0.2110
   51.5000   -24.4020     4.6320     7.2550     7.5500    97.0660     2.2720     0.2480     0.1450
   52.0000   -24.6460     4.5930     9.1700     7.7140    96.0680     2.2760     0.2250     0.1420
   52.5000   -24.9400     4.5380     8.4530     7.8770    95.0870     2.3130     0.2030     0.1410
   53.0000   -25.2900     4.4640     9.9640     7.9580    92.7450     2.3490     0.1810     0.1310
   53.5000   -25.6310     4.3900    10.1490     7.9430    91.3260     2.3920     0.2100     0.1300
   54.0000   -25.9700     4.3160    10.4340     7.9340    91.8150     2.3690     0.2430     0.1320
   54.5000   -26.3090     4.2420    10.6290     7.7620    92.3370     2.2720     0.2610     0.1180
   55.0000   -26.6500     4.1850    10.5310     7.5730    91.7500     2.2540     0.2550     0.1150
   55.5000   -26.8680     4.2110    10.5470     7.3810    90.6370     2.2520     0.2640     0.1170
   56.0000   -27.0000     4.2610    10.5630     7.2500    89.4850     2.2460     0.2770     0.1480
   56.5000   -27.1330     4.3530    10.5780     7.1510    89.4330     2.2310     0.2610     0.2020
   57.0000   -27.2650     4.4440    10.5940     7.1090    92.9040     2.2440     0.2520     0.2550
   57.5000   -27.3980     4.5050    10.6100     7.0990    95.4710     2.2660     0.2420     0.3190
   58.0000   -27.5300     4.7090    10.6290     7.0920    96.5160     2.2850     0.2290     0.4260
   58.5000   -27.6620     4.9710    10.3640     7.1410    97.5680     2.3080     0.2140     0.4750
   59.0000   -27.7940     5.0800     9.9080     7.2670    97.9470     2.3270     0.1890     0.3890
   59.5000   -27.9260     5.1270     9.4520     7.4330    97.2200     2.3570     0.1640     0.3050
   60.0000   -28.0590     5.1740     8.9960     7.6440    96.5090     2.3880     0.1400     0.2220
   60.5000   -28.1900     5.2710     8.5400     7.8560    96.0500     2.4230     0.1150     0.1540
   61.0000   -28.3230     5.2570     8.0840     7.9380    96.3210     2.4740     0.0880     0.1200
   61.5000   -28.4560     5.2310     7.6280     7.9290    97.2870     2.5310     0.0880     0.1110
   62.0000   -28.5730     5.2040     7.1710     7.8640    99.7560     2.4900     0.1610     0.1200
   62.5000   -28.3590     5.1780     6.7150     7.7840   102.2200     2.4180     0.2220     0.1890
   63.0000   -28.1330     5.1520     6.4910     7.6770   104.4560     2.3520     0.2220     0.2520
   63.5000   -27.9080     5.1250     6.3680     7.5340   104.4050     2.3230     0.2200     0.3390
   64.0000   -27.6840     5.0990     6.2440     7.2900   103.7530     2.3220     0.2170     0.4240
   64.5000   -27.4580     5.0800     6.1210     7.0810   103.1370     2.3300     0.2100     0.4730
   65.0000   -27.2320     5.1220     5.9970     7.1090   103.0010     2.3390     0.2030     0.4120
   65.5000   -27.0090     5.1560     5.8730     7.2530   102.8630     2.3460     0.1870     0.2980
   66.0000   -27.2940     5.1900     5.7750     7.6160   101.8660     2.3920     0.1420     0.2000
