~VERSION INFORMATION
 VERS.                2.0:   CWLS LOG ASCII STANDARD - VERSION 2.0
 WRAP.                 NO:   ONE LINE PER DEPTH STEP
~WELL INFORMATION
#MNEM.UNIT      DATA TYPE    INFORMATION
#----------   ------------   ------------------------------
 STRT.F            4.0000:   START DEPTH
 STOP.F          584.0000:   STOP DEPTH
 STEP.F            0.1000:   STEP LENGTH
 NULL.          -999.2500:   NO VALUE
 COMP.       F D SERV INC:   COMPANY
 WELL. N P R 3 SX-3 #62-3:   WELL
 FLD .             TEAPOT:   FIELD
 LOC .       S3 T38N R78W:   LOCATION
 CNTY.            NATRONA:   COUNTY
 STAT.            WYOMING:   STATE
 CTRY. UNITED STATES OF AMERICA:   COUNTRY
 SRVC.     Atlas Wireline:   SERVICE COMPANY
 DATE.        17-APR-1992:   LOGDATE
 API .       490252251600:   API NUMBER
~CURVE INFORMATION
#MNEM.UNIT       API CODE    CURVE DESCRIPTION
#----------   ------------   ------------------------------
 DEPT.F                  :   
 GRR .GAPI   07 310 01 00:   GAMMA RAY
 RILD.OHMM   07 120 46 00:   INDUCTION LOG DEEP RESISTIVITY
 RILM.OHMM   07 120 44 00:   INDUCTION LOG MEDIUM RESISTIVITY
~PARAMETER INFORMATION
#MNEM.UNIT          VALUE    DESCRIPTION
#----------   ------------   ------------------------------
 PD  .                 GL:   PERMANENT DATUM
 EPD .F              5135:   ELEVATION PERMANENT DATUM
 LMF .                 KB:   LOG MEASURED FROM
 DAPD.F                 5:   FEET ABOVE PERMANENT DATUM
 DMF .                 KB:   DRILLING MEASURED FROM
 EKB .F              5140:   KELLING BUSHING
 EDF .F              5139:   DRILLING FLOOR
 EGL .F              5135:   GROUND LEVEL
 DATE.        17-APR-1992:   RUN DATE
 RUN .                  1:   RUN NUMBER
 DD  .F               589:   DEPTH DRILLER
 DL  .F               590:   DEPTH LOGGER
 BLI .F               584:   BOTTOM LOG INTERVAL
 TLI .F                48:   TOP LOG INTERVAL
 CS  .IN            8.625:   CASING SIZE
 CBD .F                48:   CASING BOTTOM DRILLER
 CBL .F                48:   CASING BOTTOM LOGGER
 BS  .IN            7.875:   BIT SIZE
 BSD .F               589:   BIT SIZE AT DEPTH
 DFT .                AIR:   DRILLING FLUID TYPE
 TCS .HRS               2:   TIME CURCULATED STOPPED
 MRT .F                85:   MAXIMUM RECORDED TEMPERATURE
 LUN .            HL-6274:   LOGGING UNIT NUMBER
 LUL .             CASPER:   LOGGING UNIT LOCATION
 ENGI.             RAUTIO:   RECORDING ENGINEER
 WITN.        GARY STRONG:   WITNESSED BY
 CLNT.            A2DTECH:   CLIENT CODE
 ORIG.           5" PRINT:   ORIGIN OF DATA
 UWI .       490252251600:   UNIQUE WELL ID
 DICO. A2D Technologies, Inc.:   DIGITIZING COMPANY
~OTHER INFORMATION
~A    DEPT      GRR      RILD       RILM   
# ...
  440.8000    90.7975    12.3032    12.2018
  440.9000    90.6201    12.2978    12.2006
  441.0000    90.4812    12.2146    12.1490
  441.1000    90.4793    12.2134    12.1133
  441.2000    90.4824    12.2121    12.1122
  441.3000    90.7361    12.2107    12.1109
  441.4000    90.9899    12.2094    12.1096
  441.5000    91.2437    12.2079    12.1086
  441.6000    91.6776    12.2066    12.1074
  441.7000    92.4427    12.2053    12.1062
  441.8000    93.2786    12.2039    12.1051
  441.9000    94.6687    12.2026    12.1038
  442.0000    95.8502    12.2012    12.1027
  442.1000    96.9884    12.1996    12.1015
  442.2000    98.3256    12.1985    12.1003
  442.3000    99.8492    12.1971    12.0991
  442.4000   100.8703    12.1957    12.0979
  442.5000   101.8907    12.1943    12.0966
  442.6000   102.4725    12.1930    12.0955
  442.7000   102.7263    12.2606    12.0944
  442.8000   102.9477    12.2757    12.0932
  442.9000   102.6329    12.3128    12.0921
  443.0000   101.7062    12.3822    12.0908
  443.1000   100.6824    12.4519    12.1574
  443.2000    99.6581    12.5301    12.1732
  443.3000    98.6333    12.5927    12.1720
  443.4000    97.6161    12.6153    12.1708
  443.5000    97.1032    12.6139    12.1697
  443.6000    96.3875    12.6125    12.1683
  443.7000    95.6187    12.6110    12.1673
  443.8000    94.7613    12.6096    12.2117
  443.9000    93.7048    12.6082    12.2806
  444.0000    92.2998    12.6481    12.3499
  444.1000    91.8367    12.7193    12.4202
  444.2000    91.6712    12.7909    12.4190
  444.3000    91.6693    12.8694    12.4728
  444.4000    91.7275    12.9355    12.5036
  444.5000    91.9842    12.9569    12.5024
  444.6000    92.4939    12.9906    12.5090
  444.7000    93.0032    13.0637    12.5875
  444.8000    93.5125    13.1373    12.7153
  444.9000    94.0219    13.2252    12.7623
  445.0000    94.5312    13.2240    12.7938
  445.1000    95.0917    13.2677    12.8492
  445.2000    95.3200    13.3137    12.8480
  445.3000    95.4006    13.3123    12.8468
  445.4000    95.5150    13.3107    12.9035
  445.5000    95.7094    13.3093    13.0186
  445.6000    95.7075    13.3078    13.1150
  445.7000    95.7056    13.3443    13.1231
  445.8000    95.7037    13.3982    13.2043
  445.9000    95.5575    13.3966    13.2032
  446.0000    95.3000    13.3949    13.2019
  446.1000    95.0118    13.3296    13.2006
  446.2000    94.4461    13.2989    13.2176
  446.3000    93.0679    13.2974    13.2906
  446.4000    91.8776    13.2959    13.2890
  446.5000    91.0845    13.2944    13.2272
  446.6000    90.4534    13.2930    13.1941
  446.7000    89.4348    13.2915    13.1928
  446.8000    89.1774    13.2900    13.1915
  446.9000    89.1206    13.2885    13.1901
  447.0000    89.1187    13.2870    13.1890
  447.1000    89.2037    13.2853    13.1877
  447.2000    89.4874    13.2840    13.1864
  447.3000    90.0504    13.2338    13.1657
  447.4000    90.7353    13.1886    13.0920
  447.5000    91.3283    13.1871    13.0905
  447.6000    91.8377    13.1856    13.0894
  447.7000    92.2889    13.1841    13.0436
  447.8000    92.5426    13.1251    12.9679
  447.9000    92.7962    13.0487    12.8926
  448.0000    93.2499    12.9727    12.8128
  448.1000    93.6162    12.9049    12.8116
  448.2000    93.8700    12.9033    12.8103
  448.3000    94.0946    12.9020    12.7730
  448.4000    94.0923    12.8514    12.6792
  448.5000    94.3187    12.8093    12.5409
  448.6000    94.5724    12.8079    12.5395
  448.7000    94.8262    12.8064    12.5984
  448.8000    95.0225    12.8050    12.6251
  448.9000    95.0206    12.8035    12.6239
  449.0000    95.2749    12.8021    12.6227
  449.1000    95.5287    12.8007    12.6214
  449.2000    95.7824    12.7897    12.4838
  449.3000    96.0363    12.7086    12.4438
  449.4000    96.2899    12.5757    12.4426
  449.5000    96.5717    12.4801    12.4208
  449.6000    97.0249    12.3411    12.3440
  449.7000    97.5343    12.1639    12.1807
  449.8000    98.1577    12.0953    12.1208
  449.9000    98.8893    12.0936    12.0937
  450.0000    99.5031    12.0770    12.0925
  450.1000   100.1169    12.0565    12.0914
  450.2000   100.7307    12.0360    12.0901
  450.3000   101.2500    12.0155    12.1564
  450.4000   100.6250    11.9950    12.1726
  450.5000   100.3853    11.9745    12.1714
  450.6000   100.3125    11.9541    12.1702
  450.7000   100.1854    11.9336    12.1690
  450.8000    99.8585    11.9131    12.1677
  450.9000    99.3750    11.8926    12.1666
  451.0000    99.3750    11.8721    12.1197
  451.1000    99.1605    11.8517    12.0492
  451.2000    99.0625    11.8276    11.9791
  451.3000    99.1645    11.8266    11.9092
  451.4000    99.3750    11.7844    11.7724
  451.5000    99.3750    11.6641    11.6371
  451.6000    99.8667    11.4414    11.4298
  451.7000   100.5687    11.1013    11.2353
  451.8000   101.7374    11.1613    11.1783
  451.9000   102.9667    11.1770    11.2553
  452.0000   103.4790    11.1759    11.3132
  452.1000   104.0625    11.1749    11.3321
  452.2000   104.0625    11.1791    11.3310
  452.3000   104.3916    11.2508    11.3299
  452.4000   104.9042    11.3626    11.3311
  452.5000   105.4686    11.4071    11.4069
  452.6000   106.2500    11.4344    11.4060
  452.7000   106.7541    11.4849    11.4049
  452.8000   107.2663    11.4837    11.4038
  452.9000   107.5000    11.4826    11.4026
  453.0000   107.5000    11.4303    11.4015
  453.1000   107.5000    11.3638    11.4004
  453.2000   107.5000    11.2756    11.3993
  453.3000   107.5000    11.1299    11.3652
  453.4000   107.1583    10.8529    11.2806
  453.5000   106.6458    10.7955    11.1464
  453.6000   106.1916    10.7753    10.9268
  453.7000   105.9354    10.7742    10.9259
  453.8000   105.6791    10.7891    10.9248
  453.9000   105.4229    10.8477    10.9498
  454.0000   105.1667    10.8464    10.9995
  454.1000   105.0000    10.8455    10.9982
  454.2000   105.0000    10.8445    10.9972
  454.3000   105.0000    10.8434    10.9960
  454.4000   104.7667    10.8529    10.9949
  454.5000   104.6875    10.9173    11.0142
  454.6000   104.5666    10.9761    11.0829
  454.7000   104.3750    11.0382    11.2245
  454.8000   104.3668    11.0677    11.2235
  454.9000   104.0625    11.0857    11.2654
  455.0000   103.8541    11.1433    11.3000
  455.1000   103.7500    11.1419    11.3137
  455.2000   103.7500    11.2522    11.3776
  455.3000   103.7500    11.3388    11.4420
  455.4000   103.7500    11.4029    11.5067
  455.5000   103.7500    11.4535    11.5718
  455.6000   103.7500    11.4523    11.6135
  455.7000   103.7500    11.5827    11.6306
  455.8000   103.7500    11.6631    11.7746
  455.9000   103.7500    11.7291    11.8357
  456.0000   103.7500    11.7723    11.9025
  456.1000   103.3270    11.7880    12.0030
  456.2000   103.1250    11.9356    12.1402
  456.3000   103.1250    12.0594    12.2790
  456.4000   102.8709    12.1013    12.4441
  456.5000   102.6146    12.1993    12.5617
  456.6000   102.2167    12.3733    12.7949
  456.7000   101.7896    12.4510    13.0608
  456.8000   101.5333    12.7919    13.2990
  456.9000   101.2500    12.9730    13.6211
  457.0000   100.7917    13.2432    13.8449
  457.1000   100.2789    13.4591    14.0839
  457.2000    99.6495    13.5613    14.3697
  457.3000    98.8207    13.8074    14.7015
  457.4000    97.8002    14.0339    15.0336
  457.5000    97.0311    14.2162    15.3301
  457.6000    96.2626    14.4648    15.6346
  457.7000    95.2719    14.8505    15.9962
  457.8000    94.3770    15.3607    16.6966
  457.9000    93.6322    15.8690    17.7911
  458.0000    92.8874    16.5955    18.6344
  458.1000    92.1426    17.2783    18.9512
  458.2000    91.3979    17.8816    19.1093
  458.3000    90.6061    18.5047    19.3392
  458.4000    90.3733    19.1552    19.5979
  458.5000    89.9472    20.3981    19.7466
  458.6000    89.2046    21.3396    20.2524
  458.7000    88.2798    22.2128    20.9933
  458.8000    87.5075    23.0737    21.7664
  458.9000    86.0606    23.9117    22.5863
