~VERSION INFORMATION
 VERS.                2.0:   CWLS LOG ASCII STANDARD - VERSION 2.0
 WRAP.                 NO:   ONE LINE PER DEPTH STEP
~WELL INFORMATION
#MNEM.UNIT      DATA TYPE    INFORMATION
#----------   ------------   ------------------------------
 STRT.F          598.0000:   START DEPTH
 STOP.F         2552.0000:   STOP DEPTH
 STEP.F            0.5000:   STEP LENGTH
 NULL.          -999.2500:   NO VALUE
 COMP. FENIX & SCISSON INC:   COMPANY
 WELL.     15-SHX-2 #15-2:   WELL
 FLD .             TEAPOT:   FIELD
 LOC .       S2 T38N R78W:   LOCATION
 CNTY.            NATRONA:   COUNTY
 STAT.            WYOMING:   STATE
 CTRY. UNITED STATES OF AMERICA:   COUNTRY
 SRVC.              Welex:   SERVICE COMPANY
 DATE.        03-JUN-1979:   LOGDATE
 API .       490251002100:   API NUMBER
~CURVE INFORMATION
#MNEM.UNIT       API CODE    CURVE DESCRIPTION
#----------   ------------   ------------------------------
 DEPT.F                  :   
 CALD.IN     45 280 60 00:   CALIPER
 GRD .GAPI   45 310 01 00:   GAMMA RAY FROM DENSITY LOG
 RHOB.G/C3   45 350 01 00:   BULK DENSITY
 DPHI.DEC    45 890 12 00:   DENSITY POROSITY SANDSTONE
 CORR.G/C3   45 356 01 00:   DENSITY CORRECTION
~PARAMETER INFORMATION
#MNEM.UNIT          VALUE    DESCRIPTION
#----------   ------------   ------------------------------
 PD  .                 GL:   PERMANENT DATUM
 EPD .F              5118:   ELEVATION PERMANENT DATUM
 LMF .                 KB:   LOG MEASURED FROM
 DAPD.F                10:   FEET ABOVE PERMANENT DATUM
 DMF .                 KB:   DRILLING MEASURED FROM
 EKB .F              5128:   KELLING BUSHING
 EGL .F              5118:   GROUND LEVEL
 DATE.             6-3-79:   RUN DATE
 RUN .                  1:   RUN NUMBER
 DD  .F              2569:   DEPTH DRILLER
 DL  .F              2554:   DEPTH LOGGER
 BLI .F              2552:   BOTTOM LOG INTERVAL
 TLI .F               622:   TOP LOG INTERVAL
 CS  .IN            9.625:   CASING SIZE
 CBD .F               622:   CASING BOTTOM DRILLER
 BS  .IN             8.75:   BIT SIZE
 BSD .F              2569:   BIT SIZE AT DEPTH
 DFT .        AIR DRILLED:   DRILLING FLUID TYPE
 TCS .HRS             2.5:   TIME CURCULATED STOPPED
 MRT .F               124:   MAXIMUM RECORDED TEMPERATURE
 ENGI.               REIN:   RECORDING ENGINEER
 WITN.              AMEND:   WITNESSED BY
 CLNT.            A2DTECH:   CLIENT CODE
 ORIG.           5" PRINT:   ORIGIN OF DATA
 UWI .       490251002100:   UNIQUE WELL ID
 DICO. A2D Technologies, Inc.:   DIGITIZING COMPANY
~OTHER INFORMATION
~A   DEPT     CALD         GRD      RHOB       DPHI       CORR   
  598.0000  -999.2500    52.1414  -999.2500  -999.2500  -999.2500
  598.5000  -999.2500    52.9482  -999.2500  -999.2500  -999.2500
  599.0000  -999.2500    53.3456  -999.2500  -999.2500  -999.2500
  599.5000  -999.2500    53.3794  -999.2500  -999.2500  -999.2500
  600.0000  -999.2500    53.3034  -999.2500  -999.2500  -999.2500
  600.5000  -999.2500    52.9491  -999.2500  -999.2500  -999.2500
  601.0000  -999.2500    52.5982  -999.2500  -999.2500  -999.2500
  601.5000  -999.2500    53.1725  -999.2500  -999.2500  -999.2500
  602.0000  -999.2500    54.5709  -999.2500  -999.2500  -999.2500
  602.5000  -999.2500    54.0806  -999.2500  -999.2500  -999.2500
  603.0000  -999.2500    53.2795  -999.2500  -999.2500  -999.2500
  603.5000  -999.2500    52.4472  -999.2500  -999.2500  -999.2500
  604.0000  -999.2500    53.0676  -999.2500  -999.2500  -999.2500
  604.5000  -999.2500    53.9159  -999.2500  -999.2500  -999.2500
  605.0000  -999.2500    53.2743  -999.2500  -999.2500  -999.2500
  605.5000  -999.2500    52.1717  -999.2500  -999.2500  -999.2500
  606.0000  -999.2500    50.9552  -999.2500  -999.2500  -999.2500
  606.5000  -999.2500    51.5316  -999.2500  -999.2500  -999.2500
  607.0000  -999.2500    52.1649  -999.2500  -999.2500  -999.2500
  607.5000  -999.2500    51.6919  -999.2500  -999.2500  -999.2500
  608.0000  -999.2500    51.1575  -999.2500  -999.2500  -999.2500
  608.5000  -999.2500    51.3296  -999.2500  -999.2500  -999.2500
  609.0000  -999.2500    52.1900  -999.2500  -999.2500  -999.2500
  609.5000  -999.2500    53.0735  -999.2500  -999.2500  -999.2500
  610.0000  -999.2500    53.5152  -999.2500  -999.2500  -999.2500
  610.5000  -999.2500    53.1520  -999.2500  -999.2500  -999.2500
  611.0000  -999.2500    52.7941  -999.2500  -999.2500  -999.2500
  611.5000  -999.2500    52.9451  -999.2500  -999.2500  -999.2500
  612.0000  -999.2500    53.0312  -999.2500  -999.2500  -999.2500
  612.5000  -999.2500    53.0384  -999.2500  -999.2500  -999.2500
  613.0000  -999.2500    53.3223  -999.2500  -999.2500  -999.2500
  613.5000  -999.2500    54.7338  -999.2500  -999.2500  -999.2500
  614.0000  -999.2500    55.1361  -999.2500  -999.2500  -999.2500
  614.5000  -999.2500    54.5356  -999.2500  -999.2500  -999.2500
  615.0000  -999.2500    54.4593  -999.2500  -999.2500  -999.2500
  615.5000  -999.2500    55.6227  -999.2500  -999.2500  -999.2500
  616.0000  -999.2500    57.6726  -999.2500  -999.2500  -999.2500
  616.5000  -999.2500    59.8041  -999.2500  -999.2500  -999.2500
  617.0000  -999.2500    59.3255  -999.2500  -999.2500  -999.2500
  617.5000  -999.2500    60.7835  -999.2500  -999.2500  -999.2500
  618.0000  -999.2500    59.6143  -999.2500  -999.2500  -999.2500
  618.5000  -999.2500    58.0863  -999.2500  -999.2500  -999.2500
  619.0000  -999.2500    57.5065  -999.2500  -999.2500  -999.2500
  619.5000  -999.2500    59.0169  -999.2500  -999.2500  -999.2500
  620.0000  -999.2500    61.3294  -999.2500  -999.2500  -999.2500
  620.5000  -999.2500    63.6061  -999.2500  -999.2500  -999.2500
  621.0000  -999.2500    68.1350  -999.2500  -999.2500  -999.2500
  621.5000  -999.2500    73.5141  -999.2500  -999.2500  -999.2500
  622.0000     9.3923    78.9168     2.5733     0.0191     0.0767
  622.5000     9.5059    84.1145     2.5266     0.0168     0.0530
  623.0000     9.6136    88.3459     2.5110     0.0255     0.0501
  623.5000     9.7109    90.0640     2.5126     0.0261     0.0477
  624.0000     9.7358    91.3645     2.5090     0.0233     0.0446
  624.5000     9.7599    91.8247     2.5361     0.0112     0.0415
  625.0000     9.7681    90.0950     2.5629    -0.0010     0.0384
  625.5000     9.7667    88.3319     2.5677    -0.0101     0.0353
  626.0000     9.7206    89.6987     2.5600    -0.0061     0.0330
  626.5000     9.6757    90.8162     2.5521    -0.0014     0.0309
  627.0000     9.6302    89.9574     2.5444     0.0034     0.0285
  627.5000     9.6220    90.2826     2.5387     0.0065     0.0261
  628.0000     9.6311    92.0055     2.5384     0.0091     0.0259
  628.5000     9.6405    93.7122     2.5406     0.0058     0.0283
  629.0000     9.6499    95.1138     2.5420     0.0059     0.0308
  629.5000     9.6593    94.3856     2.5379     0.0091     0.0333
  630.0000     9.6687    93.2691     2.5275     0.0123     0.0357
  630.5000     9.6781    93.6304     2.5165     0.0218     0.0382
  631.0000     9.6876    92.9286     2.5011     0.0308     0.0375
  631.5000     9.6958    92.9790     2.4856     0.0399     0.0313
  632.0000     9.6794    94.1770     2.4718     0.0490     0.0253
  632.5000     9.6592    92.4710     2.4711     0.0536     0.0193
  633.0000     9.6390    90.7190     2.4828     0.0465     0.0133
  633.5000     9.6188    90.4021     2.4747     0.0435     0.0073
  634.0000     9.5990    90.8066     2.4623     0.0563     0.0012
  634.5000     9.5733    91.1944     2.4619     0.0565    -0.0009
  635.0000     9.5471    92.5946     2.4683     0.0547    -0.0003
  635.5000     9.5209    94.0050     2.4765     0.0506     0.0003
  636.0000     9.4948    94.9595     2.4847     0.0481     0.0009
  636.5000     9.4685    96.1659     2.4929     0.0415     0.0015
  637.0000     9.4539    99.3368     2.5009     0.0345     0.0021
  637.5000     9.4490   100.7071     2.5059     0.0271     0.0027
  638.0000     9.4443   101.7414     2.5109     0.0246     0.0033
  638.5000     9.4396   103.3141     2.5142     0.0238     0.0038
  639.0000     9.4349   100.9889     2.5120     0.0253     0.0044
  639.5000     9.4302    97.6608     2.5173     0.0231     0.0049
  640.0000     9.4255    94.2647     2.5168     0.0236     0.0036
  640.5000     9.4208    91.0440     2.5079     0.0288     0.0023
  641.0000     9.4161    90.3810     2.5007     0.0341     0.0010
  641.5000     9.4114    89.4781     2.4901     0.0394    -0.0003
  642.0000     9.4067    86.6515     2.4795     0.0432    -0.0016
  642.5000     9.4020    83.9869     2.4750     0.0466    -0.0029
  643.0000     9.3973    81.3722     2.4773     0.0492    -0.0042
  643.5000     9.3926    82.6029     2.4846     0.0457    -0.0039
  644.0000     9.3879    84.5876     2.4920     0.0399    -0.0012
  644.5000     9.3832    86.6698     2.4906     0.0379     0.0015
  645.0000     9.3785    86.5817     2.4869     0.0411     0.0042
  645.5000     9.3738    85.9139     2.4832     0.0443     0.0069
  646.0000     9.3691    86.2750     2.4852     0.0439     0.0096
  646.5000     9.3644    87.7328     2.4854     0.0435     0.0124
  647.0000     9.3597    87.7033     2.4804     0.0463     0.0134
  647.5000     9.3550    87.9535     2.4756     0.0492     0.0162
  648.0000     9.3504    89.2495     2.4707     0.0526     0.0190
  648.5000     9.3456    90.4748     2.4652     0.0559     0.0218
  649.0000     9.3407    91.1223     2.4562     0.0603     0.0246
  649.5000     9.3383    90.3254     2.4439     0.0681     0.0274
  650.0000     9.3705    90.7844     2.4178     0.0855     0.0303
  650.5000     9.4023    92.1904     2.3926     0.1018     0.0315
  651.0000     9.4339    93.6475     2.3662     0.1192     0.0324
  651.5000     9.4654    93.1646     2.3322     0.1396     0.0349
  652.0000     9.4969    91.6058     2.3032     0.1614     0.0404
  652.5000     9.5284    91.8031     2.2644     0.1837     0.0460
  653.0000     9.5599    92.4955     2.2257     0.2009     0.0515
  653.5000     9.5915    91.7905     2.1869     0.2185     0.0573
  654.0000     9.6231    90.0892     2.1515     0.2464     0.0526
  654.5000     9.6195    89.8273     2.1175     0.2711     0.0373
  655.0000     9.5324    90.8577     2.1175     0.2749     0.0220
  655.5000     9.4463    91.8966     2.3060     0.2143     0.0071
  656.0000     9.3608    90.4481     2.5150     0.1218     0.0036
  656.5000     9.2963    88.7180     2.5191     0.0191     0.0153
  657.0000     9.3187    87.0813     2.5200     0.0202     0.0258
  657.5000     9.3399    86.1915     2.5136     0.0237     0.0269
  658.0000     9.3610    85.7271     2.5034     0.0281     0.0262
  658.5000     9.3817    85.9886     2.4933     0.0344     0.0255
