~VERSION INFORMATION
 VERS.                2.0:   CWLS LOG ASCII STANDARD - VERSION 2.0
 WRAP.                 NO:   ONE LINE PER DEPTH STEP
~WELL INFORMATION
#MNEM.UNIT      DATA TYPE    INFORMATION
#----------   ------------   ------------------------------
 STRT.F            6.0000:   START DEPTH
 STOP.F          495.0000:   STOP DEPTH
 STEP.F            0.5000:   STEP LENGTH
 NULL.          -999.2500:   NO VALUE
 COMP. FENIX & SCISSON INC:   COMPANY
 WELL. FI NPR-3 #65-25 SX3:   WELL
 FLD .  NAVAL RESERVES #3:   FIELD
 LOC .       S3 T38N R78W:   LOCATION
 CNTY.            NATRONA:   COUNTY
 STAT.            WYOMING:   STATE
 CTRY. UNITED STATES OF AMERICA:   COUNTRY
 SRVC.       Schlumberger:   SERVICE COMPANY
 DATE.        22-MAY-1980:   LOGDATE
 API .       490251080300:   API NUMBER
~CURVE INFORMATION
#MNEM.UNIT       API CODE    CURVE DESCRIPTION
#----------   ------------   ------------------------------
 DEPT.F                  :   
 SPR .MV     07 010 01 00:   SPONTANEOUS POTENTIAL
 SFL .OHMM   07 220 01 00:   SHALLOW FOCUSED LOG RESISTIVITY
 ILD .OHMM   07 120 46 00:   INDUCTION LOG DEEP RESISTIVITY
 ILM .OHMM   07 120 44 00:   INDUCTION LOG MEDIUM
 GRD .GAPI   45 310 01 00:   GAMMA RAY FROM DENSITY LOG
 CALD.IN     45 280 60 00:   CALIPER
 DPHI.DEC    45 890 12 00:   DENSITY POROSITY SANDSTONE
 RHOB.G/C3   45 350 01 00:   BULK DENSITY
 CORR.G/C3   45 356 01 00:   DENSITY CORRECTION
 NPHI.DEC    42 890 03 00:   NEUTRON POROSITY SANDSTONE
~PARAMETER INFORMATION
#MNEM.UNIT          VALUE    DESCRIPTION
#----------   ------------   ------------------------------
 PD  .                 GL:   PERMANENT DATUM
 EPD .F              5162:   ELEVATION PERMANENT DATUM
 LMF .                 KB:   LOG MEASURED FROM
 DAPD.F                 4:   FEET ABOVE PERMANENT DATUM
 DMF .                 KB:   DRILLING MEASURED FROM
 EKB .F              5166:   KELLING BUSHING
 EGL .F              5162:   GROUND LEVEL
 DATE.            5-22-80:   RUN DATE
 RUN .                  1:   RUN NUMBER
 DD  .F               500:   DEPTH DRILLER
 DL  .F               498:   DEPTH LOGGER
 BLI .F               492:   BOTTOM LOG INTERVAL
 TLI .F                10:   TOP LOG INTERVAL
 BS  .IN            9.875:   BIT SIZE
 BSD .F               500:   BIT SIZE AT DEPTH
 DFT .                KCL:   DRILLING FLUID TYPE
 DFD .                9.6:   DRILLING FLUID DENSITY
 DFV .                 45:   DRILLING FLUID VISCOSITY
 DFL .                8.9:   DRILLING FLUID LOSS
 MSS .               PITS:   MUD SAMPLE SOURCE
 RMS .OHMM            .21:   RESISTIVITY MUD SAMPLE
 MST .F                76:   MUD SAMPLE TEMPERATURE
 RMF .OHMM            .19:   RESISTIVITY MUD FILTRATE SAMPLE
 MFST.F                76:   MUD FILTRATE SAMPLE TEMPERATURE
 MFSS.               MEAS:   MUD FILTRATE SAMPLE SOURCE
 TLAB.HRS            0845:   TIME LOGGER AT BOTTOM
 LUN .               8035:   LOGGING UNIT NUMBER
 LUL .               CSPR:   LOGGING UNIT LOCATION
 ENGI.           C. DRAKE:   RECORDING ENGINEER
 WITN.              AMEND:   WITNESSED BY
 CLNT.            A2DTECH:   CLIENT CODE
 ORIG.           5" PRINT:   ORIGIN OF DATA
 UWI .       490251080300:   UNIQUE WELL ID
 DICO. A2D Technologies, Inc.:   DIGITIZING COMPANY
~OTHER INFORMATION
~A    DEPT     SPR        SFL        ILD        ILM         GRD       CALD      DPHI       RHOB       CORR        NPHI  
# ...
  341.0000   -70.0328    14.3449    15.3915    10.4135    93.9417    10.0714     0.1650     2.4090    -0.0005     0.2718
  341.5000   -70.1441    13.9581    15.2077    10.3614    91.7693    10.0710     0.1597     2.4191    -0.0004     0.2717
  342.0000   -70.2572    13.5818    15.0260    10.2980    90.0576    10.0707     0.1526     2.4310     0.0061     0.2730
  342.5000   -70.2713    13.2084    14.8465    10.3722    90.7221    10.0703     0.1451     2.4338     0.0086     0.2761
  343.0000   -70.2265    13.2946    14.6693    10.4687    93.1761    10.0699     0.1458     2.4291     0.0092     0.2673
  343.5000   -70.1799    13.4439    14.4939    10.5666    94.9284    10.0695     0.1502     2.4239     0.0086     0.2574
  344.0000   -70.1353    13.6375    14.3208    10.6653    96.7021    10.0691     0.1519     2.4269     0.0053     0.2489
  344.5000   -70.1705    13.8315    14.0889    10.7649    98.7392    10.0688     0.1491     2.4313    -0.0004     0.2465
  345.0000   -70.5305    13.5556    14.0661    10.7836   100.9539    10.0684     0.1463     2.4348    -0.0056     0.2512
  345.5000   -70.8814    13.2883    14.0436    10.7836   103.1883    10.0680     0.1455     2.4321    -0.0085     0.2582
  346.0000   -71.2310    13.0263    14.0211    10.7295   103.9191    10.0676     0.1472     2.4290    -0.0113     0.2638
  346.5000   -71.5864    12.7695    13.9987    10.6058   103.0229    10.0672     0.1495     2.4275    -0.0125     0.2632
  347.0000   -71.6099    12.6133    13.9765    10.4830   102.1087    10.0668     0.1500     2.4270    -0.0105     0.2613
  347.5000   -71.4809    12.6850    13.9605    10.3935   101.2028    10.0665     0.1503     2.4249    -0.0083     0.2612
  348.0000   -71.3481    12.8188    14.1422    10.3918    99.7363    10.0661     0.1525     2.4193    -0.0060     0.2609
  348.5000   -71.2153    13.0118    14.2891    10.5202    95.6877    10.0657     0.1579     2.4121    -0.0044     0.2608
  349.0000   -71.0828    13.2076    14.4375    10.6079    93.7430    10.0653     0.1602     2.4091    -0.0050     0.2597
  349.5000   -70.9495    13.4066    14.5874    10.6963    93.9625    10.0649     0.1613     2.4076    -0.0058     0.2558
  350.0000   -70.8168    13.6097    14.7389    10.7855    95.1813    10.0645     0.1611     2.4080    -0.0065     0.2517
  350.5000   -70.7228    13.8302    14.8920    10.8834    97.5923    10.0641     0.1603     2.4103    -0.0065     0.2513
  351.0000   -70.9620    13.8007    15.0282    10.8675    97.6487    10.0638     0.1587     2.4125    -0.0055     0.2509
  351.5000   -71.2015    13.7669    14.9306    10.8490    96.8739    10.0634     0.1585     2.4128    -0.0041     0.2487
  352.0000   -71.4488    13.7332    14.8440    10.8309    95.7127    10.0630     0.1583     2.4134    -0.0005     0.2459
  352.5000   -71.4246    13.7046    14.7536    10.8129    95.2625    10.0626     0.1545     2.4200     0.0044     0.2433
  353.0000   -71.3239    13.7046    14.5061    10.7950    95.7070    10.0622     0.1465     2.4341     0.0093     0.2469
  353.5000   -71.2038    13.6541    14.2501    10.7849    96.8067    10.0618     0.1378     2.4490     0.0132     0.2540
  354.0000   -71.0890    13.3582    13.9987    10.6689    96.6332    10.0614     0.1337     2.4526     0.0136     0.2614
  354.5000   -71.0402    13.0690    13.7517    10.5222    96.4632    10.0559     0.1347     2.4527     0.0089     0.2645
  355.0000   -70.9896    12.7834    13.5090    10.3776    97.1692    10.0452     0.1374     2.4484     0.0045     0.2620
  355.5000   -70.9395    12.7097    13.2707    10.2349    98.4629    10.0345     0.1405     2.4435     0.0001     0.2579
  356.0000   -70.9167    12.6744    13.0872    10.0942   100.0806    10.0238     0.1423     2.4380    -0.0056     0.2538
  356.5000   -71.0115    12.6397    12.9418     9.9553   100.3872    10.0131     0.1417     2.4399    -0.0094     0.2498
  357.0000   -71.1039    12.6051    12.8008     9.8181   100.2556    10.0024     0.1396     2.4446    -0.0064     0.2481
  357.5000   -71.1952    12.5707    12.6133     9.7436    99.9535     9.9917     0.1389     2.4471    -0.0033     0.2549
  358.0000   -71.2925    12.5363    12.7096     9.7544    97.7193     9.9809     0.1380     2.4497     0.0009     0.2621
  358.5000   -71.0139    12.4976    12.8584     9.7784    96.7346     9.9703     0.1319     2.4585     0.0054     0.2623
  359.0000   -70.5937    12.6682    13.0090     9.8024    96.1169     9.9596     0.1231     2.4751     0.0099     0.2599
  359.5000   -70.1667    12.8657    13.3862     9.8264    96.5380     9.9482     0.1179     2.4812     0.0126     0.2605
  360.0000   -69.7199    13.0841    14.2413    10.0930    96.9121     9.9259     0.1170     2.4762     0.0135     0.2651
  360.5000   -69.1098    13.6478    15.3904    10.6800    96.8157     9.8946     0.1312     2.4562     0.0138     0.2705
  361.0000   -68.4593    14.3379    16.6322    11.3012    94.4460     9.8671     0.1523     2.4208     0.0142     0.2700
  361.5000   -67.8038    15.3750    17.9742    11.9585    90.6731     9.8397     0.1788     2.3682     0.0137     0.2673
  362.0000   -67.2641    16.8607    19.8370    12.6541    86.6716     9.8114     0.2053     2.3142     0.0040     0.2632
  362.5000   -66.7998    18.8540    22.8627    13.3901    84.7510     9.8073     0.2277     2.2985    -0.0026     0.2573
  363.0000   -66.5618    21.0830    26.3370    13.9811    83.8653     9.8124     0.2261     2.3094    -0.0056     0.2552
  363.5000   -66.3785    23.5755    30.3391    14.5342    82.0450     9.8178     0.2140     2.3455    -0.0085     0.2524
  364.0000   -66.0638    26.9687    34.9496    15.1092    79.5985     9.8233     0.1829     2.4169    -0.0071     0.2388
  364.5000   -65.6542    33.0069    39.5664    15.5927    75.4246     9.8213     0.1481     2.4549    -0.0018     0.2024
  365.0000   -65.2439    40.9717    41.4330    16.0984    74.2719     9.8181     0.1280     2.4663     0.0035     0.1845
  365.5000   -64.8333    50.7498    41.8167    16.6257    73.8639     9.8147     0.1367     2.4363     0.0088     0.1937
  366.0000   -64.4224    48.3742    41.7109    16.9782    74.7318     9.8114     0.1576     2.3963     0.0137     0.2125
  366.5000   -64.0131    44.0731    40.3566    17.0986    75.6490     9.8081     0.1732     2.3853     0.0153     0.2357
  367.0000   -63.6776    40.9771    37.9671    16.9313    76.5562     9.8047     0.1771     2.3814     0.0170     0.2433
  367.5000   -63.6101    39.7885    35.7011    16.6706    77.4830     9.8014     0.1812     2.3715     0.0178     0.2657
  368.0000   -63.5384    38.0916    33.5730    16.4139    79.4503     9.7981     0.1860     2.3572     0.0169     0.2735
  368.5000   -63.4666    34.0644    31.7097    16.1611    81.1136     9.7948     0.1941     2.3515     0.0100     0.2825
  369.0000   -63.3934    31.4214    31.5235    16.0300    82.2083     9.7914     0.1971     2.3481     0.0033     0.2915
  369.5000   -63.3274    30.2838    31.3551    16.0104    82.2513     9.7881     0.1988     2.3459     0.0007     0.3027
  370.0000   -62.9611    29.7305    31.1838    15.9922    80.2088     9.7848     0.1986     2.3490     0.0114     0.2978
  370.5000   -62.4863    29.3998    30.6516    15.9741    77.9757     9.7887     0.1980     2.3469     0.0222     0.2936
  371.0000   -62.0060    29.0370    29.9795    15.9559    78.4566     9.7931     0.1995     2.3417     0.0240     0.2906
  371.5000   -61.5232    28.6541    29.3222    15.9378    83.1092     9.7975     0.2040     2.3327     0.0074     0.2894
  372.0000   -61.1835    27.1606    28.6792    15.9186    87.6797     9.8019     0.2084     2.3277    -0.0035     0.2827
  372.5000   -60.9547    25.6426    28.3911    15.8955    91.9891     9.8126     0.2019     2.3439    -0.0056     0.2725
  373.0000   -60.7267    24.2094    29.6517    15.8829    92.0198     9.8319     0.1916     2.3747    -0.0067     0.2709
  373.5000   -60.5178    23.6103    30.5485    16.8586    88.9747     9.8511     0.1715     2.4108    -0.0076     0.2701
  374.0000   -60.9176    26.3724    31.4725    18.8645    83.3192     9.8654     0.1427     2.4543    -0.0108     0.2581
