~VERSION INFORMATION
 VERS.                2.0:   CWLS LOG ASCII STANDARD - VERSION 2.0
 WRAP.                 NO:   ONE LINE PER DEPTH STEP
~WELL INFORMATION
#MNEM.UNIT      DATA TYPE    INFORMATION
#----------   ------------   ------------------------------
 STRT.F           20.0000:   START DEPTH
 STOP.F          626.0000:   STOP DEPTH
 STEP.F            0.5000:   STEP LENGTH
 NULL.          -999.2500:   NO VALUE
 COMP. FENIX & SCISSON INC:   COMPANY
 WELL. NPR-3  38-S-34 #38-34:   WELL
 FLD .             TEAPOT:   FIELD
 LOC .      S34 T39N R78W:   LOCATION
 CNTY.            NATRONA:   COUNTY
 STAT.            WYOMING:   STATE
 CTRY. UNITED STATES OF AMERICA:   COUNTRY
 SRVC.           BIRDWELL:   SERVICE COMPANY
 DATE.        08-AUG-1978:   LOGDATE
 API .       490251068300:   API NUMBER
~CURVE INFORMATION
#MNEM.UNIT       API CODE    CURVE DESCRIPTION
#----------   ------------   ------------------------------
 DEPT.F                  :   
 SPR .MV     05 010 01 00:   SPONTANEOUS POTENTIAL FROM RES.
 SN  .OHMM   05 040 16 00:   SHORT NORMAL 16"
 IL  .OHMM   05 120 00 00:   INDUCTION LOG
 RHOB.G/C3   45 350 01 00:   BULK DENSITY
 DPHI.DEC    45 890 12 00:   DENSITY POROSITY SANDSTONE
 CORR.G/C3   45 356 01 00:   DENSITY CORRECTION
 GRD .GAPI   45 310 01 00:   GAMMA RAY FROM DENSITY LOG
 CALD.IN     45 280 60 00:   CALIPER
~PARAMETER INFORMATION
#MNEM.UNIT          VALUE    DESCRIPTION
#----------   ------------   ------------------------------
 PD  .                 GL:   PERMANENT DATUM
 EPD .F              5213:   ELEVATION PERMANENT DATUM
 LMF .                 KB:   LOG MEASURED FROM
 DAPD.F                 4:   FEET ABOVE PERMANENT DATUM
 DMF .                 KB:   DRILLING MEASURED FROM
 EKB .F              5217:   KELLING BUSHING
 EGL .F              5213:   GROUND LEVEL
 DATE.             8-8-78:   RUN DATE
 RUN .                  1:   RUN NUMBER
 DD  .F               620:   DEPTH DRILLER
 DL  .F               632:   DEPTH LOGGER
 BLI .F               626:   BOTTOM LOG INTERVAL
 TLI .F                35:   TOP LOG INTERVAL
 CS  .IN            8.625:   CASING SIZE
 CBL .F                35:   CASING BOTTOM LOGGER
 BS  .IN            7.875:   BIT SIZE
 BSD .F               620:   BIT SIZE AT DEPTH
 DFT .                KCL:   DRILLING FLUID TYPE
 DFD .                8.7:   DRILLING FLUID DENSITY
 DFV .                 33:   DRILLING FLUID VISCOSITY
 DFPH.                  9:   DRILLING FLUID PH
 DFL .                  5:   DRILLING FLUID LOSS
 MSS .          FLOW LINE:   MUD SAMPLE SOURCE
 RMS .OHMM            .12:   RESISTIVITY MUD SAMPLE
 MST .F                80:   MUD SAMPLE TEMPERATURE
 RMF .OHMM            .13:   RESISTIVITY MUD FILTRATE SAMPLE
 MFST.F                83:   MUD FILTRATE SAMPLE TEMPERATURE
 RMC .OHMM            .16:   RESISTIVITY MUD CAKE
 MCST.F                84:   MUD CAKE SAMPLE TEMPERATURE
 MFSS.               MEAS:   MUD FILTRATE SAMPLE SOURCE
 TCS .HRS               1:   TIME CURCULATED STOPPED
 LUN .               3006:   LOGGING UNIT NUMBER
 LUL .               CASP:   LOGGING UNIT LOCATION
 ENGI.             MILLER:   RECORDING ENGINEER
 WITN.           MCGINLEY:   WITNESSED BY
 CLNT.            A2DTECH:   CLIENT CODE
 ORIG.           5" PRINT:   ORIGIN OF DATA
 UWI .       490251068300:   UNIQUE WELL ID
 DICO. A2D Technologies, Inc.:   DIGITIZING COMPANY
~OTHER INFORMATION
~A   DEPT      SPR         SN         IL       RHOB       DPHI       CORR         GRD      CALD   
# ...
  506.0000   -21.2986     8.6664     8.9630     2.3963     0.1671     0.0346    77.1171     6.9664
  506.5000   -21.3003     8.6795     8.9678     2.3999     0.1602     0.0351    74.9400     6.9081
  507.0000   -21.3000     8.6927     8.9726     2.4086     0.1553     0.0355    76.0955     6.8497
  507.5000   -21.3000     8.7058     8.9775     2.4174     0.1542     0.0360    78.3326     6.7913
  508.0000   -21.3000     8.7191     8.9823     2.4177     0.1544     0.0364    78.0493     6.7329
  508.5000   -21.3000     8.7323     8.9872     2.4164     0.1525     0.0369    77.3030     6.6742
  509.0000   -21.3000     8.7455     8.9920     2.4215     0.1507     0.0374    77.1104     6.6156
  509.5000   -21.3000     8.7588     8.9969     2.4262     0.1491     0.0338    80.1947     6.5584
  510.0000   -21.3000     8.7721     9.0017     2.4251     0.1544     0.0286    82.9916     6.5567
  510.5000   -21.3000     8.7848     9.0066     2.4190     0.1587     0.0235    82.8131     6.6842
  511.0000   -21.3000     8.7851     9.0114     2.4129     0.1582     0.0264    80.0749     6.8279
  511.5000   -21.3000     8.7851     9.0163     2.4102     0.1579     0.0285    77.3359     6.9744
  512.0000   -21.3000     8.7851     9.0212     2.4100     0.1629     0.0197    76.8591     6.9721
  512.5000   -21.3000     8.7851     9.0262     2.4018     0.1682     0.0254    77.3609     6.9409
  513.0000   -21.3000     8.7852     9.0300     2.3910     0.1724     0.0333    78.4023     6.9424
  513.5000   -21.3000     8.7858     9.0129     2.3842     0.1707     0.0357    81.3138     7.0188
  514.0000   -21.3000     8.7280     8.9960     2.3899     0.1691     0.0277    84.2129     7.0942
  514.5000   -21.3000     8.6645     8.9791     2.3908     0.1694     0.0214    81.1041     7.1694
  515.0000   -21.3000     8.6014     8.9623     2.3904     0.1698     0.0242    76.6580     7.1574
  515.5000   -21.3000     8.5389     8.9454     2.3898     0.1700     0.0270    77.1341     7.1293
  516.0000   -21.3000     8.4768     8.9286     2.3893     0.1669     0.0298    76.8831     7.1010
  516.5000   -21.3013     8.4151     8.9118     2.3949     0.1614     0.0327    75.9243     7.0728
  517.0000   -21.3023     8.3539     8.8950     2.4057     0.1559     0.0354    78.1515     7.0443
  517.5000   -21.2862     8.2931     8.8783     2.4153     0.1514     0.0355    79.9802     7.0662
  518.0000   -20.6282     8.2376     8.8662     2.4220     0.1457     0.0355    78.5274     7.1473
  518.5000   -19.3024     8.4046     8.9294     2.4348     0.1436     0.0355    76.8997     7.2270
  519.0000   -19.2972     8.6501     9.2152     2.4352     0.1446     0.0355    77.4344     7.2202
  519.5000   -19.3229     8.9028     9.5616     2.4323     0.1455     0.0362    78.8649     7.1629
  520.0000   -18.3635     9.2080     9.9001     2.4295     0.1463     0.0381    80.3660     7.1063
  520.5000   -17.1796     9.4956    10.0869     2.4287     0.1463     0.0400    81.8574     7.0498
  521.0000   -16.0769     9.7922    10.2668     2.4299     0.1468     0.0419    81.7318     6.9912
  521.5000   -15.4379    10.0981    10.4461     2.4315     0.1504     0.0438    81.0695     6.9865
  522.0000   -14.9794    10.4135    10.8761     2.4144     0.1635     0.0457    80.4513     7.0020
  522.5000   -14.8984    10.7388    11.6681     2.3936     0.1767     0.0473    77.3836     7.0178
  523.0000   -14.8988    11.0742    12.5187     2.3714     0.1898     0.0511    75.4903     7.0350
  523.5000   -14.8999    11.3735    13.2945     2.3452     0.2031     0.0555    75.2026     6.9874
  524.0000   -14.9000    11.4343    13.4413     2.3184     0.2191     0.0682    74.8845     6.9191
  524.5000   -14.9000    11.4954    13.5329     2.2917     0.2455     0.1040    74.6609     6.9030
  525.0000   -14.9000    11.5569    13.3936     2.2638     0.2471     0.1455    70.3635     6.9608
  525.5000   -14.9000    11.6186    13.2969     2.2578     0.2387     0.1536    67.4506     7.0180
  526.0000   -14.9000    11.6815    13.2016     2.2803     0.2259     0.1402    68.5870     7.0752
  526.5000   -14.9000    11.6815    13.1642     2.2985     0.2307     0.1268    69.9625     7.1550
  527.0000   -14.9000    11.6815    13.1642     2.2850     0.2387     0.1225    68.7035     7.2466
  527.5000   -14.9000    11.6587    13.1641     2.2674     0.2427     0.1272    67.2630     7.2639
  528.0000   -14.9001    11.5843    13.1644     2.2626     0.2359     0.1095    67.2295     7.2723
  528.5000   -14.8997    11.5104    13.1675     2.2826     0.2352     0.1003    67.3753     7.3102
  529.0000   -14.8813    11.4369    13.0550     2.2752     0.2367     0.1175    67.5308     7.3929
  529.5000   -14.8428    11.3640    12.8822     2.2722     0.2323     0.1340    67.6837     7.4752
  530.0000   -14.8045    11.2915    12.7116     2.2819     0.2215     0.1477    67.8512     7.5600
  530.5000   -14.7658    11.2195    12.5643     2.3007     0.2151     0.1366    68.6834     7.5404
  531.0000   -14.7276    11.1483    12.5162     2.3150     0.2212     0.1361    70.5557     7.4973
  531.5000   -14.7080    11.0760    12.4682     2.2985     0.2264     0.1396    72.4906     7.5011
  532.0000   -14.7451    10.9675    12.4205     2.2893     0.2295     0.1429    72.7926     7.5539
  532.5000   -14.7803    10.8392    12.3729     2.2989     0.2176     0.1327    71.7474     7.5268
  533.0000   -14.8155    10.7135    12.3255     2.3233     0.2096     0.0962    67.7260     7.4484
  533.5000   -14.8507    10.5892    12.2783     2.3259     0.2081     0.0891    64.8861     7.3690
  534.0000   -14.8859    10.4663    12.2312     2.3291     0.2065     0.0834    65.6328     7.2891
  534.5000   -14.9211    10.3449    12.1844     2.3322     0.2055     0.0580    66.5000     7.2570
  535.0000   -14.9563    10.2248    12.1377     2.3343     0.2106     0.0483    66.0940     7.2564
  535.5000   -14.9915    10.1769    12.0009     2.3198     0.2179     0.0560    65.6368     7.2576
  536.0000   -15.0267    10.2108    11.8039     2.3109     0.2171     0.0631    65.3110     7.1809
  536.5000   -15.0622    10.2349    11.6107     2.3092     0.2211     0.0583    69.2106     7.0997
  537.0000   -15.0982    10.2591    11.4207     2.2987     0.2309     0.0537    73.6492     7.1260
  537.5000   -15.0883    10.2833    11.2339     2.2844     0.2416     0.0674    71.0886     7.1530
  538.0000   -15.0749    10.3076    11.0501     2.2630     0.2494     0.1133    69.3823     7.0592
  538.5000   -15.0617    10.3319    10.9535     2.2490     0.2310     0.1433    70.8499     6.9238
  539.0000   -15.0486    10.3563    10.9695     2.2932     0.2215     0.1425    70.8225     6.8255
  539.5000   -15.0354    10.3808    10.9820     2.3069     0.2146     0.1366    68.9747     6.8724
  540.0000   -15.0223    10.4053    10.9946     2.3228     0.1987     0.1258    69.7495     6.9160
  540.5000   -15.0091    10.4299    11.0071     2.3516     0.1807     0.0733    70.4672     6.9592
  541.0000   -14.9960    10.5581    11.0197     2.3758     0.1899     0.0454    69.4965     7.0036
  541.5000   -14.9829    10.5463    11.0323     2.3608     0.1997     0.0491    68.4433     6.9698
  542.0000   -14.9697    10.5239    11.0450     2.3377     0.1980     0.0562    67.5258     6.9510
  542.5000   -14.9566    10.5017    11.0534     2.3445     0.1963     0.0510    66.6992     7.0419
  543.0000   -14.9434    10.4795    10.9972     2.3494     0.1979     0.0405    65.5886     7.0691
  543.5000   -14.9301    10.4573    10.9508     2.3385     0.2080     0.0397    64.5081     6.9972
  544.0000   -14.9177    10.4351    10.9045     2.3238     0.2098     0.0430    65.0435     6.9259
  544.5000   -14.9008    10.4131    10.8584     2.3256     0.2083     0.0380    66.6693     6.8549
  545.0000   -15.0908    10.3910    10.8126     2.3280     0.2097     0.0310    68.2969     6.8233
  545.5000   -15.3577    10.3690    10.7540     2.3251     0.2106     0.0239    69.8991     6.9647
  546.0000   -15.6282    10.3471    10.9404     2.3198     0.2135     0.0328    70.8148     7.1018
