~VERSION INFORMATION
 VERS.                2.0:   CWLS LOG ASCII STANDARD - VERSION 2.0
 WRAP.                 NO:   ONE LINE PER DEPTH STEP
~WELL INFORMATION
#MNEM.UNIT      DATA TYPE    INFORMATION
#----------   ------------   ------------------------------
 STRT.F           20.0000:   START DEPTH
 STOP.F          599.0000:   STOP DEPTH
 STEP.F            0.5000:   STEP LENGTH
 NULL.          -999.2500:   NO VALUE
 COMP. FENIX & SCISSON INC:   COMPANY
 WELL.    47 SX 34 #47-34:   WELL
 FLD .             TEAPOT:   FIELD
 LOC .      S34 T39N R78W:   LOCATION
 CNTY.            NATRONA:   COUNTY
 STAT.            WYOMING:   STATE
 CTRY. UNITED STATES OF AMERICA:   COUNTRY
 SRVC.       Schlumberger:   SERVICE COMPANY
 DATE.        24-JAN-1979:   LOGDATE
 API .       490251077000:   API NUMBER
~CURVE INFORMATION
#MNEM.UNIT       API CODE    CURVE DESCRIPTION
#----------   ------------   ------------------------------
 DEPT.F                  :   
 SN  .OHMM   05 040 16 00:   SHORT NORMAL 16"
 ILD .OHMM   05 120 46 00:   INDUCTION LOG DEEP
 SPR .MV     05 010 01 00:   SPONTANEOUS POTENTIAL FROM RES.
 CALD.IN     45 280 60 00:   CALIPER
 GRD .GAPI   45 310 01 00:   GAMMA RAY FROM DENSITY LOG
 DPHI.DEC    45 890 12 00:   DENSITY POROSITY SANDSTONE
 CORR.G/C3   45 356 01 00:   DENSITY CORRECTION
 RHOB.G/C3   45 350 01 00:   BULK DENSITY
~PARAMETER INFORMATION
#MNEM.UNIT          VALUE    DESCRIPTION
#----------   ------------   ------------------------------
 PD  .                 GL:   PERMANENT DATUM
 EPD .F              5132:   ELEVATION PERMANENT DATUM
 LMF .                 KB:   LOG MEASURED FROM
 DAPD.F                 4:   FEET ABOVE PERMANENT DATUM
 DMF .                 KB:   DRILLING MEASURED FROM
 EKB .F              5136:   KELLING BUSHING
 EGL .F              5132:   GROUND LEVEL
 DATE.            1-24-79:   RUN DATE
 RUN .                  1:   RUN NUMBER
 DD  .F               600:   DEPTH DRILLER
 DL  .F               600:   DEPTH LOGGER
 BLI .F               594:   BOTTOM LOG INTERVAL
 TLI .F                28:   TOP LOG INTERVAL
 CS  .IN            8.625:   CASING SIZE
 CBD .F                40:   CASING BOTTOM DRILLER
 BS  .IN            7.875:   BIT SIZE
 BSD .F               600:   BIT SIZE AT DEPTH
 DFT .                KCL:   DRILLING FLUID TYPE
 DFD .                8.8:   DRILLING FLUID DENSITY
 DFV .                 60:   DRILLING FLUID VISCOSITY
 DFPH.                9.5:   DRILLING FLUID PH
 DFL .               10.8:   DRILLING FLUID LOSS
 MSS .           FLOWLINE:   MUD SAMPLE SOURCE
 RMS .OHMM            .22:   RESISTIVITY MUD SAMPLE
 MST .F                60:   MUD SAMPLE TEMPERATURE
 RMF .OHMM             .2:   RESISTIVITY MUD FILTRATE SAMPLE
 MFST.F                61:   MUD FILTRATE SAMPLE TEMPERATURE
 RMC .OHMM             .3:   RESISTIVITY MUD CAKE
 MCST.F                61:   MUD CAKE SAMPLE TEMPERATURE
 MFSS.           MEASURED:   MUD FILTRATE SAMPLE SOURCE
 MCSS.           MEASURED:   MUD CAKE SAMPLE SOURCE
 RMB .OHMM            .23:   RESISTIVITY MUD AT BHT
 BHT .F                58:   BOTTOM HOLE TEMPERATURE
 TCS .HRS               4:   TIME CURCULATED STOPPED
 MRT .F                58:   MAXIMUM RECORDED TEMPERATURE
 LUN .               3029:   LOGGING UNIT NUMBER
 LUL .             CASPER:   LOGGING UNIT LOCATION
 ENGI.         B. ROLLINS:   RECORDING ENGINEER
 WITN.         RICHARDSON:   WITNESSED BY
 CLNT.            A2DTECH:   CLIENT CODE
 ORIG.           5" PRINT:   ORIGIN OF DATA
 UWI .       490251077000:   UNIQUE WELL ID
 DICO. A2D Technologies, Inc.:   DIGITIZING COMPANY
~OTHER INFORMATION
~A   DEPT       SN        ILD        SPR         CALD       GRD        DPHI       CORR       RHOB 
# ...
  506.0000     8.3558    11.7591   -32.9287     8.2273    87.3048     0.1414     0.0244     2.4409
  506.5000     8.4344    11.9218   -32.5304     8.1858    82.7790     0.1464     0.0207     2.4348
  507.0000     8.5139    12.0870   -32.1384     8.1869    78.3162     0.1517     0.0160     2.4246
  507.5000     8.5940    12.2821   -32.0400     8.1911    78.2736     0.1566     0.0113     2.4226
  508.0000     8.6750    12.2822   -32.3971     8.1952    81.5269     0.1609     0.0065     2.4115
  508.5000     8.7375    12.2826   -32.7477     8.1992    84.0590     0.1633     0.0066     2.4069
  509.0000     8.6421    12.2735   -33.0925     8.2032    79.2045     0.1477     0.0211     2.4312
  509.5000     8.5654    12.2910   -32.7248     8.2072    83.7803     0.1485     0.0281     2.4313
  510.0000     8.4895    12.0476   -32.0974     8.2112    88.6535     0.1477     0.0237     2.4245
  510.5000     8.4142    11.9641   -31.7068     8.2152    85.9487     0.1465     0.0187     2.4371
  511.0000     8.3395    11.8884   -32.1823     8.2193    84.3769     0.1461     0.0137     2.4335
  511.5000     8.2653    11.8134   -32.6824     8.2238    88.8948     0.1475     0.0121     2.4303
  512.0000     8.1927    11.7387   -32.8243     8.2080    91.0296     0.1415     0.0224     2.4421
  512.5000     8.1805    11.6644   -32.3236     8.1906    87.8049     0.1345     0.0301     2.4496
  513.0000     8.1690    11.5907   -32.3231     8.1732    86.6457     0.1366     0.0288     2.4495
  513.5000     8.1574    11.5174   -32.7152     8.1561    92.6381     0.1370     0.0272     2.4496
  514.0000     8.1457    11.4445   -33.1112     8.1431    90.2906     0.1322     0.0273     2.4590
  514.5000     8.1342    11.3722   -33.5114     8.1631    91.3071     0.1275     0.0342     2.4689
  515.0000     8.1224    11.3002   -33.6972     8.1898    92.5731     0.1253     0.0393     2.4676
  515.5000     8.1175    11.2288   -33.7087     8.1973    89.6932     0.1266     0.0422     2.4604
  516.0000     8.2771    11.1577   -33.1650     8.1854    88.0205     0.1287     0.0438     2.4641
  516.5000     8.4878    11.0990   -32.4784     8.1734    91.5915     0.1330     0.0409     2.4575
  517.0000     8.7037    11.3134   -32.3283     8.1613    93.2669     0.1345     0.0426     2.4516
  517.5000     8.9252    11.5000   -32.0165     8.1491    93.3050     0.1336     0.0467     2.4565
  518.0000     9.1521    11.9394   -31.0342     8.1369    93.1638     0.1325     0.0482     2.4597
  518.5000     9.3842    12.8753   -30.1511     8.1242    91.1352     0.1676     0.0399     2.3988
  519.0000     9.7577    13.8846   -29.2434     8.1315    83.8573     0.2138     0.0481     2.3550
  519.5000    10.2598    15.0367   -28.3315     8.1404    76.9045     0.2347     0.0579     2.3112
  520.0000    10.7879    16.3952   -27.4270     8.1493    70.0739     0.2464     0.0579     2.2722
  520.5000    11.3431    17.9687   -27.0430     8.1581    66.8469     0.2507     0.0431     2.2602
  521.0000    11.8383    19.8168   -26.6647     8.1669    69.4191     0.2439     0.0282     2.2596
  521.5000    12.1874    21.3216   -26.2841     8.1758    67.8740     0.2185     0.0341     2.2975
  522.0000    12.5384    22.5578   -25.9017     8.1837    65.6645     0.1872     0.0440     2.3835
  522.5000    12.8594    23.1721   -25.5163     8.1917    64.5583     0.1588     0.0195     2.4191
  523.0000    12.8594    23.0808   -25.0184     8.2028    67.7620     0.1569     0.0345     2.3856
  523.5000    12.8043    22.9818   -24.3535     8.2141    67.2424     0.2184     0.0457     2.3338
  524.0000    12.7276    22.8833   -23.6953     8.2253    69.7928     0.2354     0.0315     2.2821
  524.5000    12.6513    22.7853   -23.2919     8.2366    72.7802     0.2240     0.0185     2.2916
  525.0000    12.5755    22.6876   -23.4605     8.2479    75.7524     0.2235     0.0232     2.3073
  525.5000    12.5002    22.5903   -23.6661     8.2591    77.1129     0.2244     0.0286     2.3080
  526.0000    12.4253    22.3757   -23.3208     8.2704    70.0956     0.2338     0.0297     2.2874
  526.5000    12.3509    22.0444   -22.6949     8.2817    66.8125     0.2451     0.0238     2.2712
  527.0000    12.2769    21.7182   -22.3117     8.2929    70.2385     0.2390     0.0181     2.2776
  527.5000    12.2033    21.3964   -22.9819     8.3043    70.9891     0.2294     0.0189     2.3045
  528.0000    12.1302    21.0795   -23.6875     8.3153    67.4346     0.2119     0.0247     2.3312
  528.5000    12.0575    20.7674   -24.3792     8.3194    71.5032     0.2004     0.0304     2.3480
  529.0000    11.9853    20.4599   -25.1050     8.3026    72.1808     0.2004     0.0318     2.3460
  529.5000    11.9187    20.1569   -25.3535     8.2866    71.6172     0.2076     0.0260     2.3341
  530.0000    11.8585    19.8584   -25.1460     8.2706    71.9183     0.2157     0.0203     2.3222
  530.5000    11.7986    19.6766   -24.6919     8.2549    74.3812     0.2240     0.0196     2.3103
  531.0000    11.7390    19.5147   -24.2087     8.2465    76.5704     0.2291     0.0223     2.2984
  531.5000    11.6798    19.3541   -24.1414     8.2598    75.9983     0.2311     0.0238     2.2901
  532.0000    11.6208    19.1948   -24.4706     8.2722    73.4912     0.2235     0.0191     2.2970
  532.5000    11.5621    19.0369   -24.8043     8.2846    74.6158     0.2133     0.0142     2.3178
  533.0000    11.5037    18.8802   -25.1161     8.2971    79.1698     0.2023     0.0147     2.3421
  533.5000    11.4456    18.7249   -24.7211     8.2982    83.6625     0.1928     0.0160     2.3591
  534.0000    11.3878    18.5708   -24.1794     8.2880    83.9402     0.1937     0.0169     2.3573
  534.5000    11.3303    18.4180   -23.7620     8.2778    78.9697     0.1992     0.0229     2.3478
  535.0000    11.2731    18.2664   -24.8914     8.2676    79.5697     0.2016     0.0281     2.3394
  535.5000    11.2161    18.1161   -25.8665     8.2573    80.5530     0.2016     0.0276     2.3388
  536.0000    11.1595    17.9670   -25.9109     8.2471    78.2670     0.1981     0.0264     2.3435
  536.5000    11.1031    17.9093   -25.6989     8.2368    80.6846     0.1952     0.0252     2.3520
  537.0000    11.0470    17.9093   -25.4632     8.2261    84.3795     0.1948     0.0241     2.3531
  537.5000    10.9912    17.9093   -25.2267     8.2246    85.2559     0.1934     0.0230     2.3527
  538.0000    10.9357    17.9095   -25.1197     8.2260    81.0735     0.1841     0.0218     2.3628
  538.5000    10.8805    17.9093   -25.6152     8.2275    74.5158     0.1733     0.0137     2.3793
  539.0000    10.8256    17.9116   -26.1177     8.2290    71.0483     0.1779     0.0204     2.3863
  539.5000    10.7709    17.7671   -26.1677     8.2304    70.6713     0.1868     0.0290     2.3662
  540.0000    10.7165    17.6483   -25.8626     8.2319    74.0797     0.2034     0.0200     2.3385
  540.5000    10.6624    17.5304   -25.5499     8.2334    77.3586     0.2116     0.0205     2.3253
  541.0000    10.6085    17.4132   -25.7048     8.2348    80.0859     0.1948     0.0284     2.3419
  541.5000    10.5549    17.2969   -26.0329     8.2363    81.4312     0.1928     0.0341     2.3584
  542.0000    10.5016    17.1813   -26.3666     8.2378    82.7689     0.1904     0.0338     2.3601
  542.5000    10.4486    17.0664   -26.6995     8.2393    83.8121     0.2037     0.0253     2.3460
  543.0000    10.3958    16.9473   -27.1224     8.2407    82.2101     0.2075     0.0159     2.3294
  543.5000    10.3433    16.8241   -27.2565     8.2422    80.8585     0.2065     0.0065     2.3306
  544.0000    10.2911    16.6961   -27.1101     8.2438    82.6167     0.2051     0.0120     2.3371
  544.5000    10.2391    16.5691   -26.9552     8.2360    84.2246     0.2009     0.0178     2.3439
  545.0000    10.1874    16.4430   -27.3206     8.2278    81.9211     0.1972     0.0164     2.3500
  545.5000    10.1360    16.3179   -27.7124     8.2316    79.6940     0.1965     0.0209     2.3501
  546.0000    10.0848    16.1938   -27.3642     8.2643    77.4042     0.1960     0.0236     2.3503
