~VERSION INFORMATION
 VERS.                2.0:   CWLS LOG ASCII STANDARD - VERSION 2.0
 WRAP.                 NO:   ONE LINE PER DEPTH STEP
~WELL INFORMATION
#MNEM.UNIT      DATA TYPE    INFORMATION
#----------   ------------   ------------------------------
 STRT.F           20.0000:   START DEPTH
 STOP.F          626.0000:   STOP DEPTH
 STEP.F            0.5000:   STEP LENGTH
 NULL.          -999.2500:   NO VALUE
 COMP. FENIX & SCISSON INC:   COMPANY
 WELL. NPR-3  38-S-34 #38-34:   WELL
 FLD .             TEAPOT:   FIELD
 LOC .      S34 T39N R78W:   LOCATION
 CNTY.            NATRONA:   COUNTY
 STAT.            WYOMING:   STATE
 CTRY. UNITED STATES OF AMERICA:   COUNTRY
 SRVC.           BIRDWELL:   SERVICE COMPANY
 DATE.        08-AUG-1978:   LOGDATE
 API .       490251068300:   API NUMBER
~CURVE INFORMATION
#MNEM.UNIT       API CODE    CURVE DESCRIPTION
#----------   ------------   ------------------------------
 DEPT.F                  :   
 SPR .MV     05 010 01 00:   SPONTANEOUS POTENTIAL FROM RES.
 SN  .OHMM   05 040 16 00:   SHORT NORMAL 16"
 IL  .OHMM   05 120 00 00:   INDUCTION LOG
 RHOB.G/C3   45 350 01 00:   BULK DENSITY
 DPHI.DEC    45 890 12 00:   DENSITY POROSITY SANDSTONE
 CORR.G/C3   45 356 01 00:   DENSITY CORRECTION
 GRD .GAPI   45 310 01 00:   GAMMA RAY FROM DENSITY LOG
 CALD.IN     45 280 60 00:   CALIPER
~PARAMETER INFORMATION
#MNEM.UNIT          VALUE    DESCRIPTION
#----------   ------------   ------------------------------
 PD  .                 GL:   PERMANENT DATUM
 EPD .F              5213:   ELEVATION PERMANENT DATUM
 LMF .                 KB:   LOG MEASURED FROM
 DAPD.F                 4:   FEET ABOVE PERMANENT DATUM
 DMF .                 KB:   DRILLING MEASURED FROM
 EKB .F              5217:   KELLING BUSHING
 EGL .F              5213:   GROUND LEVEL
 DATE.             8-8-78:   RUN DATE
 RUN .                  1:   RUN NUMBER
 DD  .F               620:   DEPTH DRILLER
 DL  .F               632:   DEPTH LOGGER
 BLI .F               626:   BOTTOM LOG INTERVAL
 TLI .F                35:   TOP LOG INTERVAL
 CS  .IN            8.625:   CASING SIZE
 CBL .F                35:   CASING BOTTOM LOGGER
 BS  .IN            7.875:   BIT SIZE
 BSD .F               620:   BIT SIZE AT DEPTH
 DFT .                KCL:   DRILLING FLUID TYPE
 DFD .                8.7:   DRILLING FLUID DENSITY
 DFV .                 33:   DRILLING FLUID VISCOSITY
 DFPH.                  9:   DRILLING FLUID PH
 DFL .                  5:   DRILLING FLUID LOSS
 MSS .          FLOW LINE:   MUD SAMPLE SOURCE
 RMS .OHMM            .12:   RESISTIVITY MUD SAMPLE
 MST .F                80:   MUD SAMPLE TEMPERATURE
 RMF .OHMM            .13:   RESISTIVITY MUD FILTRATE SAMPLE
 MFST.F                83:   MUD FILTRATE SAMPLE TEMPERATURE
 RMC .OHMM            .16:   RESISTIVITY MUD CAKE
 MCST.F                84:   MUD CAKE SAMPLE TEMPERATURE
 MFSS.               MEAS:   MUD FILTRATE SAMPLE SOURCE
 TCS .HRS               1:   TIME CURCULATED STOPPED
 LUN .               3006:   LOGGING UNIT NUMBER
 LUL .               CASP:   LOGGING UNIT LOCATION
 ENGI.             MILLER:   RECORDING ENGINEER
 WITN.           MCGINLEY:   WITNESSED BY
 CLNT.            A2DTECH:   CLIENT CODE
 ORIG.           5" PRINT:   ORIGIN OF DATA
 UWI .       490251068300:   UNIQUE WELL ID
 DICO. A2D Technologies, Inc.:   DIGITIZING COMPANY
~OTHER INFORMATION
~A   DEPT      SPR         SN         IL       RHOB       DPHI       CORR         GRD      CALD   
# ...
  141.5000   -34.3012     6.0823     6.2968     2.4731     0.1238     0.0219    94.8150     7.7878
  142.0000   -34.3003     6.0823     6.3052     2.4706     0.1261     0.0195    94.7116     7.7739
  142.5000   -34.3004     6.0823     6.3098     2.4675     0.1284     0.0199    95.3577     7.7601
  143.0000   -34.3044     6.0823     6.3041     2.4645     0.1303     0.0203   100.3118     7.7463
  143.5000   -34.1210     6.0823     6.2999     2.4612     0.1299     0.0207   104.9622     7.7326
  144.0000   -33.8901     6.0823     6.2957     2.4612     0.1296     0.0211   101.3447     7.7182
  144.5000   -33.6621     6.0823     6.2915     2.4615     0.1292     0.0216    94.9932     7.7528
  145.0000   -33.4974     6.0823     6.2873     2.4617     0.1288     0.0173    92.8190     7.8117
  145.5000   -33.5004     6.0823     6.2831     2.4619     0.1305     0.0124    94.1716     7.8476
  146.0000   -33.4998     6.0823     6.2789     2.4608     0.1325     0.0078    95.8834     7.8015
  146.5000   -33.5000     6.0823     6.2747     2.4534     0.1344     0.0164    96.5718     7.7560
  147.0000   -33.5000     6.0823     6.2705     2.4534     0.1283     0.0256    95.7074     7.7154
  147.5000   -33.5001     6.0823     6.2664     2.4636     0.1277     0.0352    94.7667     7.7406
  148.0000   -33.4999     6.0823     6.2622     2.4672     0.1264     0.0366    95.5551     7.7670
  148.5000   -33.5010     6.0823     6.2580     2.4706     0.1232     0.0350    94.9879     7.7928
  149.0000   -33.3946     6.0823     6.2538     2.4741     0.1201     0.0333    93.9517     7.8115
  149.5000   -33.2218     6.0823     6.2524     2.4776     0.1196     0.0316    93.5878     7.7992
  150.0000   -33.0477     6.0823     6.2594     2.4738     0.1228     0.0329    93.7739     7.7877
  150.5000   -32.8957     6.0823     6.2643     2.4732     0.1211     0.0345    95.4468     7.7761
  151.0000   -32.8996     6.0822     6.2693     2.4761     0.1191     0.0364    98.2562     7.7643
  151.5000   -32.9000     6.0822     6.2742     2.4734     0.1264     0.0287    99.4865     7.7547
  152.0000   -32.9000     6.0826     6.2791     2.4625     0.1331     0.0212    96.4781     7.7822
  152.5000   -32.9000     6.0903     6.2841     2.4550     0.1328     0.0138    94.0015     7.8105
  153.0000   -32.9000     6.0979     6.2891     2.4556     0.1325     0.0150    92.4831     7.8386
  153.5000   -32.9000     6.1054     6.2940     2.4561     0.1331     0.0168    94.8350     7.8670
  154.0000   -32.9000     6.1129     6.2990     2.4549     0.1344     0.0185    98.1516     7.8902
  154.5000   -32.9000     6.1205     6.3039     2.4534     0.1352     0.0202    94.9959     7.8421
  155.0000   -32.9000     6.1280     6.3086     2.4521     0.1320     0.0218    91.8107     7.7933
  155.5000   -32.9000     6.1357     6.3441     2.4565     0.1287     0.0234    97.8920     7.7841
  156.0000   -32.9000     6.1706     6.3886     2.4648     0.1256     0.0225    98.7753     7.8016
  156.5000   -32.9000     6.2235     6.4335     2.4681     0.1258     0.0215   100.5433     7.8196
  157.0000   -32.9000     6.2765     6.4786     2.4679     0.1262     0.0206   107.2021     7.8376
  157.5000   -32.9000     6.3176     6.5241     2.4673     0.1264     0.0196   113.5667     7.8561
  158.0000   -32.9000     6.3379     6.5699     2.4640     0.1314     0.0219   113.6906     7.8694
  158.5000   -32.9000     6.3582     6.6160     2.4571     0.1356     0.0248   107.5700     7.7955
  159.0000   -32.9000     6.3786     6.6624     2.4504     0.1364     0.0277   102.3837     7.7267
  159.5000   -32.9000     6.3989     6.7091     2.4489     0.1364     0.0287    97.3193     7.8678
  160.0000   -32.9000     6.4200     6.7562     2.4490     0.1364     0.0249    97.2382     8.2695
  160.5000   -32.9000     6.4810     6.7994     2.4490     0.1340     0.0343   100.5476     7.9753
  161.0000   -32.9000     6.5665     6.8306     2.4497     0.1288     0.0572   104.2159     7.8217
  161.5000   -32.9000     6.6068     6.8620     2.4773     0.1236     0.0500   106.0659     7.7975
  162.0000   -32.9000     6.5904     6.8935     2.4968     0.1196     0.0351   103.7596     7.8034
  162.5000   -32.9000     6.5783     6.9251     2.4763     0.1187     0.0212    97.4450     7.8172
  163.0000   -32.9000     6.5661     6.9569     2.4802     0.1180     0.0152    95.6694     7.8308
  163.5000   -32.9000     6.5536     6.9888     2.4840     0.1209     0.0137    96.6105     7.8442
  164.0000   -32.9000     6.5465     7.0209     2.4757     0.1268     0.0148   101.1934     7.8473
  164.5000   -32.9000     6.6330     7.0543     2.4601     0.1287     0.0166   104.9609     7.8315
  165.0000   -32.9000     6.6973     7.0921     2.4629     0.1261     0.0183   104.5003     7.8159
  165.5000   -32.9000     6.7620     7.1301     2.4686     0.1235     0.0200   101.7611     7.8003
  166.0000   -32.9000     6.8273     7.1683     2.4715     0.1220     0.0217   102.0641     7.7859
  166.5000   -32.9000     6.8961     7.2067     2.4703     0.1220     0.0234   103.3506     7.7723
  167.0000   -32.9000     6.9675     7.2453     2.4692     0.1216     0.0251   103.2501     7.7586
  167.5000   -32.9000     7.0459     7.2846     2.4734     0.1203     0.0268   101.2581     7.7450
  168.0000   -32.9000     7.2024     7.3096     2.4773     0.1193     0.0282   100.8555     7.7384
  168.5000   -32.9000     7.3776     7.2528     2.4782     0.1186     0.0293   101.7679     7.7753
  169.0000   -32.9000     7.5571     7.2102     2.4791     0.1180     0.0305   102.0916     7.8119
  169.5000   -32.9000     7.5907     7.1680     2.4801     0.1196     0.0309   102.4121     7.8478
  170.0000   -32.9000     7.5991     7.1261     2.4811     0.1219     0.0267   107.0732     7.8705
  170.5000   -32.8998     7.6073     7.0844     2.4762     0.1240     0.0226   103.4961     7.8617
  171.0000   -32.9006     7.6156     7.0430     2.4703     0.1234     0.0184    98.7100     7.8535
  171.5000   -32.9282     7.6239     7.0019     2.4708     0.1228     0.0143    94.9421     7.8451
  172.0000   -32.9576     7.6323     6.9732     2.4717     0.1230     0.0100    93.2485     7.8368
  172.5000   -32.9869     7.6406     6.9569     2.4696     0.1260     0.0135    91.6567     7.8198
  173.0000   -33.0162     7.6494     6.9406     2.4658     0.1250     0.0185    90.5450     7.7954
  173.5000   -33.0455     7.6533     6.9243     2.4691     0.1230     0.0235    93.4560     7.7757
  174.0000   -33.0748     7.5634     6.9081     2.4743     0.1210     0.0270    98.0655     7.8236
  174.5000   -33.1041     7.5012     6.8919     2.4721     0.1190     0.0236    99.0140     7.8725
  175.0000   -33.1333     7.4395     6.8758     2.4775     0.1209     0.0203    98.8785     7.8728
  175.5000   -33.1626     7.3784     6.8597     2.4769     0.1246     0.0180    99.6266     7.8397
  176.0000   -33.1919     7.3179     6.8436     2.4703     0.1276     0.0225   101.7112     7.8059
  176.5000   -33.2212     7.2579     6.8276     2.4642     0.1250     0.0269   102.7117     7.7721
  177.0000   -33.2505     7.2429     6.8116     2.4664     0.1223     0.0313   100.3201     7.7384
  177.5000   -33.2794     7.2429     6.7957     2.4713     0.1197     0.0357    97.7162     7.7047
  178.0000   -33.3003     7.2429     6.7797     2.4803     0.1173     0.0401    97.3439     7.6709
  178.5000   -33.2999     7.2429     6.7639     2.4800     0.1161     0.0432    92.3012     7.6466
  179.0000   -33.3000     7.2429     6.7480     2.4836     0.1148     0.0338    91.4104     7.6338
  179.5000   -33.3000     7.2429     6.7322     2.4850     0.1140     0.0244    94.6723     7.6342
  180.0000   -33.3000     7.2430     6.7219     2.4826     0.1182     0.0150    98.1171     7.6342
  180.5000   -33.3000     7.2428     6.7127     2.4758     0.1239     0.0080   101.5638     7.6342
  181.0000   -33.3000     7.2315     6.7036     2.4690     0.1228     0.0121   104.9816     7.6342
  181.5000   -33.3000     7.1974     6.6945     2.4669     0.1205     0.0160   105.0576     7.6342
