~VERSION INFORMATION
 VERS.                2.0:   CWLS LOG ASCII STANDARD - VERSION 2.0
 WRAP.                 NO:   ONE LINE PER DEPTH STEP
~WELL INFORMATION
#MNEM.UNIT      DATA TYPE    INFORMATION
#----------   ------------   ------------------------------
 STRT.F           14.0000:   START DEPTH
 STOP.F          449.0000:   STOP DEPTH
 STEP.F            0.5000:   STEP LENGTH
 NULL.          -999.2500:   NO VALUE
 COMP.   LAWRENCE-ALLISON:   COMPANY
 WELL. NPR 3 #51-65SX10OB2:   WELL
 FLD .             TEAPOT:   FIELD
 LOC .      S10 T38N R78W:   LOCATION
 CNTY.            NATRONA:   COUNTY
 STAT.            WYOMING:   STATE
 CTRY. UNITED STATES OF AMERICA:   COUNTRY
 SRVC.      Dresser Atlas:   SERVICE COMPANY
 DATE.        18-DEC-1984:   LOGDATE
 API .       490251100900:   API NUMBER
~CURVE INFORMATION
#MNEM.UNIT       API CODE    CURVE DESCRIPTION
#----------   ------------   ------------------------------
 DEPT.F                  :   
 PORD.DEC    45 890 12 00:   POROSITY DENSITY SANDSTONE
 CNC .DEC    42 890 03 00:   NEUTRON POROSITY SANDSTONE
 CALD.IN     45 280 60 00:   CALIPER FROM DENSITY
 CORR.G/C3   45 356 01 00:   DENSITY CORRECTION
 DEN .G/C3   45 350 01 00:   COMPENSATED BULK DENSTIY
 GRD .GAPI   45 310 01 00:   GAMMA RAY FROM DENSITY LOG
 AC  .US/F   60 520 00 00:   ACCOUSTIC
~PARAMETER INFORMATION
#MNEM.UNIT          VALUE    DESCRIPTION
#----------   ------------   ------------------------------
 PD  .                 GL:   PERMANENT DATUM
 EPD .F              5156:   ELEVATION PERMANENT DATUM
 LMF .                 GL:   LOG MEASURED FROM
 DMF .                 GL:   DRILLING MEASURED FROM
 EGL .F              5156:   GROUND LEVEL
 DATE.        18-DEC-1984:   RUN DATE
 RUN .                  1:   RUN NUMBER
 DD  .F               448:   DEPTH DRILLER
 DL  .F               451:   DEPTH LOGGER
 BLI .F               449:   BOTTOM LOG INTERVAL
 TLI .F                20:   TOP LOG INTERVAL
 CS  .IN            8.625:   CASING SIZE
 CBD .F                20:   CASING BOTTOM DRILLER
 CBL .F                20:   CASING BOTTOM LOGGER
 BS  .IN             6.25:   BIT SIZE
 BSD .F               448:   BIT SIZE AT DEPTH
 DFT .          KCL WATER:   DRILLING FLUID TYPE
 MSS .             MUDPIT:   MUD SAMPLE SOURCE
 RMS .OHMM          0.132:   RESISTIVITY MUD SAMPLE
 MST .F                95:   MUD SAMPLE TEMPERATURE
 RMF .OHMM          0.099:   RESISTIVITY MUD FILTRATE SAMPLE
 MFST.F                95:   MUD FILTRATE SAMPLE TEMPERATURE
 RMC .OHMM          0.165:   RESISTIVITY MUD CAKE
 MCST.F                95:   MUD CAKE SAMPLE TEMPERATURE
 MFSS.               CALC:   MUD FILTRATE SAMPLE SOURCE
 MCSS.               CALC:   MUD CAKE SAMPLE SOURCE
 TCS .HRS               5:   TIME CURCULATED STOPPED
 MRT .F               100:   MAXIMUM RECORDED TEMPERATURE
 LUN .               6270:   LOGGING UNIT NUMBER
 ENGI.        TOM GAUGHAN:   RECORDING ENGINEER
 WITN.             GROOMS:   WITNESSED BY
 CLNT.            A2DTECH:   CLIENT CODE
 ORIG.           5" PRINT:   ORIGIN OF DATA
 UWI .       490251100900:   UNIQUE WELL ID
 DICO. A2D Technologies, Inc.:   DIGITIZING COMPANY
~OTHER INFORMATION
~A   DEPT     PORD        CNC       CALD       CORR        DEN        GRD         AC   
# ...
  423.5000     0.0882     0.2645     6.2943     0.0813     2.5306   114.3571    93.4141
  424.0000     0.0879     0.2540     6.2956     0.0830     2.5314   118.4373    93.3424
  424.5000     0.0924     0.2576     6.2969     0.0697     2.5270   121.2902    93.2729
  425.0000     0.0968     0.2668     6.2983     0.0353     2.5218   120.5391    93.2778
  425.5000     0.0956     0.2680     6.2996     0.0157     2.5166   118.0415    93.2824
  426.0000     0.0881     0.2556     6.2861     0.0491     2.5212   112.8813    93.5125
  426.5000     0.0844     0.2520     6.2874     0.0628     2.5371   113.6379    93.7425
  427.0000     0.0850     0.2562     6.2887     0.0600     2.5387   113.0592    94.0477
  427.5000     0.0883     0.2636     6.2901     0.0541     2.5343   111.4419    94.3577
  428.0000     0.0951     0.2666     6.2914     0.0483     2.5284   110.7112    94.6581
  428.5000     0.0961     0.2672     6.2927     0.0455     2.5194   111.9166    94.8132
  429.0000     0.0954     0.2653     6.2941     0.0365     2.5188   113.1183    94.8929
  429.5000     0.0947     0.2650     6.2805     0.0323     2.5196   114.3200    95.0488
  430.0000     0.0938     0.2650     6.2819     0.0448     2.5227   116.5603    95.2789
  430.5000     0.0926     0.2706     6.2832     0.0536     2.5243   119.2457    95.5840
  431.0000     0.0925     0.2837     6.2845     0.0506     2.5259   117.6284    95.8141
  431.5000     0.0946     0.2934     6.2859     0.0443     2.5252   115.7144    96.1193
  432.0000     0.1000     0.2853     6.2872     0.0214     2.5199   111.8717    96.4996
  432.5000     0.1021     0.2678     6.2886     0.0137     2.5095   110.8442    96.5794
  433.0000     0.1017     0.2608     6.2902     0.0199     2.5082   113.2365    96.5089
  433.5000     0.1005     0.2620     6.3063     0.0246     2.5085   115.1801    96.2881
  434.0000     0.0989     0.2788     6.3077     0.0338     2.5139   114.7497    96.1414
  434.5000     0.0986     0.2953     6.3090     0.0400     2.5183   112.5390    96.6731
  435.0000     0.1023     0.3073     6.3103     0.0551     2.5101   111.5152    97.7296
  435.5000     0.1184     0.3048     6.3116     0.0748     2.4936   111.0849   100.2222
  436.0000     0.1307     0.2982     6.3130     0.0810     2.4644   111.0979   101.7285
  436.5000     0.1292     0.2897     6.3143     0.0736     2.4607  -999.2500   101.5819
  437.0000     0.1228     0.2807     6.3156     0.0528     2.4729  -999.2500   100.0830
  437.5000     0.1089     0.2692     6.3018     0.0274     2.4880  -999.2500    98.2836
  438.0000     0.1023     0.2623     6.3034     0.0411     2.5031  -999.2500    96.8597
  438.5000     0.0968     0.2580     6.2896     0.0457     2.5152  -999.2500    95.8116
  439.0000     0.0944     0.2568     6.2764     0.0429     2.5213  -999.2500    94.9889
  439.5000     0.0908     0.2573     6.2626     0.0551     2.5282  -999.2500    94.3915
  440.0000     0.0862     0.2648     6.2642     0.0687     2.5366  -999.2500    93.9444
  440.5000     0.0883     0.2735     6.2656     0.0629     2.5329  -999.2500    93.1918
  441.0000     0.0934     0.2727     6.2669     0.0616     2.5270  -999.2500    92.7298
  441.5000     0.0912  -999.2500     6.2831     0.0693     2.5278  -999.2500    92.1533
  442.0000     0.0780  -999.2500     6.2992     0.0679     2.5489  -999.2500    91.7813
  442.5000     0.0692  -999.2500     6.3006     0.0591     2.5648  -999.2500    91.6338
  443.0000     0.0725  -999.2500     6.3167     0.0533     2.5589  -999.2500    91.7887
  443.5000     0.0806  -999.2500     6.3181     0.0444     2.5492  -999.2500    92.0929
  444.0000     0.0869  -999.2500     6.3042     0.0356     2.5343  -999.2500    92.3220
  444.5000     0.0920  -999.2500     6.3059     0.0327     2.5253  -999.2500    92.2506
  445.0000     0.0940  -999.2500     6.3072     0.0374     2.5239  -999.2500    90.9770
  445.5000     0.0931  -999.2500     6.3085     0.0466     2.5240  -999.2500    88.6516
  446.0000     0.0915  -999.2500     6.3099     0.0587     2.5256  -999.2500    81.9686
  446.5000     0.0915  -999.2500     6.3112     0.0607     2.5317  -999.2500  -999.2500
  447.0000     0.0939  -999.2500     6.2976     0.0546     2.5250  -999.2500  -999.2500
  447.5000     0.0981  -999.2500     6.2842     0.0457     2.5168  -999.2500  -999.2500
  448.0000     0.1007  -999.2500     6.2855     0.0354     2.5109  -999.2500  -999.2500
  448.5000     0.1007  -999.2500     6.2868     0.0280     2.5103  -999.2500  -999.2500
  449.0000     0.1010  -999.2500     6.2733     0.0267     2.5103  -999.2500  -999.2500
