~VERSION INFORMATION
 VERS.                2.0:   CWLS LOG ASCII STANDARD - VERSION 2.0
 WRAP.                 NO:   ONE LINE PER DEPTH STEP
~WELL INFORMATION
#MNEM.UNIT      DATA TYPE    INFORMATION
#----------   ------------   ------------------------------
 STRT.F           29.0000:   START DEPTH
 STOP.F          539.0000:   STOP DEPTH
 STEP.F            0.1000:   STEP LENGTH
 NULL.          -999.2500:   NO VALUE
 COMP. LAWRENCE/ALLISON INC:   COMPANY
 WELL. NPR 3 81-11 STX #10-10:   WELL
 FLD .             TEAPOT:   FIELD
 LOC .      S10 T38N R78W:   LOCATION
 CNTY.            NATRONA:   COUNTY
 STAT.            WYOMING:   STATE
 CTRY. UNITED STATES OF AMERICA:   COUNTRY
 SRVC.           Gearhart:   SERVICE COMPANY
 DATE.        01-JUN-1987:   LOGDATE
 API .       490251113000:   API NUMBER
~CURVE INFORMATION
#MNEM.UNIT       API CODE    CURVE DESCRIPTION
#----------   ------------   ------------------------------
 DEPT.F                  :   
 GRR .GAPI   07 310 01 00:   GAMMA RAY FROM RES. LOG.
 ILD .OHMM   07 120 46 00:   INDUCTION LOG DEEP RESISTIVITY
 RILM.OHMM   07 120 44 00:   INDUCTION LOG MEDIUM RESISTIVITY
~PARAMETER INFORMATION
#MNEM.UNIT          VALUE    DESCRIPTION
#----------   ------------   ------------------------------
 PD  .                 GL:   PERMANENT DATUM
 EPD .F              5156:   ELEVATION PERMANENT DATUM
 LMF .                 KB:   LOG MEASURED FROM
 DAPD.F                 8:   FEET ABOVE PERMANENT DATUM
 DMF .                 KB:   DRILLING MEASURED FROM
 EKB .F              5164:   KELLING BUSHING
 EDF .F              5162:   DRILLING FLOOR
 EGL .F              5156:   GROUND LEVEL
 DATE.             6-1-87:   RUN DATE
 RUN .                  1:   RUN NUMBER
 DD  .F               550:   DEPTH DRILLER
 DL  .F               546:   DEPTH LOGGER
 BLI .F               540:   BOTTOM LOG INTERVAL
 TLI .F                30:   TOP LOG INTERVAL
 CS  .IN            8.625:   CASING SIZE
 CBD .F                50:   CASING BOTTOM DRILLER
 CBL .F                49:   CASING BOTTOM LOGGER
 BS  .IN            7.875:   BIT SIZE
 BSD .F               550:   BIT SIZE AT DEPTH
 DFT .                AIR:   DRILLING FLUID TYPE
 TLAB.HRS            0634:   TIME LOGGER AT BOTTOM
 MRT .F                80:   MAXIMUM RECORDED TEMPERATURE
 LUN .               7597:   LOGGING UNIT NUMBER
 LUL .           GILLETTE:   LOGGING UNIT LOCATION
 ENGI. WEATHERMON/JOHNSTON:   RECORDING ENGINEER
 WITN.             STRONG:   WITNESSED BY
 CLNT.            A2DTECH:   CLIENT CODE
 ORIG.       2", 5" PRINT:   ORIGIN OF DATA
 UWI .       490251113000:   UNIQUE WELL ID
 DICO. A2D Technologies, Inc.:   DIGITIZING COMPANY
~OTHER INFORMATION
~A   DEPT       GRR       ILD       RILM   
# ...
  393.0000    96.4956    14.9204    15.2941
  393.1000    96.3221    14.8463    15.2083
  393.2000    96.1486    14.7722    15.1226
  393.3000    95.9751    14.6981    15.0369
  393.4000    95.8017    14.6240    14.9512
  393.5000    95.6282    14.5499    14.8655
  393.6000    95.5237    14.4776    14.7821
  393.7000    95.4192    14.4053    14.6988
  393.8000    95.3147    14.3330    14.6155
  393.9000    95.2102    14.2608    14.5322
  394.0000    95.1058    14.1885    14.4489
  394.1000    95.2504    14.0984    14.3679
  394.2000    95.3950    14.0084    14.2869
  394.3000    95.5396    13.9183    14.2059
  394.4000    95.6842    13.8283    14.1249
  394.5000    95.8288    13.7382    14.0440
  394.6000    95.9750    13.7490    14.0100
  394.7000    96.1212    13.7597    13.9760
  394.8000    96.2673    13.7704    13.9421
  394.9000    96.4135    13.7812    13.9081
  395.0000    96.5596    13.7919    13.8741
  395.1000    96.1982    13.8075    13.8463
  395.2000    95.8369    13.8230    13.8185
  395.3000    95.4755    13.8386    13.7906
  395.4000    95.1141    13.8541    13.7628
  395.5000    94.7527    13.8697    13.7350
  395.6000    94.3871    13.8853    13.7074
  395.7000    94.0215    13.9010    13.6798
  395.8000    93.6559    13.9166    13.6523
  395.9000    93.2903    13.9323    13.6247
  396.0000    92.9247    13.9479    13.5972
  396.1000    92.8141    13.9636    13.5699
  396.2000    92.7036    13.9793    13.5426
  396.3000    92.5930    13.9951    13.5153
  396.4000    92.4825    14.0108    13.4881
  396.5000    92.3719    14.0265    13.4608
  396.6000    92.9385    14.0423    13.4338
  396.7000    93.5051    14.0582    13.4068
  396.8000    94.0716    14.0740    13.3798
  396.9000    94.6382    14.0898    13.3528
  397.0000    95.2048    14.1056    13.3258
  397.1000    95.7772    14.1491    13.3070
  397.2000    96.3495    14.1926    13.2882
  397.3000    96.9219    14.2361    13.2694
  397.4000    97.4943    14.2796    13.2506
  397.5000    98.0666    14.3230    13.2319
  397.6000    98.5201    14.4369    13.2442
  397.7000    98.9737    14.5508    13.2564
  397.8000    99.4272    14.6647    13.2687
  397.9000    99.8807    14.7785    13.2810
  398.0000   100.3342    14.8924    13.2933
  398.1000   100.5214    15.0418    13.3811
  398.2000   100.7086    15.1912    13.4689
  398.3000   100.8959    15.3407    13.5567
  398.4000   101.0831    15.4901    13.6444
  398.5000   101.2703    15.6395    13.7322
  398.6000   101.3302    15.9499    13.8704
  398.7000   101.3902    16.2603    14.0085
  398.8000   101.4501    16.5707    14.1466
  398.9000   101.5100    16.8810    14.2848
  399.0000   101.5699    17.1914    14.4229
  399.1000   101.1922    17.5326    14.6416
  399.2000   100.8145    17.8738    14.8604
  399.3000   100.4368    18.2150    15.0791
  399.4000   100.0591    18.5562    15.2978
  399.5000    99.6815    18.8973    15.5166
  399.6000    98.6333    19.3101    15.9194
  399.7000    97.5851    19.7229    16.3222
  399.8000    96.5369    20.1357    16.7250
  399.9000    95.4887    20.5485    17.1279
  400.0000    94.4405    20.9613    17.5307
  400.1000    93.3366    21.4709    18.2001
  400.2000    92.2327    21.9805    18.8694
  400.3000    91.1288    22.4901    19.5388
  400.4000    90.0249    22.9997    20.2081
  400.5000    88.9210    23.5093    20.8775
  400.6000    87.8181    24.1453    21.6747
  400.7000    86.7152    24.7812    22.4718
  400.8000    85.6123    25.4171    23.2690
  400.9000    84.5094    26.0530    24.0661
  401.0000    83.4065    26.6889    24.8633
  401.1000    82.3006    27.4166    25.8666
  401.2000    81.1947    28.1444    26.8700
  401.3000    80.0887    28.8721    27.8734
  401.4000    78.9828    29.5998    28.8768
  401.5000    77.8769    30.3276    29.8801
  401.6000    77.1645    31.1588    31.1771
  401.7000    76.4521    31.9899    32.4741
  401.8000    75.7397    32.8211    33.7710
  401.9000    75.0274    33.6523    35.0680
  402.0000    74.3150    34.4835    36.3650
  402.1000    73.7870    35.3516    37.7306
  402.2000    73.2591    36.2198    39.0961
  402.3000    72.7312    37.0880    40.4617
  402.4000    72.2032    37.9561    41.8273
  402.5000    71.6753    38.8243    43.1928
  402.6000    71.4261    39.2151    44.3136
  402.7000    71.1769    39.6059    45.4344
  402.8000    70.9277    39.9967    46.5551
  402.9000    70.6785    40.3875    47.6759
  403.0000    70.4294    40.7783    48.7966
  403.1000    70.3898    41.1887    49.0336
  403.2000    70.3502    41.5992    49.2705
  403.3000    70.3106    42.0096    49.5075
  403.4000    70.2710    42.4201    49.7444
  403.5000    70.2314    42.8306    49.9813
  403.6000    70.4133    43.0662    50.0232
  403.7000    70.5952    43.3018    50.0650
  403.8000    70.7771    43.5374    50.1069
  403.9000    70.9590    43.7730    50.1487
  404.0000    71.1409    44.0086    50.1906
  404.1000    71.5768    43.9214    49.8876
  404.2000    72.0127    43.8341    49.5846
  404.3000    72.4486    43.7469    49.2817
  404.4000    72.8846    43.6597    48.9787
  404.5000    73.3205    43.5724    48.6757
  404.6000    73.7480    43.4913    48.4431
  404.7000    74.1755    43.4102    48.2105
  404.8000    74.6030    43.3290    47.9779
  404.9000    75.0305    43.2479    47.7453
  405.0000    75.4580    43.1668    47.5127
  405.1000    75.6153    43.0864    47.3738
  405.2000    75.7725    43.0060    47.2348
  405.3000    75.9298    42.9257    47.0958
  405.4000    76.0870    42.8453    46.9569
  405.5000    76.2443    42.7649    46.8179
  405.6000    76.4169    42.6892    46.7661
  405.7000    76.5896    42.6136    46.7143
  405.8000    76.7622    42.5379    46.6625
  405.9000    76.9349    42.4622    46.6107
  406.0000    77.1075    42.3865    46.5589
  406.1000    77.2083    42.4640    46.6575
  406.2000    77.3092    42.5414    46.7562
  406.3000    77.4100    42.6189    46.8548
  406.4000    77.5109    42.6964    46.9535
  406.5000    77.6117    42.7738    47.0522
  406.6000    77.4618    42.8483    47.2180
  406.7000    77.3118    42.9227    47.3838
  406.8000    77.1619    42.9972    47.5496
  406.9000    77.0120    43.0716    47.7154
  407.0000    76.8620    43.1461    47.8812
  407.1000    76.6511    43.2363    48.1537
  407.2000    76.4401    43.3266    48.4262
  407.3000    76.2292    43.4168    48.6987
  407.4000    76.0182    43.5071    48.9712
  407.5000    75.8073    43.5974    49.2437
  407.6000    75.4615    43.4000    49.5240
  407.7000    75.1157    43.2027    49.8042
  407.8000    74.7700    43.0053    50.0845
  407.9000    74.4242    42.8080    50.3647
  408.0000    74.0784    42.6106    50.6450
  408.1000    73.3524    42.3700    50.7444
  408.2000    72.6264    42.1293    50.8438
  408.3000    71.9004    41.8887    50.9432
  408.4000    71.1745    41.6481    51.0426
  408.5000    70.4485    41.4074    51.1419
  408.6000    69.7288    41.0581    50.5998
  408.7000    69.0091    40.7087    50.0578
  408.8000    68.2894    40.3593    49.5157
  408.9000    67.5697    40.0100    48.9736
  409.0000    66.8501    39.6606    48.4315
  409.1000    66.2073    39.2190    47.8548
  409.2000    65.5646    38.7773    47.2782
  409.3000    64.9219    38.3357    46.7015
  409.4000    64.2791    37.8941    46.1249
  409.5000    63.6364    37.4524    45.5482
  409.6000    63.6692    37.0354    44.7803
  409.7000    63.7021    36.6183    44.0125
  409.8000    63.7350    36.2013    43.2446
  409.9000    63.7678    35.7842    42.4767
  410.0000    63.8007    35.3672    41.7088
  410.1000    64.3336    34.9994    40.8660
  410.2000    64.8666    34.6315    40.0231
  410.3000    65.3995    34.2637    39.1802
  410.4000    65.9325    33.8959    38.3373
  410.5000    66.4655    33.5281    37.4945
  410.6000    67.0290    33.3545    36.8871
  410.7000    67.5925    33.1808    36.2797
  410.8000    68.1560    33.0072    35.6723
  410.9000    68.7195    32.8336    35.0649
  411.0000    69.2830    32.6600    34.4575
  411.1000    69.8642    32.4720    34.2362
