~VERSION INFORMATION
 VERS.                2.0:   CWLS LOG ASCII STANDARD - VERSION 2.0
 WRAP.                 NO:   ONE LINE PER DEPTH STEP
~WELL INFORMATION
#MNEM.UNIT      DATA TYPE    INFORMATION
#----------   ------------   ------------------------------
 STRT.F            0.0000:   START DEPTH
 STOP.F          547.0000:   STOP DEPTH
 STEP.F            0.1000:   STEP LENGTH
 NULL.          -999.2500:   NO VALUE
 COMP.     BROWN JOHN E&C:   COMPANY
 WELL.    NPR 3 #86-1-X-3:   WELL
 FLD .             TEAPOT:   FIELD
 LOC .       S3 T38N R78W:   LOCATION
 CNTY.            NATRONA:   COUNTY
 STAT.            WYOMING:   STATE
 CTRY. UNITED STATES OF AMERICA:   COUNTRY
 SRVC.     Atlas Wireline:   SERVICE COMPANY
 DATE.        09-FEB-1992:   LOGDATE
 API .       490252249800:   API NUMBER
~CURVE INFORMATION
#MNEM.UNIT       API CODE    CURVE DESCRIPTION
#----------   ------------   ------------------------------
 DEPT.F                  :   
 GRR .GAPI   07 310 01 00:   GAMMA RAY
 RFOC.OHMM   07 220 04 00:   RESISTIVITY FOCUSED LOG
 RILD.OHMM   07 120 46 00:   INDUCTION LOG DEEP RESISTIVITY
 RILM.OHMM   07 120 44 00:   INDUCTION LOG MEDIUM RESISTIVITY
 SPR .MV     07 010 01 00:   SPONTANEOUS POTENTIAL
~PARAMETER INFORMATION
#MNEM.UNIT          VALUE    DESCRIPTION
#----------   ------------   ------------------------------
 PD  .                 GL:   PERMANENT DATUM
 EPD .F              5145:   ELEVATION PERMANENT DATUM
 LMF .                 KB:   LOG MEASURED FROM
 DAPD.F                10:   FEET ABOVE PERMANENT DATUM
 DMF .                 KB:   DRILLING MEASURED FROM
 EKB .F              5155:   KELLING BUSHING
 EDF .F              5154:   DRILLING FLOOR
 EGL .F              5145:   GROUND LEVEL
 DATE.        09-FEB-1992:   RUN DATE
 RUN .                  1:   RUN NUMBER
 DD  .F               562:   DEPTH DRILLER
 DL  .F               550:   DEPTH LOGGER
 BLI .F               547:   BOTTOM LOG INTERVAL
 CS  .IN            8.625:   CASING SIZE
 CBD .F               183:   CASING BOTTOM DRILLER
 CBL .F               181:   CASING BOTTOM LOGGER
 BS  .IN            7.875:   BIT SIZE
 BSD .F               562:   BIT SIZE AT DEPTH
 DFT .            GEL BAR:   DRILLING FLUID TYPE
 DFD .               17.8:   DRILLING FLUID DENSITY
 DFV .                 52:   DRILLING FLUID VISCOSITY
 DFPH.                  9:   DRILLING FLUID PH
 DFL .                5.2:   DRILLING FLUID LOSS
 MSS .           FLOWLINE:   MUD SAMPLE SOURCE
 RMS .OHMM           1.78:   RESISTIVITY MUD SAMPLE
 MST .F                68:   MUD SAMPLE TEMPERATURE
 RMF .OHMM          1.335:   RESISTIVITY MUD FILTRATE SAMPLE
 MFST.F                68:   MUD FILTRATE SAMPLE TEMPERATURE
 RMC .OHMM          2.225:   RESISTIVITY MUD CAKE
 MCST.F                68:   MUD CAKE SAMPLE TEMPERATURE
 MFSS.               MEAS:   MUD FILTRATE SAMPLE SOURCE
 MCSS.               MEAS:   MUD CAKE SAMPLE SOURCE
 TCS .HRS               3:   TIME CURCULATED STOPPED
 LUN .            HL 6274:   LOGGING UNIT NUMBER
 LUL .             CASPER:   LOGGING UNIT LOCATION
 ENGI.       P. RASMUSSEN:   RECORDING ENGINEER
 WITN.          G. STRONG:   WITNESSED BY
 CLNT.            A2DTECH:   CLIENT CODE
 ORIG.           5" PRINT:   ORIGIN OF DATA
 UWI .       490252249800:   UNIQUE WELL ID
 DICO. A2D Technologies, Inc.:   DIGITIZING COMPANY
~OTHER INFORMATION
~A    DEPT      GRR      RFOC       RILD       RILM        SPR   
# ...
  536.8000  -999.2500     8.5863     7.8922     7.7861   -23.7116
  536.9000  -999.2500     8.5863     7.8923     7.7861   -23.8095
  537.0000  -999.2500     8.6012     7.8925     7.7861   -23.9367
  537.1000  -999.2500     8.6465     7.8926     7.7861   -24.1118
  537.2000  -999.2500     8.6465     7.8927     7.7861   -24.3186
  537.3000  -999.2500     8.6465     7.8928     7.7861   -24.3195
  537.4000  -999.2500     8.6465     7.8929     7.7633   -24.4454
  537.5000  -999.2500     8.6465     7.8884     7.7184   -24.5727
  537.6000  -999.2500     8.6314     7.8382     7.6780   -24.7759
  537.7000  -999.2500     8.5863     7.8383     7.6780   -24.9264
  537.8000  -999.2500     8.5863     7.8384     7.6780   -24.9812
  537.9000  -999.2500     8.5863     7.8163     7.6475   -25.2299
  538.0000  -999.2500     8.5863     7.7712     7.6033   -25.2309
  538.1000  -999.2500     8.5863     7.7263     7.5714   -25.4401
  538.2000  -999.2500     8.5863     7.6765     7.5652   -25.6139
  538.3000  -999.2500     8.5863     7.6374     7.4664   -25.7411
  538.4000  -999.2500     8.5863     7.5636     7.4664   -25.8377
  538.5000  -999.2500     8.5863     7.4971     7.4378   -25.8386
  538.6000  -999.2500     8.5863     7.4538     7.3947   -25.8397
  538.7000  -999.2500     8.5863     7.4077     7.3413   -25.8404
  538.8000  -999.2500     8.5863     7.3112     7.2408   -25.6748
  538.9000  -999.2500     8.5863     7.3113     6.8279   -25.4231
  539.0000  -999.2500     8.5863     7.2832     6.7925   -25.1029
  539.1000  -999.2500     8.5863     7.2412     6.7571   -24.5987
  539.2000  -999.2500     8.5863     7.1887     6.7217   -24.0351
  539.3000  -999.2500     8.5607     7.1081     6.6863   -23.5901
  539.4000  -999.2500     8.5109     7.0611     6.6509   -23.2597
  539.5000  -999.2500     8.4671     7.0263     6.6155   -23.0704
  539.6000  -999.2500     8.4671     6.9596     6.5801   -22.9450
  539.7000  -999.2500     8.4221     6.9151     6.5447   -22.8328
  539.8000  -999.2500     8.3731     6.9054     6.5093   -22.8339
  539.9000  -999.2500     8.3496     6.8655     6.4739   -22.9497
  540.0000  -999.2500     8.3187     6.8196     6.4385   -23.1675
  540.1000  -999.2500     8.2222     6.7866     6.4031   -23.4870
  540.2000  -999.2500     8.1195     6.7474     6.3881   -24.1569
  540.3000  -999.2500     8.0329     6.7085     6.3796   -26.4054
  540.4000  -999.2500     7.9398     6.6787     6.3711   -40.9166
  540.5000  -999.2500     7.8478     6.6788     6.3626   -68.5787
  540.6000  -999.2500     7.7714     6.6789     6.3541  -100.1004
  540.7000  -999.2500     7.7262     6.6790     6.3456  -100.1004
  540.8000  -999.2500     7.6780     6.6550     6.3371  -100.1004
  540.9000  -999.2500     7.5144     6.6489     6.3287  -100.1004
  541.0000  -999.2500     7.4035     6.6792     6.3202  -100.1004
  541.1000  -999.2500     7.3177     6.6799     6.3117  -999.2500
  541.2000  -999.2500     7.2192     6.7262     6.3032  -999.2500
  541.3000  -999.2500     7.0938     6.7263     6.2947  -999.2500
  541.4000  -999.2500     6.9624     6.7742     6.2906  -999.2500
  541.5000  -999.2500     6.9248     6.8210     6.2906  -999.2500
  541.6000  -999.2500     6.8845     6.8211     6.2906  -999.2500
  541.7000  -999.2500     6.8658     6.8212     6.2906  -999.2500
  541.8000  -999.2500     6.8658     6.8610     6.2906  -999.2500
  541.9000  -999.2500     6.8712     6.9010     6.2906  -999.2500
  542.0000  -999.2500     6.9139     6.9653     6.2906  -999.2500
  542.1000  -999.2500     6.9518     7.0467     6.2906  -999.2500
  542.2000  -999.2500     7.0226     7.1448     6.2906  -999.2500
  542.3000  -999.2500     7.0826     7.3148     6.2906  -999.2500
  542.4000  -999.2500     7.1240     7.3990     6.2906  -999.2500
  542.5000  -999.2500     7.1775     7.5543     6.2906  -999.2500
  542.6000  -999.2500     7.3115     7.7055     6.2906  -999.2500
  542.7000  -999.2500     7.4330     7.8408     6.2906  -999.2500
  542.8000  -999.2500     7.5973     8.3129     6.2906  -999.2500
  542.9000  -999.2500     7.7516     8.3315     6.2906  -999.2500
  543.0000  -999.2500     7.8883     8.3541     6.2906  -999.2500
  543.1000  -999.2500     8.0272     8.3768     6.2906  -999.2500
  543.2000  -999.2500     8.1764     8.3994     6.2906  -999.2500
  543.3000  -999.2500     8.3130     8.4220     6.2906  -999.2500
  543.4000  -999.2500     8.4228     8.4447     6.2906  -999.2500
  543.5000  -999.2500     8.5215     8.4673     6.2906  -999.2500
  543.6000  -999.2500     8.6214     8.4899     6.2906  -999.2500
  543.7000  -999.2500     8.7148     8.5126     6.2906  -999.2500
  543.8000  -999.2500     8.7682     8.5352     6.2906  -999.2500
  543.9000  -999.2500     8.8660     8.5578     6.2906  -999.2500
  544.0000  -999.2500     8.9701     8.5805     6.2906  -999.2500
  544.1000  -999.2500     9.0459     8.6104     6.2906  -999.2500
  544.2000  -999.2500     9.1176     8.6458     6.2906  -999.2500
  544.3000  -999.2500     9.2161     8.6812     6.2906  -999.2500
  544.4000  -999.2500     9.2724     8.7165     6.2906  -999.2500
  544.5000  -999.2500     9.3242     8.7519     6.2906  -999.2500
  544.6000  -999.2500     9.3787     8.7873     6.2906  -999.2500
  544.7000  -999.2500     9.4335     8.8227     6.2906  -999.2500
  544.8000  -999.2500     9.4886     8.8580     6.2906  -999.2500
  544.9000  -999.2500     9.5441     8.8934     6.2906  -999.2500
  545.0000  -999.2500     9.6021     8.9288     6.2906  -999.2500
  545.1000  -999.2500     9.6560     8.9642     6.2906  -999.2500
  545.2000  -999.2500     9.7124     8.9995     6.2906  -999.2500
  545.3000  -999.2500     9.7372     9.0266     6.2906  -999.2500
  545.4000  -999.2500     9.7372     9.0367     6.2906  -999.2500
  545.5000  -999.2500     9.7465     9.0469     6.2906  -999.2500
  545.6000  -999.2500     9.8055     9.0570     6.2906  -999.2500
  545.7000  -999.2500     9.8609     9.0672     6.2906  -999.2500
  545.8000  -999.2500     9.8743     9.0773     6.2906  -999.2500
  545.9000  -999.2500     9.8743     9.0875     6.2906  -999.2500
  546.0000  -999.2500     9.8743     9.0976     6.2906  -999.2500
  546.1000  -999.2500     9.8743     9.1078     6.2906  -999.2500
  546.2000  -999.2500     9.8743     9.1179     6.2906  -999.2500
  546.3000  -999.2500     9.8743     9.1281     6.2906  -999.2500
  546.4000  -999.2500     9.8743     9.1383     6.2906  -999.2500
  546.5000  -999.2500     9.8743     9.1484     6.2906  -999.2500
  546.6000  -999.2500     9.8743     9.1586     6.2906  -999.2500
  546.7000  -999.2500     9.8843     9.1687     6.2906  -999.2500
  546.8000  -999.2500     9.9435     9.1724     6.2906  -999.2500
  546.9000  -999.2500     9.9435     9.1724     6.2906  -999.2500
  547.0000  -999.2500     9.9435     9.1724     6.2906  -999.2500
