~VERSION INFORMATION
 VERS.                2.0:   CWLS LOG ASCII STANDARD - VERSION 2.0
 WRAP.                 NO:   ONE LINE PER DEPTH STEP
~WELL INFORMATION
#MNEM.UNIT      DATA TYPE    INFORMATION
#----------   ------------   ------------------------------
 STRT.F            4.0000:   START DEPTH
 STOP.F          528.0000:   STOP DEPTH
 STEP.F            0.1000:   STEP LENGTH
 NULL.          -999.2500:   NO VALUE
 COMP. BROWN JOHN E&C INC:   COMPANY
 WELL.    84-1 SHX- #84-3:   WELL
 FLD .        TEAPOT DOME:   FIELD
 LOC .       S3 T38N R78W:   LOCATION
 CNTY.            NATRONA:   COUNTY
 STAT.            WYOMING:   STATE
 CTRY. UNITED STATES OF AMERICA:   COUNTRY
 SRVC.     Atlas Wireline:   SERVICE COMPANY
 DATE.        18-JAN-1992:   LOGDATE
 API .       490252249900:   API NUMBER
~CURVE INFORMATION
#MNEM.UNIT       API CODE    CURVE DESCRIPTION
#----------   ------------   ------------------------------
 DEPT.F                  :   
 GRR .GAPI   07 310 01 00:   GAMMA RAY
 RILD.OHMM   07 120 46 00:   INDUCTION LOG DEEP RESISTIVITY
 RILM.OHMM   07 120 44 00:   INDUCTION LOG MEDIUM RESISTIVITY
~PARAMETER INFORMATION
#MNEM.UNIT          VALUE    DESCRIPTION
#----------   ------------   ------------------------------
 PD  .                 GL:   PERMANENT DATUM
 EPD .F              5147:   ELEVATION PERMANENT DATUM
 LMF .                 KB:   LOG MEASURED FROM
 DAPD.F                10:   FEET ABOVE PERMANENT DATUM
 DMF .                 KB:   DRILLING MEASURED FROM
 EKB .F              5157:   KELLING BUSHING
 EDF .F              5156:   DRILLING FLOOR
 EGL .F              5147:   GROUND LEVEL
 DATE.        18-JAN-1992:   RUN DATE
 RUN .                  1:   RUN NUMBER
 DD  .F               842:   DEPTH DRILLER
 DL  .F               837:   DEPTH LOGGER
 BLI .F               835:   BOTTOM LOG INTERVAL
 TLI .F                 4:   TOP LOG INTERVAL
 CS  .IN            8.625:   CASING SIZE
 CBD .F                39:   CASING BOTTOM DRILLER
 CBL .F                56:   CASING BOTTOM LOGGER
 BS  .IN             8.75:   BIT SIZE
 BSD .F               842:   BIT SIZE AT DEPTH
 DFT .                AIR:   DRILLING FLUID TYPE
 LUN .           HL- 6272:   LOGGING UNIT NUMBER
 LUL .             CASPER:   LOGGING UNIT LOCATION
 ENGI.       P. RASMUSSEN:   RECORDING ENGINEER
 WITN.          G. STRONG:   WITNESSED BY
 CLNT.            A2DTECH:   CLIENT CODE
 ORIG.           5" PRINT:   ORIGIN OF DATA
 UWI .       490252249900:   UNIQUE WELL ID
 DICO. A2D Technologies, Inc.:   DIGITIZING COMPANY
~OTHER INFORMATION
~A    DEPT      GRR      RILD       RILM   
# ...
  295.2000   141.1830     6.9894     6.9833
  295.3000   141.1836     7.0490     7.0397
  295.4000   141.1843     7.1002     7.1627
  295.5000   141.1848     7.1813     7.2023
  295.6000   141.1854     7.2784     7.2739
  295.7000   141.0769     7.3123     7.3351
  295.8000   140.8311     7.3540     7.3767
  295.9000   140.5812     7.3959     7.4164
  296.0000   140.0970     7.4325     7.4164
  296.1000   139.4192     7.4326     7.4509
  296.2000   138.6804     7.4709     7.4070
  296.3000   137.9412     7.4848     7.4096
  296.4000   137.2347     7.5039     7.4122
  296.5000   136.9486     7.5373     7.4148
  296.6000   136.9491     7.5374     7.4174
  296.7000   137.0992     7.5800     7.4200
  296.8000   137.3462     7.5904     7.4226
  296.9000   137.6294     7.6134     7.4252
  297.0000   138.1637     7.6436     7.4278
  297.1000   138.6169     7.6437     7.4304
  297.2000   139.1104     7.6439     7.4331
  297.3000   139.4908     7.6074     7.4357
  297.4000   139.7379     7.5644     7.4383
  297.5000   139.9848     7.5384     7.4409
  297.6000   140.2318     7.5317     7.4435
  297.7000   140.4789     7.4863     7.4461
  297.8000   140.5927     7.4864     7.4487
  297.9000   140.6700     7.4567     7.4513
  298.0000   140.8970     7.4146     7.4003
  298.1000   140.8977     7.3727     7.4000
  298.2000   141.1083     7.3319     7.3933
  298.3000   141.5088     7.3320     7.3478
  298.4000   141.9053     7.2994     7.3476
  298.5000   142.2332     7.2582     7.3473
  298.6000   143.0219     7.2173     7.3470
  298.7000   143.2527     7.1766     7.3383
  298.8000   143.8476     7.1310     7.2952
  298.9000   144.5201     7.0958     7.2554
  299.0000   145.1445     7.0817     7.2143
  299.1000   145.8226     7.0818     7.1931
  299.2000   146.5008     7.0743     7.1827
  299.3000   147.1790     7.0328     7.1420
  299.4000   147.8572     6.9947     7.1015
  299.5000   148.5631     6.9553     7.0613
  299.6000   150.4203     6.9358     7.0212
  299.7000   150.6902     6.9251     6.9814
  299.8000   150.9078     6.8878     6.9443
  299.9000   150.9912     6.8880     6.9439
  300.0000   150.9893     6.8610     6.9115
  300.1000   150.9448     6.8280     6.8951
  300.2000   150.6812     6.7950     6.8812
  300.3000   150.6795     6.7621     6.8422
  300.4000   150.5072     6.7291     6.7986
  300.5000   150.2598     6.6958     6.7649
  300.6000   150.0652     6.6516     6.7507
  300.7000   150.0633     6.6515     6.7353
  300.8000   149.8219     6.6515     6.6971
  300.9000   149.5746     6.6377     6.6563
  301.0000   149.4490     6.5953     6.6214
  301.1000   149.4471     6.5136     6.5839
  301.2000   149.4454     6.4806     6.5301
  301.3000   149.4435     6.4441     6.4642
  301.4000   149.4417     6.3922     6.4265
  301.5000   149.4399     6.3203     6.3911
  301.6000   149.4380     6.2465     6.3549
  301.7000   149.4504     6.1789     6.3189
  301.8000   149.7385     6.1346     6.2738
  301.9000   149.7370     6.0661     6.2039
  302.0000   149.8773     5.9816     6.1688
  302.1000   150.1210     5.9458     6.1069
  302.2000   150.3405     5.8460     6.0381
  302.3000   150.3383     5.7735     5.9700
  302.4000   150.5478     5.6907     5.9003
  302.5000   150.7915     5.6052     5.7848
  302.6000   151.0352     5.5393     5.7037
  302.7000   151.2790     5.4332     5.6077
  302.8000   151.5468     5.3288     5.5244
  302.9000   151.7664     5.2281     5.4621
  303.0000   152.1724     5.1401     5.3935
  303.1000   152.5583     5.0536     5.3398
  303.2000   152.8915     4.9624     5.2797
  303.3000   153.6687     4.8852     5.2322
  303.4000   154.3614     4.8031     5.2025
  303.5000   154.7510     4.7344     5.1711
  303.6000   154.9946     4.6811     5.1168
  303.7000   155.2383     4.6281     5.0592
  303.8000   155.4861     4.5510     5.0151
  303.9000   155.7259     4.5129     4.9866
  304.0000   155.7869     4.4874     4.9579
  304.1000   155.9088     4.4621     4.9302
  304.2000   156.0229     4.4368     4.8818
  304.3000   155.7568     4.4075     4.8132
  304.4000   154.7732     4.4280     4.7321
  304.5000   153.5959     4.4530     4.6540
  304.6000   152.3661     4.4691     4.6277
  304.7000   151.1367     4.4722     4.6222
  304.8000   149.9236     4.5002     4.6075
  304.9000   148.7686     4.5002     4.5896
  305.0000   147.7523     4.5169     4.5894
  305.1000   146.5227     4.5315     4.5892
  305.2000   145.0376     4.5413     4.6110
  305.3000   143.0439     4.5950     4.6369
  305.4000   140.5404     4.5949     4.6630
  305.5000   138.8341     4.6137     4.6891
  305.6000   137.1766     4.6269     4.7182
  305.7000   135.9874     4.6269     4.7902
  305.8000   135.3583     4.6274     4.8718
  305.9000   135.3563     4.6535     4.9548
  306.0000   134.9083     4.6798     5.0391
  306.1000   134.7440     4.7063     5.1295
  306.2000   134.9533     4.7329     5.2122
  306.3000   135.5357     4.7572     5.2797
  306.4000   136.5649     4.7571     5.3537
  306.5000   137.2634     4.8033     5.4376
  306.6000   138.5219     4.8579     5.4994
  306.7000   139.7618     4.9349     5.5926
  306.8000   140.7422     5.0384     5.6879
  306.9000   141.7309     5.1000     5.7677
  307.0000   142.4597     5.1804     5.8329
  307.1000   143.0099     5.2689     5.8973
  307.2000   143.3734     5.3449     5.9369
  307.3000   143.6171     5.4124     5.9910
  307.4000   143.8607     5.5058     6.0588
  307.5000   144.1045     5.6302     6.1272
  307.6000   144.1534     5.7343     6.1965
  307.7000   144.1516     5.8322     6.2767
  307.8000   144.3813     5.9415     6.3682
  307.9000   145.1165     6.0695     6.4767
  308.0000   145.9723     5.9457     6.5727
  308.1000   146.3808     6.1134     6.6470
  308.2000   147.1621     6.3852     6.7293
  308.3000   148.0553     6.4619     6.7635
  308.4000   148.7905     6.4963     6.8015
  308.5000   149.6162     6.5593     6.8564
  308.6000   150.4748     6.6337     6.9263
  308.7000   151.1429     6.7089     6.9669
  308.8000   151.5349     6.7847     6.9666
  308.9000   151.7403     6.8230     6.9946
  309.0000   151.7381     6.8916     7.0339
  309.1000   151.7364     6.9698     7.0637
  309.2000   151.7345     7.0367     7.0634
  309.3000   151.7327     7.0764     7.1032
  309.4000   151.6823     7.1229     7.1431
  309.5000   151.4246     7.1908     7.1618
  309.6000   151.4228     7.2474     7.1733
  309.7000   151.2445     7.2883     7.2136
  309.8000   150.9971     7.3295     7.2616
  309.9000   150.7497     7.3748     7.2613
  310.0000   150.5023     7.3747     7.2611
  310.1000   150.2549     7.3746     7.2608
  310.2000   150.0075     7.3746     7.2605
  310.3000   149.8880     7.3745     7.2601
  310.4000   149.7480     7.3743     7.2245
  310.5000   149.2652     7.3742     7.1836
  310.6000   148.9689     7.3741     7.1586
  310.7000   148.5737     7.3741     7.1583
  310.8000   148.0808     7.3740     7.1579
  310.9000   147.5879     7.3738     7.1947
  311.0000   147.1151     7.3737     7.2075
  311.1000   146.8289     7.3736     7.2251
  311.2000   146.4134     7.3735     7.2657
  311.3000   145.9204     7.3734     7.3079
  311.4000   145.5168     7.3733     7.3077
  311.5000   145.2694     7.3732     7.3374
  311.6000   144.9934     7.4094     7.3582
  311.7000   144.7746     7.4245     7.3684
  311.8000   144.6855     7.4245     7.4092
  311.9000   144.5843     7.4244     7.4089
  312.0000   144.3370     7.4242     7.4411
  312.1000   144.0711     7.4634     7.4601
  312.2000   144.0694     7.4759     7.4598
  312.3000   144.2360     7.4956     7.4622
  312.4000   144.5893     7.5380     7.5114
  312.5000   145.0787     7.5805     7.5111
  312.6000   145.5841     7.5804     7.5109
  312.7000   146.0572     7.5803     7.5255
  312.8000   146.3680     7.6031     7.5629
  312.9000   146.8514     7.6331     7.5625
  313.0000   147.8296     7.6330     7.5622
  313.1000   149.5459     7.6329     7.5892
  313.2000   151.2640     7.6328     7.6146
  313.3000   152.0372     7.6327     7.6142
