~VERSION INFORMATION
 VERS.                2.0:   CWLS LOG ASCII STANDARD - VERSION 2.0
 WRAP.                 NO:   ONE LINE PER DEPTH STEP
~WELL INFORMATION
#MNEM.UNIT      DATA TYPE    INFORMATION
#----------   ------------   ------------------------------
 STRT.F           20.0000:   START DEPTH
 STOP.F          626.0000:   STOP DEPTH
 STEP.F            0.5000:   STEP LENGTH
 NULL.          -999.2500:   NO VALUE
 COMP. FENIX & SCISSON INC:   COMPANY
 WELL. NPR-3  38-S-34 #38-34:   WELL
 FLD .             TEAPOT:   FIELD
 LOC .      S34 T39N R78W:   LOCATION
 CNTY.            NATRONA:   COUNTY
 STAT.            WYOMING:   STATE
 CTRY. UNITED STATES OF AMERICA:   COUNTRY
 SRVC.           BIRDWELL:   SERVICE COMPANY
 DATE.        08-AUG-1978:   LOGDATE
 API .       490251068300:   API NUMBER
~CURVE INFORMATION
#MNEM.UNIT       API CODE    CURVE DESCRIPTION
#----------   ------------   ------------------------------
 DEPT.F                  :   
 SPR .MV     05 010 01 00:   SPONTANEOUS POTENTIAL FROM RES.
 SN  .OHMM   05 040 16 00:   SHORT NORMAL 16"
 IL  .OHMM   05 120 00 00:   INDUCTION LOG
 RHOB.G/C3   45 350 01 00:   BULK DENSITY
 DPHI.DEC    45 890 12 00:   DENSITY POROSITY SANDSTONE
 CORR.G/C3   45 356 01 00:   DENSITY CORRECTION
 GRD .GAPI   45 310 01 00:   GAMMA RAY FROM DENSITY LOG
 CALD.IN     45 280 60 00:   CALIPER
~PARAMETER INFORMATION
#MNEM.UNIT          VALUE    DESCRIPTION
#----------   ------------   ------------------------------
 PD  .                 GL:   PERMANENT DATUM
 EPD .F              5213:   ELEVATION PERMANENT DATUM
 LMF .                 KB:   LOG MEASURED FROM
 DAPD.F                 4:   FEET ABOVE PERMANENT DATUM
 DMF .                 KB:   DRILLING MEASURED FROM
 EKB .F              5217:   KELLING BUSHING
 EGL .F              5213:   GROUND LEVEL
 DATE.             8-8-78:   RUN DATE
 RUN .                  1:   RUN NUMBER
 DD  .F               620:   DEPTH DRILLER
 DL  .F               632:   DEPTH LOGGER
 BLI .F               626:   BOTTOM LOG INTERVAL
 TLI .F                35:   TOP LOG INTERVAL
 CS  .IN            8.625:   CASING SIZE
 CBL .F                35:   CASING BOTTOM LOGGER
 BS  .IN            7.875:   BIT SIZE
 BSD .F               620:   BIT SIZE AT DEPTH
 DFT .                KCL:   DRILLING FLUID TYPE
 DFD .                8.7:   DRILLING FLUID DENSITY
 DFV .                 33:   DRILLING FLUID VISCOSITY
 DFPH.                  9:   DRILLING FLUID PH
 DFL .                  5:   DRILLING FLUID LOSS
 MSS .          FLOW LINE:   MUD SAMPLE SOURCE
 RMS .OHMM            .12:   RESISTIVITY MUD SAMPLE
 MST .F                80:   MUD SAMPLE TEMPERATURE
 RMF .OHMM            .13:   RESISTIVITY MUD FILTRATE SAMPLE
 MFST.F                83:   MUD FILTRATE SAMPLE TEMPERATURE
 RMC .OHMM            .16:   RESISTIVITY MUD CAKE
 MCST.F                84:   MUD CAKE SAMPLE TEMPERATURE
 MFSS.               MEAS:   MUD FILTRATE SAMPLE SOURCE
 TCS .HRS               1:   TIME CURCULATED STOPPED
 LUN .               3006:   LOGGING UNIT NUMBER
 LUL .               CASP:   LOGGING UNIT LOCATION
 ENGI.             MILLER:   RECORDING ENGINEER
 WITN.           MCGINLEY:   WITNESSED BY
 CLNT.            A2DTECH:   CLIENT CODE
 ORIG.           5" PRINT:   ORIGIN OF DATA
 UWI .       490251068300:   UNIQUE WELL ID
 DICO. A2D Technologies, Inc.:   DIGITIZING COMPANY
~OTHER INFORMATION
~A   DEPT      SPR         SN         IL       RHOB       DPHI       CORR         GRD      CALD   
# ...
  425.0000   -28.0510     6.3607     6.0580     2.4899     0.1135     0.0194   104.1300     7.5724
  425.5000   -28.0289     6.3739     6.0833     2.4893     0.1149     0.0143   105.9348     7.5617
  426.0000   -28.0068     6.3872     6.1087     2.4915     0.1156     0.0133   105.7087     7.5675
  426.5000   -27.9847     6.4004     6.1341     2.4829     0.1133     0.0210   105.3040     7.6026
  427.0000   -27.9625     6.4139     6.1597     2.4822     0.1112     0.0285   106.2674     7.6376
  427.5000   -27.9408     6.4271     6.1951     2.4896     0.1092     0.0313   106.4043     7.6721
  428.0000   -27.9212     6.3438     6.1396     2.4951     0.1104     0.0312   102.4511     7.6458
  428.5000   -27.8883     6.2433     6.0521     2.4931     0.1132     0.0309   101.2555     7.6150
  429.0000   -27.4318     6.1444     5.9658     2.4865     0.1157     0.0307   100.7676     7.5844
  429.5000   -26.9502     6.0166     5.8807     2.4799     0.1192     0.0305   101.4836     7.5545
  430.0000   -26.7006     5.8390     5.3212     2.4734     0.1224     0.0303   102.1762     7.5476
  430.5000   -26.7072     5.6666     4.9687     2.4660     0.1272     0.0301   100.1913     7.5852
  431.0000   -26.6693     5.5476     5.2837     2.4590     0.1320     0.0299    95.5099     7.6222
  431.5000   -25.4369     5.5625     5.7870     2.4405     0.1411     0.0297    92.2429     7.6432
  432.0000   -24.5450     5.5905     5.9168     2.4181     0.1685     0.0293    94.3371     7.5401
  432.5000   -24.0706     5.6196     5.9168     2.3681     0.1959     0.0338    98.2175     7.4228
  433.0000   -23.1031     5.6475     5.9168     2.3196     0.2234     0.0466   102.1292     7.0070
  433.5000   -22.6454     6.0131     6.3009     2.2707     0.2509     0.1040   106.1906     7.0794
  434.0000   -22.2626     6.4542     6.9066     2.2500     0.2311     0.1818   107.1229     7.1876
  434.5000   -21.0132     6.9277     7.4985     2.3169     0.2104     0.1412   106.8512     6.7647
  435.0000   -20.0835     7.4359     8.0205     2.3727     0.1898     0.1277   103.4035     6.9444
  435.5000   -20.1131     7.7930     8.4021     2.4365     0.1693     0.1470    99.3763     6.6971
  436.0000   -19.4745     7.9437     8.5925     2.4400     0.1488     0.1599    95.9089     6.7118
  436.5000   -18.6363     8.2168     8.7885     2.4427     0.1362     0.1682    96.3729     6.7295
  437.0000   -18.3638     8.6046     9.0278     2.4481     0.1352     0.1716    97.4657     7.0136
  437.5000   -17.5885     9.0107     9.4468     2.4539     0.1378     0.1688    98.5799     7.2050
  438.0000   -16.5329     9.4360     9.8829     2.4445     0.1436     0.1725    99.8136     6.9643
  438.5000   -16.0897     9.8813    10.3429     2.4327     0.1436     0.1854    95.4797     6.7457
  439.0000   -15.8075    10.1867    11.0202     2.4380     0.1376     0.1753    89.6580     7.0107
  439.5000   -15.5301    10.2151    11.8210     2.4439     0.1368     0.1541    83.8849     7.2179
  440.0000   -15.2508    10.2414    12.4633     2.4497     0.1364     0.1237    75.5403     7.0871
  440.5000   -14.9748    10.2683    12.4627     2.4524     0.1460     0.0935    67.4513     7.0449
  441.0000   -14.2859    10.2957    11.9305     2.4259     0.1672     0.0632    59.3504     7.2422
  441.5000   -13.4671    10.3231    11.2617     2.3871     0.1868     0.0335    59.0348     7.2529
  442.0000   -12.7092    10.3506    11.3268     2.3481     0.2054     0.0155    60.3409     7.3137
  442.5000   -12.6482    10.3782    11.4096     2.3093     0.2237     0.0398    61.6786     7.3782
  443.0000   -12.6063    10.4059    11.4940     2.2829     0.2327     0.0592    62.9887     7.4433
  443.5000   -12.5617    10.4336    11.5790     2.2803     0.2327     0.0685    63.7882     7.5097
  444.0000   -12.5165    10.4616    11.6646     2.2961     0.2194     0.0665    62.9049     7.4365
  444.5000   -12.4713    10.4258    11.7509     2.3140     0.2132     0.0646    62.0701     7.3470
  445.0000   -12.4261    10.3815    11.8378     2.3179     0.2115     0.0646    61.2352     7.2835
  445.5000   -12.3811    10.3373    12.0043     2.3188     0.2079     0.0704    60.3929     7.3339
  446.0000   -12.3358    10.2934    12.3542     2.3260     0.1981     0.0763    59.9655     7.3819
  446.5000   -12.2736    10.2497    12.7144     2.3411     0.1875     0.0701    60.6540     7.4296
  447.0000   -12.1358    10.2062    12.9244     2.3640     0.1771     0.0604    65.3059     7.4779
  447.5000   -12.0001    10.1628    12.9244     2.3816     0.1759     0.0504    69.9186     7.4801
  448.0000   -11.8645    10.1196    12.8852     2.3815     0.1761     0.0546    70.6901     7.4575
  448.5000   -11.7302    10.0840    12.5803     2.3818     0.1763     0.0589    68.5801     7.4343
  449.0000   -11.5101    10.1432    12.2827     2.3819     0.1799     0.0515    65.0721     7.4111
  449.5000   -11.2713    10.1945    12.1123     2.3693     0.1863     0.0566    64.0126     7.3880
  450.0000   -11.1147    10.2454    12.0856     2.3415     0.1926     0.0631    62.8977     7.3649
  450.5000   -11.1942    10.2702    12.0589     2.3366     0.1989     0.0539    61.7869     7.3418
  451.0000   -11.2678    10.2531    12.0323     2.3330     0.2081     0.0431    60.6653     7.3185
  451.5000   -11.2803    10.2413    12.0057     2.3202     0.2235     0.0324    59.3980     7.2954
  452.0000   -11.2470    10.2296    11.9792     2.2981     0.2388     0.0238    58.1824     7.2807
  452.5000   -11.2128    10.2178    11.9528     2.2760     0.2460     0.0280    56.9708     7.3132
  453.0000   -11.1782    10.2062    11.9264     2.2578     0.2442     0.0320    55.7586     7.3452
  453.5000   -11.1441    10.1940    11.9001     2.2589     0.2384     0.0359    57.8399     7.3747
  454.0000   -11.1035    10.1766    11.8738     2.2925     0.2213     0.0337    61.3821     7.3645
  454.5000   -11.4291    10.2785    11.8476     2.3299     0.2054     0.0247    63.1870     7.3530
  455.0000   -11.8964    10.4848    11.8216     2.3248     0.2133     0.0261    62.3418     7.3418
  455.5000   -12.3670    10.6946    11.7951     2.3149     0.2198     0.0360    61.5320     7.3306
  456.0000   -12.8384    10.9087    11.7656     2.3082     0.2141     0.0333    60.7185     7.3211
  456.5000   -13.2926    10.9997    11.7236     2.3156     0.2135     0.0230    60.1379     7.2029
  457.0000   -13.4310    11.1153    11.6820     2.3164     0.2135     0.0293    61.3240     7.0464
  457.5000   -13.4869    11.1567    11.6406     2.3261     0.1935     0.0284    67.9928     6.8893
  458.0000   -13.4550    11.1567    11.5993     2.3474     0.1961     0.0183    74.6758     6.7303
  458.5000   -13.4241    11.0697    11.5582     2.3448     0.1990     0.0212    81.1630     6.6807
  459.0000   -13.3930    10.9898    11.5172     2.3383     0.2019     0.0238    82.2562     6.6989
  459.5000   -13.3619    10.9104    11.4764     2.3327     0.2042     0.0220    82.2411     6.7461
  460.0000   -13.3303    10.8314    11.4356     2.3308     0.2059     0.0129    80.3245     6.7935
  460.5000   -13.3023    10.7542    11.3952     2.3288     0.2077     0.0153    76.5052     6.7652
  461.0000   -13.3535    10.7858    11.3637     2.3268     0.2087     0.0212    72.6873     6.7151
  461.5000   -13.4078    10.8175    11.4100     2.3319     0.2004     0.0272    69.0103     6.6574
  462.0000   -13.4618    10.8494    11.4480     2.3434     0.1926     0.0315    68.9320     6.6487
  462.5000   -13.5221    10.8813    11.4860     2.3547     0.1847     0.0303    70.5676     6.7215
  463.0000   -13.6104    10.9134    11.5243     2.3663     0.1835     0.0292    75.5320     6.7323
  463.5000   -13.6957    10.9456    11.5626     2.3701     0.1863     0.0282    80.4565     6.7234
  464.0000   -13.7810    10.9993    11.6011     2.3586     0.1895     0.0290    82.6439     6.7437
  464.5000   -13.8662    11.0604    11.6397     2.3582     0.1914     0.0307    81.0613     6.8795
  465.0000   -13.9691    11.1218    11.6784     2.3575     0.1935     0.0318    78.4978     7.0133
