~VERSION INFORMATION
 VERS.                2.0:   CWLS LOG ASCII STANDARD - VERSION 2.0
 WRAP.                 NO:   ONE LINE PER DEPTH STEP
~WELL INFORMATION
#MNEM.UNIT      DATA TYPE    INFORMATION
#----------   ------------   ------------------------------
 STRT.F            2.0000:   START DEPTH
 STOP.F          500.0000:   STOP DEPTH
 STEP.F            0.1000:   STEP LENGTH
 NULL.          -999.2500:   NO VALUE
 COMP.   FLUOR DANIEL INC:   COMPANY
 WELL.   73-5 X 10 #73-10:   WELL
 FLD .             TEAPOT:   FIELD
 LOC .      S10 T38N R78W:   LOCATION
 CNTY.            NATRONA:   COUNTY
 STAT.            WYOMING:   STATE
 CTRY. UNITED STATES OF AMERICA:   COUNTRY
 SRVC.      Western Atlas:   SERVICE COMPANY
 DATE.        07-JUN-1995:   LOGDATE
 API .       490252271400:   API NUMBER
~CURVE INFORMATION
#MNEM.UNIT       API CODE    CURVE DESCRIPTION
#----------   ------------   ------------------------------
 DEPT.F                  :   
 GRR .GAPI   07 310 01 00:   GAMMA RAY
 RILD.OHMM   07 120 46 00:   INDUCTION LOG DEEP RESISTIVITY
 RILM.OHMM   07 120 44 00:   RESITIVITY LONG MEDIUM
~PARAMETER INFORMATION
#MNEM.UNIT          VALUE    DESCRIPTION
#----------   ------------   ------------------------------
 PD  .                 GL:   PERMANENT DATUM
 EPD .F              5175:   ELEVATION PERMANENT DATUM
 LMF .                 KB:   LOG MEASURED FROM
 DAPD.F                10:   FEET ABOVE PERMANENT DATUM
 DMF .                 KB:   DRILLING MEASURED FROM
 EKB .F              5185:   KELLING BUSHING
 EDF .F              5184:   DRILLING FLOOR
 EGL .F              5175:   GROUND LEVEL
 DATE.        07-JUN-1995:   RUN DATE
 RUN .                  1:   RUN NUMBER
 DD  .F               511:   DEPTH DRILLER
 DL  .F               508:   DEPTH LOGGER
 BLI .F               500:   BOTTOM LOG INTERVAL
 TLI .F                96:   TOP LOG INTERVAL
 CS  .IN            9.625:   CASING SIZE
 CBD .F                96:   CASING BOTTOM DRILLER
 CBL .F                96:   CASING BOTTOM LOGGER
 BS  .IN             8.75:   BIT SIZE
 BSD .F               511:   BIT SIZE AT DEPTH
 DFT .                AIR:   DRILLING FLUID TYPE
 MRT .F               116:   MAXIMUM RECORDED TEMPERATURE
 LUN .            HL 6530:   LOGGING UNIT NUMBER
 LUL .             CASPER:   LOGGING UNIT LOCATION
 ENGI.        VERN RAUTIO:   RECORDING ENGINEER
 WITN.        GARY STRONG:   WITNESSED BY
 CLNT.            A2DTECH:   CLIENT CODE
 ORIG.           5" PRINT:   ORIGIN OF DATA
 UWI .       490252271400:   UNIQUE WELL ID
 DICO. A2D Technologies, Inc.:   DIGITIZING COMPANY
~OTHER INFORMATION
~A    DEPT       GRR     RILD       RILM   
# ...
  347.8000    93.9759    14.4902    14.1951
  347.9000    94.2024    14.4164    14.1529
  348.0000    94.4498    14.3902    14.0976
  348.1000    94.6972    14.3902    14.0906
  348.2000    95.0096    14.3902    14.0008
  348.3000    95.4932    14.3902    14.0009
  348.4000    95.7831    14.3902    14.0011
  348.5000    96.1927    14.3236    13.9669
  348.6000    96.6875    14.2908    13.9050
  348.7000    97.1823    14.2908    13.9052
  348.8000    97.6771    14.2773    13.8268
  348.9000    98.1928    14.1921    13.8096
  349.0000    98.4297    14.1156    13.8098
  349.1000    98.8602    14.0355    13.7833
  349.2000    99.4843    13.9967    13.7150
  349.3000   100.3021    13.9729    13.7152
  349.4000   101.2699    13.8935    13.6451
  349.5000   102.1084    13.8041    13.6210
  349.6000   102.7542    13.8041    13.6212
  349.7000   103.6578    13.8041    13.6021
  349.8000   104.5398    13.7701    13.5276
  349.9000   105.2282    13.7087    13.5278
  350.0000   105.7229    13.7087    13.4658
  350.1000   107.8100    13.7097    13.3426
  350.2000   108.6145    13.7106    13.3435
  350.3000   109.0398    13.7116    13.3443
  350.4000   109.0411    13.7125    13.3450
  350.5000   109.2651    13.7135    13.3457
  350.6000   109.1775    13.7145    13.3465
  350.7000   109.0446    13.7154    13.3472
  350.8000   108.9903    13.7163    13.3481
  350.9000   108.7458    13.7173    13.3487
  351.0000   108.5020    13.7182    13.3494
  351.1000   108.0687    13.7192    13.3502
  351.2000   107.5792    13.7201    13.3509
  351.3000   107.1671    13.7832    13.3517
  351.4000   106.9013    13.8175    13.4261
  351.5000   106.3435    13.8184    13.4458
  351.6000   106.1333    13.8194    13.4466
  351.7000   105.8891    13.8204    13.4473
  351.8000   105.7446    13.8213    13.4546
  351.9000   105.7020    13.8222    13.5423
  352.0000   105.4458    13.8232    13.5430
  352.1000   105.4470    13.8242    13.5437
  352.2000   105.2707    13.8251    13.5445
  352.3000   105.1482    13.8263    13.5605
  352.4000   105.1494    13.8270    13.6400
  352.5000   105.1506    13.8745    13.6408
  352.6000   105.1520    13.9251    13.6415
  352.7000   105.1530    13.9261    13.6837
  352.8000   105.0105    13.9271    13.7378
  352.9000   104.7663    13.9280    13.7457
  353.0000   104.5220    13.9852    13.8348
  353.1000   104.2543    14.0268    13.9039
  353.2000   104.0337    14.0278    13.9323
  353.3000   103.6237    14.0288    13.9331
  353.4000   103.1342    14.0299    13.9501
  353.5000   102.6446    14.0307    14.0314
  353.6000   102.1518    14.0317    14.0322
  353.7000   101.6655    14.0634    14.0329
  353.8000   101.1759    14.1312    14.0769
  353.9000   100.8185    14.1323    14.1319
  354.0000   100.6506    14.1332    14.1406
  354.1000   100.6518    14.1342    14.2318
  354.2000   100.6532    14.1756    14.2324
  354.3000   100.8643    14.2344    14.2332
  354.4000   101.1109    14.2404    14.2691
  354.5000   101.2590    14.3356    14.3337
  354.6000   101.2602    14.3364    14.3345
  354.7000   101.2615    14.3374    14.3352
  354.8000   101.2627    14.3384    14.3360
  354.9000   101.2639    14.3394    14.3368
  355.0000   101.2651    14.3404    14.3376
  355.1000   101.2016    14.3414    14.3384
  355.2000   100.9575    14.4027    14.3393
  355.3000   100.6665    14.4431    14.3400
  355.4000   100.4691    14.4441    14.3408
  355.5000   100.2249    14.4451    14.3416
  355.6000   100.0675    14.4462    14.3424
  355.7000   100.0687    14.3771    14.3432
  355.8000   100.0700    14.3483    14.3440
  355.9000   100.0711    14.3156    14.3448
  356.0000   100.0723    14.2510    14.3456
  356.1000   100.1823    14.2522    14.3464
  356.2000   100.4289    14.1746    14.3382
  356.3000   100.6783    14.0953    14.2491
  356.4000   100.9221    14.0589    14.2498
  356.5000   101.3554    14.0350    14.2506
  356.6000   101.7164    13.9637    14.2155
  356.7000   102.0381    13.9649    14.1539
  356.8000   102.5108    13.8968    14.1547
  356.9000   102.7942    13.8191    14.0753
  357.0000   103.0040    13.7754    14.0586
  357.1000   103.0976    13.7599    14.0149
  357.2000   103.1960    13.6822    13.9632
  357.3000   103.4426    13.6831    13.9547
  357.4000   103.7037    13.6244    13.8685
  357.5000   104.1667    13.5905    13.7991
  357.6000   104.6587    13.5661    13.7219
  357.7000   105.2699    13.4984    13.6451
  357.8000   106.0707    13.4995    13.5688
  357.9000   107.0535    13.4325    13.4921
  358.0000   108.2291    13.4080    13.3410
  358.1000   108.6245    13.3751    13.3096
  358.2000   108.9751    13.3173    13.2677
  358.3000   109.1361    13.3182    13.1935
  358.4000   109.1373    13.2433    13.1196
  358.5000   109.1387    13.1693    13.0391
  358.6000   108.9205    13.1376    12.9733
  358.7000   108.5129    13.1129    12.9008
  358.8000   107.9156    13.0396    12.8619
  358.9000   107.1807    12.9596    12.8454
  359.0000   106.4337    12.9604    12.7735
  359.1000   106.1936    12.9112    12.7021
  359.2000   105.7638    12.8727    12.6310
  359.3000   105.4040    12.8559    12.5604
  359.4000   105.2337    12.7840    12.5150
  359.5000   105.2169    12.6983    12.5065
  359.6000   104.9351    12.6414    12.4301
  359.7000   104.9361    12.6122    12.3669
  359.8000   104.9373    12.5874    12.2978
  359.9000   104.8425    12.5267    12.2612
  360.0000   104.6384    12.5277    12.2619
  360.1000   104.6398    12.4634    12.2610
  360.2000   104.4112    12.4429    12.1788
  360.3000   104.1670    12.4101    12.1794
  360.4000   104.0410    12.3406    12.1402
  360.5000   103.9799    12.2741    12.0967
  360.6000   103.7421    12.2751    12.0881
  360.7000   103.7434    12.2758    12.0147
  360.8000   103.9405    12.2767    12.0153
  360.9000   104.0470    12.2775    11.9689
  361.0000   104.1325    12.2784    11.9338
  361.1000   104.4076    12.2793    11.9344
  361.2000   104.9543    12.2801    11.9351
  361.3000   105.3916    12.2809    11.9359
  361.4000   105.8836    12.2818    11.9364
  361.5000   106.4819    12.2826    11.9371
  361.6000   107.2193    12.2835    11.9377
  361.7000   107.9723    12.2845    11.9384
  361.8000   108.4538    12.2852    11.9391
  361.9000   108.7614    12.2860    11.9397
  362.0000   109.0080    12.2869    11.9879
  362.1000   109.1819    12.2997    12.0240
  362.2000   109.1831    12.3741    12.0422
  362.3000   109.1845    12.3749    12.1088
  362.4000   109.1855    12.3758    12.1096
  362.5000   109.0361    12.4125    12.1662
  362.6000   108.8868    12.4636    12.1949
  362.7000   108.8490    12.4692    12.2213
  362.8000   108.5880    12.5521    12.2809
  362.9000   108.3606    12.6134    12.2817
  363.0000   108.1165    12.6410    12.3471
  363.1000   107.8723    12.6712    12.4180
  363.2000   107.6281    12.7577    12.4892
  363.3000   107.3840    12.9093    12.5420
  363.4000   107.1398    12.9812    12.5457
  363.5000   106.8956    13.0560    12.6306
  363.6000   106.6515    13.1706    12.6901
  363.7000   106.4073    13.3219    12.7629
  363.8000   106.1631    13.4748    12.8362
  363.9000   105.8905    13.6510    12.9213
  364.0000   105.4578    13.8545    13.0788
  364.1000   105.1293    14.0419    13.2190
  364.2000   104.8851    14.2377    13.3704
  364.3000   104.6410    14.4830    13.5616
  364.4000   104.3904    14.7374    13.8379
  364.5000   104.3916    14.9871    14.2351
  364.6000   104.2096    15.2459    14.7165
  364.7000   103.8382    15.5572    15.0681
  364.8000   103.3486    15.8861    15.4482
  364.9000   102.8434    16.1597    15.8381
  365.0000   101.9882    16.4725    16.2930
  365.1000   101.3736    16.7224    16.7889
  365.2000   100.6385    17.0111    17.2453
  365.3000    99.8099    17.3046    17.6693
  365.4000    98.8674    17.6248    18.1273
  365.5000    98.0784    18.0316    18.6185
  365.6000    97.1701    18.4465    19.0452
  365.7000    95.3324    18.9564    19.5562
  365.8000    93.2410    19.5038    19.8372
  365.9000    91.3389    20.0274    20.2494
