~VERSION INFORMATION
 VERS.                2.0:   CWLS LOG ASCII STANDARD - VERSION 2.0
 WRAP.                 NO:   ONE LINE PER DEPTH STEP
~WELL INFORMATION
#MNEM.UNIT      DATA TYPE    INFORMATION
#----------   ------------   ------------------------------
 STRT.F            0.0000:   START DEPTH
 STOP.F          649.0000:   STOP DEPTH
 STEP.F            0.1000:   STEP LENGTH
 NULL.          -999.2500:   NO VALUE
 COMP.   FLUOR DANIEL INC:   COMPANY
 WELL.     17-1 X 2 #17-2:   WELL
 FLD .             TEAPOT:   FIELD
 LOC .       S2 T38N R78W:   LOCATION
 CNTY.            NATRONA:   COUNTY
 STAT.            WYOMING:   STATE
 CTRY. UNITED STATES OF AMERICA:   COUNTRY
 SRVC.      Western Atlas:   SERVICE COMPANY
 DATE.        20-MAY-1995:   LOGDATE
 API .       490252271000:   API NUMBER
~CURVE INFORMATION
#MNEM.UNIT       API CODE    CURVE DESCRIPTION
#----------   ------------   ------------------------------
 DEPT.F                  :   
 GRR .GAPI   07 310 01 00:   GAMMA RAY
 RILD.OHMM   07 120 46 00:   INDUCTION LOG DEEP RESISTIVITY
 RILM.OHMM   07 120 44 00:   RESITIVITY LOG MEDIUM
~PARAMETER INFORMATION
#MNEM.UNIT          VALUE    DESCRIPTION
#----------   ------------   ------------------------------
 PD  .                 GL:   PERMANENT DATUM
 EPD .F              5145:   ELEVATION PERMANENT DATUM
 LMF .                 KB:   LOG MEASURED FROM
 DAPD.F                10:   FEET ABOVE PERMANENT DATUM
 DMF .                 KB:   DRILLING MEASURED FROM
 EKB .F              5155:   KELLING BUSHING
 EDF .F              5154:   DRILLING FLOOR
 EGL .F              5145:   GROUND LEVEL
 DATE.        20-MAY-1995:   RUN DATE
 RUN .                  1:   RUN NUMBER
 DD  .F               657:   DEPTH DRILLER
 DL  .F               657:   DEPTH LOGGER
 BLI .F               649:   BOTTOM LOG INTERVAL
 CS  .IN            9.625:   CASING SIZE
 CBD .F                82:   CASING BOTTOM DRILLER
 CBL .F                82:   CASING BOTTOM LOGGER
 BS  .IN             8.75:   BIT SIZE
 BSD .F               657:   BIT SIZE AT DEPTH
 DFT .                AIR:   DRILLING FLUID TYPE
 MRT .F                92:   MAXIMUM RECORDED TEMPERATURE
 LUN .            HL 6530:   LOGGING UNIT NUMBER
 LUL .             CASPER:   LOGGING UNIT LOCATION
 ENGI.        VERN RAUTIO:   RECORDING ENGINEER
 WITN.        STEVE HARDY:   WITNESSED BY
 CLNT.            A2DTECH:   CLIENT CODE
 ORIG.           5" PRINT:   ORIGIN OF DATA
 UWI .       490252271000:   UNIQUE WELL ID
 DICO. A2D Technologies, Inc.:   DIGITIZING COMPANY
~OTHER INFORMATION
~A    DEPT      GRR      RILD       RILM   
# ...
  109.2000   129.9105     7.7946     7.6222
  109.3000   129.3908     7.8172     7.7212
  109.4000   129.1624     7.8621     7.7592
  109.5000   128.9191     7.9049     7.7754
  109.6000   128.6757     7.9054     7.7938
  109.7000   128.4977     7.9432     7.8382
  109.8000   128.5007     7.9888     7.8847
  109.9000   128.5043     8.0172     7.9280
  110.0000   128.5068     8.0250     7.9733
  110.1000   128.5098     8.0739     7.9956
  110.2000   128.5128     8.1176     8.0087
  110.3000   128.4806     8.1643     8.0544
  110.4000   128.2174     8.1881     8.1081
  110.5000   127.9940     8.2013     8.1083
  110.6000   127.5797     8.2461     8.1365
  110.7000   127.0900     8.2466     8.1829
  110.8000   126.5400     8.2859     8.2334
  110.9000   125.8089     8.3335     8.3042
  111.0000   125.3193     8.3814     8.3750
  111.1000   124.8296     8.4296     8.4297
  111.2000   124.3399     8.4811     8.4547
  111.3000   123.7647     8.4815     8.4672
  111.4000   123.0287     8.5514     8.5169
  111.5000   122.2175     8.6252     8.6333
  111.6000   121.9990     8.6614     8.6730
  111.7000   121.9216     8.6642     8.6939
  111.8000   121.9246     8.7228     8.7116
  111.9000   121.9276     8.7642     8.7613
  112.0000   121.9306     8.8146     8.8162
  112.1000   122.1800     8.8653     8.8164
  112.2000   122.4294     8.9082     8.8506
  112.3000   122.8145     8.9087     8.9011
  112.4000   123.3907     8.9567     8.9404
  112.5000   124.1076     9.0082     8.9406
  112.6000   124.6640     9.0600     9.0429
  112.7000   125.3152     9.0982     9.0661
  112.8000   126.0573     9.1010     9.0947
  112.9000   126.6938     9.1626     9.1466
  113.0000   127.2398     9.2060     9.1936
  113.1000   127.9970     9.2274     9.1939
  113.2000   128.4826     9.2478     9.2397
  113.3000   128.9784     9.2927     9.2584
  113.4000   129.6048     9.2932     9.2809
  113.5000   130.2715     9.2937     9.3338
  113.6000   130.7672     9.3319     9.3886
  113.7000   131.3338     9.3595     9.3889
  113.8000   131.5475     9.3742     9.3891
  113.9000   131.6410     9.4257     9.3894
  114.0000   131.6441     9.4263     9.4054
  114.1000   131.6018     9.4268     9.4553
  114.2000   131.3485     9.4273     9.4556
  114.3000   130.8788     9.4480     9.4559
  114.4000   130.5701     9.4940     9.4561
  114.5000   130.2011     9.4946     9.4564
  114.6000   129.7114     9.4950     9.4566
  114.7000   129.2368     9.4956     9.4569
  114.8000   128.9537     9.4961     9.4572
  114.9000   128.7501     9.4966     9.4574
  115.0000   128.3560     9.4950     9.4577
  115.1000   128.0573     9.4321     9.4438
  115.2000   128.0603     9.4325     9.3928
  115.3000   128.0635     9.4330     9.3931
  115.4000   128.0664     9.4336     9.3933
  115.5000   128.0694     9.4341     9.3936
  115.6000   128.1931     9.4346     9.3938
  115.7000   128.5078     9.4351     9.3941
  115.8000   129.0036     9.4357     9.3944
  115.9000   129.5903     9.4104     9.3463
  116.0000   129.9950     9.3714     9.3299
  116.1000   130.3449     9.3720     9.3059
  116.2000   130.5943     9.3726     9.2536
  116.3000   130.8436     9.3297     9.2020
  116.4000   131.1134     9.3087     9.2023
  116.5000   130.8899     9.3092     9.1618
  116.6000   130.6465     9.3019     9.1392
  116.7000   130.5188     9.2459     9.1222
  116.8000   130.4012     9.2464     9.0764
  116.9000   129.9115     9.2469     9.0767
  117.0000   129.4218     9.2474     9.0770
  117.1000   129.1282     9.2344     9.0772
  117.2000   128.7441     9.1844     9.0775
  117.3000   128.3399     9.1850     9.0777
  117.4000   128.0965     9.1855     9.0780
  117.5000   127.8284     9.1553     9.0782
  117.6000   127.6099     9.1229     9.0785
  117.7000   127.5324     9.1234     9.0247
  117.8000   127.6460     9.1240     8.9538
  117.9000   127.8401     9.0768     8.9541
  118.0000   127.8431     9.0619     8.9543
  118.1000   128.0925     9.0624     8.9546
  118.2000   128.1508     9.0629     8.9548
  118.3000   128.4253     9.0634     8.9551
  118.4000   129.0819     9.0640     8.9553
  118.5000   130.0704     9.0644     8.9556
  118.6000   131.1799     9.0649     8.9558
  118.7000   132.9120     9.0466     8.9561
  118.8000   134.2424     9.0031     8.9563
  118.9000   135.0196     9.0037     8.9566
  119.0000   135.5656     8.9573     8.9543
  119.1000   136.3228     8.9424     8.8951
  119.2000   136.5671     8.9188     8.8953
  119.3000   136.6305     8.8815     8.8956
  119.4000   136.6335     8.8805     8.8958
  119.5000   136.4857     8.8212     8.8961
  119.6000   135.9960     8.8216     8.8963
  119.7000   135.4363     8.8221     8.8503
  119.8000   134.5943     8.8225     8.8353
  119.9000   133.3002     8.8230     8.8355
  120.0000   131.8251     8.8236     8.8236
  120.1000   130.5309     8.8240     8.7749
  120.2000   130.0212     8.8245     8.7752
  120.3000   129.7878     8.8013     8.7361
  120.4000   129.5445     8.7644     8.7149
  120.5000   129.4268     8.7649     8.7152
  120.6000   129.4299     8.7655     8.7154
  120.7000   129.4480     8.7659     8.7157
  120.8000   129.7381     8.7664     8.7159
  120.9000   130.5651     8.7669     8.7161
  121.0000   131.7044     8.7674     8.6947
  121.1000   132.7481     8.7679     8.6563
  121.2000   133.5304     8.7683     8.6566
  121.3000   134.5794     8.7344     8.6568
  121.4000   135.2760     8.7087     8.6197
  121.5000   136.3700     8.7091     8.5974
  121.6000   137.4842     8.7096     8.5977
  121.7000   138.4072     8.7102     8.5979
  121.8000   139.1594     8.7106     8.5982
  121.9000   140.3294     8.7111     8.5984
  122.0000   140.9352     8.7116     8.5986
  122.1000   141.5314     8.7120     8.5789
  122.2000   142.0272     8.7126     8.5396
  122.3000   142.4877     8.6680     8.5399
  122.4000   142.7574     8.6532     8.5401
  122.5000   142.7602     8.6537     8.5049
  122.6000   142.7632     8.6542     8.4815
  122.7000   142.7662     8.6547     8.4817
  122.8000   142.7692     8.6552     8.4820
  122.9000   142.7722     8.6556     8.4822
  123.0000   142.7753     8.6561     8.4824
  123.1000   142.7783     8.6566     8.4536
  123.2000   142.6405     8.6571     8.4242
  123.3000   142.3117     8.6576     8.4245
  123.4000   141.7617     8.6134     8.4247
  123.5000   140.6790     8.5986     8.3806
  123.6000   140.2393     8.5939     8.3669
  123.7000   139.5837     8.5831     8.3671
  123.8000   138.9583     8.5724     8.3553
  123.9000   138.4133     8.5616     8.3097
  124.0000   137.6772     8.5508     8.3100
  124.1000   136.9412     8.5419     8.2725
  124.2000   136.0141     8.5425     8.2529
  124.3000   135.3032     8.5429     8.2532
  124.4000   134.6526     8.5434     8.2534
  124.5000   133.6953     8.5197     8.2536
  124.6000   132.8691     8.4853     8.2538
  124.7000   132.2232     8.4804     8.2226
  124.8000   131.6481     8.3693     8.1972
  124.9000   131.1584     8.3302     8.1974
  125.0000   130.6687     8.2835     8.1977
  125.1000   130.1690     8.2552     8.1516
  125.2000   129.6893     8.2479     8.1414
  125.3000   129.3856     8.1991     8.1164
  125.4000   129.5345     8.1995     8.0856
  125.5000   130.1810     8.1999     8.0813
  125.6000   131.2097     8.2004     8.0301
  125.7000   132.9024     8.2009     8.0701
  125.8000   133.9608     8.2038     8.0865
  125.9000   135.0397     8.2590     8.0867
  126.0000   136.1287     8.2593     8.0959
  126.1000   137.2730     8.2598     8.1435
  126.2000   138.0454     8.2603     8.1437
  126.3000   138.9935     8.2607     8.1439
  126.4000   139.9819     8.2612     8.1682
  126.5000   140.7190     8.2616     8.2011
  126.6000   141.2147     8.2621     8.2013
  126.7000   141.6803     8.2859     8.2016
  126.8000   141.6838     8.3206     8.2036
  126.9000   141.6863     8.3210     8.2061
  127.0000   141.6893     8.3216     8.2085
  127.1000   141.6923     8.3220     8.2110
  127.2000   141.6953     8.3224     8.2134
  127.3000   141.6985     8.3229     8.2159
