~VERSION INFORMATION
 VERS.                2.0:   CWLS LOG ASCII STANDARD - VERSION 2.0
 WRAP.                 NO:   ONE LINE PER DEPTH STEP
~WELL INFORMATION
#MNEM.UNIT      DATA TYPE    INFORMATION
#----------   ------------   ------------------------------
 STRT.F          714.0000:   START DEPTH
 STOP.F         2268.0000:   STOP DEPTH
 STEP.F            0.5000:   STEP LENGTH
 NULL.          -999.2500:   NO VALUE
 COMP. LAWRENCE/ALLISON INC:   COMPANY
 WELL. 25-1-STX 10 #25-10:   WELL
 FLD .             TEAPOT:   FIELD
 LOC .      S10 T38N R78W:   LOCATION
 CNTY.            NATRONA:   COUNTY
 STAT.            WYOMING:   STATE
 CTRY. UNITED STATES OF AMERICA:   COUNTRY
 SRVC.            Unknown:   SERVICE COMPANY
 DATE.        07-JUN-1991:   LOGDATE
 API .       490251091300:   API NUMBER
~CURVE INFORMATION
#MNEM.UNIT       API CODE    CURVE DESCRIPTION
#----------   ------------   ------------------------------
 DEPT.F                  :   
 TGAS.UNITS  91 830 01 00:   TOTAL GAS FROM HOTWIRE
 ROP .MIN/FT 91 810 01 00:   RATE OF DRILLING PENETRATION
~PARAMETER INFORMATION
#MNEM.UNIT          VALUE    DESCRIPTION
#----------   ------------   ------------------------------
 EKB .F              5243:   KELLING BUSHING
 EGL .F              5233:   GROUND LEVEL
 DATE.             6-8-91:   RUN DATE
 BLI .F              2280:   BOTTOM LOG INTERVAL
 TLI .F              1680:   TOP LOG INTERVAL
 CS  .IN            9.625:   CASING SIZE
 CBD .F               740:   CASING BOTTOM DRILLER
 ENGI.              TOWER:   RECORDING ENGINEER
 WITN.               HUSK:   WITNESSED BY
 CLNT.            A2DTECH:   CLIENT CODE
 ORIG.           5" PRINT:   ORIGIN OF DATA
 UWI .       490251091300:   UNIQUE WELL ID
 DICO. A2D Technologies, Inc.:   DIGITIZING COMPANY
~OTHER INFORMATION
~A   DEPT     TGAS          ROP 
# ...
  835.5000  -999.2500     0.5847
  836.0000  -999.2500     0.5815
  836.5000  -999.2500     0.5823
  837.0000  -999.2500     0.5831
  837.5000  -999.2500     0.5844
  838.0000  -999.2500     0.5887
  838.5000  -999.2500     0.5930
  839.0000  -999.2500     0.5972
  839.5000  -999.2500     0.6015
  840.0000  -999.2500     0.6058
  840.5000  -999.2500     0.6101
  841.0000  -999.2500     0.6144
  841.5000  -999.2500     0.6187
  842.0000  -999.2500     0.6230
  842.5000  -999.2500     0.6273
  843.0000  -999.2500     0.6097
  843.5000  -999.2500     0.5928
  844.0000  -999.2500     0.5936
  844.5000  -999.2500     0.5944
  845.0000  -999.2500     0.5951
  845.5000  -999.2500     0.5959
  846.0000  -999.2500     0.5966
  846.5000  -999.2500     0.5974
  847.0000  -999.2500     0.5981
  847.5000  -999.2500     0.5989
  848.0000  -999.2500     0.5996
  848.5000  -999.2500     0.6004
  849.0000  -999.2500     0.6011
  849.5000  -999.2500     0.6019
  850.0000  -999.2500     0.6000
  850.5000  -999.2500     0.5842
  851.0000  -999.2500     0.5680
  851.5000  -999.2500     0.5318
  852.0000  -999.2500     0.5333
  852.5000  -999.2500     0.4971
  853.0000  -999.2500     0.4956
  853.5000  -999.2500     0.4624
  854.0000  -999.2500     0.4640
  854.5000  -999.2500     0.4655
  855.0000  -999.2500     0.4670
  855.5000  -999.2500     0.4685
  856.0000  -999.2500     0.4701
  856.5000  -999.2500     0.4716
  857.0000  -999.2500     0.4731
  857.5000  -999.2500     0.4746
  858.0000  -999.2500     0.4761
  858.5000  -999.2500     0.4776
  859.0000  -999.2500     0.4791
  859.5000  -999.2500     0.4806
  860.0000  -999.2500     0.4821
  860.5000  -999.2500     0.4650
  861.0000  -999.2500     0.4475
  861.5000  -999.2500     0.4490
  862.0000  -999.2500     0.4472
  862.5000  -999.2500     0.4430
  863.0000  -999.2500     0.4387
  863.5000  -999.2500     0.4344
  864.0000  -999.2500     0.4302
  864.5000  -999.2500     0.4259
  865.0000  -999.2500     0.4217
  865.5000  -999.2500     0.4174
  866.0000  -999.2500     0.4131
  866.5000  -999.2500     0.4089
  867.0000  -999.2500     0.4046
  867.5000  -999.2500     0.4003
  868.0000  -999.2500     0.3961
  868.5000  -999.2500     0.3947
  869.0000  -999.2500     0.3962
  869.5000  -999.2500     0.3762
  870.0000  -999.2500     0.3578
  870.5000  -999.2500     0.3529
  871.0000  -999.2500     0.3479
  871.5000  -999.2500     0.3430
  872.0000  -999.2500     0.3380
  872.5000  -999.2500     0.3331
  873.0000  -999.2500     0.3330
  873.5000  -999.2500     0.3345
  874.0000  -999.2500     0.3362
  874.5000  -999.2500     0.3377
  875.0000  -999.2500     0.3350
  875.5000  -999.2500     0.3319
  876.0000  -999.2500     0.3288
  876.5000  -999.2500     0.3256
  877.0000  -999.2500     0.3225
  877.5000  -999.2500     0.3193
  878.0000  -999.2500     0.3162
  878.5000  -999.2500     0.3131
  879.0000  -999.2500     0.2847
  879.5000  -999.2500     0.2772
  880.0000  -999.2500     0.2790
  880.5000  -999.2500     0.2862
  881.0000  -999.2500     0.2950
  881.5000  -999.2500     0.3037
  882.0000  -999.2500     0.3125
  882.5000  -999.2500     0.3212
  883.0000  -999.2500     0.3300
  883.5000  -999.2500     0.3388
  884.0000  -999.2500     0.3475
  884.5000  -999.2500     0.3563
  885.0000  -999.2500     0.3651
  885.5000  -999.2500     0.3536
  886.0000  -999.2500     0.3345
  886.5000  -999.2500     0.3328
  887.0000  -999.2500     0.3280
  887.5000  -999.2500     0.3231
  888.0000  -999.2500     0.3183
  888.5000  -999.2500     0.3134
  889.0000  -999.2500     0.3086
  889.5000  -999.2500     0.3073
  890.0000  -999.2500     0.3089
  890.5000  -999.2500     0.3104
  891.0000  -999.2500     0.3119
  891.5000  -999.2500     0.3134
  892.0000  -999.2500     0.3149
  892.5000  -999.2500     0.3164
  893.0000  -999.2500     0.3179
  893.5000  -999.2500     0.3194
  894.0000  -999.2500     0.2988
  894.5000  -999.2500     0.2847
  895.0000  -999.2500     0.2910
  895.5000  -999.2500     0.3001
  896.0000  -999.2500     0.3092
  896.5000  -999.2500     0.3184
  897.0000  -999.2500     0.3275
  897.5000  -999.2500     0.3315
  898.0000  -999.2500     0.3330
  898.5000  -999.2500     0.3345
  899.0000  -999.2500     0.3360
  899.5000  -999.2500     0.3375
  900.0000  -999.2500     0.3201
  900.5000  -999.2500     0.2451
  901.0000  -999.2500     0.2290
  901.5000  -999.2500     0.2530
  902.0000  -999.2500     0.2697
  902.5000  -999.2500     0.2712
  903.0000  -999.2500     0.2727
  903.5000  -999.2500     0.2742
  904.0000  -999.2500     0.2757
  904.5000  -999.2500     0.2772
  905.0000  -999.2500     0.2787
  905.5000  -999.2500     0.2802
  906.0000  -999.2500     0.2820
  906.5000  -999.2500     0.2832
  907.0000  -999.2500     0.2847
  907.5000  -999.2500     0.2863
  908.0000  -999.2500     0.2878
  908.5000  -999.2500     0.2893
  909.0000  -999.2500     0.2908
  909.5000  -999.2500     0.2923
  910.0000  -999.2500     0.2938
  910.5000  -999.2500     0.2953
  911.0000  -999.2500     0.3049
  911.5000  -999.2500     0.3360
  912.0000  -999.2500     0.3375
  912.5000  -999.2500     0.3390
  913.0000  -999.2500     0.3405
  913.5000  -999.2500     0.3278
  914.0000  -999.2500     0.3058
  914.5000  -999.2500     0.3073
  915.0000  -999.2500     0.3089
  915.5000  -999.2500     0.3104
  916.0000  -999.2500     0.3119
  916.5000  -999.2500     0.3134
  917.0000  -999.2500     0.3149
  917.5000  -999.2500     0.3164
  918.0000  -999.2500     0.3179
  918.5000  -999.2500     0.3194
  919.0000  -999.2500     0.3209
  919.5000  -999.2500     0.3224
  920.0000  -999.2500     0.3242
  920.5000  -999.2500     0.3257
  921.0000  -999.2500     0.3648
  921.5000  -999.2500     0.3663
  922.0000  -999.2500     0.3677
  922.5000  -999.2500     0.3692
  923.0000  -999.2500     0.4083
  923.5000  -999.2500     0.4475
  924.0000  -999.2500     0.4512
  924.5000  -999.2500     0.4881
  925.0000  -999.2500     0.4849
  925.5000  -999.2500     0.4475
  926.0000  -999.2500     0.4102
  926.5000  -999.2500     0.3560
  927.0000  -999.2500     0.2697
  927.5000  -999.2500     0.2712
  928.0000  -999.2500     0.2727
  928.5000  -999.2500     0.2609
  929.0000  -999.2500     0.2380
  929.5000  -999.2500     0.2553
  930.0000  -999.2500     0.2787
  930.5000  -999.2500     0.2621
  931.0000  -999.2500     0.2441
  931.5000  -999.2500     0.2662
  932.0000  -999.2500     0.2847
  932.5000  -999.2500     0.2863
  933.0000  -999.2500     0.2878
  933.5000  -999.2500     0.2893
  934.0000  -999.2500     0.2908
  934.5000  -999.2500     0.2923
  935.0000  -999.2500     0.2938
  935.5000  -999.2500     0.2956
  936.0000  -999.2500     0.2970
  936.5000  -999.2500     0.2985
  937.0000  -999.2500     0.3000
  937.5000  -999.2500     0.3014
  938.0000  -999.2500     0.2652
  938.5000  -999.2500     0.2667
  939.0000  -999.2500     0.2292
  939.5000  -999.2500     0.1943
  940.0000  -999.2500     0.1959
  940.5000  -999.2500     0.1974
  941.0000  -999.2500     0.2051
  941.5000  -999.2500     0.2380
  942.0000  -999.2500     0.2395
  942.5000  -999.2500     0.2509
  943.0000  -999.2500     0.2802
  943.5000  -999.2500     0.2817
  944.0000  -999.2500     0.2968
  944.5000  -999.2500     0.3224
  945.0000  -999.2500     0.3239
  945.5000  -999.2500     0.3254
  946.0000  -999.2500     0.3269
  946.5000  -999.2500     0.3284
  947.0000  -999.2500     0.3299
  947.5000  -999.2500     0.3315
  948.0000  -999.2500     0.3330
  948.5000  -999.2500     0.3345
  949.0000  -999.2500     0.3360
  949.5000  -999.2500     0.3375
  950.0000  -999.2500     0.3389
  950.5000  -999.2500     0.3401
  951.0000  -999.2500     0.3412
  951.5000  -999.2500     0.3424
  952.0000  -999.2500     0.3435
  952.5000  -999.2500     0.3446
  953.0000  -999.2500     0.3680
  953.5000  -999.2500     0.3612
  954.0000  -999.2500     0.3480
  954.5000  -999.2500     0.3492
  955.0000  -999.2500     0.3503
  955.5000  -999.2500     0.3514
  956.0000  -999.2500     0.3525
  956.5000  -999.2500     0.3539
