~VERSION INFORMATION
 VERS.                2.0:   CWLS LOG ASCII STANDARD - VERSION 2.0
 WRAP.                 NO:   ONE LINE PER DEPTH STEP
~WELL INFORMATION
#MNEM.UNIT      DATA TYPE    INFORMATION
#----------   ------------   ------------------------------
 STRT.F            0.0000:   START DEPTH
 STOP.F          635.0000:   STOP DEPTH
 STEP.F            0.1000:   STEP LENGTH
 NULL.          -999.2500:   NO VALUE
 COMP.   FLUOR DANIEL INC:   COMPANY
 WELL. NAVAL PETROLEUM RESERVE 3 SX-3 #72-7-3:   WELL
 FLD .             TEAPOT:   FIELD
 LOC .       S3 T38N R78W:   LOCATION
 CNTY.            NATRONA:   COUNTY
 STAT.            WYOMING:   STATE
 CTRY. UNITED STATES OF AMERICA:   COUNTRY
 SRVC.      Western Atlas:   SERVICE COMPANY
 DATE.        11-JAN-1995:   LOGDATE
 API .       490252264900:   API NUMBER
~CURVE INFORMATION
#MNEM.UNIT       API CODE    CURVE DESCRIPTION
#----------   ------------   ------------------------------
 DEPT.F                  :   
 GRR .GAPI   07 310 01 00:   GAMMA RAY
 RILD.OHMM   07 120 46 00:   INDUCTION LOG DEEP RESISTIVITY
 RILM.OHMM   07 120 44 00:   RESITIVITY LONG MEDIUM
~PARAMETER INFORMATION
#MNEM.UNIT          VALUE    DESCRIPTION
#----------   ------------   ------------------------------
 PD  .                 GL:   PERMANENT DATUM
 EPD .F              5144:   ELEVATION PERMANENT DATUM
 LMF .                 KB:   LOG MEASURED FROM
 DAPD.F                10:   FEET ABOVE PERMANENT DATUM
 DMF .                 KB:   DRILLING MEASURED FROM
 EKB .F              5154:   KELLING BUSHING
 EDF .F              5153:   DRILLING FLOOR
 EGL .F              5144:   GROUND LEVEL
 DATE.        11-JAN-1995:   RUN DATE
 RUN .                  1:   RUN NUMBER
 DD  .F               641:   DEPTH DRILLER
 DL  .F               642:   DEPTH LOGGER
 BLI .F               635:   BOTTOM LOG INTERVAL
 CS  .IN            9.625:   CASING SIZE
 CBD .F                97:   CASING BOTTOM DRILLER
 CBL .F                97:   CASING BOTTOM LOGGER
 BS  .IN             8.75:   BIT SIZE
 BSD .F               641:   BIT SIZE AT DEPTH
 DFT .                AIR:   DRILLING FLUID TYPE
 MRT .F                89:   MAXIMUM RECORDED TEMPERATURE
 LUN .            HL 6530:   LOGGING UNIT NUMBER
 LUL .             CASPER:   LOGGING UNIT LOCATION
 ENGI.      PAT RASMUSSEN:   RECORDING ENGINEER
 WITN.        STEVE HARDY:   WITNESSED BY
 CLNT.            A2DTECH:   CLIENT CODE
 ORIG.           5" PRINT:   ORIGIN OF DATA
 UWI .       490252264900:   UNIQUE WELL ID
 DICO. A2D Technologies, Inc.:   DIGITIZING COMPANY
~OTHER INFORMATION
~A    DEPT      GRR      RILD       RILM   
# ...
  163.8000   116.3347     9.4179     9.4988
  163.9000   116.0462     9.3699     9.4431
  164.0000   115.8228     9.3148     9.3877
  164.1000   115.7486     9.2894     9.3326
  164.2000   115.7511     9.2696     9.2706
  164.3000   115.7535     9.2151     9.2710
  164.4000   115.8067     9.1609     9.1952
  164.5000   116.0675     9.0998     9.1443
  164.6000   116.3653     9.0536     9.1253
  164.7000   116.8108     9.0376     9.0717
  164.8000   117.3301     9.0097     9.0185
  164.9000   117.7150     8.9567     8.9581
  165.0000   118.0665     8.9041     8.9131
  165.1000   118.5857     8.8517     8.8971
  165.2000   119.1017     8.7924     8.8702
  165.3000   119.4034     8.7480     8.8182
  165.4000   119.8413     8.6966     8.7569
  165.5000   120.3606     8.6455     8.6548
  165.6000   120.8798     8.5946     8.5963
  165.7000   121.3990     8.5537     8.5536
  165.8000   121.9182     8.5518     8.5034
  165.9000   122.4387     8.4368     8.4536
  166.0000   122.7436     8.4371     8.4040
  166.1000   122.9597     8.3689     8.3547
  166.2000   123.3909     8.3216     8.3057
  166.3000   123.6568     8.3045     8.2491
  166.4000   123.7422     8.2557     8.2086
  166.5000   123.9637     8.2072     8.1605
  166.6000   123.9662     8.1518     8.1126
  166.7000   123.9690     8.1110     8.0810
  166.8000   124.1813     8.0961     8.0657
  166.9000   124.2755     8.0471     7.9705
  167.0000   124.2779     7.9854     7.9711
  167.1000   124.3595     7.9685     7.9323
  167.2000   124.5849     7.8754     7.9168
  167.3000   124.5874     7.8221     7.8942
  167.4000   124.8399     7.7831     7.8629
  167.5000   124.8943     7.7686     7.8634
  167.6000   124.8967     7.7454     7.8638
  167.7000   124.8991     7.6998     7.8100
  167.8000   124.9015     7.6626     7.8103
  167.9000   124.9039     7.6630     7.8107
  168.0000   124.9065     7.6634     7.8112
  168.1000   124.9088     7.6253     7.7971
  168.2000   124.9112     7.6110     7.7580
  168.3000   124.9136     7.6113     7.7585
  168.4000   124.9160     7.6116     7.7590
  168.5000   124.9184     7.6120     7.7593
  168.6000   124.9208     7.6123     7.7598
  168.7000   124.9234     7.6126     7.7602
  168.8000   124.9257     7.6510     7.7606
  168.9000   124.9281     7.6662     7.7611
  169.0000   124.9305     7.6665     7.7615
  169.1000   125.0443     7.6668     7.7620
  169.2000   125.2375     7.6671     7.7624
  169.3000   125.2638     7.6674     7.7920
  169.4000   125.5446     7.6678     7.8389
  169.5000   125.5468     7.7063     7.8721
  169.6000   125.7442     7.7217     7.8785
  169.7000   125.8538     7.7451     7.9278
  169.8000   125.8562     7.7761     7.9282
  169.9000   125.8586     7.7764     7.9660
  170.0000   125.8610     7.7767     8.0139
  170.1000   125.8637     7.8312     8.0621
  170.2000   125.8659     7.8315     8.0967
  170.3000   125.6772     7.8628     8.1086
  170.4000   125.5686     7.8866     8.2107
  170.5000   125.3635     7.9181     8.2578
  170.6000   124.9091     7.9973     8.3073
  170.7000   124.6532     7.9976     8.3879
  170.8000   124.3700     8.1097     8.4885
  170.9000   124.1412     8.1500     8.5903
  171.0000   123.5106     8.1989     8.6933
  171.1000   122.5941     8.2724     8.8038
  171.2000   121.5629     8.3552     8.8536
  171.3000   120.5880     8.4053     8.9068
  171.4000   119.8151     8.4560     9.0253
  171.5000   118.9489     8.5745     9.1401
  171.6000   118.2695     8.6169     9.2098
  171.7000   117.3131     8.6686     9.3147
  171.8000   116.1421     8.7461     9.3745
  171.9000   114.9487     8.8509     9.4794
  172.0000   113.9698     8.9486     9.5497
  172.1000   113.1883     9.0029     9.5731
  172.2000   112.0172     9.0659     9.5980
  172.3000   111.1259     9.1106     9.6557
  172.4000   110.0947     9.1652     9.7085
  172.5000   109.1994     9.1935     9.7090
  172.6000   108.5188     9.2114     9.7629
  172.7000   108.0044     9.2582     9.8216
  172.8000   107.4996     9.2586     9.8463
  172.9000   107.5025     9.3235     9.8468
  173.0000   107.2850     9.3238     9.8473
  173.1000   107.0290     9.3242     9.8526
  173.2000   106.9051     9.3246     9.9170
  173.3000   106.9076     9.3250     9.9175
  173.4000   106.9100     9.3253     9.8744
  173.5000   106.9124     9.3257     9.8501
  173.6000   106.9152     9.3262     9.8506
  173.7000   107.1329     9.3265     9.8512
  173.8000   107.3938     9.3269     9.8517
  173.9000   107.6546     9.3273     9.8523
  174.0000   107.9154     9.3450     9.8001
  174.1000   108.1762     9.3929     9.7853
  174.2000   108.4399     9.3285     9.7530
  174.3000   108.7448     9.3289     9.7187
  174.4000   108.9587     9.3292     9.7192
  174.5000   109.3877     9.2942     9.7162
  174.6000   109.9069     9.2395     9.6532
  174.7000   110.3454     9.2020     9.6537
  174.8000   110.6434     9.1947     9.6128
  174.9000   111.1759     9.1392     9.5880
  175.0000   112.0851     9.0765     9.5665
  175.1000   112.5031     9.0768     9.5103
  175.2000   113.0224     9.0429     9.4545
  175.3000   113.6622     8.9898     9.3927
  175.4000   114.4398     8.9530     9.3440
  175.5000   115.1843     8.9534     9.2892
  175.6000   115.7246     8.9537     9.2348
  175.7000   116.2228     8.8923     9.2013
  175.8000   116.5378     8.8926     9.1903
  175.9000   117.2801     8.8596     9.1364
  176.0000   118.1994     8.8319     9.0761
  176.1000   118.9771     8.8323     9.0766
  176.2000   119.7842     8.8258     9.0771
  176.3000   120.8775     8.7721     9.0776
  176.4000   121.6120     8.7223     9.0781
  176.5000   122.1893     8.7122     9.0786
  176.6000   122.5518     8.7125     9.0772
  176.7000   122.6997     8.7129     9.0169
  176.8000   122.7021     8.6980     9.0173
  176.9000   122.6534     8.6534     9.0178
  177.0000   122.1029     8.6538     9.0183
  177.1000   121.6246     8.6050     9.0382
  177.2000   120.7170     8.5948     9.0821
  177.3000   119.8387     8.5951     9.0826
  177.4000   119.0659     8.5955     9.0832
  177.5000   118.2931     8.5958     9.0836
  177.6000   117.5637     8.5899     9.0841
  177.7000   117.2860     8.5372     9.0846
  177.8000   117.2882     8.5375     9.0851
  177.9000   117.0979     8.5379     9.0856
  178.0000   116.9909     8.5382     9.0870
  178.1000   116.9934     8.5618     9.1500
  178.2000   116.9958     8.5983     9.1045
  178.3000   117.0161     8.5987     9.0877
  178.4000   117.3030     8.5991     9.0607
  178.5000   117.5377     8.5994     9.0258
  178.6000   117.7986     8.5998     9.0263
  178.7000   118.0594     8.6001     9.0272
  178.8000   118.3203     8.6005     9.0903
  178.9000   118.5811     8.6008     9.0907
  179.0000   118.8419     8.6012     9.0912
  179.1000   119.1326     8.6016     9.0917
  179.2000   119.1347     8.6019     9.1102
  179.3000   119.3223     8.6023     9.1560
  179.4000   119.5831     8.6026     9.1565
  179.5000   119.8439     8.6259     9.2208
  179.6000   120.1047     8.6632     9.2212
  179.7000   120.3553     8.6635     9.2217
  179.8000   120.3580     8.6639     9.2223
  179.9000   120.3601     8.7131     9.2406
  180.0000   120.5438     8.7249     9.2875
  180.1000   120.6671     8.7252     9.2880
  180.2000   120.6695     8.7256     9.3532
  180.3000   120.7220     8.7403     9.3537
  180.4000   120.9764     8.7927     9.3542
  180.5000   120.9792     8.8485     9.3816
  180.6000   120.9813     8.8489     9.4380
  180.7000   120.9837     8.8900     9.4947
  180.8000   120.1837     8.9434     9.5530
  180.9000   118.8157     8.9970     9.6201
  181.0000   117.8772     9.0509     9.6205
  181.1000   117.3601     9.0995     9.6211
  181.2000   116.4644     9.0999     9.6216
  181.3000   115.8145     9.1002     9.6221
  181.4000   115.2153     9.1424     9.6227
  181.5000   114.7009     9.1643     9.6232
  181.6000   114.2727     9.1647     9.6238
  181.7000   114.0167     9.1650     9.6243
  181.8000   113.7595     9.1654     9.5888
  181.9000   113.7624     9.1658     9.5326
