~VERSION INFORMATION
 VERS.                2.0:   CWLS LOG ASCII STANDARD - VERSION 2.0
 WRAP.                 NO:   ONE LINE PER DEPTH STEP
~WELL INFORMATION
#MNEM.UNIT      DATA TYPE    INFORMATION
#----------   ------------   ------------------------------
 STRT.F           12.0000:   START DEPTH
 STOP.F          793.0000:   STOP DEPTH
 STEP.F            0.5000:   STEP LENGTH
 NULL.          -999.2500:   NO VALUE
 COMP.   FLUOR DANIEL INC:   COMPANY
 WELL.   35-1-X-10 #35-10:   WELL
 FLD .            WILDCAT:   FIELD
 LOC .      S10 T38N R78W:   LOCATION
 CNTY.            NATRONA:   COUNTY
 STAT.            WYOMING:   STATE
 CTRY. UNITED STATES OF AMERICA:   COUNTRY
 SRVC.      Western Atlas:   SERVICE COMPANY
 DATE.        20-AUG-1996:   LOGDATE
 API .       490252282200:   API NUMBER
~CURVE INFORMATION
#MNEM.UNIT       API CODE    CURVE DESCRIPTION
#----------   ------------   ------------------------------
 DEPT.F                  :   
 RFOC.OHMM   07 220 04 00:   RESISTIVITY FOCUSED LOG
 RILD.OHMM   07 120 46 00:   INDUCTION LOG DEEP RESISTIVITY
 RILM.OHMM   07 120 44 00:   INDUCTION LOG MEDIUM RESISTIVITY
 SPR .MV     07 010 01 00:   SPONTANEOUS POTENTIAL
 CALD.IN     45 280 60 00:   CALIPER FROM DENSITY LOG
 GRD .GAPI   45 310 01 00:   GAMMA RAY FROM DENSITY LOG
 ZCOR.G/C3   45 356 01 00:   DENSITY CORRECTION
 ZDEN.G/C3   45 350 01 00:   BULK DENSITY
 PORZ.DEC    45 890 12 00:   DENSITY POROSITY SANDSTONE
 CNC .DEC    42 890 03 00:   NEUTRON POROSITY SANDSTONE
~PARAMETER INFORMATION
#MNEM.UNIT          VALUE    DESCRIPTION
#----------   ------------   ------------------------------
 PD  .                 GL:   PERMANENT DATUM
 EPD .F              5228:   ELEVATION PERMANENT DATUM
 LMF .                 KB:   LOG MEASURED FROM
 DAPD.F                10:   FEET ABOVE PERMANENT DATUM
 DMF .                 KB:   DRILLING MEASURED FROM
 EKB .F              5238:   KELLING BUSHING
 EGL .F              5228:   GROUND LEVEL
 DATE.        20-AUG-1996:   RUN DATE
 RUN .                  1:   RUN NUMBER
 DD  .F               794:   DEPTH DRILLER
 DL  .F               794:   DEPTH LOGGER
 BLI .F               793:   BOTTOM LOG INTERVAL
 TLI .F                12:   TOP LOG INTERVAL
 CS  .IN           13.375:   CASING SIZE
 CBD .F                58:   CASING BOTTOM DRILLER
 CBL .F                59:   CASING BOTTOM LOGGER
 BS  .IN            12.25:   BIT SIZE
 BSD .F               794:   BIT SIZE AT DEPTH
 DFT .           SPUD MUD:   DRILLING FLUID TYPE
 DFD .                9.2:   DRILLING FLUID DENSITY
 DFV .                 50:   DRILLING FLUID VISCOSITY
 DFPH.                  9:   DRILLING FLUID PH
 DFL .               13.8:   DRILLING FLUID LOSS
 MSS .              CIRC.:   MUD SAMPLE SOURCE
 RMS .OHMM           1.14:   RESISTIVITY MUD SAMPLE
 MST .F                77:   MUD SAMPLE TEMPERATURE
 RMF .OHMM           0.90:   RESISTIVITY MUD FILTRATE SAMPLE
 MFST.F                77:   MUD FILTRATE SAMPLE TEMPERATURE
 RMC .OHMM            1.4:   RESISTIVITY MUD CAKE
 MCST.F                77:   MUD CAKE SAMPLE TEMPERATURE
 MFSS.               CALC:   MUD FILTRATE SAMPLE SOURCE
 MCSS.               CALC:   MUD CAKE SAMPLE SOURCE
 RMB .OHMM            .84:   RESISTIVITY MUD AT BHT
 BHT .F               104:   BOTTOM HOLE TEMPERATURE
 TCS .HRS               3:   TIME CURCULATED STOPPED
 MRT .F               104:   MAXIMUM RECORDED TEMPERATURE
 LUN .            HL-6530:   LOGGING UNIT NUMBER
 LUL .             CASPER:   LOGGING UNIT LOCATION
 ENGI.           BROWNLOW:   RECORDING ENGINEER
 WITN.      SCHULTE/HARDY:   WITNESSED BY
 CLNT.            A2DTECH:   CLIENT CODE
 ORIG.           5" PRINT:   ORIGIN OF DATA
 UWI .       490252282200:   UNIQUE WELL ID
 DICO. A2D Technologies, Inc.:   DIGITIZING COMPANY
~OTHER INFORMATION
~A   DEPT     RFOC       RILD       RILM        SPR       CALD        GRD       ZCOR       ZDEN       PORZ        CNC   
# ...
  481.0000     9.9855    11.4579    11.3847   -22.5988    12.5341    63.6317     0.0435     2.4458     0.1233     0.2846
  481.5000     9.9164    11.4609    11.3832   -22.5974    12.5338    62.4261     0.0420     2.4488     0.1212     0.2810
  482.0000     9.8478    11.4640    11.3817   -22.5959    12.5335    62.4290     0.0435     2.4534     0.1175     0.2787
  482.5000     9.8478    11.4678    11.3802   -22.5945    12.5332    62.7347     0.0420     2.4572     0.1115     0.2775
  483.0000     9.8478    11.5510    11.3000   -22.5930    12.5329    63.3418     0.0404     2.4641     0.1064     0.2769
  483.5000     9.7796    11.6348    11.2982   -22.5915    12.5326    63.9489     0.0435     2.4716     0.1049     0.2793
  484.0000     9.7796    11.7192    11.3757   -22.7410    12.5345    64.5560     0.0512     2.4776     0.1064     0.2802
  484.5000     9.7796    11.7223    11.3738   -22.7396    12.5472    64.5609     0.0631     2.4731     0.1173     0.2793
  485.0000     9.8478    11.8081    11.4518   -22.7381    12.5468    65.1667     0.0828     2.4535     0.1296     0.2799
  485.5000     9.8478    11.8938    11.4499   -22.7367    12.5465    65.7738     0.0903     2.4399     0.1320     0.2841
  486.0000     9.8478    11.9800    11.5280   -22.8865    12.5462    66.3810     0.0858     2.4339     0.1296     0.2941
  486.5000     9.9164    11.9832    11.6067   -22.8850    12.5308    66.6860     0.0751     2.4362     0.1226     0.2934
  487.0000    10.1252    12.0702    11.6859   -23.0349    12.5305    64.8762     0.0586     2.4452     0.1139     0.2853
  487.5000    10.4830    12.0734    11.8472   -23.0331    12.5302    63.0671     0.0404     2.4551     0.1130     0.2778
  488.0000    10.6297    12.0774    11.9281   -23.1833    12.5299    63.0699     0.0178     2.4634     0.1169     0.2793
  488.5000    10.3384    12.1650    11.8440   -23.1815    12.5296    63.9792     0.0147     2.4563     0.1235     0.2817
  489.0000    10.0551    12.1682    11.7602   -23.1800    12.5293    64.8884     0.0193     2.4506     0.1253     0.2853
  489.5000    10.0551    12.0862    11.6774   -23.1785    12.5290    65.1934     0.0290     2.4461     0.1274     0.2856
  490.0000    10.0551    12.0903    11.7575   -23.1767    12.5287    64.2095     0.0661     2.4415     0.1322     0.2809
  490.5000    10.0551    11.9263    11.7555   -23.1753    12.5284    62.7822     0.0933     2.4272     0.1404     0.2756
  491.0000     9.9164    11.6837    11.6727   -23.1738    12.5281    64.2964     0.1024     2.4196     0.1440     0.2747
  491.5000     9.7796    11.5244    11.4266   -23.1724    12.5278    65.2056     0.1009     2.4136     0.1337     0.2741
  492.0000     9.7119    11.3681    11.1163   -23.0196    12.5275    66.1149     0.0869     2.4288     0.1223     0.2732
  492.5000     9.7119    11.2146    10.8859   -23.0182    12.5272    67.9607     0.0737     2.4484     0.1126     0.2702
  493.0000     9.6447    11.0625    10.6603   -23.0164    12.5269    69.4446     0.0722     2.4643     0.1040     0.2612
  493.5000     9.5779    10.9887    10.5121   -23.1666    12.5417    70.0517     0.0692     2.4817     0.0933     0.2533
  494.0000     9.5779    10.9924    10.5838   -23.1648    12.5414    70.0546     0.0631     2.4927     0.0918     0.2506
  494.5000     9.6447    11.1494    10.7372   -23.1633    12.5410    70.3596     0.0616     2.4976     0.0915     0.2548
  495.0000     9.5779    11.3878    11.1070   -23.4644    12.5407    70.9668     0.0646     2.4938     0.0942     0.2813
  495.5000     9.6447    11.7138    11.5774   -23.9375    12.5405    71.5746     0.0646     2.4757     0.1102     0.2943
  496.0000     9.7796    12.3015    11.9015   -24.5205    12.5251    71.8788     0.0571     2.4591     0.1273     0.2994
  496.5000    10.0551    12.8296    12.4919   -25.1239    12.4341    69.1634     0.0616     2.4170     0.1455     0.2961
  497.0000    11.0820    13.5680    13.2947   -25.5763    12.4338    66.7494     0.0737     2.3715     0.1677     0.2994
  497.5000    12.5888    14.2494    14.1622   -26.3313    12.4335    63.7110     0.0734     2.3617     0.1761     0.3083
  498.0000    13.9369    15.1748    15.0580   -27.0862    12.4332    61.3178     0.0646     2.3572     0.1785     0.3194
  498.5000    13.8405    16.1869    16.1373   -27.8649    12.4329    61.0178     0.0616     2.3512     0.1813     0.3295
  499.0000    13.6495    17.3312    16.7045   -28.7471    12.4326    60.7193     0.0586     2.3436     0.1852     0.3283
  499.5000    13.8405    17.7017    16.8190   -29.1995    12.4323    59.5137     0.0525     2.3308     0.1910     0.3255
  500.0000    14.2304    17.8289    16.5846   -29.5274    12.4320    56.1934     0.0465     2.2953     0.2069     0.3215
  500.5000    14.3286    16.9770    16.1283   -29.6928    12.4319    58.0060     0.0450     2.2976     0.2150     0.3193
  501.0000    14.5280    16.2422    15.5766   -29.8033    12.4320    59.5166     0.0465     2.3006     0.2138     0.3196
  501.5000    13.8374    15.6206    14.8364   -29.6520    12.4320    60.4632     0.0480     2.3059     0.2092     0.3211
  502.0000    12.7299    15.0696    14.3235   -29.5008    12.4320    58.9124     0.0496     2.3106     0.2038     0.3289
  502.5000    12.5535    14.4691    13.8382   -29.1982    12.4317    58.3082     0.0496     2.3188     0.2007     0.3308
  503.0000    12.5526    14.1700    13.4578   -28.5930    12.4308    58.0060     0.0466     2.3271     0.1947     0.3283
  503.5000    12.4649    13.9741    13.2706   -28.1392    12.4300    58.3082     0.0405     2.3346     0.1905     0.3271
  504.0000    12.0298    13.9741    13.3617   -27.6853    12.4292    58.0060     0.0360     2.3392     0.1881     0.3310
  504.5000    11.6268    14.0717    13.5461   -27.2315    12.4283    58.3082     0.0360     2.3339     0.1920     0.3361
  505.0000    11.7886    14.0717    13.7334   -27.2315    12.4275    58.3082     0.0421     2.3286     0.1956     0.3367
  505.5000    12.1199    14.1700    13.9229   -27.2315    12.4267    58.6103     0.0603     2.3271     0.1962     0.3340
  506.0000    12.6349    14.1700    14.0184   -27.2315    12.4258    59.2145     0.0754     2.3286     0.1922     0.3296
  506.5000    12.7221    14.3687    14.0161   -27.2315    12.4250    59.8187     0.0738     2.3332     0.1879     0.3178
  507.0000    12.4429    14.4691    14.0143   -27.2315    12.4241    60.4230     0.0694     2.3385     0.1853     0.3160
  507.5000    12.2010    14.6719    14.0124   -27.2315    12.4233    61.0272     0.0664     2.3431     0.1841     0.3130
  508.0000    12.2002    14.8776    14.0101   -27.2536    12.4225    61.6314     0.0634     2.3491     0.1865     0.3051
  508.5000    12.1993    14.9816    14.2043   -27.3828    12.4216    62.5378     0.0619     2.3461     0.1914     0.3027
  509.0000    12.1985    15.0862    14.4004   -27.5340    12.4208    62.2356     0.0649     2.3393     0.1965     0.3063
  509.5000    12.1977    15.1916    14.5996   -27.6853    12.4199    62.2356     0.0694     2.3285     0.2040     0.3094
  510.0000    12.1969    15.2978    14.6992   -27.9879    12.4191    62.2356     0.0800     2.3159     0.2058     0.3075
  510.5000    12.1959    15.4046    15.0063   -28.2905    12.4183    60.4230     0.0876     2.3098     0.2046     0.3033
  511.0000    12.3657    15.2978    15.1082   -28.4418    12.4174    58.3082     0.0771     2.3151     0.1934     0.2994
  511.5000    12.9809    15.2978    15.0018   -28.4418    12.4169    58.0060     0.0635     2.3302     0.1731     0.3057
  512.0000    13.7217    15.1916    14.6909   -28.2905    12.4320    58.9124     0.0544     2.3635     0.1658     0.3075
  512.5000    13.8165    15.0862    14.1883   -28.1392    12.4622    59.5166     0.0469     2.3763     0.1684     0.3030
  513.0000    12.8883    14.8776    13.8943   -28.1392    12.4924    59.2145     0.0439     2.3755     0.1726     0.3036
  513.5000    11.9395    14.7744    13.9887   -27.9879    12.5076    59.2145     0.0439     2.3643     0.1765     0.3060
  514.0000    11.5312    14.6719    13.9868   -27.8366    12.5227    59.5166     0.0637     2.3582     0.1796     0.3051
