~VERSION INFORMATION
 VERS.                2.0:   CWLS LOG ASCII STANDARD - VERSION 2.0
 WRAP.                 NO:   ONE LINE PER DEPTH STEP
~WELL INFORMATION
#MNEM.UNIT      DATA TYPE    INFORMATION
#----------   ------------   ------------------------------
 STRT.F           30.0000:   START DEPTH
 STOP.F          626.0000:   STOP DEPTH
 STEP.F            0.5000:   STEP LENGTH
 NULL.          -999.2500:   NO VALUE
 COMP.       F D SERV INC:   COMPANY
 WELL.    63-2 SX-3 #63-3:   WELL
 FLD .             TEAPOT:   FIELD
 LOC .       S3 T38N R78W:   LOCATION
 CNTY.            NATRONA:   COUNTY
 STAT.            WYOMING:   STATE
 CTRY. UNITED STATES OF AMERICA:   COUNTRY
 SRVC.     Atlas Wireline:   SERVICE COMPANY
 DATE.        29-APR-1992:   LOGDATE
 API .       490252251900:   API NUMBER
~CURVE INFORMATION
#MNEM.UNIT       API CODE    CURVE DESCRIPTION
#----------   ------------   ------------------------------
 DEPT.F                  :   
 CALD.IN     45 280 60 00:   CALIPER FROM DENSITY
 CORR.G/C3   45 356 01 00:   DENSITY CORRECTION
 DEN .G/C3   45 350 01 00:   COMPENSATED BULK DENSTIY
 GRD .GAPI   45 310 01 00:   GAMMA RAY FROM DENSITY LOG
 PORD.DEC    45 890 12 00:   POROSITY DENSITY SANDSTONE
 RILD.OHMM   07 120 46 00:   INDUCTION LOG DEEP RESISTIVITY
 RILM.OHMM   07 120 44 00:   INDUCTION LOG MEDIUM RESISTIVITY
~PARAMETER INFORMATION
#MNEM.UNIT          VALUE    DESCRIPTION
#----------   ------------   ------------------------------
 PD  .                 GL:   PERMANENT DATUM
 EPD .F              5160:   ELEVATION PERMANENT DATUM
 LMF .                 KB:   LOG MEASURED FROM
 DAPD.F                 5:   FEET ABOVE PERMANENT DATUM
 DMF .                 KB:   DRILLING MEASURED FROM
 EKB .F              5165:   KELLING BUSHING
 EGL .F              5160:   GROUND LEVEL
 DATE.        29-APR-1992:   RUN DATE
 RUN .                  1:   RUN NUMBER
 DD  .F               630:   DEPTH DRILLER
 DL  .F               629:   DEPTH LOGGER
 BLI .F               626:   BOTTOM LOG INTERVAL
 CS  .IN            8.625:   CASING SIZE
 CBD .F                45:   CASING BOTTOM DRILLER
 CBL .F                45:   CASING BOTTOM LOGGER
 BS  .IN            7.875:   BIT SIZE
 BSD .F               630:   BIT SIZE AT DEPTH
 DFT .                AIR:   DRILLING FLUID TYPE
 LUN .            HL-6212:   LOGGING UNIT NUMBER
 LUL .             CASPER:   LOGGING UNIT LOCATION
 ENGI.             ZIEGEN:   RECORDING ENGINEER
 WITN.             STRONG:   WITNESSED BY
 CLNT.            A2DTECH:   CLIENT CODE
 ORIG.           5" PRINT:   ORIGIN OF DATA
 UWI .       490252251900:   UNIQUE WELL ID
 DICO. A2D Technologies, Inc.:   DIGITIZING COMPANY
~OTHER INFORMATION
~A   DEPT     CALD       CORR        DEN        GRD       PORD       RILD       RILM   
# ...
  576.0000     8.0658    -0.0003     2.5267   172.7854     0.0745     9.8134     9.4404
  576.5000     8.0655     0.0056     2.5297   170.9464     0.0727     9.8791     9.6366
  577.0000     8.0802     0.0055     2.5344   168.5055     0.0702     9.8763     9.8368
  577.5000     8.0799     0.0010     2.5403   166.3597     0.0682     9.8736     9.7660
  578.0000     8.0645     0.0055     2.5463   164.8798     0.0655     9.8703     9.6286
  578.5000     8.0642     0.0100     2.5493   164.5688     0.0625     9.8676     9.4931
  579.0000     8.0639     0.0099     2.5515   168.7835     0.0598     9.8649     9.4248
  579.5000     8.0636     0.0114     2.5500   173.9076     0.0589     9.8622     9.3565
  580.0000     8.0633     0.0069     2.5469   176.6147     0.0607     9.6564     9.0976
  580.5000     8.0479     0.0038     2.5401   176.9079     0.0643     9.3245     8.6035
  581.0000     8.0476    -0.0007     2.5303   177.1952     0.0731     9.0667     8.0799
  581.5000     8.0624    -0.0008     2.5175   179.2981     0.0818     8.5746     7.7480
  582.0000     8.0621     0.0037     2.5152   180.1955     0.0821     8.0532     7.5336
  582.5000     8.0769     0.0022     2.5182   180.7849     0.0803     7.5635     7.3762
  583.0000     8.0766    -0.0009     2.5190   181.6798     0.0798     7.2028     7.2221
  583.5000     8.0917    -0.0024     2.5137   181.3653     0.0813     6.7626     6.8775
  584.0000     8.1062     0.0006     2.5069   179.2386     0.0885     6.2933     5.6604
  584.5000     8.1059     0.0021     2.4924   178.3204     0.1031     5.2928     5.0636
  585.0000     8.0904     0.0005     2.4690   182.6588     0.1159     4.4258     4.4057
  585.5000     8.0751    -0.0040     2.4352   187.2053     0.1237     3.4945     3.8067
  586.0000     8.0597    -0.0071     2.3230   189.7650     0.1681     2.9781     2.9843
  586.5000     8.0594    -0.0101     2.2453   185.2184     0.2254     2.5735     2.6478
  587.0000     8.0591    -0.0086     2.2016   180.3727     0.2742     2.3837     2.4180
  587.5000     8.1040    -0.0036     2.1835   176.7354     0.2779     2.3178     2.3383
  588.0000     8.1189     0.0139     2.1986   174.9108     0.2785     2.5184     2.5057
  588.5000     8.0582     0.0229     2.2973   172.7841     0.2131     2.7175     2.6666
  589.0000     7.9976     0.0244     2.4050   170.6574     0.1733     2.8918     2.8976
  589.5000     7.9973     0.0168     2.4864   169.4371     0.1045     3.2758     3.3285
  590.0000     7.9970     0.0063     2.5135   171.2379     0.0810     3.7107     3.7187
  590.5000     7.9967    -0.0013     2.5203   173.0416     0.0777     4.4746     4.3921
  591.0000     7.9964    -0.0029     2.5225   169.7035     0.0768     5.0894     5.4082
  591.5000     7.9961     0.0001     2.5232   166.6705     0.0762     6.0094     6.1268
  592.0000     7.9958     0.0031     2.5247   163.9395     0.0747     7.0189     6.8451
  592.5000     7.9955     0.0061     2.5286   165.2123     0.0735     7.5213     7.3866
  593.0000     7.9952     0.0106     2.5316   173.1156     0.0720     7.8390     7.7525
  593.5000     8.0100     0.0151     2.5355   177.9073     0.0705     8.1701     7.9687
  594.0000     8.0096     0.0120     2.5345   180.5053     0.0696     8.3978     7.9114
  594.5000     8.0093     0.0075     2.5307   179.2849     0.0721     8.5134     7.9644
  595.0000     8.0090     0.0029     2.5299   178.6688     0.0730     8.6301     7.9622
  595.5000     7.9936    -0.0016     2.5389   179.5633     0.0729     8.5082     7.9529
  596.0000     7.9933     0.0029     2.5367   181.3640     0.0693     8.2730     8.0236
  596.5000     7.9930     0.0164     2.5276   182.5606     0.0751     8.2047     8.1226
  597.0000     7.9927     0.0285     2.5216   181.3403     0.0781     8.2685     8.2919
  597.5000     7.9924     0.0329     2.5268   181.3284     0.0757     8.2662     8.3469
  598.0000     7.9921     0.0277     2.5419   186.1503     0.0679     8.2610     8.4033
  598.5000     7.9918     0.0042     2.5487   192.1807     0.0622     8.0354     8.1703
  599.0000     8.0067    -0.0048     2.5426   196.3984     0.0637     8.1450     8.2250
  599.5000     8.0063    -0.0094     2.5366   198.1994     0.0673     8.2572     8.4544
  600.0000     8.0060    -0.0075     2.5396   197.8852     0.0661     8.1406     8.2778
  600.5000     8.0057    -0.0032     2.5403   196.6646     0.0664     7.9707     7.9930
  601.0000     7.9904    -0.0018     2.5365   196.0483     0.0676     7.8043     7.9361
  601.5000     7.9902    -0.0002     2.5305   195.1275     0.0709     7.9663     8.1569
  602.0000     7.9899     0.0028     2.5252   193.0008     0.0736     7.9641     8.1546
  602.5000     7.9746     0.0044     2.5222   190.5720     0.0766     7.7979     7.9843
  603.0000     7.9743     0.0062     2.5214   185.1220     0.0769     7.7958     7.9821
  603.5000     7.9741     0.0105     2.5229   178.7657     0.0753     8.0131     8.2619
  604.0000     7.9738     0.0106     2.5267   175.4335     0.0729     8.1794     8.3752
  604.5000     7.9736     0.0091     2.5304   181.1588     0.0706     8.1206     8.1997
  605.0000     7.9884     0.0092     2.5364   202.5971     0.0688     7.9511     8.0284
  605.5000     7.9882     0.0077     2.5424  -999.2500     0.0670     8.0043     8.0262
  606.0000     7.9879     0.0062     2.5447  -999.2500     0.0661     8.0116     8.1929
  606.5000     7.9877     0.0033     2.5401  -999.2500     0.0661     8.2252     8.2484
  607.0000     7.9874     0.0033     2.5349  -999.2500     0.0676     8.2224     8.3036
  607.5000     7.9871     0.0064     2.5303  -999.2500     0.0745     8.2201     8.2433
  608.0000     7.9869     0.0095     2.5281  -999.2500     0.0766     8.1610     8.1273
  608.5000     7.9866     0.0095     2.5273  -999.2500     0.0742     7.9354     7.9575
  609.0000     7.9864     0.0096     2.5333  -999.2500     0.0709     7.7160     7.7913
  609.5000     7.9711     0.0066     2.5333  -999.2500     0.0697     7.3481     7.5757
  610.0000     7.9859     0.0051     2.5318  -999.2500     0.0712     7.1449     7.3661
  610.5000     7.9856     0.0037     2.5257  -999.2500     0.0766     6.8994     7.1128
  611.0000     7.9854     0.0038     2.5152  -999.2500     0.0863     6.7086     6.8681
  611.5000     7.9701     0.0098     2.4910  -999.2500     0.1001     6.5686     6.4055
  612.0000     7.9698     0.0129     2.4760  -999.2500     0.1071     6.3870     6.2237
  612.5000     7.9696     0.0144     2.4790  -999.2500     0.1032     6.3852     6.0558
  613.0000     7.9693     0.0100     2.4963  -999.2500     0.0902     6.3902     6.1813
  613.5000     7.9691     0.0040     2.5174  -999.2500     0.0809     6.5614     6.4875
  614.0000     7.9688    -0.0020     2.5272  -999.2500     0.0736     6.7438     6.7150
  614.5000     7.9384    -0.0004     2.5279  -999.2500     0.0730     7.1269     7.0967
  615.0000     7.8904     0.0026     2.5279  -999.2500     0.0733     7.5318     7.5002
  615.5000     7.7870     0.0027     2.5226  -999.2500     0.0766     8.0151     7.9818
  616.0000     7.6209    -0.0005     2.5135  -999.2500     0.0818     8.3537     8.4356
  616.5000     7.4547    -0.0063     2.5037  -999.2500     0.0857     8.6463     8.7313
  617.0000     7.3640    -0.0107     2.4992  -999.2500     0.0881     8.8264     8.9133
  617.5000     7.2732    -0.0077     2.4977  -999.2500     0.0908  -999.2500  -999.2500
  618.0000     7.2428    -0.0001     2.4992  -999.2500     0.0926  -999.2500  -999.2500
  618.5000     7.2426    -0.0015     2.5022  -999.2500     0.0890  -999.2500  -999.2500
  619.0000     7.2423    -0.0075     2.4991  -999.2500     0.0899  -999.2500  -999.2500
  619.5000     7.2571    -0.0120     2.4939  -999.2500     0.0939  -999.2500  -999.2500
  620.0000     7.2569    -0.0134     2.4848  -999.2500     0.1010  -999.2500  -999.2500
  620.5000     7.2567    -0.0134     2.4742  -999.2500     0.1067  -999.2500  -999.2500
  621.0000     7.2564    -0.0118     2.4690  -999.2500     0.1113  -999.2500  -999.2500
