~VERSION INFORMATION
 VERS.                2.0:   CWLS LOG ASCII STANDARD - VERSION 2.0
 WRAP.                 NO:   ONE LINE PER DEPTH STEP
~WELL INFORMATION
#MNEM.UNIT      DATA TYPE    INFORMATION
#----------   ------------   ------------------------------
 STRT.F           30.0000:   START DEPTH
 STOP.F          733.0000:   STOP DEPTH
 STEP.F            0.5000:   STEP LENGTH
 NULL.          -999.2500:   NO VALUE
 COMP. FENIX & SCISSON INC:   COMPANY
 WELL.    NPR-3 #51 S -34:   WELL
 FLD .             TEAPOT:   FIELD
 LOC .      S34 T39N R78W:   LOCATION
 CNTY.            NATRONA:   COUNTY
 STAT.            WYOMING:   STATE
 CTRY. UNITED STATES OF AMERICA:   COUNTRY
 SRVC.      Dresser Atlas:   SERVICE COMPANY
 DATE.        20-MAR-1977:   LOGDATE
 API .       490251031600:   API NUMBER
~CURVE INFORMATION
#MNEM.UNIT       API CODE    CURVE DESCRIPTION
#----------   ------------   ------------------------------
 DEPT.F                  :   
 CALD.IN     45 280 60 00:   CALIPER FROM DENSITY LOG
 GRD .GAPI   45 310 01 00:   GAMMA RAY FROM DENSITY LOG
 CORR.G/C3   45 356 01 00:   DENSITY CORRECTION
 DPHI.DEC    45 890 12 00:   DENSITY POROSITY SANDSTONE
 RHOB.G/C3   45 350 01 00:   BULK DENSITY
 SPR .MV     07 010 01 00:   SPONTANEOUS POTENTIAL
 ILD .OHMM   07 120 46 00:   INDUCTION LOG DEEP
 ILM .OHMM   07 120 44 00:   INDUCTION LOG MEDIUM
 SFL .OHMM   07 220 01 00:   SHALLOW FOCUSED LOG RESISTIVITY
~PARAMETER INFORMATION
#MNEM.UNIT          VALUE    DESCRIPTION
#----------   ------------   ------------------------------
 PD  .                 GL:   PERMANENT DATUM
 EPD .F              5065:   ELEVATION PERMANENT DATUM
 LMF .                 KB:   LOG MEASURED FROM
 DAPD.F                 4:   FEET ABOVE PERMANENT DATUM
 DMF .                 KB:   DRILLING MEASURED FROM
 EKB .F              5069:   KELLING BUSHING
 EGL .F              5065:   GROUND LEVEL
 DATE.        20-MAR-1977:   RUN DATE
 RUN .                  1:   RUN NUMBER
 DD  .F               735:   DEPTH DRILLER
 DL  .F               731:   DEPTH LOGGER
 BLI .F               729:   BOTTOM LOG INTERVAL
 TLI .F                42:   TOP LOG INTERVAL
 CS  .IN            8.625:   CASING SIZE
 CBD .F                40:   CASING BOTTOM DRILLER
 CBL .F                42:   CASING BOTTOM LOGGER
 BS  .IN            7.875:   BIT SIZE
 BSD .F               735:   BIT SIZE AT DEPTH
 DFT .           CHEM GEL:   DRILLING FLUID TYPE
 DFD .                9.0:   DRILLING FLUID DENSITY
 DFV .                 38:   DRILLING FLUID VISCOSITY
 DFPH.                8.5:   DRILLING FLUID PH
 DFL .                 72:   DRILLING FLUID LOSS
 MSS .           FLOWLINE:   MUD SAMPLE SOURCE
 RMS .OHMM             .4:   RESISTIVITY MUD SAMPLE
 MST .F                51:   MUD SAMPLE TEMPERATURE
 RMF .OHMM            .72:   RESISTIVITY MUD FILTRATE SAMPLE
 MFST.F                48:   MUD FILTRATE SAMPLE TEMPERATURE
 RMC .OHMM           1.16:   RESISTIVITY MUD CAKE
 MCST.F                48:   MUD CAKE SAMPLE TEMPERATURE
 MFSS.               MEAS:   MUD FILTRATE SAMPLE SOURCE
 MCSS.               MEAS:   MUD CAKE SAMPLE SOURCE
 RMB .OHMM            .31:   RESISTIVITY MUD AT BHT
 BHT .F                66:   BOTTOM HOLE TEMPERATURE
 TCS .HRS            0300:   TIME CURCULATED STOPPED
 MRT .F                66:   MAXIMUM RECORDED TEMPERATURE
 LUN .               6145:   LOGGING UNIT NUMBER
 LUL .              GLTTE:   LOGGING UNIT LOCATION
 ENGI.              RANCK:   RECORDING ENGINEER
 WITN.              BURKE:   WITNESSED BY
 CLNT.            A2DTECH:   CLIENT CODE
 ORIG.           5" PRINT:   ORIGIN OF DATA
 UWI .       490251031600:   UNIQUE WELL ID
 DICO. A2D Technologies, Inc.:   DIGITIZING COMPANY
~OTHER INFORMATION
~A   DEPT     CALD        GRD       CORR       DPHI       RHOB        SPR        ILD        ILM        SFL   
# ...
  504.5000     8.1942   115.7005     0.0331     0.0594     2.5566   -53.5977     7.1395     7.6667     9.5746
  505.0000     8.1905   115.5658     0.0318     0.0608     2.5529   -53.5821     7.1926     7.7268     9.5109
  505.5000     8.1869   115.1423     0.0274     0.0623     2.5515   -53.5672     7.1961     7.8886     9.3220
  506.0000     8.1833   114.5647     0.0231     0.0677     2.5440   -53.5522     7.1997     8.0027     9.3266
  506.5000     8.1797   112.9424     0.0172     0.0725     2.5314   -53.5373     7.3036     8.1733     9.3312
  507.0000     8.1761   111.6136     0.0144     0.0691     2.5337   -53.5224     7.3064     8.1767     9.3357
  507.5000     8.1724   114.0260     0.0100     0.0700     2.5353   -53.5075     7.2594     8.1802     9.3403
  508.0000     8.1688   113.8913     0.0042     0.0754     2.5308   -53.4925     7.1631     8.1836     9.3448
  508.5000     8.1652   113.6171     0.0013     0.0780     2.5204   -53.6271     7.1172     8.1304     9.2847
  509.0000     8.1616   112.8902    -0.0001     0.0747     2.5235   -53.6119     7.0228     8.1339     9.0984
  509.5000     8.1594   111.7156     0.0017     0.0792     2.5281   -53.8956     6.9778     8.1939     8.8542
  510.0000     8.1465   112.6306     0.0003     0.0824     2.5176   -53.8806     6.9812     8.3116     7.8747
  510.5000     8.1335   112.7993     0.0005     0.0827     2.5110   -54.0149     6.9846     8.4897     7.7692
  511.0000     8.1354   111.7739     0.0006     0.0791     2.5080   -53.9999     6.9398     8.6715     8.0478
  511.5000     8.1224   108.9575     0.0129     0.0724     2.5254   -53.9849     6.8953     8.7354     8.5696
  512.0000     8.1094   109.2755     0.0266     0.0688     2.5389   -53.9699     6.8039     8.7989     9.3167
  512.5000     8.1114   111.5321     0.0298     0.0682     2.5375   -53.9549     6.6674     8.6824     9.9896
  513.0000     8.0984   113.9379     0.0254     0.0700     2.5346   -53.7894     6.4885     8.5074    10.4909
  513.5000     8.0854   112.3156     0.0240     0.0720     2.5329   -53.4759     6.1847     8.2213    10.4960
  514.0000     8.0724   110.6932     0.0242     0.0747     2.5279   -53.1624     5.7740     7.5689    10.0043
  514.5000     8.0744   109.8171     0.0244     0.0807     2.5226   -52.6997     5.4658     6.7311     9.2110
  515.0000     8.0609   109.6866     0.0261     0.0875     2.5105   -52.3862     5.3926     5.9037     8.1920
  515.5000     8.0634   109.8560     0.0292     0.0944     2.4965   -52.0727     5.3580     5.9062     6.2997
  516.0000     8.0499   110.1739     0.0294     0.1040     2.4854   -51.9085     5.4738     6.2452     5.8803
  516.5000     8.0523   110.3426     0.0296     0.1097     2.4728   -51.8935     5.6301     6.9318     7.4977
  517.0000     8.0543   109.9143     0.0267     0.1042     2.4752   -51.8785     5.9535     7.8553    10.0336
  517.5000     8.0562   106.6501     0.0254     0.0839     2.5128   -51.8635     6.2955     8.4221    13.4272
  518.0000     8.0582   103.6845     0.0240     0.0636     2.5512   -52.0015     6.7967     9.4128    12.7981
  518.5000     8.0753   103.5537     0.0212     0.0627     2.5482   -51.8335     7.2872    10.0223    12.0307
  519.0000     8.0616    99.8427     0.0198     0.0639     2.5475   -51.6693     8.2010    10.5977    11.8540
  519.5000     8.0641    96.7278     0.0155     0.0654     2.5438   -51.5050     8.7322    10.9757    11.7934
  520.0000     8.0660   108.2398     0.0127     0.0728     2.5311   -51.1915     9.1068    11.2887    11.7993
  520.5000     8.0680   110.4980     0.0113     0.0679     2.5289   -50.8780     9.3670    11.5305    11.8871
  521.0000     8.0545   109.9204     0.0145     0.0635     2.5410   -50.1168     9.8367    11.8593    11.9755
  521.5000     8.0570   106.0592     0.0252     0.0605     2.5471   -49.5048    10.1880    12.1123    12.0646
  522.0000     8.0589   105.1832     0.0284     0.0589     2.5509   -48.8928    10.6388    12.4715    12.1543
  522.5000     8.0609   106.3966     0.0271     0.0589     2.5555   -48.1315    11.0926    12.9259    12.5017
  523.0000     8.0628   107.0131     0.0197     0.0661     2.5518   -47.5195    11.7489    13.5584    12.8592
  523.5000     8.0648   106.4355     0.0138     0.0723     2.5362   -46.7583    12.6753    14.4337    13.7880
  524.0000     8.0667   100.7784     0.0125     0.0750     2.5212   -45.8209    13.7571    15.0551    16.4021
  524.5000     8.0683   108.1161     0.0217     0.0831     2.5146   -44.7363    14.5506    15.8036    20.1994
  525.0000     8.0552   106.9415     0.0204     0.0962     2.5034   -43.5572    15.4823    16.5893    24.1961
  525.5000     8.0573   104.2744     0.0190     0.1090     2.4757   -42.6269    16.5997    17.4205    24.5455
  526.0000     8.0592   105.4878     0.0161     0.1182     2.4443   -42.0198    17.5531    18.1672    22.5993
  526.5000     8.0613   102.3729     0.0344     0.1262     2.4248   -41.4478    18.5613    18.9459    21.8382
  527.0000     8.0631    98.5118     0.0330     0.1408     2.4047   -41.4328    19.2241    19.4862    24.0761
  527.5000     8.0501    93.7551     0.0423     0.1549     2.3935   -41.5675    19.6370    20.1811    26.1751
  528.0000     8.0371    85.4163     0.0515     0.1348     2.4116   -41.5525    19.7830    21.3397    27.4887
  528.5000     8.0390    82.7491     0.0531     0.1339     2.4236   -41.8360    19.9301    23.0384    27.8857
  529.0000     8.0410    70.2918     0.0503     0.1407     2.4200   -41.9703    20.2177    24.8723    27.1371
  529.5000     8.0280    62.2877     0.0489     0.1485     2.3938   -41.9527    20.2276    26.3001    24.3027
  530.0000     8.0001    60.4177     0.0458     0.1698     2.3745   -41.6418    20.2375    26.1268    24.9975
  530.5000     8.0170    61.0342     0.0384     0.1751     2.3629   -41.4776    20.2474    27.0615    28.1343
  531.0000     8.0488    60.0021     0.0296     0.1772     2.3601   -41.3133    20.1151    28.2214    26.0835
  531.5000     8.0657    59.4313     0.0338     0.1715     2.3581   -41.2983    19.9862    27.6527    27.7745
  532.0000     8.0677    63.0410     0.0457     0.1639     2.3683   -41.4328    19.8580    26.7228    28.9670
  532.5000     8.0542    63.7985     0.0529     0.1606     2.3808   -41.5672    19.8702    25.4689    27.4192
  533.0000     7.9969    63.0716     0.0563     0.1570     2.3853   -41.7015    19.7404    25.3011    26.3161
  533.5000     7.9540    65.0313     0.0625     0.1519     2.3966   -41.8358    19.4786    26.2062    26.5120
  534.0000     7.9260    65.6487     0.0670     0.1455     2.4162   -41.9701    19.3537    27.1408    26.5249
  534.5000     7.8981    63.8762     0.0622     0.1431     2.4088   -42.1045    19.0993    26.7787    26.1697
  535.0000     7.8846    64.9502     0.0490     0.1590     2.3751   -42.2388    18.3315    25.8782    25.4702
  535.5000     7.8716    62.5717     0.0372     0.1736     2.3557   -42.5217    17.7168    24.3247    24.1395
  536.0000     7.8741    67.9643     0.0254     0.1895     2.3370   -42.5067    17.1226    23.3445    22.8183
  536.5000     7.8760    72.3121     0.0211     0.1868     2.3338   -42.6447    16.4343    21.3436    22.6719
  537.0000     7.8780    73.2270     0.0198     0.1705     2.3551   -42.9282    15.9915    18.7201    22.1995
  537.5000     7.8800    69.9629     0.0139     0.1399     2.4122   -42.9095    15.5625    17.8417    21.4589
  538.0000     7.8819    68.9375     0.0261     0.1198     2.4573   -42.8945    15.2364    17.8492    20.4501
  538.5000     7.8988    72.9868     0.0369     0.1113     2.4777   -42.5810    14.8311    17.9807    18.1924
  539.0000     7.9008    75.0958     0.0340     0.1077     2.4762   -42.2675    14.4431    17.7408    18.5922
  539.5000     7.9177    73.4734     0.0266     0.1098     2.4635   -41.9540    14.2483    17.1442    19.2567
  540.0000     7.9196    69.9108     0.0193     0.1143     2.4501   -41.7898    14.2585    16.4292    19.2661
  540.5000     7.9062    73.0645     0.0149     0.1289     2.4389   -41.4763    14.4642    15.8796    19.4094
