~VERSION INFORMATION
 VERS.                2.0:   CWLS LOG ASCII STANDARD - VERSION 2.0
 WRAP.                 NO:   ONE LINE PER DEPTH STEP
~WELL INFORMATION
#MNEM.UNIT      DATA TYPE    INFORMATION
#----------   ------------   ------------------------------
 STRT.F           10.0000:   START DEPTH
 STOP.F          472.5000:   STOP DEPTH
 STEP.F            0.5000:   STEP LENGTH
 NULL.          -999.2500:   NO VALUE
 COMP. FENIX & SCISSON INC:   COMPANY
 WELL. NAVAL PETROLEUM RESERVE 3 SX-1 #67-10:   WELL
 FLD .             TEAPOT:   FIELD
 LOC .      S10 T38N R78W:   LOCATION
 CNTY.            NATRONA:   COUNTY
 STAT.            WYOMING:   STATE
 CTRY. UNITED STATES OF AMERICA:   COUNTRY
 SRVC.           BIRDWELL:   SERVICE COMPANY
 DATE.        05-DEC-1978:   LOGDATE
 API .       490251075000:   API NUMBER
~CURVE INFORMATION
#MNEM.UNIT       API CODE    CURVE DESCRIPTION
#----------   ------------   ------------------------------
 DEPT.F                  :   
 SPR .MV     05 010 01 00:   SPONTANEOUS POTENTIAL FROM RES.
 SN  .OHMM   05 040 16 00:   SHORT NORMAL 16"
 IL  .OHMM   05 120 00 00:   INDUCTION LOG
 CALD.IN     45 280 60 00:   CALIPER
 GRD .GAPI   45 310 01 00:   GAMMA RAY FROM DENSITY LOG
 RHOB.G/C3   45 350 01 00:   BULK DENSITY
 DPHI.DEC    45 890 12 00:   DENSITY POROSITY SANDSTONE
 CORR.G/C3   45 356 01 00:   DENSITY CORRECTION
~PARAMETER INFORMATION
#MNEM.UNIT          VALUE    DESCRIPTION
#----------   ------------   ------------------------------
 PD  .                 GL:   PERMANENT DATUM
 EPD .F              5189:   ELEVATION PERMANENT DATUM
 LMF .                 KB:   LOG MEASURED FROM
 DAPD.F                 4:   FEET ABOVE PERMANENT DATUM
 DMF .                 KB:   DRILLING MEASURED FROM
 EKB .F              5193:   KELLING BUSHING
 EGL .F              5189:   GROUND LEVEL
 DATE.            12-5-78:   RUN DATE
 RUN .                  1:   RUN NUMBER
 DD  .F               475:   DEPTH DRILLER
 DL  .F               471:   DEPTH LOGGER
 BLI .F               465:   BOTTOM LOG INTERVAL
 TLI .F                40:   TOP LOG INTERVAL
 CS  .IN            8.625:   CASING SIZE
 CBD .F                40:   CASING BOTTOM DRILLER
 CBL .F                40:   CASING BOTTOM LOGGER
 BS  .IN            7.875:   BIT SIZE
 BSD .F               475:   BIT SIZE AT DEPTH
 DFT .                KCL:   DRILLING FLUID TYPE
 DFD .                8.8:   DRILLING FLUID DENSITY
 DFV .                 42:   DRILLING FLUID VISCOSITY
 DFPH.               12.2:   DRILLING FLUID PH
 DFL .               11.6:   DRILLING FLUID LOSS
 MSS .          FLOW LINE:   MUD SAMPLE SOURCE
 RMS .OHMM            .31:   RESISTIVITY MUD SAMPLE
 MST .F                60:   MUD SAMPLE TEMPERATURE
 RMF .OHMM            .29:   RESISTIVITY MUD FILTRATE SAMPLE
 MFST.F                61:   MUD FILTRATE SAMPLE TEMPERATURE
 RMC .OHMM            .42:   RESISTIVITY MUD CAKE
 MCST.F                63:   MUD CAKE SAMPLE TEMPERATURE
 MFSS.           MEASURED:   MUD FILTRATE SAMPLE SOURCE
 MCSS.           MEASURED:   MUD CAKE SAMPLE SOURCE
 RMB .OHMM            .33:   RESISTIVITY MUD AT BHT
 BHT .F                57:   BOTTOM HOLE TEMPERATURE
 TCS .HRS               3:   TIME CURCULATED STOPPED
 MRT .F                57:   MAXIMUM RECORDED TEMPERATURE
 LUN .               2958:   LOGGING UNIT NUMBER
 LUL .                CPR:   LOGGING UNIT LOCATION
 ENGI.            ROLLINS:   RECORDING ENGINEER
 WITN.              AMEND:   WITNESSED BY
 CLNT.            A2DTECH:   CLIENT CODE
 ORIG.       2", 5" PRINT:   ORIGIN OF DATA
 UWI .       490251075000:   UNIQUE WELL ID
 DICO. A2D Technologies, Inc.:   DIGITIZING COMPANY
~OTHER INFORMATION
~A   DEPT      SPR         SN         IL       CALD         GRD      RHOB       DPHI       CORR   
# ...
  172.0000   -56.3120     7.0630     6.4070     8.8780   102.5040     2.4150     0.1720     0.0160
  172.5000   -56.3320     6.7950     5.8120     8.8740   104.2240     2.3990     0.1840     0.0160
  173.0000   -56.3520     6.5270     5.5490     8.8710   103.3640     2.3780     0.1960     0.0160
  173.5000   -56.3730     6.2530     5.3950     8.8650   100.2980     2.3560     0.2040     0.0160
  174.0000   -56.3940     5.9680     5.4740     8.8570    94.6770     2.3540     0.1930     0.0100
  174.5000   -56.3900     5.8810     5.5460     8.8500    93.4200     2.3790     0.1820     0.0080
  175.0000   -55.7760     5.8540     5.6200     8.8430    93.7220     2.4010     0.1700     0.0070
  175.5000   -55.1360     5.9000     5.6940     8.8350    96.0940     2.4210     0.1600     0.0130
  176.0000   -54.8080     6.2110     5.9020     8.8280    98.7170     2.4310     0.1570     0.0170
  176.5000   -54.5550     6.8590     6.1090     8.8200   101.0700     2.4340     0.1540     0.0170
  177.0000   -54.3030     7.3250     6.4690     8.8130   101.1090     2.4330     0.1520     0.0170
  177.5000   -54.0510     7.6940     6.9240     8.8060   100.7880     2.4310     0.1560     0.0180
  178.0000   -53.8110     7.8800     7.3780     8.7980    98.4970     2.4290     0.1580     0.0180
  178.5000   -53.7130     8.0650     7.7410     8.7900    96.8640     2.4290     0.1590     0.0280
  179.0000   -53.6210     8.2510     7.8140     8.7930    99.2590     2.4350     0.1500     0.0420
  179.5000   -53.5300     8.4010     7.8870     8.7960   104.2270     2.4490     0.1420     0.0450
  180.0000   -53.4380     8.5320     7.9600     8.7990   106.5530     2.4600     0.1400     0.0480
  180.5000   -53.3480     8.6430     8.0140     8.8020   103.3630     2.4620     0.1380     0.0510
  181.0000   -53.2560     8.6970     8.1090     8.8050   102.8070     2.4630     0.1360     0.0580
  181.5000   -53.3390     8.7510     8.1990     8.8080   102.8990     2.4690     0.1330     0.0700
  182.0000   -53.6210     8.8050     8.2890     8.8110   103.0470     2.4740     0.1300     0.0820
  182.5000   -54.0040     8.8590     8.3790     8.8140   103.2210     2.4780     0.1300     0.0910
  183.0000   -54.7660     8.9130     8.4680     8.8170   102.4600     2.4780     0.1300     0.0930
  183.5000   -54.8110     8.9670     8.5490     8.8200   100.0680     2.4790     0.1300     0.0950
  184.0000   -54.8110     9.0360     8.5740     8.8230   101.4030     2.4790     0.1270     0.0970
  184.5000   -54.8100     9.0250     8.6020     8.8260   103.3790     2.4830     0.1240     0.0990
  185.0000   -54.8100     9.0080     8.6290     8.8290   102.6990     2.4860     0.1200     0.0980
  185.5000   -54.8100     8.9910     8.6570     8.8320   102.1520     2.4870     0.1210     0.0900
  186.0000   -54.8110     8.9740     8.6850     8.8350   102.8180     2.4860     0.1210     0.0760
  186.5000   -54.8100     8.9530     8.7090     8.8380   104.3170     2.4870     0.1190     0.0710
  187.0000   -55.0060     8.9640     8.7090     8.8420   106.3980     2.4890     0.1180     0.0680
  187.5000   -55.3670     8.9780     8.7090     8.8450   107.0330     2.4890     0.1230     0.0580
  188.0000   -55.7320     8.9930     8.6960     8.8480   107.6130     2.4830     0.1260     0.0420
  188.5000   -55.7930     9.0070     8.6110     8.8510   108.4790     2.4740     0.1300     0.0250
  189.0000   -55.7770     9.0220     8.5260     8.8540   109.6350     2.4730     0.1300     0.0230
  189.5000   -55.7580     9.0360     8.4410     8.8570   110.8290     2.4720     0.1300     0.0220
  190.0000   -55.7390     9.0120     8.3570     8.8600   110.9340     2.4720     0.1300     0.0210
  190.5000   -55.7190     8.9880     8.2720     8.8630   106.8050     2.4720     0.1300     0.0190
  191.0000   -55.7000     8.9630     8.1880     8.8670   102.9600     2.4710     0.1310     0.0180
  191.5000   -55.6810     8.8890     8.1030     8.8700   102.2930     2.4690     0.1320     0.0170
  192.0000   -55.6610     8.7800     8.0180     8.8650   102.7090     2.4660     0.1340     0.0170
  192.5000   -55.6420     8.6720     7.9340     8.8590   102.0700     2.4650     0.1340     0.0170
  193.0000   -55.6230     8.5630     7.8250     8.8530   100.3710     2.4650     0.1350     0.0180
  193.5000   -55.6630     8.4550     7.6310     8.8470   100.0720     2.4640     0.1350     0.0180
  194.0000   -55.7900     8.2840     7.4430     8.8420   102.7710     2.4620     0.1370     0.0160
  194.5000   -55.9160     8.0290     7.3490     8.8360   106.3700     2.4590     0.1420     0.0120
  195.0000   -56.0420     7.7740     7.2570     8.8300   106.4920     2.4470     0.1480     0.0090
  195.5000   -56.1680     7.5350     7.1650     8.8240   106.9920     2.4340     0.1560     0.0060
  196.0000   -56.2940     7.3450     7.0730     8.8180   109.1240     2.4170     0.1640     0.0080
  196.5000   -56.4200     7.1550     6.7510     8.8130   109.8180     2.4130     0.1670     0.0140
  197.0000   -56.5460     6.9770     6.3060     8.8070   110.3100     2.4100     0.1710     0.0200
  197.5000   -56.6720     6.4960     5.8610     8.8010   109.2590     2.3980     0.1780     0.0260
  198.0000   -56.7980     6.0430     5.4160     8.7950   104.5470     2.3760     0.1900     0.0310
  198.5000   -56.9240     5.5910     4.9330     8.7900   101.0840     2.3440     0.2070     0.0330
  199.0000   -57.0510     5.1940     4.3490     8.7880   100.5190     2.3120     0.2310     0.0360
  199.5000   -57.1850     4.8050     3.7650     8.7860    99.5940     2.2780     0.2590     0.0380
  200.0000   -56.9540     4.4160     3.4400     8.7840    98.6710     2.2480     0.2790     0.0450
  200.5000   -56.5940     4.0270     3.2290     8.7820   102.3400     2.2260     0.2810     0.0530
  201.0000   -55.9150     3.6370     3.0380     8.7800   108.0770     2.2290     0.2790     0.0600
  201.5000   -54.9160     3.3400     2.9630     8.7780   105.9670     2.2490     0.2570     0.0580
  202.0000   -53.9250     3.2410     2.8740     8.7760   101.3760     2.2820     0.2380     0.0510
  202.5000   -53.2130     3.3360     2.8860     8.7740    98.1560     2.3150     0.2230     0.0480
  203.0000   -53.3180     3.4890     2.9010     8.7720   102.7800     2.3270     0.2170     0.0550
  203.5000   -53.4090     3.8710     3.4080     8.7690   108.5280     2.3560     0.1990     0.0620
  204.0000   -53.4970     4.3010     3.7870     8.7630   113.6220     2.3940     0.1790     0.0630
  204.5000   -53.5850     4.7320     4.1260     8.7570   111.9570     2.4320     0.1490     0.0630
  205.0000   -53.6730     5.1620     4.4650     8.7510   108.6260     2.4520     0.1420     0.0640
  205.5000   -53.7610     5.5920     4.7770     8.7450   105.3860     2.4570     0.1420     0.0650
  206.0000   -53.8500     6.0220     5.1940     8.7390   104.4290     2.4590     0.1400     0.0690
  206.5000   -53.9380     6.4200     5.5810     8.7330   105.2930     2.4600     0.1380     0.0720
  207.0000   -54.0260     6.6010     5.9690     8.7260   105.8850     2.4650     0.1340     0.0760
  207.5000   -54.1140     6.5690     6.2450     8.7200   106.5690     2.4680     0.1320     0.0750
  208.0000   -54.2030     6.5440     6.1380     8.7140   109.4650     2.4670     0.1360     0.0730
  208.5000   -54.2910     6.5180     5.9090     8.7080   113.7320     2.4530     0.1490     0.0680
  209.0000   -54.3820     6.4930     5.6800     8.7020   116.7930     2.4290     0.1630     0.0600
  209.5000   -54.4230     6.4090     5.4520     8.6960   117.9700     2.4050     0.1760     0.0520
  210.0000   -54.4470     6.2550     5.2230     8.6890   119.1810     2.3810     0.1900     0.0500
  210.5000   -54.4700     6.1020     5.1560     8.6570   119.3290     2.3590     0.2030     0.0550
  211.0000   -54.4940     6.0110     5.1150     8.6250   117.9540     2.3580     0.1980     0.0620
  211.5000   -54.5170     5.9950     5.0740     8.5930   116.9140     2.3680     0.1930     0.0720
  212.0000   -54.5400     5.9780     5.0340     8.5600   117.2060     2.3820     0.1850     0.0890
