~VERSION INFORMATION
 VERS.                2.0:   CWLS LOG ASCII STANDARD - VERSION 2.0
 WRAP.                 NO:   ONE LINE PER DEPTH STEP
~WELL INFORMATION
#MNEM.UNIT      DATA TYPE    INFORMATION
#----------   ------------   ------------------------------
 STRT.F           28.0000:   START DEPTH
 STOP.F          546.5000:   STOP DEPTH
 STEP.F            0.5000:   STEP LENGTH
 NULL.          -999.2500:   NO VALUE
 COMP. LAWRENCE/ALLISON INC:   COMPANY
 WELL.    55-66 SX #10-10:   WELL
 FLD .            WILDCAT:   FIELD
 LOC .      S10 T38N R78W:   LOCATION
 CNTY.            NATRONA:   COUNTY
 STAT.            WYOMING:   STATE
 CTRY. UNITED STATES OF AMERICA:   COUNTRY
 SRVC.            Unknown:   SERVICE COMPANY
 DATE.        20-AUG-1984:   LOGDATE
 API .       490251098000:   API NUMBER
~CURVE INFORMATION
#MNEM.UNIT       API CODE    CURVE DESCRIPTION
#----------   ------------   ------------------------------
 DEPT.F                  :   
 CNC .DEC    42 890 03 00:   NEUTRON POROSITY SANDSTONE
 CALD.IN     45 280 60 00:   CALIPER FROM DENSITY LOG
 DEN .G/C3   45 350 01 00:   COMPENSATED BULK DENSTIY
 PORD.DEC    45 890 12 00:   POROSITY DENSITY STONESTONE
 CORR.G/C3   45 356 01 00:   DENSITY CORRECTION
 SPR .MV     07 010 01 00:   SPONTANEOUS POTENTIAL
 RFOC.OHMM   07 220 04 00:   RESISTIVITY FOCUSED LOG
 RILD.OHMM   07 120 46 00:   INDUCTION LOG DEEP RESISTIVITY
 RILM.OHMM   07 120 44 00:   INDUCTION LOG MEDIUM RESISTIVITY
 AC  .US/F   60 520 00 00:   ACCOUSTIC
 GRD .GAPI   45 310 01 00:   GAMMA RAY FROM DENSITY LOG
~PARAMETER INFORMATION
#MNEM.UNIT          VALUE    DESCRIPTION
#----------   ------------   ------------------------------
 PD  .                 GL:   PERMANENT DATUM
 EPD .F              5200:   ELEVATION PERMANENT DATUM
 LMF .                 GL:   LOG MEASURED FROM
 DMF .                 GL:   DRILLING MEASURED FROM
 EGL .F              5200:   GROUND LEVEL
 DATE.        20-AUG-1984:   RUN DATE
 RUN .                  1:   RUN NUMBER
 DD  .F               554:   DEPTH DRILLER
 DL  .F               548:   DEPTH LOGGER
 BLI .F               546:   BOTTOM LOG INTERVAL
 TLI .F                30:   TOP LOG INTERVAL
 CS  .IN            9.625:   CASING SIZE
 CBD .F                46:   CASING BOTTOM DRILLER
 CBL .F                41:   CASING BOTTOM LOGGER
 BS  .IN            7.875:   BIT SIZE
 BSD .F               554:   BIT SIZE AT DEPTH
 DFT .          KCL WATER:   DRILLING FLUID TYPE
 MSS .           FLOWLINE:   MUD SAMPLE SOURCE
 RMS .OHMM           .691:   RESISTIVITY MUD SAMPLE
 MST .F                82:   MUD SAMPLE TEMPERATURE
 MRT .F               100:   MAXIMUM RECORDED TEMPERATURE
 LUN .               6307:   LOGGING UNIT NUMBER
 LUL .               GLTE:   LOGGING UNIT LOCATION
 ENGI.           FAHLSING:   RECORDING ENGINEER
 WITN.           JENNINGS:   WITNESSED BY
 CLNT.            A2DTECH:   CLIENT CODE
 ORIG.       2", 5" PRINT:   ORIGIN OF DATA
 UWI .       490251098000:   UNIQUE WELL ID
 DICO. A2D Technologies, Inc.:   DIGITIZING COMPANY
~OTHER INFORMATION
~A   DEPT      CNC       CALD        DEN       PORD       CORR        SPR       RFOC       RILD       RILM         AC        GRD   
# ...
  455.0000     0.3107     7.6830     2.5060     0.1060     0.0060   -39.2950    11.0000     9.9000    10.3530    94.4730   107.4430
  455.5000     0.2899     7.6830     2.5000     0.1090     0.0120   -39.1080    11.4920    10.0140    10.4450    94.0050   110.5390
  456.0000     0.2812     7.6830     2.5010     0.1080     0.0190   -38.9210    12.2310    10.0900    10.5370    93.5360   113.5400
  456.5000     0.2865     7.6830     2.5020     0.1060     0.0210   -38.8270    12.1880    10.1660    10.6280    93.2440   111.2740
  457.0000     0.2956     7.6830     2.5030     0.1070     0.0140   -38.9710    12.1020    10.2420    10.6560    93.4470   108.7020
  457.5000     0.2968     7.6830     2.5040     0.1080     0.0070   -39.1090    12.0080    10.3170    10.6560    93.7960   109.9870
  458.0000     0.2980     7.6830     2.5060     0.1050     0.0070   -39.2460    12.0080    10.3930    10.6340    94.1460   111.0640
  458.5000     0.2992     7.6830     2.5080     0.1030     0.0320   -39.3820    12.0250    10.4610    10.6040    94.4960   109.0940
  459.0000     0.2991     7.6830     2.5100     0.1010     0.0430   -39.5200    12.0400    10.5580    10.5740    94.8460   107.0750
  459.5000     0.2990     7.6830     2.5110     0.1000     0.0370   -39.5830    12.0560    10.4610    10.5440    95.1960   107.2120
  460.0000     0.2993     7.6830     2.5110     0.1010     0.0320   -39.5670    12.0710    10.3660    10.5140    95.5390   108.9570
  460.5000     0.2992     7.6830     2.5100     0.1020     0.0260   -39.5390    12.0870    10.3100    10.4830    95.6410   109.6280
  461.0000     0.2988     7.6830     2.5090     0.1030     0.0210   -39.5110    12.1020    10.2600    10.4530    95.7420   109.3710
  461.5000     0.2963     7.6830     2.5080     0.1040     0.0190   -39.4830    12.1190    10.2100    10.4230    95.8420   110.7220
  462.0000     0.3009     7.6830     2.5090     0.1040     0.0180   -39.4550    11.9910    10.1590    10.3930    95.9430   112.5480
  462.5000     0.3027     7.6830     2.5130     0.1020     0.0180   -39.4280    11.8090    10.1090    10.3660    96.0380   112.4660
  463.0000     0.3030     7.6830     2.5160     0.1000     0.0310   -39.3980    11.6270    10.0840    10.3790    96.3010   111.8820
  463.5000     0.3009     7.6830     2.5180     0.1040     0.0440   -39.5710    11.4450    10.1300    10.3950    96.5520   111.4670
  464.0000     0.2973     7.6830     2.5080     0.1090     0.0500   -39.9020    11.2630    10.1770    10.4100    96.8030   112.3080
  464.5000     0.3037     7.6830     2.4980     0.1150     0.0400   -40.2310    11.0810    10.1780    10.4250    96.6440   113.1220
  465.0000     0.3160     7.6830     2.4870     0.1170     0.0310   -40.5620    10.9540    10.1770    10.4410    96.2460   114.8740
  465.5000     0.3188     7.6830     2.4880     0.1140     0.0260   -40.8920    11.2330    10.1770    10.4560    95.5590   116.8570
  466.0000     0.3137     7.6830     2.4980     0.1070     0.0270   -41.2260    11.4470    10.1770    10.4710    94.8720   118.8290
  466.5000     0.3084     7.6830     2.5100     0.1010     0.0200   -41.3300    11.6620    10.1780    10.4860    94.1850   120.5190
  467.0000     0.3062     7.6830     2.5110     0.1010     0.0140   -41.2640    11.8980    10.1730    10.5020    93.6750   118.8550
  467.5000     0.3095     7.6830     2.5100     0.1020     0.0200   -41.1980    11.7720    10.1710    10.5170    93.3400   117.1850
  468.0000     0.3110     7.6830     2.5110     0.1010     0.0270   -41.2460    11.6310    10.2640    10.5320    93.3860   115.7370
  468.5000     0.3128     7.6830     2.5140     0.0980     0.0240   -41.3750    11.4900    10.1770    10.5470    93.5870   114.6860
  469.0000     0.3137     7.6830     2.5170     0.0990     0.0150   -41.5050    11.3640    10.0510    10.5580    93.9090   113.6300
  469.5000     0.3112     7.6830     2.5140     0.1020     0.0070   -41.6350    11.3640     9.9860    10.4460    94.2770   113.4780
  470.0000     0.2972     7.6830     2.5090     0.1030    -0.0020   -41.7490    11.3820     9.9210    10.3210    94.6450   114.9600
  470.5000     0.2953     7.6830     2.5130     0.0980    -0.0050   -41.4120    11.4200     9.8550    10.1960    94.6660   116.4200
  471.0000     0.2980     7.6830     2.5230     0.0920    -0.0050   -41.0510    11.4570     9.7240    10.0840    94.5660   116.9810
  471.5000     0.3060     7.6830     2.5330     0.0860     0.0110   -40.6900    11.4690     9.4400     9.9000    94.4650   115.9690
  472.0000     0.3056     7.6830     2.5400     0.0890     0.0280   -40.3260    11.0850     9.1550     9.6720    94.6770   116.2870
  472.5000     0.2994     7.6830     2.5330     0.0930     0.0460   -40.3060    10.5040     8.8700     9.4650    95.4570   118.8290
  473.0000     0.2993     7.6830     2.5260     0.0970     0.0520   -40.5140     9.9230     8.7050     9.2580    96.5440   120.8270
  473.5000     0.2992     7.6830     2.5200     0.1000     0.0470   -40.7200     9.1980     8.7660     9.0310    97.6320   119.9200
  474.0000     0.3091     7.6830     2.5140     0.1020     0.0380   -40.9200     9.4950     8.8330     9.2080    98.7330   118.9400
  474.5000     0.3103     7.6830     2.5100     0.1020     0.0290   -41.1810    10.0890     8.9010     9.5620    98.5440   119.3200
  475.0000     0.3090     7.6830     2.5130     0.0990     0.0210   -41.1630    10.6830     9.0640     9.9170    97.5650   119.8120
  475.5000     0.2996     7.6830     2.5240     0.0920     0.0310   -40.9140    11.2780     9.4490    10.2710    96.5860   120.3100
  476.0000     0.2890     7.6830     2.5350     0.0860     0.0420   -40.6560    11.5750     9.8340    10.6260    95.6070   119.6520
  476.5000     0.2874     7.6830     2.5450     0.0830     0.0520   -40.3990    11.8570    10.2190    10.9800    94.7320   117.4710
  477.0000     0.2871     7.6830     2.5430     0.0850     0.0430   -40.1420    12.1130    10.6050    11.3350    94.2300   115.4450
  477.5000     0.2864     7.6830     2.5390     0.0870     0.0330   -39.8850    12.3700    10.9900    11.6890    93.8420   115.8740
  478.0000     0.3015     7.6830     2.5360     0.0860     0.0410   -39.6280    12.6270    11.2600    12.0080    93.0150   115.4480
  478.5000     0.3042     7.6830     2.5410     0.0830     0.0550   -39.3710    12.8650    11.5770    12.0570    92.2460   111.8930
  479.0000     0.3057     7.6830     2.5440     0.0850     0.0540   -39.1140    12.9240    11.3640    12.1010    91.9840   110.6220
  479.5000     0.3146     7.6830     2.5390     0.0890     0.0440   -38.8580    12.8170    11.5800    12.1450    91.9460   113.7410
  480.0000     0.3133     7.6830     2.5320     0.0930     0.0340   -38.6020    12.7190    11.6820    12.1890    92.1770   118.2400
  480.5000     0.3096     7.6830     2.5260     0.0970     0.0240   -38.3460    12.6220    11.7840    12.2330    92.4470   120.4850
  481.0000     0.3079     7.6830     2.5220     0.0960     0.0260   -38.2190    12.5730    11.8850    12.2770    92.7180   118.3600
  481.5000     0.3054     7.6830     2.5240     0.0950     0.0330   -38.2780    12.5730    11.9870    12.3210    92.9880   116.2940
  482.0000     0.2979     7.6830     2.5250     0.0940     0.0400   -38.3350    12.7130    12.0880    12.3650    93.2580   114.2300
  482.5000     0.2904     7.6830     2.5210     0.0970     0.0360   -38.3930    12.8400    12.1190    12.4090    93.3430   112.1580
  483.0000     0.2830     7.6830     2.5150     0.1020     0.0220   -38.4510    12.9670    12.0510    12.4580    93.0700   110.2530
  483.5000     0.2860     7.6830     2.5080     0.1070     0.0090   -38.5080    13.0950    11.9750    12.4580    92.8190   111.3870
  484.0000     0.2891     7.6830     2.5010     0.1120    -0.0050   -38.5660    13.2220    11.9000    12.2920    92.5680   112.8600
  484.5000     0.2868     7.6830     2.4950     0.1150    -0.0040   -38.6240    13.4080    11.8240    12.1070    92.3450   111.8440
  485.0000     0.2852     7.6830     2.4900     0.1130     0.0040   -38.6820    13.2690    11.7480    11.9220    92.5050   109.5510
