~VERSION INFORMATION
 VERS.                2.0:   CWLS LOG ASCII STANDARD - VERSION 2.0
 WRAP.                 NO:   ONE LINE PER DEPTH STEP
~WELL INFORMATION
#MNEM.UNIT      DATA TYPE    INFORMATION
#----------   ------------   ------------------------------
 STRT.F          250.0000:   START DEPTH
 STOP.F         2527.0000:   STOP DEPTH
 STEP.F            0.5000:   STEP LENGTH
 NULL.          -999.2500:   NO VALUE
 COMP. FENIX & SCISSON INC:   COMPANY
 WELL.       NPR 3 #18-28:   WELL
 FLD .            WILDCAT:   FIELD
 LOC .      S28 T39N R78W:   LOCATION
 CNTY.            NATRONA:   COUNTY
 STAT.            WYOMING:   STATE
 CTRY. UNITED STATES OF AMERICA:   COUNTRY
 SRVC.            Unknown:   SERVICE COMPANY
 DATE.        01-MAY-1979:   LOGDATE
 API .       490251078000:   API NUMBER
~CURVE INFORMATION
#MNEM.UNIT       API CODE    CURVE DESCRIPTION
#----------   ------------   ------------------------------
 DEPT.F                  :   
 CORR.G/C3   45 356 01 00:   DENSITY CORRECTION
 DPHI.DEC    45 890 12 00:   DENSITY POROSITY SANDSTONE
 RHOB.G/C3   45 350 01 00:   BULK DENSITY
 CALD.IN     45 280 60 00:   CALIPER FROM DENSITY LOG
 GRD .GAPI   45 310 01 00:   GAMMA RAY FROM DENSITY LOG
~PARAMETER INFORMATION
#MNEM.UNIT          VALUE    DESCRIPTION
#----------   ------------   ------------------------------
 PD  .                 GL:   PERMANENT DATUM
 EPD .F              5079:   ELEVATION PERMANENT DATUM
 LMF .                 KB:   LOG MEASURED FROM
 DAPD.F                10:   FEET ABOVE PERMANENT DATUM
 DMF .                 KB:   DRILLING MEASURED FROM
 EKB .F              5089:   KELLING BUSHING
 EGL .F              5079:   GROUND LEVEL
 DATE.             5-1-79:   RUN DATE
 RUN .                  1:   RUN NUMBER
 DL  .F              2527:   DEPTH LOGGER
 BLI .F              2527:   BOTTOM LOG INTERVAL
 TLI .F               250:   TOP LOG INTERVAL
 CS  .IN            9.625:   CASING SIZE
 CBD .F               500:   CASING BOTTOM DRILLER
 CBL .F               495:   CASING BOTTOM LOGGER
 BS  .IN             8.75:   BIT SIZE
 DFT .                AIR:   DRILLING FLUID TYPE
 TCS .HRS              12:   TIME CURCULATED STOPPED
 LUL .             CASPER:   LOGGING UNIT LOCATION
 ENGI.         B. ROLLINS:   RECORDING ENGINEER
 WITN.           DINSMORE:   WITNESSED BY
 CLNT.            A2DTECH:   CLIENT CODE
 ORIG.           5" PRINT:   ORIGIN OF DATA
 UWI .       490251078000:   UNIQUE WELL ID
 DICO. A2D Technologies, Inc.:   DIGITIZING COMPANY
~OTHER INFORMATION
~A   DEPT     CORR       DPHI       RHOB       CALD         GRD  
# ...
  738.0000     0.0772     0.0290     2.5084     9.1960   117.2771
  738.5000     0.0954     0.0268     2.5154     9.1807   112.4359
  739.0000     0.0825     0.0346     2.5082     9.1652   110.3493
  739.5000     0.0765     0.0403     2.4994     9.1665   112.0472
  740.0000     0.0686     0.0397     2.4905     9.2307   115.4824
  740.5000     0.0564     0.0391     2.4817     9.2985   118.9181
  741.0000     0.0666     0.0432     2.4812     9.3576   121.2119
  741.5000     0.0845     0.0316     2.5055     9.3802   118.1796
  742.0000     0.0982     0.0196     2.5317     9.3916   113.8423
  742.5000     0.0773     0.0212     2.5149     9.4062   112.1186
  743.0000     0.0566     0.0383     2.4979     9.4206   110.7427
  743.5000     0.0487     0.0391     2.4978     9.4349   109.3226
  744.0000     0.0554     0.0259     2.5134     9.4493   108.6508
  744.5000     0.0656     0.0197     2.5269     9.4635   109.7946
  745.0000     0.0747     0.0193     2.5303     9.4767   110.8318
  745.5000     0.0735     0.0316     2.5117     9.4901   110.1099
  746.0000     0.0719     0.0351     2.4977     9.4813   109.3954
  746.5000     0.1127     0.0259     2.5312     9.4605   108.6881
  747.0000     0.1599     0.0118     2.5664     9.4430   107.9802
  747.5000     0.2039    -0.0025     2.5600     9.4251   107.2671
  748.0000     0.2018    -0.0061     2.5555     9.4073   106.5430
  748.5000     0.1913    -0.0012     2.5796     9.3895   107.5639
  749.0000     0.1833     0.0002     2.5649     9.3716   108.9000
  749.5000     0.1815    -0.0115     2.5612     9.3537   110.2310
  750.0000     0.1739    -0.0200     2.5996     9.3357   111.5655
  750.5000     0.1347    -0.0203     2.6022     9.3192   111.5141
  751.0000     0.0887     0.0295     2.5236     9.2995   110.2032
  751.5000     0.0423     0.0557     2.4709     9.3007   109.4304
  752.0000     0.0265     0.0696     2.4408     9.3010   109.7069
  752.5000     0.0282     0.0700     2.4573     9.3008   110.7444
  753.0000     0.0416     0.0511     2.4737     9.3121   109.3583
  753.5000     0.0426     0.0407     2.4802     9.3278   107.2778
  754.0000     0.0499     0.0377     2.4884     9.3437   106.1066
  754.5000     0.0584     0.0347     2.4982     9.3596   106.0174
  755.0000     0.0646     0.0317     2.5061     9.3755   106.2907
  755.5000     0.0622     0.0315     2.5026     9.3913   106.6017
  756.0000     0.0548     0.0326     2.4971     9.4072   107.7713
  756.5000     0.0474     0.0363     2.4917     9.4231   109.4326
  757.0000     0.0459     0.0399     2.4862     9.4390   111.0876
  757.5000     0.0592     0.0419     2.4847     9.4549   112.7473
  758.0000     0.0737     0.0358     2.4978     9.4709   112.7891
  758.5000     0.0879     0.0303     2.5124     9.4742   112.3440
  759.0000     0.0840     0.0248     2.5207     9.4712   110.8607
  759.5000     0.0767     0.0232     2.5126     9.4681   109.0202
  760.0000     0.0745     0.0327     2.4999     9.4651   107.9229
  760.5000     0.0799     0.0239     2.5086     9.4621   109.3435
  761.0000     0.0903     0.0208     2.5231     9.4590   112.6476
  761.5000     0.0763     0.0300     2.5126     9.4538   115.9789
  762.0000     0.0583     0.0403     2.4990     9.4338   116.4382
  762.5000     0.0573     0.0371     2.4903     9.4136   111.3040
  763.0000     0.0811     0.0312     2.5056     9.3935   112.6451
  763.5000     0.1039     0.0169     2.5270     9.3734   115.4689
  764.0000     0.1267     0.0026     2.5485     9.3532   118.3331
  764.5000     0.1397    -0.0109     2.5699     9.3331   118.0212
  765.0000     0.1265    -0.0038     2.5763     9.3130   114.5262
  765.5000     0.1069     0.0060     2.5484     9.2929   111.0067
  766.0000     0.0872     0.0159     2.5292     9.2728   110.4008
  766.5000     0.0676     0.0257     2.5101     9.2526   111.9858
  767.0000     0.0566     0.0327     2.4992     9.2326   113.6143
  767.5000     0.0590     0.0343     2.5031     9.2127   113.4242
  768.0000     0.0639     0.0315     2.5075     9.2029   113.0216
  768.5000     0.0688     0.0290     2.5111     9.2176   112.6483
  769.0000     0.0736     0.0284     2.5079     9.1846   112.5547
  769.5000     0.0738     0.0305     2.5036     9.1843   114.0210
  770.0000     0.0679     0.0315     2.5017     9.1840   115.6390
  770.5000     0.0617     0.0275     2.5118     9.2033   116.7249
  771.0000     0.0691     0.0238     2.5248     9.2284   115.1093
  771.5000     0.0790     0.0217     2.5251     9.2536   112.5536
  772.0000     0.0755     0.0236     2.5206     9.2787   112.2130
  772.5000     0.0639     0.0268     2.5163     9.3038   112.4073
  773.0000     0.0525     0.0300     2.5117     9.3337   112.0326
  773.5000     0.0411     0.0386     2.4984     9.3732   110.9193
  774.0000     0.0297     0.0518     2.4741     9.4126   110.0047
  774.5000     0.0191     0.0651     2.4494     9.4522   110.7094
  775.0000     0.0187     0.0784     2.4287     9.4930   112.5972
  775.5000     0.0261     0.0917     2.4133     9.5018   114.4856
  776.0000     0.0677     0.1053     2.3902     9.5520   115.0370
  776.5000     0.1820     0.1060     2.3796     9.5973   114.2225
  777.0000     0.2957     0.0619     2.4412     9.8420   113.4414
  777.5000     0.4083     0.0041     2.5115     9.9268   113.6284
  778.0000     0.4723    -0.0562     2.5858     9.4316   118.5554
  778.5000     0.4031    -0.0833     2.7496     9.3782   118.8223
  779.0000     0.3236    -0.0945     2.7495     9.3441   117.6955
  779.5000     0.2438    -0.0577     2.7060     9.3148   115.6786
  780.0000     0.1469     0.0174     2.5661     9.3010   113.7386
  780.5000     0.0450     0.0415     2.4915     9.2904   114.7273
  781.0000     0.0415     0.0456     2.4815     9.2749   116.6543
  781.5000     0.0371     0.0499     2.4757     9.2622   118.6637
  782.0000     0.0327     0.0543     2.4699     9.2768   118.8077
  782.5000     0.0312     0.0557     2.4637     9.2822   113.7143
  783.0000     0.0415     0.0488     2.4720     9.2908   112.2152
  783.5000     0.0512     0.0434     2.4840     9.3109   110.3410
  784.0000     0.0611     0.0380     2.4961     9.3310   109.3180
  784.5000     0.0645     0.0334     2.5003     9.3511   110.4991
  785.0000     0.0628     0.0323     2.4996     9.3713   112.3381
  785.5000     0.0606     0.0362     2.4983     9.3914   114.1803
  786.0000     0.0607     0.0389     2.4973     9.4115   116.0219
  786.5000     0.0669     0.0360     2.4963     9.4316   117.8359
  787.0000     0.0734     0.0282     2.4979     9.4517   119.0686
  787.5000     0.0799     0.0269     2.5031     9.4718   117.9224
  788.0000     0.0886     0.0245     2.5189     9.4920   116.0189
  788.5000     0.1020     0.0189     2.5338     9.5121   114.0777
  789.0000     0.1101     0.0133     2.5380     9.5322   112.1126
  789.5000     0.1099     0.0137     2.5378     9.5523   113.1759
  790.0000     0.1154     0.0289     2.5148     9.5724   114.5008
  790.5000     0.1349     0.0395     2.4904     9.5926   115.7095
  791.0000     0.1560     0.0460     2.4777     9.6130   115.8615
  791.5000     0.1771     0.0339     2.5044     9.6330   111.5339
  792.0000     0.1984     0.0064     2.5456     9.6348   109.1541
  792.5000     0.2084    -0.0128     2.5819     9.5155   109.6502
  793.0000     0.1447    -0.0026     2.5709     9.4319   110.8924
  793.5000     0.0898     0.0141     2.5492     9.4216   109.8232
  794.0000     0.0747     0.0224     2.5283     9.4102   109.4760
  794.5000     0.0616     0.0264     2.5167     9.3985   110.5621
  795.0000     0.0546     0.0332     2.5053     9.3805   114.4188
  795.5000     0.0546     0.0377     2.4906     9.3612   118.5800
  796.0000     0.0546     0.0420     2.4834     9.3418   122.7283
  796.5000     0.0602     0.0438     2.4942     9.3225   125.1053
  797.0000     0.0693     0.0297     2.5105     9.3031   123.4102
  797.5000     0.0725     0.0149     2.5271     9.2838   119.7103
  798.0000     0.0819     0.0046     2.5435     9.2645   116.0917
  798.5000     0.0971     0.0090     2.5533     9.2451   112.4760
