~VERSION INFORMATION
 VERS.                2.0:   CWLS LOG ASCII STANDARD - VERSION 2.0
 WRAP.                 NO:   ONE LINE PER DEPTH STEP
~WELL INFORMATION
#MNEM.UNIT      DATA TYPE    INFORMATION
#----------   ------------   ------------------------------
 STRT.F            0.0000:   START DEPTH
 STOP.F          550.0000:   STOP DEPTH
 STEP.F            0.1000:   STEP LENGTH
 NULL.          -999.2500:   NO VALUE
 COMP.       F D SERV INC:   COMPANY
 WELL. NAVAL PETROLEUM RESERVE 3 SX-3 #77-4-3:   WELL
 FLD .          N.P.R. #3:   FIELD
 LOC .       S3 T38N R78W:   LOCATION
 CNTY.            NATRONA:   COUNTY
 STAT.            WYOMING:   STATE
 CTRY. UNITED STATES OF AMERICA:   COUNTRY
 SRVC.      Western Atlas:   SERVICE COMPANY
 DATE.        28-OCT-1992:   LOGDATE
 API .       490252255100:   API NUMBER
~CURVE INFORMATION
#MNEM.UNIT       API CODE    CURVE DESCRIPTION
#----------   ------------   ------------------------------
 DEPT.F                  :   
 GRR .GAPI   07 310 01 00:   GAMMA RAY FROM RESISTIVITY
 RILD.OHMM   07 120 46 00:   DEEP INDUCTION RESISTIVITY
 RILM.OHMM   07 120 44 00:   INDUCTION LOG MEDIUM RESISTIVITY
~PARAMETER INFORMATION
#MNEM.UNIT          VALUE    DESCRIPTION
#----------   ------------   ------------------------------
 PD  .                 GL:   PERMANENT DATUM
 EPD .F              5160:   ELEVATION PERMANENT DATUM
 LMF .                 KB:   LOG MEASURED FROM
 DAPD.F                10:   FEET ABOVE PERMANENT DATUM
 DMF .                 KB:   DRILLING MEASURED FROM
 EKB .F              5170:   KELLING BUSHING
 EDF .F              5169:   DRILLING FLOOR
 EGL .F              5160:   GROUND LEVEL
 DATE.        28-OCT-1992:   RUN DATE
 RUN .                  1:   RUN NUMBER
 DD  .F               555:   DEPTH DRILLER
 DL  .F               558:   DEPTH LOGGER
 BLI .F               550:   BOTTOM LOG INTERVAL
 CS  .IN            8.625:   CASING SIZE
 CBD .F                54:   CASING BOTTOM DRILLER
 CBL .F                54:   CASING BOTTOM LOGGER
 BS  .IN            7.875:   BIT SIZE
 BSD .F               555:   BIT SIZE AT DEPTH
 DFT .           AIR FOAM:   DRILLING FLUID TYPE
 TCS .HRS               1:   TIME CURCULATED STOPPED
 MRT .F                65:   MAXIMUM RECORDED TEMPERATURE
 LUN .            HL-6274:   LOGGING UNIT NUMBER
 LUL .             CASPER:   LOGGING UNIT LOCATION
 ENGI.             RAUTIO:   RECORDING ENGINEER
 WITN.     BRUCE ANDERSON:   WITNESSED BY
 CLNT.            A2DTECH:   CLIENT CODE
 ORIG.           5" PRINT:   ORIGIN OF DATA
 UWI .       490252255100:   UNIQUE WELL ID
 DICO. A2D Technologies, Inc.:   DIGITIZING COMPANY
~OTHER INFORMATION
~A    DEPT      GRR      RILD       RILM   
# ...
  273.0000   146.3102     7.1243     7.2824
  273.1000   146.0381     7.1247     7.2826
  273.2000   145.9819     7.1251     7.2829
  273.3000   145.7395     7.1028     7.2832
  273.4000   146.3460     7.0764     7.2911
  273.5000   146.7463     7.0768     7.3347
  273.6000   146.9535     7.0772     7.3350
  273.7000   147.1398     7.0776     7.3353
  273.8000   147.6775     7.1070     7.3356
  273.9000   148.4696     7.1278     7.3359
  274.0000   148.9387     7.1282     7.3363
  274.1000   149.4375     7.1286     7.3366
  274.2000   149.9364     7.1291     7.3369
  274.3000   150.3623     7.1294     7.3662
  274.4000   150.6126     7.1298     7.3887
  274.5000   150.8975     7.1302     7.3781
  274.6000   150.8991     7.1306     7.3381
  274.7000   150.9009     7.1321     7.3385
  274.8000   150.7956     7.1813     7.3387
  274.9000   150.5489     7.1817     7.3390
  275.0000   150.3021     7.1821     7.3393
  275.1000   149.8068     7.1825     7.3316
  275.2000   149.5065     7.1829     7.2890
  275.3000   149.1184     7.1833     7.2893
  275.4000   148.5352     7.1436     7.2896
  275.5000   147.7229     7.1342     7.2670
  275.6000   146.3856     7.1346     7.2257
  275.7000   145.0122     7.1071     7.1847
  275.8000   143.5227     7.0314     7.1402
  275.9000   142.5214     6.9882     7.1033
  276.0000   142.1631     6.8787     7.0072
  276.1000   142.1799     6.7889     6.8879
  276.2000   142.4692     6.6925     6.7705
  276.3000   142.4707     6.5783     6.6551
  276.4000   142.6288     6.4659     6.5240
  276.5000   142.8791     6.3409     6.4307
  276.6000   143.1295     6.2784     6.3440
  276.7000   143.3843     6.2303     6.2571
  276.8000   143.6302     6.1791     6.1505
  276.9000   144.0711     6.0925     6.0443
  277.0000   144.5700     5.9547     5.9429
  277.1000   145.0688     5.8343     5.8937
  277.2000   145.5677     5.7535     5.8230
  277.3000   146.1144     5.6554     5.7238
  277.4000   146.7903     5.5588     5.6305
  277.5000   147.7090     5.4695     5.5613
  277.6000   148.5873     5.4054     5.5032
  277.7000   149.3988     5.2865     5.4407
  277.8000   150.3949     5.1222     5.3940
  277.9000   151.5635     4.9641     5.3633
  278.0000   152.5924     4.8701     5.3329
  278.1000   153.8369     4.8703     5.2981
  278.2000   154.9830     4.8706     5.2725
  278.3000   155.8447     4.8967     5.2617
  278.4000   156.1040     4.9252     5.2620
  278.5000   156.3454     4.9539     5.2622
  278.6000   156.5957     4.9828     5.2624
  278.7000   156.7136     5.0118     5.2626
  278.8000   156.6365     5.0450     5.2628
  278.9000   156.3898     5.0704     5.2803
  279.0000   156.1150     5.1000     5.3218
  279.1000   155.6759     5.1297     5.3790
  279.2000   155.0139     5.1596     5.4124
  279.3000   154.3833     5.1890     5.4126
  279.4000   153.7687     5.1893     5.4351
  279.5000   152.7885     5.1896     5.4666
  279.6000   152.1985     5.1898     5.4983
  279.7000   151.9989     5.1901     5.5301
  279.8000   151.7522     5.1904     5.5666
  279.9000   151.5994     5.1907     5.5668
  280.0000   151.5609     5.1910     5.5878
  280.1000   151.3010     5.1687     5.6202
  280.2000   151.3027     5.1555     5.6527
  280.3000   151.1229     5.1558     5.6855
  280.4000   151.0042     5.1561     5.7184
  280.5000   151.0060     5.1564     5.7516
  280.6000   151.0079     5.1567     5.7849
  280.7000   151.0099     5.1780     5.8184
  280.8000   150.7956     5.1933     5.8470
  280.9000   150.5488     5.1936     5.8473
  281.0000   150.1933     5.1961     5.8475
  281.1000   149.6981     5.2305     5.8478
  281.2000   149.2044     5.2308     5.8480
  281.3000   148.9577     5.2311     5.8482
  281.4000   148.5143     5.2314     5.8457
  281.5000   148.0191     5.2317     5.8082
  281.6000   147.5239     5.2320     5.8084
  281.7000   146.9569     5.2323     5.7868
  281.8000   145.8938     5.2325     5.7540
  281.9000   145.6646     5.2149     5.7138
  282.0000   145.4179     5.1968     5.6488
  282.1000   145.1712     5.1971     5.5720
  282.2000   144.9946     5.1974     5.4960
  282.3000   145.0293     5.1977     5.3845
  282.4000   145.6027     5.1979     5.2625
  282.5000   145.8157     5.1982     5.1525
  282.6000   146.3819     5.2086     5.0909
  282.7000   147.2337     5.2351     5.0361
  282.8000   148.2805     5.1991     5.0209
  282.9000   149.5390     5.1994     5.0362
  283.0000   150.2779     5.1997     5.0744
  283.1000   151.2174     5.2147     5.1359
  283.2000   151.9363     5.2366     5.2360
  283.3000   152.4352     5.2390     5.2894
  283.4000   152.9655     5.2739     5.3713
  283.5000   153.7796     5.2741     5.4505
  283.6000   154.4605     5.2744     5.5059
  283.7000   155.2079     5.2747     5.5378
  283.8000   155.8361     5.2819     5.5759
  283.9000   156.0722     5.3127     5.6000
  284.0000   155.5163     5.3497     5.6297
  284.1000   153.4885     5.3748     5.6593
  284.2000   152.2478     5.4061     5.6889
  284.3000   151.0652     5.4376     5.7186
  284.4000   149.4736     5.4638     5.7482
  284.5000   147.1756     5.4641     5.7779
  284.6000   145.6423     5.4948     5.8075
  284.7000   144.4379     5.5269     5.8159
  284.8000   143.5723     5.5591     5.8332
  284.9000   142.6943     5.5808     5.8570
  285.0000   141.7020     5.5850     5.8573
  285.1000   140.6556     5.6204     5.8576
  285.2000   139.0068     5.6503     5.8578
  285.3000   138.1206     5.6832     5.8580
  285.4000   137.6334     5.7163     5.8731
  285.5000   137.2718     5.7496     5.8994
  285.6000   136.8378     5.7854     5.9001
  285.7000   136.5911     5.8623     5.9343
  285.8000   136.2988     5.9209     5.9963
  285.9000   136.3003     5.9674     6.0657
  286.0000   136.1531     6.0174     6.1492
  286.1000   136.0018     6.0953     6.2619
  286.2000   136.0036     6.2011     6.4153
  286.3000   136.0055     6.2875     6.5210
  286.4000   135.7704     6.3463     6.6066
  286.5000   135.8902     6.4423     6.6831
  286.6000   136.0109     6.5402     6.7368
  286.7000   136.1649     6.6031     6.7406
  286.8000   136.6638     6.6035     6.7845
  286.9000   137.2250     6.6405     6.8190
  287.0000   137.6617     6.6504     6.8324
  287.1000   138.4885     6.6715     6.8327
  287.2000   139.4845     6.6976     6.8330
  287.3000   140.3100     6.6980     6.8342
  287.4000   140.5636     6.6984     6.8814
  287.5000   141.0624     6.6987     6.9136
  287.6000   141.1649     6.6723     6.9300
  287.7000   141.3114     6.6717     6.9302
  287.8000   141.4707     6.6892     6.9305
  287.9000   141.4725     6.6537     6.9308
  288.0000   141.4744     6.6541     6.8933
  288.1000   141.2437     6.6218     6.8542
  288.2000   141.1758     6.6086     6.8152
  288.3000   141.1776     6.5926     6.7765
  288.4000   141.1078     6.5635     6.7380
  288.5000   140.8610     6.5620     6.6954
  288.6000   140.5791     6.3839     6.6617
  288.7000   140.1544     6.2111     6.5985
  288.8000   139.4996     6.1024     6.5065
  288.9000   138.4380     6.0545     6.4046
  289.0000   136.9488     5.9855     6.3305
  289.1000   135.4520     5.9145     6.2034
  289.2000   135.4538     5.8823     6.0887
  289.3000   135.4556     5.8238     5.9509
  289.4000   135.5976     5.7753     5.8290
  289.5000   135.8479     5.7317     5.7354
  289.6000   136.1975     5.6627     5.6678
  289.7000   137.2757     5.5569     5.5750
  289.8000   138.4175     5.4712     5.4801
  289.9000   139.3130     5.3567     5.3705
  290.0000   139.9395     5.2495     5.2584
  290.1000   140.4385     5.1679     5.1720
  290.2000   140.9374     5.1071     5.1071
  290.3000   141.5163     5.0072     5.0811
  290.4000   141.9351     4.9586     5.0523
  290.5000   142.8991     4.9202     5.0371
  290.6000   144.2451     4.8923     5.0299
  290.7000   145.5466     4.8645     5.0025
  290.8000   146.0568     4.8371     5.0028
  290.9000   146.5444     4.8373     4.9793
  291.0000   146.8540     4.8376     4.9685
  291.1000   146.9686     4.8379     4.9687
