~VERSION INFORMATION
 VERS.                2.0:   CWLS LOG ASCII STANDARD - VERSION 2.0
 WRAP.                 NO:   ONE LINE PER DEPTH STEP
~WELL INFORMATION
#MNEM.UNIT      DATA TYPE    INFORMATION
#----------   ------------   ------------------------------
 STRT.F         1782.5000:   START DEPTH
 STOP.F         2209.5000:   STOP DEPTH
 STEP.F            0.5000:   STEP LENGTH
 NULL.          -999.2500:   NO VALUE
 COMP. BROWN JOHN E&C INC:   COMPANY
 WELL. NPR 3 SHX-28 #66-28:   WELL
 FLD .             TEAPOT:   FIELD
 LOC .      S28 T39N R78W:   LOCATION
 CNTY.            NATRONA:   COUNTY
 STAT.            WYOMING:   STATE
 CTRY. UNITED STATES OF AMERICA:   COUNTRY
 SRVC.            Unknown:   SERVICE COMPANY
 DATE.        11-OCT-1991:   LOGDATE
 API .       490251105600:   API NUMBER
~CURVE INFORMATION
#MNEM.UNIT       API CODE    CURVE DESCRIPTION
#----------   ------------   ------------------------------
 DEPT.F                  :   
 ROP .MIN/FT 91 810 01 00:   RATE OF DRILLING PENETRATION
 TGAS.UNITS  91 830 01 00:   TOTAL GAS FROM HOTWIRE
~PARAMETER INFORMATION
#MNEM.UNIT          VALUE    DESCRIPTION
#----------   ------------   ------------------------------
 EKB .F              5068:   KELLING BUSHING
 EGL .F              5058:   GROUND LEVEL
 DATE.           10-11-91:   RUN DATE
 DD  .F              2210:   DEPTH DRILLER
 BLI .F              2210:   BOTTOM LOG INTERVAL
 TLI .F              1780:   TOP LOG INTERVAL
 CS  .IN            8.625:   CASING SIZE
 CBD .F               480:   CASING BOTTOM DRILLER
 ENGI.               HUSK:   RECORDING ENGINEER
 WITN.              TOWER:   WITNESSED BY
 CLNT.            A2DTECH:   CLIENT CODE
 ORIG.           5" PRINT:   ORIGIN OF DATA
 UWI .       490251105600:   UNIQUE WELL ID
 DICO. A2D Technologies, Inc.:   DIGITIZING COMPANY
~OTHER INFORMATION
~A  DEPT         ROP      TGAS  
# ...
 2147.0000     0.5533    14.6786
 2147.5000     0.6031    14.7321
 2148.0000     0.6125    14.7857
 2148.5000     0.5531    14.8393
 2149.0000     0.4938    14.8929
 2149.5000     0.4345    14.9464
 2150.0000     0.3763    15.0000
 2150.5000     0.3739    15.0536
 2151.0000     0.3714    15.1071
 2151.5000     0.3690    15.1607
 2152.0000     0.3666    15.2143
 2152.5000     0.3483    15.2679
 2153.0000     0.3190    15.3214
 2153.5000     0.2897    15.3750
 2154.0000     0.2812    15.4286
 2154.5000     0.3246    15.4821
 2155.0000     0.3680    15.5357
 2155.5000     0.4086    15.5893
 2156.0000     0.4301    15.6429
 2156.5000     0.4194    15.6964
 2157.0000     0.3906    15.7500
 2157.5000     0.3522    15.8036
 2158.0000     0.3358    15.8571
 2158.5000     0.3411    15.9107
 2159.0000     0.3464    15.9643
 2159.5000     0.3516    16.0179
 2160.0000     0.3569    16.0714
 2160.5000     0.3622    16.1250
 2161.0000     0.3588    16.1786
 2161.5000     0.3394    16.2321
 2162.0000     0.3441    16.2857
 2162.5000     0.3471    16.3393
 2163.0000     0.3535    16.3929
 2163.5000     0.3548    16.4464
 2164.0000     0.3612    16.5000
 2164.5000     0.3656    16.5536
 2165.0000     0.3825    16.6071
 2165.5000     0.4092    16.6607
 2166.0000     0.4301    16.7143
 2166.5000     0.4023    16.7679
 2167.0000     0.3871    16.8214
 2167.5000     0.3306    16.8750
 2168.0000     0.3144    16.9286
 2168.5000     0.3548    16.9821
 2169.0000     0.3978    17.0357
 2169.5000     0.4238    17.0893
 2170.0000     0.4382    17.1429
 2170.5000     0.4409    17.1964
 2171.0000     0.3978    17.2500
 2171.5000     0.3548    17.3036
 2172.0000     0.3548    17.3571
 2172.5000     0.3548    17.4107
 2173.0000     0.3548    17.4643
 2173.5000     0.3011    17.5179
 2174.0000     0.2581    17.5714
 2174.5000     0.3268    17.6250
 2175.0000     0.3871    17.6786
 2175.5000     0.4331    17.7321
 2176.0000     0.4946    17.7857
 2176.5000     0.4597    17.8393
 2177.0000     0.4249    17.8928
 2177.5000     0.3978    17.9464
 2178.0000     0.3925    18.0000
 2178.5000     0.3871    18.0536
 2179.0000     0.3763    18.1071
 2179.5000     0.3656    18.1607
 2180.0000     0.3817    18.2186
 2180.5000     0.4052    18.1699
 2181.0000     0.4516    18.1170
 2181.5000     0.5197    18.0640
 2182.0000     0.5741    18.0110
 2182.5000     0.6022    17.9580
 2183.0000     0.5677    17.9050
 2183.5000     0.5389    17.8521
 2184.0000     0.5161    17.7991
 2184.5000     0.5161    17.7461
 2185.0000     0.5286    17.6931
 2185.5000     0.5350    17.6401
 2186.0000     0.5376    17.5872
 2186.5000     0.5631    17.5342
 2187.0000     0.5914    17.4812
 2187.5000     0.6137    17.4282
 2188.0000     0.6237    17.3753
 2188.5000     0.5507    17.3223
 2189.0000     0.4731    17.2693
 2189.5000     0.4039    17.2163
 2190.0000     0.3556    17.1633
 2190.5000     0.3226    17.1104
 2191.0000     0.3657    17.0574
 2191.5000     0.4187    17.0044
 2192.0000     0.4946    16.9514
 2192.5000     0.4607    16.8984
 2193.0000     0.4301    16.8455
 2193.5000     0.4065    16.7925
 2194.0000     0.3871    16.7395
 2194.5000     0.3897    16.6865
 2195.0000     0.3930    16.6336
 2195.5000     0.3964    16.5806
 2196.0000     0.4022    16.5276
 2196.5000     0.4127    16.4746
 2197.0000     0.4349    16.4216
 2197.5000     0.4387    16.3687
 2198.0000     0.4357    16.3157
 2198.5000     0.4328    16.2627
 2199.0000     0.4301    16.2097
 2199.5000     0.4232    16.1567
 2200.0000     0.4086    16.1038
 2200.5000     0.4325    16.0508
 2201.0000     0.4600    15.9978
 2201.5000     0.4946    15.9448
 2202.0000     0.5270    15.8919
 2202.5000     0.5591    15.8389
 2203.0000     0.5041    15.7859
 2203.5000     0.4565    15.7329
 2204.0000     0.4090    15.6799
 2204.5000     0.4086    15.6270
 2205.0000     0.4115    15.5740
 2205.5000     0.4145    15.5210
 2206.0000     0.4176    15.4680
 2206.5000     0.4569    15.4150
 2207.0000     0.5161    15.3707
 2207.5000     0.5161    15.6165
 2208.0000     0.5161    15.8281
 2208.5000     0.4561    16.0397
 2209.0000     0.4143    16.2512
 2209.5000     0.4232    16.4628
