~VERSION INFORMATION
 VERS.                2.0:   CWLS LOG ASCII STANDARD - VERSION 2.0
 WRAP.                 NO:   ONE LINE PER DEPTH STEP
~WELL INFORMATION
#MNEM.UNIT      DATA TYPE    INFORMATION
#----------   ------------   ------------------------------
 STRT.F           12.0000:   START DEPTH
 STOP.F          549.0000:   STOP DEPTH
 STEP.F            0.5000:   STEP LENGTH
 NULL.          -999.2500:   NO VALUE
 COMP. LAWRENCE/ALLISON INC:   COMPANY
 WELL.  58-64-1 SX 3 #3-3:   WELL
 FLD .             TEAPOT:   FIELD
 LOC .       S3 T38N R78W:   LOCATION
 CNTY.            NATRONA:   COUNTY
 STAT.            WYOMING:   STATE
 CTRY. UNITED STATES OF AMERICA:   COUNTRY
 SRVC.      Dresser Atlas:   SERVICE COMPANY
 DATE.        05-DEC-1984:   LOGDATE
 API .       490251117800:   API NUMBER
~CURVE INFORMATION
#MNEM.UNIT       API CODE    CURVE DESCRIPTION
#----------   ------------   ------------------------------
 DEPT.F                  :   
 RFOC.OHMM   07 220 04 00:   RESISTIVITY FOCUSED LOG
 RILD.OHMM   07 120 46 00:   INDUCTION LOG DEEP RESISTIVITY
 RILM.OHMM   07 120 44 00:   INDUCTION LOG MEDIUM RESISTIVITY
 SPR .MV     07 010 01 00:   SPONTANEOUS POTENTIAL
 CALD.IN     45 280 60 00:   CALIPER FROM DENSITY LOG
 CNC .DEC    42 890 03 00:   NEUTRON POROSITY SANDSTONE
 CORR.G/C3   45 356 01 00:   DENSITY CORRECTION
 DEN .G/C3   45 350 01 00:   COMPENSATED BULK DENSTIY
 GRD .GAPI   45 310 01 00:   GAMMA RAY FROM DENSITY LOG
 PORD.DEC    45 890 12 00:   POROSITY DENSITY SANDSTONE
 DT  .US/F   60 520 00 00:   INTERVAL TRANSIT TIME
~PARAMETER INFORMATION
#MNEM.UNIT          VALUE    DESCRIPTION
#----------   ------------   ------------------------------
 PD  .                 GL:   PERMANENT DATUM
 EPD .F              5188:   ELEVATION PERMANENT DATUM
 LMF .                 KB:   LOG MEASURED FROM
 DMF .                 KB:   DRILLING MEASURED FROM
 EGL .F              5188:   GROUND LEVEL
 DATE.         5-DEC-1984:   RUN DATE
 RUN .                  1:   RUN NUMBER
 DD  .F               556:   DEPTH DRILLER
 DL  .F               551:   DEPTH LOGGER
 BLI .F               549:   BOTTOM LOG INTERVAL
 CS  .IN            8.625:   CASING SIZE
 CBD .F                20:   CASING BOTTOM DRILLER
 CBL .F                20:   CASING BOTTOM LOGGER
 BS  .IN            7.875:   BIT SIZE
 BSD .F               556:   BIT SIZE AT DEPTH
 DFT .          KCL WATER:   DRILLING FLUID TYPE
 MSS .           FLOWLINE:   MUD SAMPLE SOURCE
 RMS .OHMM            .36:   RESISTIVITY MUD SAMPLE
 MST .F                70:   MUD SAMPLE TEMPERATURE
 RMF .OHMM            .26:   RESISTIVITY MUD FILTRATE SAMPLE
 MFST.F                70:   MUD FILTRATE SAMPLE TEMPERATURE
 RMC .OHMM            .46:   RESISTIVITY MUD CAKE
 MCST.F                70:   MUD CAKE SAMPLE TEMPERATURE
 MFSS.               CALC:   MUD FILTRATE SAMPLE SOURCE
 MCSS.               CALC:   MUD CAKE SAMPLE SOURCE
 RMB .OHMM            .29:   RESISTIVITY MUD AT BHT
 BHT .F                85:   BOTTOM HOLE TEMPERATURE
 TCS .HRS               3:   TIME CURCULATED STOPPED
 MRT .F               100:   MAXIMUM RECORDED TEMPERATURE
 LUN .               6274:   LOGGING UNIT NUMBER
 LUL .               GLTE:   LOGGING UNIT LOCATION
 ENGI.             RAUTIO:   RECORDING ENGINEER
 WITN.       GROOMS/LUERS:   WITNESSED BY
 CLNT.            A2DTECH:   CLIENT CODE
 ORIG.         2.5" PRINT:   ORIGIN OF DATA
 UWI .       490251117800:   UNIQUE WELL ID
 DICO. A2D Technologies, Inc.:   DIGITIZING COMPANY
~OTHER INFORMATION
~A   DEPT     RFOC       RILD       RILM        SPR       CALD        CNC       CORR        DEN         GRD      PORD         DT   
# ...
  195.0000     5.8218     6.0269     6.1596   -69.4996     8.0589     0.3191     0.0577     2.4629   109.3516     0.1222   111.5561
  195.5000     6.3261     5.9839     6.2854   -69.2062     8.0282     0.3046     0.0517     2.4720   113.1074     0.1198   110.7182
  196.0000     6.5930     6.0736     6.5076   -68.9128     7.9976     0.2760     0.0440     2.4811   117.3009     0.1180   108.9291
  196.5000     6.8712     6.4723     6.7354   -68.3154     7.9971     0.2727     0.0316     2.4826   119.8221     0.1132   107.2426
  197.0000     7.2614     6.9802     6.9773   -68.3259     7.9967     0.2790     0.0233     2.4875   118.9747     0.1082   106.2720
  197.5000     7.5677     7.2176     7.1607   -68.0319     7.9962     0.2879     0.0280     2.4965   117.1125     0.1032   105.6674
  198.0000     8.1096     7.2555     7.3172   -68.0430     7.9958     0.2957     0.0350     2.5025   117.0415     0.0997   105.0628
  198.5000     8.3350     7.2519     7.4587   -67.7492     7.9953     0.2932     0.0196     2.5041   117.0355     0.1024   104.8072
  199.0000     8.3315     7.2489     7.5588   -68.0641     8.0019     0.2847     0.0104     2.5061   116.1277     0.1012   104.5534
  199.5000     8.3281     7.1458     7.5552   -68.0746     8.0332     0.2842     0.0091     2.5049   116.7264     0.1024   104.8560
  200.0000     8.3246     7.1428     7.5303   -68.0851     8.0545     0.2946     0.0151     2.5013   117.3252     0.1061   104.8566
  200.5000     8.0928     7.1399     7.4605   -68.0957     8.0539     0.2982     0.0273     2.4992   117.9227     0.1067   104.9643
  201.0000     7.8588     7.1369     7.3907   -68.1064     8.0534     0.3043     0.0363     2.5023   118.5228     0.1036   105.4238
  201.5000     7.6358     7.2339     7.2897   -67.7857     8.0530     0.3019     0.0454     2.5045   117.7659     0.1024   106.1850
  202.0000     7.3245     7.2309     7.2313   -67.4772     8.0223     0.2862     0.0545     2.5076   114.6707     0.1018   107.2257
  202.5000     7.2283     7.1280     7.1750   -67.1733     8.0219     0.2754     0.0696     2.5092   112.4468     0.1013   108.0090
  203.0000     7.2023     7.1251     7.0690   -66.9408     7.9912     0.2694     0.0757     2.5083   111.8359     0.1014   108.3178
  203.5000     7.1225     7.0237     6.9265   -67.6474     7.9908     0.2712     0.0725     2.5022   111.2254     0.1075   108.4766
  204.0000     7.1195     7.0208     6.7336   -67.9757     7.9903     0.2875     0.0328     2.4930   114.0750     0.1129   108.6274
  204.5000     7.1509     6.8174     6.6379   -67.7812     8.0201     0.2832     0.0028     2.4854   117.0303     0.1148   108.9422
  205.0000     7.2138     6.6233     6.5435   -67.1732     8.0196     0.2802     0.0033     2.4840   120.5167     0.1142   109.5525
  205.5000     7.1106     6.4347     6.2734   -66.2979     8.0192     0.2842     0.0157     2.4843   123.0527     0.1136   110.1629
  206.0000     6.9649     6.2372     6.0988   -65.7994     8.0256     0.2943     0.0250     2.4870   121.5198     0.1125   111.0407
  206.5000     6.7673     5.8900     5.7663   -65.8116     8.0485     0.2997     0.0367     2.4905   119.7943     0.1125   112.3982
  207.0000     6.5269     4.8706     5.0855   -66.2979     8.0480     0.3028     0.0420     2.4961   123.3611     0.1149   113.9065
  207.5000     5.8839     4.1217     4.0690   -67.3580     8.0476     0.3076     0.0370     2.4872   126.3977     0.1332   115.5656
  208.0000     4.4211     4.1778     4.1243   -67.9778     8.0471     0.3185     0.0328     2.4637   128.2188     0.1591   118.5822
  208.5000     4.4812     4.1973     4.2405   -67.6858     8.0467     0.3294     0.0353     2.4101   121.5285     0.1748   120.2413
  209.0000     4.6703     4.3416     4.4830   -67.0898     8.0462     0.3295     0.0446     2.3731   118.4860     0.1806   118.8839
  209.5000     5.0748     4.5931     4.6809   -66.7963     8.0458     0.3216     0.0539     2.3736   118.4830     0.1757   116.6214
  210.0000     6.4263     4.9623     4.8932   -66.5046     8.0452     0.3077     0.0600     2.4187   117.2642     0.1463   111.4932
  210.5000     7.9143     5.5191     5.6739   -66.2128     8.0448     0.2910     0.0487     2.4520   116.0455     0.1295   107.5716
  211.0000     7.9111     6.2318     6.8504   -66.2256     8.0746     0.2877     0.0205     2.4733   118.4741     0.1216   106.3650
  211.5000     7.5846     6.9655     7.2255   -66.2376     8.0741     0.2876    -0.0037     2.4824   122.1185     0.1184   106.3454
  212.0000     7.4767     7.1587     7.4773   -65.9453     8.0737     0.2972     0.0205     2.4854   127.0274     0.1168   106.8175
  212.5000     7.5784     7.2560     7.5790   -65.9575     8.0732     0.3029     0.0447     2.4899   128.1916     0.1138   106.9683
  213.0000     7.6814     7.4567     7.6149   -65.6654     8.0728     0.2886     0.0386     2.4901   128.8733     0.1122   106.6667
  213.5000     7.8987     7.5579     7.7858   -65.6778     8.0723     0.2904     0.0143     2.4854   130.6173     0.1157   106.3650
  214.0000     8.2364     7.7671     7.8916   -65.3853     8.0719     0.2940     0.0139     2.4869   129.8764     0.1171   106.0633
  214.5000     8.3528     7.7634     7.8883   -65.0933     8.0412     0.2880     0.0294     2.4899   128.6312     0.1141   105.7617
  215.0000     8.4708     7.8685     7.9954   -65.1064     8.0408     0.2832     0.0445     2.4914   126.5958     0.1117   105.6109
  215.5000     8.5682     7.9749     7.9921   -65.1185     8.0403     0.2796     0.0445     2.4914   124.1084     0.1124   105.6109
  216.0000     8.4460     7.9710     7.9881   -65.1307     8.0399     0.2887     0.0319     2.4912   121.6211     0.1124   105.6229
  216.5000     8.4115     7.9671     7.9849   -65.1429     8.0394     0.2978     0.0202     2.4899   120.0031     0.1125   105.7617
  217.0000     8.3223     7.9633     7.8713   -64.8489     8.0390     0.3039     0.0202     2.4899   119.0456     0.1106   105.7617
  217.5000     8.2796     7.8359     7.8681   -64.8632     8.0385     0.3037     0.0273     2.4903   119.6505     0.1082   105.7617
  218.0000     8.2005     7.7194     7.5434   -64.5714     8.0381     0.3000     0.0366     2.4940   119.6474     0.1064   105.7617
  218.5000     8.1497     7.6266     7.4361   -64.7295     8.0376     0.2956     0.0460     2.5044   119.0359     0.1034   105.5812
  219.0000     8.0804     7.6229     7.2291   -64.8997     8.0372     0.2900     0.0504     2.5138   117.2092     0.1004   105.3937
  219.5000     8.0771     7.5884     7.2261   -64.9118     8.0367     0.2829     0.0267     2.5247   115.9904     0.0944   105.0850
  220.0000     8.0737     7.5102     7.3244   -65.5343     8.0363     0.2762     0.0036     2.5244   115.8257     0.0835   104.5551
  220.5000     8.0703     7.6124     7.3214   -65.8502     8.0183     0.3003     0.0105     2.5106   120.8477     0.0980   104.9442
  221.0000     8.0663     7.6080     7.5249   -65.8621     8.0051     0.3272     0.0214     2.5004   128.1395     0.1041   105.5546
  221.5000     8.1760     7.7109     7.6328   -65.5684     8.0046     0.3420     0.0292     2.4984   129.5188     0.1072   106.2157
  222.0000     8.1726     7.7071     7.7309   -65.8859     8.0042     0.3493     0.0333     2.5050   125.7020     0.1043   106.9683
  222.5000     8.1693     7.8113     7.7133   -66.2018     8.0037     0.3139     0.0259     2.5035   124.4832     0.1024   107.0261
  223.0000     8.1659     7.8075     7.5123   -66.5177     8.0033     0.3112     0.0198     2.4989   124.4802     0.1044   107.2700
  223.5000     8.1626     7.6952     7.2816   -66.8335     8.0028     0.3108     0.0137     2.4958   125.6931     0.1079   107.2700
  224.0000     8.1592     7.4804     6.9056   -66.8455     8.0024     0.3146     0.0167     2.4958   126.3465     0.1095   107.2700
  224.5000     8.1559     6.8780     6.4121   -66.5534     8.0322     0.3192     0.0258     2.4989   127.6605     0.1070   107.2700
  225.0000     8.1526     6.5026     6.3174   -66.5653     8.0317     0.3235     0.0318     2.5034   132.1682     0.1039   107.1192
