~VERSION INFORMATION
 VERS.                2.0:   CWLS LOG ASCII STANDARD - VERSION 2.0
 WRAP.                 NO:   ONE LINE PER DEPTH STEP
~WELL INFORMATION
#MNEM.UNIT      DATA TYPE    INFORMATION
#----------   ------------   ------------------------------
 STRT.F            0.0000:   START DEPTH
 STOP.F          534.0000:   STOP DEPTH
 STEP.F            0.1000:   STEP LENGTH
 NULL.          -999.2500:   NO VALUE
 COMP.       F D SERV INC:   COMPANY
 WELL. NAVAL PETROLEUM RESERVE 3 SX-1 #71-2-10:   WELL
 FLD .            N.P.R 3:   FIELD
 LOC .      S10 T38N R78W:   LOCATION
 CNTY.            NATRONA:   COUNTY
 STAT.            WYOMING:   STATE
 CTRY. UNITED STATES OF AMERICA:   COUNTRY
 SRVC.     Atlas Wireline:   SERVICE COMPANY
 DATE.        07-DEC-1992:   LOGDATE
 API .       490252257200:   API NUMBER
~CURVE INFORMATION
#MNEM.UNIT       API CODE    CURVE DESCRIPTION
#----------   ------------   ------------------------------
 DEPT.F                  :   
 GRR .GAPI   07 310 01 00:   GAMMA RAY
 RILD.OHMM   07 120 46 00:   INDUCTION LOG DEEP RESISTIVITY
 RILM.OHMM   07 120 44 00:   RESITIVITY LONG MEDIUM
~PARAMETER INFORMATION
#MNEM.UNIT          VALUE    DESCRIPTION
#----------   ------------   ------------------------------
 PD  .                 GL:   PERMANENT DATUM
 EPD .F              5165:   ELEVATION PERMANENT DATUM
 LMF .                 KB:   LOG MEASURED FROM
 DAPD.F                10:   FEET ABOVE PERMANENT DATUM
 DMF .                 KB:   DRILLING MEASURED FROM
 EKB .F              5175:   KELLING BUSHING
 EDF .F              5174:   DRILLING FLOOR
 EGL .F              5165:   GROUND LEVEL
 DATE.        07-DEC-1992:   RUN DATE
 RUN .                  1:   RUN NUMBER
 DD  .F               540:   DEPTH DRILLER
 DL  .F               542:   DEPTH LOGGER
 BLI .F               534:   BOTTOM LOG INTERVAL
 CS  .IN            8.625:   CASING SIZE
 CBD .F                78:   CASING BOTTOM DRILLER
 CBL .F                82:   CASING BOTTOM LOGGER
 BS  .IN            7.875:   BIT SIZE
 BSD .F               540:   BIT SIZE AT DEPTH
 DFT .           AIR FOAM:   DRILLING FLUID TYPE
 BHT .F                70:   BOTTOM HOLE TEMPERATURE
 MRT .F                70:   MAXIMUM RECORDED TEMPERATURE
 LUN .           HL- 6345:   LOGGING UNIT NUMBER
 LUL .         FT. MORGAN:   LOGGING UNIT LOCATION
 ENGI.             BURLEY:   RECORDING ENGINEER
 WITN.        GARY STRONG:   WITNESSED BY
 CLNT.            A2DTECH:   CLIENT CODE
 ORIG.           5" PRINT:   ORIGIN OF DATA
 UWI .       490252257200:   UNIQUE WELL ID
 DICO. A2D Technologies, Inc.:   DIGITIZING COMPANY
~OTHER INFORMATION
~A    DEPT      GRR      RILD       RILM   
# ...
  127.4000   118.5880     9.2675     9.5769
  127.5000   118.5843     9.2669     9.6118
  127.6000   118.8297     9.3007     9.6679
  127.7000   118.8783     9.3542     9.7244
  127.8000   118.8747     9.3958     9.7812
  127.9000   118.8711     9.3951     9.8383
  128.0000   118.8675     9.3943     9.8501
  128.1000   118.8637     9.4379     9.9173
  128.2000   118.8602     9.4922     9.9899
  128.3000   118.8566     9.5251     9.9992
  128.4000   118.8530     9.5346    10.0602
  128.5000   118.8494     9.5907    10.0600
  128.6000   118.8458     9.6446    10.1038
  128.7000   118.8418     9.6568    10.1308
  128.8000   118.8386     9.6877    10.1501
  128.9000   118.8349     9.7434    10.2094
  129.0000   118.8313     9.7912    10.2743
  129.1000   118.6911     9.7904    10.2740
  129.2000   118.2217     9.8432    10.2737
  129.3000   118.2175     9.8998    10.3032
  129.4000   118.0016     9.9567    10.3461
  129.5000   117.7490    10.0140    10.3504
  129.6000   117.3879    10.0654    10.4189
  129.7000   116.8864    10.0645    10.4186
  129.8000   116.3847    10.1696    10.4183
  129.9000   115.7860    10.2052    10.4456
  130.0000   114.9800    10.2045    10.5066
  130.1000   113.9803    10.2202    10.5659
  130.2000   112.8843    10.2789    10.5655
  130.3000   111.6799    10.3463    10.6164
  130.4000   110.6481    10.3975    10.6785
  130.5000   109.9217    10.4573    10.7152
  130.6000   109.5486    10.5174    10.7399
  130.7000   109.2960    10.5779    10.8673
  130.8000   109.1277    10.6369    10.8670
  130.9000   109.1241    10.6360    10.9165
  131.0000   109.1202    10.7375    10.9803
  131.1000   109.1169    10.7848    11.0444
  131.2000   109.1133    10.8095    11.1089
  131.3000   109.1096    10.8593    11.1773
  131.4000   109.1783    10.8583    11.1770
  131.5000   109.4437    10.8576    11.1766
  131.6000   110.0019    10.8568    11.1763
  131.7000   110.6494    10.8561    11.1760
  131.8000   111.5574    10.8553    11.1830
  131.9000   112.5498    10.8545    11.2547
  132.0000   113.4820    10.8537    11.2544
  132.1000   114.2334    10.7933    11.2541
  132.2000   115.4018    10.7765    11.2538
  132.3000   115.8084    10.7757    11.2534
  132.4000   116.1502    10.7749    11.2531
  132.5000   116.2952    10.7742    11.2528
  132.6000   116.2916    10.7734    11.2525
  132.7000   116.2879    10.7727    11.2095
  132.8000   116.0394    10.7719    11.1725
  132.9000   115.4012    10.7712    11.1722
  133.0000   114.5101    10.7704    11.1719
  133.1000   113.6872    10.7697    11.1715
  133.2000   113.1494    10.7688    11.1713
  133.3000   112.3504    10.7682    11.1709
  133.4000   111.6481    10.7674    11.1447
  133.5000   111.0783    10.7666    11.0793
  133.6000   110.5767    10.7659    11.0131
  133.7000   110.2277    10.7651    11.0128
  133.8000   110.2241    10.7643    11.0125
  133.9000   110.2201    10.7636    11.0121
  134.0000   110.2169    10.7629    11.0118
  134.1000   110.2133    10.7360    11.0021
  134.2000   110.2096    10.6862    10.9336
  134.3000   110.1418    10.6854    10.8735
  134.4000   109.8892    10.6847    10.8559
  134.5000   109.5958    10.6839    10.8556
  134.6000   109.5928    10.6468    10.8553
  134.7000   109.2759    10.6078    10.8550
  134.8000   108.9831    10.6071    10.8546
  134.9000   108.8751    10.6063    10.8544
  135.0000   108.3735    10.6056    10.8541
  135.1000   108.3699    10.6049    10.8538
  135.2000   108.3663    10.6041    10.8534
  135.3000   108.3627    10.6034    10.8531
  135.4000   108.3590    10.6026    10.8528
  135.5000   108.3956    10.6018    10.8525
  135.6000   108.6528    10.5443    10.8116
  135.7000   109.1233    10.5264    10.7754
  135.8000   109.4329    10.4944    10.7610
  135.9000   109.8109    10.4514    10.6989
  136.0000   110.1446    10.4506    10.6985
  136.1000   110.1691    10.4498    10.6982
  136.2000   110.4382    10.3955    10.6979
  136.3000   110.4349    10.3346    10.6976
  136.4000   110.4313    10.3023    10.6973
  136.5000   110.4277    10.3015    10.6970
  136.6000   110.3558    10.3008    10.6967
  136.7000   110.1193    10.3000    10.6964
  136.8000   110.1151    10.2487    10.6961
  136.9000   109.8992    10.2267    10.6743
  137.0000   109.6466    10.2260    10.6201
  137.1000   109.5024    10.2119    10.6198
  137.2000   109.4988    10.1531    10.5620
  137.3000   109.4912    10.1523    10.5444
  137.4000   109.1897    10.1517    10.5441
  137.5000   109.3875    10.1510    10.5438
  137.6000   109.4843    10.1271    10.5435
  137.7000   109.4807    10.0787    10.5431
  137.8000   109.4771    10.0780    10.5429
  137.9000   109.4734    10.0773    10.5426
  138.0000   109.4699    10.0766    10.5423
  138.1000   109.8438    10.0759    10.5420
  138.2000   110.0651    10.0752    10.5417
  138.3000   110.2301    10.0832    10.5413
  138.4000   110.6607    10.1446    10.5411
  138.5000   110.6563    10.1439    10.5408
  138.6000   110.6530    10.1432    10.5405
  138.7000   110.6494    10.1425    10.5402
  138.8000   110.6458    10.1418    10.5399
  138.9000   110.6422    10.1411    10.5396
  139.0000   110.6185    10.1403    10.5393
  139.1000   110.3333    10.1930    10.5390
  139.2000   110.1133    10.2102    10.5387
  139.3000   109.6960    10.2095    10.5490
  139.4000   109.4193    10.2088    10.6129
  139.5000   109.3554    10.2124    10.6726
  139.6000   109.1028    10.2791    10.6877
  139.7000   108.8054    10.2785    10.6874
  139.8000   108.8024    10.2777    10.6871
  139.9000   108.7988    10.3039    10.7029
  140.0000   108.7952    10.3631    10.8387
  140.1000   108.7434    10.4227    10.8384
  140.2000   108.4867    10.4931    10.8381
  140.3000   108.2382    10.5430    10.8378
  140.4000   108.1783    10.5655    10.8375
  140.5000   108.1747    10.5901    10.8426
  140.6000   108.1711    10.6509    10.9138
  140.7000   108.1675    10.7124    10.9135
  140.8000   108.1636    10.7117    10.9560
  140.9000   107.9273    10.6622    10.9904
  141.0000   107.6747    10.6354    10.9900
  141.1000   107.2935    10.6118    10.9897
  141.2000   106.7919    10.5596    10.9894
  141.3000   106.2181    10.5588    10.9358
  141.4000   104.8285    10.5581    10.9113
  141.5000   104.6044    10.5117    10.9110
  141.6000   104.1831    10.4829    10.8976
  141.7000   103.6815    10.4620    10.8335
  141.8000   103.1799    10.4082    10.8332
  141.9000   102.6783    10.4074    10.8329
  142.0000   102.0958    10.4068    10.7959
  142.1000   102.0928    10.3633    10.7326
  142.2000   102.0892    10.3026    10.6697
  142.3000   102.2944    10.2597    10.6042
  142.4000   102.7366    10.2539    10.5449
  142.5000   102.9819    10.1866    10.5289
  142.6000   103.2273    10.1859    10.5286
  142.7000   103.8663    10.1457    10.5081
  142.8000   104.6097    10.1134    10.4465
  142.9000   105.4454    10.0977    10.3798
  143.0000   106.3173    10.0385    10.3795
  143.1000   106.5745     9.9704    10.3367
  143.2000   106.5711     9.9698    10.2761
  143.3000   106.5675     9.9691    10.2328
  143.4000   106.5639     9.9684    10.2280
  143.5000   106.5602     9.9552    10.1601
  143.6000   106.5566     9.8968    10.1084
  143.7000   106.5527     9.8274    10.0492
  143.8000   106.5494     9.8269    10.0165
  143.9000   106.3731     9.8262    10.0022
  144.0000   106.2410     9.8035     9.9453
  144.1000   106.0325     9.7461     9.9450
  144.2000   105.2820     9.6873     9.8970
  144.3000   104.4224     9.6867     9.8390
  144.4000   104.4193     9.6860     9.8045
  144.5000   104.7370     9.6542     9.8042
  144.6000   105.2313     9.6170     9.8040
  144.7000   105.6695     9.6085     9.8037
  144.8000   105.9149     9.5484     9.8034
  144.9000   106.2077     9.5478     9.8031
  145.0000   106.6064     9.5471     9.8029
  145.1000   107.1008     9.5179     9.7938
  145.2000   107.5951     9.4622     9.7332
  145.3000   108.1338     9.4123     9.7329
  145.4000   108.9011     9.4115     9.6909
  145.5000   109.1385     9.4109     9.6638
