~VERSION INFORMATION
 VERS.                2.0:   CWLS LOG ASCII STANDARD - VERSION 2.0
 WRAP.                 NO:   ONE LINE PER DEPTH STEP
~WELL INFORMATION
#MNEM.UNIT      DATA TYPE    INFORMATION
#----------   ------------   ------------------------------
 STRT.F           30.5000:   START DEPTH
 STOP.F          674.0000:   STOP DEPTH
 STEP.F            0.5000:   STEP LENGTH
 NULL.          -999.2500:   NO VALUE
 COMP. FENIX & SCISSON INC:   COMPANY
 WELL. NPR 3 #37 SX 34-34:   WELL
 FLD .        TEAPOT DOME:   FIELD
 LOC .      S34 T39N R78W:   LOCATION
 CNTY.            NATRONA:   COUNTY
 STAT.            WYOMING:   STATE
 CTRY. UNITED STATES OF AMERICA:   COUNTRY
 SRVC.           BIRDWELL:   SERVICE COMPANY
 DATE.        21-JAN-1979:   LOGDATE
 API .       490251074400:   API NUMBER
~CURVE INFORMATION
#MNEM.UNIT       API CODE    CURVE DESCRIPTION
#----------   ------------   ------------------------------
 DEPT.F                  :   
 SPR .MV     05 010 01 00:   SPONTANEOUS POTENTIAL FROM RES.
 SN  .OHMM   05 040 16 00:   SHORT NORMAL 16"
 IL  .OHMM   05 120 00 00:   INDUCTION LOG
 CALD.IN     45 280 60 00:   CALIPER
 GRD .GAPI   45 310 01 00:   GAMMA RAY FROM DENSITY LOG
 RHOB.G/C3   45 350 01 00:   BULK DENSITY
 DPHI.DEC    45 890 12 00:   DENSITY POROSITY SANDSTONE
 CORR.G/C3   45 356 01 00:   DENSITY CORRECTION
~PARAMETER INFORMATION
#MNEM.UNIT          VALUE    DESCRIPTION
#----------   ------------   ------------------------------
 PD  .                 GL:   PERMANENT DATUM
 EPD .F              5175:   ELEVATION PERMANENT DATUM
 LMF .                 KB:   LOG MEASURED FROM
 DAPD.F                 4:   FEET ABOVE PERMANENT DATUM
 DMF .                 KB:   DRILLING MEASURED FROM
 EKB .F              5179:   KELLING BUSHING
 EGL .F              5175:   GROUND LEVEL
 DATE.            1-21-79:   RUN DATE
 RUN .                  1:   RUN NUMBER
 DD  .F               674:   DEPTH DRILLER
 DL  .F               673:   DEPTH LOGGER
 BLI .F               666:   BOTTOM LOG INTERVAL
 TLI .F                40:   TOP LOG INTERVAL
 CS  .IN            8.625:   CASING SIZE
 CBD .F                40:   CASING BOTTOM DRILLER
 CBL .F                30:   CASING BOTTOM LOGGER
 BS  .IN            7.875:   BIT SIZE
 BSD .F               674:   BIT SIZE AT DEPTH
 DFT .                KCL:   DRILLING FLUID TYPE
 DFD .                8.8:   DRILLING FLUID DENSITY
 DFV .                 60:   DRILLING FLUID VISCOSITY
 DFPH.                9.5:   DRILLING FLUID PH
 DFL .                  8:   DRILLING FLUID LOSS
 MSS .           FLOWLINE:   MUD SAMPLE SOURCE
 RMS .OHMM            .23:   RESISTIVITY MUD SAMPLE
 MST .F                56:   MUD SAMPLE TEMPERATURE
 MFSS.           MEASURED:   MUD FILTRATE SAMPLE SOURCE
 MCSS.           MEASURED:   MUD CAKE SAMPLE SOURCE
 RMB .OHMM            .22:   RESISTIVITY MUD AT BHT
 BHT .F                60:   BOTTOM HOLE TEMPERATURE
 TCS .HRS               4:   TIME CURCULATED STOPPED
 MRT .F                60:   MAXIMUM RECORDED TEMPERATURE
 LUN .               3006:   LOGGING UNIT NUMBER
 LUL .             CASPER:   LOGGING UNIT LOCATION
 ENGI.            ROLLINS:   RECORDING ENGINEER
 WITN.           DINSMORE:   WITNESSED BY
 CLNT.            A2DTECH:   CLIENT CODE
 ORIG.       2", 5" PRINT:   ORIGIN OF DATA
 UWI .       490251074400:   UNIQUE WELL ID
 DICO. A2D Technologies, Inc.:   DIGITIZING COMPANY
~OTHER INFORMATION
~A   DEPT      SPR         SN         IL       CALD        GRD       RHOB       DPHI       CORR   
# ...
  395.0000   -49.8000     6.4350     6.2590     8.5980   120.1440     2.4690     0.1250     0.0060
  395.5000   -49.8000     6.4020     6.2250     8.6130   117.2680     2.4700     0.1250     0.0060
  396.0000   -49.8040     6.3370     6.1760     8.6180   115.7130     2.4690     0.1260     0.0080
  396.5000   -49.8070     6.2710     6.1270     8.7470   114.9550     2.4680     0.1280     0.0100
  397.0000   -49.8100     6.2060     6.0780     8.8900   115.5900     2.4670     0.1300     0.0110
  397.5000   -49.8130     6.1400     6.0290     8.4100   114.5010     2.4650     0.1320     0.0140
  398.0000   -49.8160     6.0750     5.9770     8.4190   115.7330     2.4620     0.1380     0.0160
  398.5000   -49.8200     5.9600     5.6120     8.4040   119.9850     2.4550     0.1440     0.0190
  399.0000   -49.8230     5.7590     5.2220     8.3310   124.0460     2.4480     0.1490     0.0170
  399.5000   -49.8260     5.5570     4.8310     8.2580   124.9290     2.4400     0.1550     0.0130
  400.0000   -49.8290     5.3560     4.6470     8.2390   122.2240     2.4290     0.1590     0.0100
  400.5000   -49.8320     5.0630     4.5850     8.2380   121.3770     2.4180     0.1510     0.0100
  401.0000   -49.8360     5.0950     4.7330     8.2380   121.7560     2.4140     0.1400     0.0110
  401.5000   -49.8390     5.1530     4.8420     8.2380   120.8230     2.4360     0.1310     0.0110
  402.0000   -49.8420     5.2110     4.9300     8.2390   118.6430     2.4550     0.1230     0.0110
  402.5000   -49.8450     5.3330     5.0180     8.2490   115.1740     2.4670     0.1210     0.0120
  403.0000   -49.8480     5.6390     5.2280     8.2590   114.5990     2.4730     0.1200     0.0110
  403.5000   -49.8510     5.9450     5.5650     8.2690   117.0080     2.4770     0.1180     0.0090
  404.0000   -49.8550     6.2590     5.9030     8.2790   119.5520     2.4800     0.1190     0.0080
  404.5000   -49.8580     6.3640     6.0690     8.2880   121.5770     2.4810     0.1200     0.0060
  405.0000   -49.8610     6.4720     6.1860     8.2980   120.5770     2.4800     0.1210     0.0040
  405.5000   -49.8640     6.5790     6.3030     8.2920   119.4720     2.4790     0.1210     0.0040
  406.0000   -49.8670     6.7380     6.3620     8.2850   119.3930     2.4790     0.1210     0.0040
  406.5000   -49.8710     6.7290     6.4130     8.2780   122.4170     2.4790     0.1220     0.0040
  407.0000   -49.8740     6.7120     6.4940     8.2710   123.1370     2.4780     0.1230     0.0040
  407.5000   -49.8770     6.6940     6.4890     8.2630   122.6100     2.4760     0.1240     0.0040
  408.0000   -49.8800     6.6770     6.4750     8.2560   123.0010     2.4740     0.1250     0.0040
  408.5000   -49.8830     6.6590     6.4610     8.2490   123.7610     2.4720     0.1250     0.0040
  409.0000   -49.8860     6.6420     6.4470     8.2420   120.1890     2.4710     0.1260     0.0040
  409.5000   -49.8900     6.6240     6.4330     8.2430   120.4010     2.4700     0.1270     0.0040
  410.0000   -49.8930     6.6070     6.4190     8.2510   123.2960     2.4680     0.1270     0.0040
  410.5000   -49.8960     6.5890     6.4050     8.2590   123.8440     2.4670     0.1280     0.0040
  411.0000   -49.8990     6.5720     6.3910     8.2670   121.9120     2.4670     0.1290     0.0040
  411.5000   -49.9020     6.5540     6.3770     8.2750   119.9010     2.4670     0.1280     0.0040
  412.0000   -49.9060     6.5360     6.3630     8.2790   118.2060     2.4670     0.1270     0.0040
  412.5000   -49.9090     6.5190     6.3490     8.2810   118.6450     2.4670     0.1260     0.0060
  413.0000   -49.9120     6.5010     6.3350     8.2820   121.5660     2.4690     0.1260     0.0110
  413.5000   -49.9150     6.4840     6.3210     8.2840   124.1320     2.4710     0.1260     0.0150
  414.0000   -49.9180     6.4660     6.3070     8.2850   122.9880     2.4710     0.1250     0.0150
  414.5000   -49.9210     6.4490     6.2930     8.2870   120.6470     2.4710     0.1200     0.0140
  415.0000   -49.9250     6.4310     6.2790     8.2880   118.4250     2.4750     0.1120     0.0140
  415.5000   -49.9280     6.4140     6.2650     8.2900   118.8960     2.4820     0.1140     0.0130
  416.0000   -49.9310     6.3960     6.1060     8.2910   122.3180     2.4880     0.1220     0.0130
  416.5000   -49.9340     6.3790     5.8360     8.2930   125.7180     2.4850     0.1350     0.0190
  417.0000   -49.9370     6.2070     5.5660     8.2940   127.4940     2.4670     0.1480     0.0170
  417.5000   -49.9410     6.0030     5.2960     8.2950   128.3900     2.4490     0.1580     0.0050
  418.0000   -49.9440     5.8000     5.1020     8.2970   129.0920     2.4300     0.1570     0.0010
  418.5000   -49.9470     5.5960     5.0750     8.2990   129.7790     2.4150     0.1490     0.0020
  419.0000   -49.9500     5.3510     5.0480     8.2700   130.4460     2.4240     0.1410     0.0040
  419.5000   -49.9530     5.3980     5.0220     8.2320   133.2000     2.4370     0.1330     0.0060
  420.0000   -49.9560     5.4560     4.9950     8.2190   133.9150     2.4500     0.1330     0.0080
  420.5000   -49.9600     5.5140     4.9710     8.2180   124.7870     2.4560     0.1360     0.0120
  421.0000   -49.9630     5.5730     5.0520     8.2180   125.0500     2.4560     0.1390     0.0170
  421.5000   -49.9660     5.6310     5.1580     8.2180   125.3880     2.4500     0.1440     0.0230
  422.0000   -49.9690     5.6950     5.1160     8.2180   124.5650     2.4440     0.1530     0.0220
  422.5000   -49.9720     5.5760     5.0440     8.2180   123.5190     2.4340     0.1570     0.0160
  423.0000   -49.9760     5.4810     4.9730     8.2180   122.4700     2.4230     0.1550     0.0130
  423.5000   -49.9790     5.3850     4.8800     8.2180   122.7290     2.4180     0.1470     0.0140
  424.0000   -49.9820     5.3140     4.9050     8.2180   125.3080     2.4320     0.1340     0.0160
  424.5000   -49.9850     5.4400     4.9400     8.2180   128.2860     2.4480     0.1280     0.0170
  425.0000   -49.9880     5.5620     4.9760     8.2180   126.8160     2.4610     0.1240     0.0170
  425.5000   -49.9920     5.6830     5.0110     8.2180   123.4070     2.4670     0.1210     0.0160
  426.0000   -49.9940     5.8050     5.2480     8.2180   120.8150     2.4730     0.1170     0.0150
  426.5000   -49.9920     5.9120     5.5240     8.2180   119.0340     2.4790     0.1150     0.0140
  427.0000   -49.8570     6.0030     5.8000     8.2180   118.8630     2.4850     0.1150     0.0130
  427.5000   -49.3500     6.0940     6.0030     8.2180   118.9380     2.4860     0.1150     0.0120
  428.0000   -48.8590     6.2020     6.0890     8.2180   119.4150     2.4860     0.1150     0.0110
  428.5000   -48.3490     6.1470     5.9880     8.2190   120.2130     2.4860     0.1150     0.0110
  429.0000   -48.2030     6.0780     5.8630     8.1920   121.0050     2.4860     0.1180     0.0110
  429.5000   -48.1970     6.0100     5.7390     8.1600   121.6020     2.4850     0.1190     0.0130
  430.0000   -48.1960     5.8970     5.5350     8.1380   121.6170     2.4830     0.1190     0.0180
  430.5000   -48.1960     5.7440     5.1670     8.1390   120.4360     2.4800     0.1290     0.0240
  431.0000   -48.1960     5.5900     4.7990     8.1400   119.0690     2.4730     0.1430     0.0130
  431.5000   -48.1960     5.4370     4.6540     8.1410   120.3720     2.4590     0.1600     0.0100
  432.0000   -48.1960     5.2830     4.6450     8.1420   126.2620     2.4300     0.1730     0.0140
  432.5000   -48.1960     5.1870     4.6360     8.1430   131.5800     2.4020     0.1680     0.0180
  433.0000   -48.1960     5.1490     4.6270     8.1440   131.7210     2.3910     0.1550     0.0170
  433.5000   -48.1960     5.1100     4.6170     8.1440   128.5760     2.4160     0.1410     0.0170
  434.0000   -48.1960     5.4990     4.7830     8.1450   124.0240     2.4560     0.1280     0.0160
  434.5000   -48.1960     5.8970     5.0800     8.1460   121.6970     2.4740     0.1180     0.0150
  435.0000   -48.1960     6.2170     5.5450     8.1470   121.4840     2.4840     0.1170     0.0150
