~VERSION INFORMATION
 VERS.                2.0:   CWLS LOG ASCII STANDARD - VERSION 2.0
 WRAP.                 NO:   ONE LINE PER DEPTH STEP
~WELL INFORMATION
#MNEM.UNIT      DATA TYPE    INFORMATION
#----------   ------------   ------------------------------
 STRT.F           50.0000:   START DEPTH
 STOP.F         1152.0000:   STOP DEPTH
 STEP.F            0.5000:   STEP LENGTH
 NULL.          -999.2500:   NO VALUE
 COMP. FENIX & SCISSON INC:   COMPANY
 WELL.  NPR 3 #65 SX14-14:   WELL
 FLD .             TEAPOT:   FIELD
 LOC .      S14 T38N R78W:   LOCATION
 CNTY.            NATRONA:   COUNTY
 STAT.            WYOMING:   STATE
 CTRY. UNITED STATES OF AMERICA:   COUNTRY
 SRVC.              Welex:   SERVICE COMPANY
 DATE.        13-JAN-1979:   LOGDATE
 API .       490251073800:   API NUMBER
~CURVE INFORMATION
#MNEM.UNIT       API CODE    CURVE DESCRIPTION
#----------   ------------   ------------------------------
 DEPT.F                  :   
 SPR .MV     07 010 01 00:   SPONTANEOUS POTENTIAL
 SGRD.OHMM   07 220 05 00:   SHALLOW GUARD RESISTIVITY
 ILD .OHMM   07 120 46 00:   INDUCTION LOG DEEP
 ILM .OHMM   07 120 44 00:   INDUCTION LOG MEDIUM
 CALD.IN     45 280 60 00:   CALIPER
 GRD .GAPI   45 310 01 00:   GAMMA RAY FROM DENSITY LOG
 RHOB.G/C3   45 350 01 00:   BULK DENSITY
 DPHI.DEC    45 890 12 00:   DENSITY POROSITY SANDSTONE
 CORR.G/C3   45 356 01 00:   DENSITY CORRECTION
~PARAMETER INFORMATION
#MNEM.UNIT          VALUE    DESCRIPTION
#----------   ------------   ------------------------------
 PD  .                 GL:   PERMANENT DATUM
 EPD .F              5312:   ELEVATION PERMANENT DATUM
 LMF .                 KB:   LOG MEASURED FROM
 DAPD.F                 4:   FEET ABOVE PERMANENT DATUM
 DMF .                 KB:   DRILLING MEASURED FROM
 EKB .F              5316:   KELLING BUSHING
 EGL .F              5312:   GROUND LEVEL
 DATE.            1-13-79:   RUN DATE
 RUN .                  1:   RUN NUMBER
 DD  .F              1167:   DEPTH DRILLER
 DL  .F              1154:   DEPTH LOGGER
 BLI .F              1152:   BOTTOM LOG INTERVAL
 TLI .F                50:   TOP LOG INTERVAL
 CS  .IN            8.625:   CASING SIZE
 CBD .F                40:   CASING BOTTOM DRILLER
 CBL .F                60:   CASING BOTTOM LOGGER
 BS  .IN            7.875:   BIT SIZE
 BSD .F              1167:   BIT SIZE AT DEPTH
 DFT .            KCL MUD:   DRILLING FLUID TYPE
 DFD .                8.8:   DRILLING FLUID DENSITY
 DFV .                 42:   DRILLING FLUID VISCOSITY
 DFPH.                8.2:   DRILLING FLUID PH
 DFL .                7.7:   DRILLING FLUID LOSS
 MSS .                PIT:   MUD SAMPLE SOURCE
 RMS .OHMM            .29:   RESISTIVITY MUD SAMPLE
 MST .F                40:   MUD SAMPLE TEMPERATURE
 RMF .OHMM            .19:   RESISTIVITY MUD FILTRATE SAMPLE
 MFST.F                40:   MUD FILTRATE SAMPLE TEMPERATURE
 RMC .OHMM            .87:   RESISTIVITY MUD CAKE
 MCST.F                40:   MUD CAKE SAMPLE TEMPERATURE
 MFSS.           MEASURED:   MUD FILTRATE SAMPLE SOURCE
 MCSS.           MEASURED:   MUD CAKE SAMPLE SOURCE
 RMB .OHMM           .119:   RESISTIVITY MUD AT BHT
 BHT .F                97:   BOTTOM HOLE TEMPERATURE
 TCS .HRS              30:   TIME CURCULATED STOPPED
 MRT .F                97:   MAXIMUM RECORDED TEMPERATURE
 LUN .               8611:   LOGGING UNIT NUMBER
 LUL .             CASPER:   LOGGING UNIT LOCATION
 ENGI.            BENTSEN:   RECORDING ENGINEER
 WITN.              AMEND:   WITNESSED BY
 CLNT.            A2DTECH:   CLIENT CODE
 ORIG.       2", 5" PRINT:   ORIGIN OF DATA
 UWI .       490251073800:   UNIQUE WELL ID
 DICO. A2D Technologies, Inc.:   DIGITIZING COMPANY
~OTHER INFORMATION
~A   DEPT      SPR       SGRD        ILD        ILM       CALD        GRD       RHOB       DPHI       CORR   
# ...
  889.5000   -33.6189     3.1128     2.2423     3.6405     7.9527   134.1329     2.4624     0.1294    -0.0095
  890.0000   -33.5668     2.5558     2.1394     3.3318     7.9555   137.3564     2.4491     0.1373    -0.0129
  890.5000   -33.5180     2.2948     2.0752     3.2021     7.9584   133.6550     2.4660     0.1222    -0.0165
  891.0000   -33.3308     2.6128     2.1084     3.3807     7.9612   129.7132     2.4660     0.1247    -0.0201
  891.5000   -33.0918     3.4191     2.1335     3.5539     7.9617   128.1110     2.4650     0.1274    -0.0238
  892.0000   -32.8493     4.5472     2.3314     3.7836     7.9604   127.1428     2.4730     0.1216    -0.0275
  892.5000   -32.6071     2.8140     2.5424     4.1134     7.9590   126.2058     2.4831     0.1153    -0.0315
  893.0000   -32.3649     4.1131     2.8267     4.5971     7.9576   125.5866     2.4880     0.1105    -0.0323
  893.5000   -32.1222     6.4872     3.1333     5.1417     7.9562   126.3262     2.4953     0.1057    -0.0296
  894.0000   -31.8809     6.8949     3.4732     5.6382     7.9548   124.2877     2.5100     0.1009    -0.0205
  894.5000   -31.7134     6.6554     3.8500     5.8862     7.9534   122.2924     2.5233     0.0934    -0.0213
  895.0000   -31.8000     6.3979     4.3022     6.1661     7.9520   122.5541     2.5227     0.0958    -0.0238
  895.5000   -31.8804     6.2232     4.4925     6.2257     7.9506   125.1935     2.5147     0.1011    -0.0267
  896.0000   -31.9607     6.2869     4.7086     6.2910     7.9492   125.3924     2.5040     0.1064    -0.0296
  896.5000   -32.0409     6.3736     4.8506     6.3570     7.9478   125.3999     2.4933     0.1117    -0.0324
  897.0000   -32.1210     6.4615     4.7993     6.4573     7.9464   126.5348     2.4829     0.1178    -0.0353
  897.5000   -32.2012     6.5507     4.6676     6.4573     7.9450   127.6967     2.4850     0.1166    -0.0329
  898.0000   -32.2814     6.6385     4.5391     6.1027     7.9436   127.0180     2.4920     0.1089    -0.0279
  898.5000   -32.3624     5.5874     4.4145     5.7803     7.9422   125.9061     2.4989     0.1042    -0.0228
  899.0000   -32.4416     4.7244     4.2933     5.8696     7.9408   126.7848     2.5058     0.1019    -0.0177
  899.5000   -32.4478     4.1848     4.1848     5.9977     7.9394   127.7879     2.5110     0.0997    -0.0126
  900.0000   -32.2093     5.8339     4.1725     5.9343     7.9380   128.2825     2.5127     0.0982    -0.0081
  900.5000   -31.9808     5.8339     4.1612     5.8664     7.9366   127.3787     2.5142     0.0982    -0.0091
  901.0000   -31.7554     4.2236     4.1468     5.7776     7.9352   126.9118     2.5136     0.0982    -0.0101
  901.5000   -31.2514     5.6694     4.2587     5.9863     7.9338   127.7759     2.5101     0.0988    -0.0111
  902.0000   -30.7118     6.5775     4.4573     6.2040     7.9324   128.5963     2.5067     0.1012    -0.0121
  902.5000   -30.6972     6.3891     4.6631     6.4296     7.9310   128.8716     2.5033     0.1035    -0.0132
  903.0000   -30.6990     6.0533     4.8848     6.6634     7.9297   128.3167     2.4998     0.1059    -0.0139
  903.5000   -30.6111     6.5051     5.1342     6.9056     7.9283   127.7554     2.4964     0.1083    -0.0093
  904.0000   -30.5124     7.1604     5.3990     7.1568     7.9269   128.6701     2.4935     0.1084    -0.0046
  904.5000   -30.4137     7.6347     5.6784     7.4163     7.9255   130.2901     2.4984     0.1044     0.0001
  905.0000   -30.3152     7.8201     5.9953     7.6894     7.9241   130.0280     2.5035     0.1010     0.0049
  905.5000   -30.2168     8.0100     6.1413     7.8412     7.9233   129.6717     2.5086     0.0996     0.0098
  906.0000   -30.1182     8.2046     6.2992     7.9514     7.9241   129.5805     2.5138     0.0991     0.0097
  906.5000   -30.0194     8.3613     6.4791     8.0585     7.9250   130.4027     2.5194     0.0955     0.0092
  907.0000   -29.9164     8.2934     6.5836     8.0583     7.9258   130.3556     2.5268     0.0916     0.0087
  907.5000   -29.9974     8.2273     6.7001     7.9889     7.9266   129.1164     2.5341     0.0878     0.0083
  908.0000   -30.1220     8.1618     6.6902     7.9230     7.9274   127.8527     2.5400     0.0862     0.0078
  908.5000   -30.2473     8.0968     6.6729     7.8581     7.9282   128.3546     2.5440     0.0847     0.0070
  909.0000   -30.3721     8.0323     6.6564     7.7937     7.9290   129.2873     2.5479     0.0832     0.0062
  909.5000   -30.4969     7.9684     6.6407     7.7298     7.9299   130.2256     2.5485     0.0830     0.0031
  910.0000   -30.6217     7.9050     6.4573     7.6665     7.9307   128.8568     2.5431     0.0852    -0.0013
  910.5000   -30.7465     7.8386     6.2539     7.5970     7.9315   127.2893     2.5385     0.0863    -0.0059
  911.0000   -30.8713     7.6413     6.0570     7.3986     7.9323   126.1431     2.5402     0.0855    -0.0099
  911.5000   -30.9963     7.4378     5.8663     7.2053     7.9331   127.2392     2.5422     0.0846    -0.0065
  912.0000   -31.1207     7.2397     5.6492     7.0170     7.9340   127.0960     2.5441     0.0837    -0.0025
  912.5000   -31.2465     7.0469     5.4336     6.8336     7.9348   126.8211     2.5391     0.0840    -0.0055
  913.0000   -31.2502     6.8592     5.2262     6.6550     7.9356   128.9975     2.5328     0.0879    -0.0107
  913.5000   -31.1655     6.6765     5.0268     6.4487     7.9364   131.1307     2.5264     0.0926    -0.0159
  914.0000   -31.0792     6.4190     4.8348     6.2240     7.9372   133.0856     2.5319     0.0897    -0.0169
  914.5000   -30.9927     6.1509     4.6508     6.0071     7.9380   134.0165     2.5322     0.0886    -0.0152
  915.0000   -30.9029     5.8940     4.4709     5.7977     7.9389   134.9533     2.5304     0.0893    -0.0135
  915.5000   -30.7854     5.3508     4.4118     5.6225     7.9397   133.8458     2.5324     0.0872    -0.0111
  916.0000   -30.6615     3.9960     4.3952     5.7847     7.9405   132.1630     2.5419     0.0823    -0.0054
  916.5000   -30.5374     4.6770     4.3829     6.0873     7.9413   130.4852     2.5521     0.0756     0.0004
  917.0000   -30.4133     6.0897     4.6064     6.4057     7.9421   128.8924     2.5624     0.0690     0.0064
  917.5000   -30.2892     6.8233     4.7997     6.6375     7.9424   127.3908     2.5641     0.0708     0.0066
  918.0000   -30.1651     7.1074     5.0013     6.7608     7.9402   128.2169     2.5548     0.0736     0.0047
  918.5000   -30.0410     7.4033     5.2113     6.8873     7.9380   129.1359     2.5542     0.0741     0.0027
  919.0000   -29.9168     7.7674     5.4302     7.0160     7.9358   130.0251     2.5613     0.0747     0.0008
  919.5000   -29.7929     7.6940     5.6582     7.1473     7.9336   132.1693     2.5488     0.0805    -0.0064
  920.0000   -29.6846     7.5810     5.8958     7.2811     7.9314   134.1879     2.5333     0.0863    -0.0169
  920.5000   -29.6238     7.4838     6.1182     7.4174     7.9292   132.1242     2.5177     0.0921    -0.0274
  921.0000   -29.5630     7.7880     6.1838     7.5562     7.9269   129.6504     2.5065     0.0953    -0.0318
  921.5000   -29.5022     7.9860     6.2501     7.6948     7.9250   126.0235     2.5152     0.0935    -0.0247
  922.0000   -29.4414     7.9665     6.3171     7.7059     7.9309   123.3855     2.5269     0.0918    -0.0169
  922.5000   -29.3806     7.9506     6.3848     7.7168     7.9691   128.5158     2.5271     0.0907    -0.0104
  923.0000   -29.3198     7.9351     6.4533     7.7277     8.0066   130.6157     2.5275     0.0911    -0.0134
  923.5000   -29.2589     7.9197     6.5225     7.7386     8.0443   132.1479     2.5292     0.0914    -0.0152
  924.0000   -29.1981     7.9115     6.5775     7.7495     8.0612   133.6942     2.5230     0.0957    -0.0169
  924.5000   -29.1373     7.9705     6.5699     7.7605     8.0619   135.2587     2.5169     0.0998    -0.0186
  925.0000   -29.0765     7.9842     6.5636     7.7664     8.0625   134.6390     2.5108     0.1006    -0.0201
  925.5000   -29.0155     7.9509     6.5573     7.7502     8.0630   132.8594     2.5084     0.0994    -0.0167
