~VERSION INFORMATION
 VERS.                2.0:   CWLS LOG ASCII STANDARD - VERSION 2.0
 WRAP.                 NO:   ONE LINE PER DEPTH STEP
~WELL INFORMATION
#MNEM.UNIT      DATA TYPE    INFORMATION
#----------   ------------   ------------------------------
 STRT.F           42.0000:   START DEPTH
 STOP.F          408.0000:   STOP DEPTH
 STEP.F            0.5000:   STEP LENGTH
 NULL.          -999.2500:   NO VALUE
 COMP. FENIX & SCISSON INC:   COMPANY
 WELL.       SX 3FO #22-3:   WELL
 FLD .             TEAPOT:   FIELD
 LOC .       S3 T38N R78W:   LOCATION
 CNTY.            NATRONA:   COUNTY
 STAT.            WYOMING:   STATE
 CTRY. UNITED STATES OF AMERICA:   COUNTRY
 SRVC.              Welex:   SERVICE COMPANY
 DATE.        01-JUL-1980:   LOGDATE
 API .       490251083000:   API NUMBER
~CURVE INFORMATION
#MNEM.UNIT       API CODE    CURVE DESCRIPTION
#----------   ------------   ------------------------------
 DEPT.F                  :   
 GRD .GAPI   45 310 01 00:   GAMMA RAY FROM DENSITY LOG
 CALD.IN     45 280 60 00:   CALIPER
 RHOB.G/C3   45 350 01 00:   BULK DENSITY
 DPHI.DEC    45 890 12 00:   DENSITY POROSITY SANDSTONE
 CORR.G/C3   45 356 01 00:   DENSITY CORRECTION
~PARAMETER INFORMATION
#MNEM.UNIT          VALUE    DESCRIPTION
#----------   ------------   ------------------------------
 PD  .                 GL:   PERMANENT DATUM
 EPD .F              5152:   ELEVATION PERMANENT DATUM
 LMF .                 KB:   LOG MEASURED FROM
 DAPD.F                 5:   FEET ABOVE PERMANENT DATUM
 DMF .                 KB:   DRILLING MEASURED FROM
 EKB .F              5157:   KELLING BUSHING
 EGL .F              5152:   GROUND LEVEL
 DATE.             7-1-80:   RUN DATE
 RUN .                  1:   RUN NUMBER
 DD  .F               470:   DEPTH DRILLER
 DL  .F               410:   DEPTH LOGGER
 BLI .F               408:   BOTTOM LOG INTERVAL
 TLI .F                40:   TOP LOG INTERVAL
 BS  .IN             8.75:   BIT SIZE
 BSD .F               470:   BIT SIZE AT DEPTH
 DFT .        AIR DRILLED:   DRILLING FLUID TYPE
 BHT .F                75:   BOTTOM HOLE TEMPERATURE
 TCS .HRS             4.5:   TIME CURCULATED STOPPED
 MRT .F                75:   MAXIMUM RECORDED TEMPERATURE
 ENGI.        REIN/GLASER:   RECORDING ENGINEER
 WITN.             ROADES:   WITNESSED BY
 CLNT.            A2DTECH:   CLIENT CODE
 ORIG.           5" PRINT:   ORIGIN OF DATA
 UWI .       490251083000:   UNIQUE WELL ID
 DICO. A2D Technologies, Inc.:   DIGITIZING COMPANY
~OTHER INFORMATION
~A   DEPT       GRD        CALD       RHOB       DPHI       CORR 
# ...
  347.0000    88.4880     8.8873     2.4757     0.1277     0.0910
  347.5000    87.0213     8.8906     2.4706     0.1290     0.0900
  348.0000    85.8704     8.9195     2.4742     0.1290     0.0890
  348.5000    86.9579     8.9484     2.4691     0.1270     0.0907
  349.0000    87.3273     8.9722     2.4874     0.1205     0.0968
  349.5000    85.6598     8.9547     2.4885     0.1186     0.0999
  350.0000    84.0371     8.9366     2.4740     0.1290     0.0886
  350.5000    84.9876     8.9188     2.4591     0.1394     0.0770
  351.0000    86.4576     8.9003     2.4500     0.1433     0.0653
  351.5000    87.5361     8.9038     2.4508     0.1441     0.0683
  352.0000    87.3076     8.9207     2.4537     0.1390     0.0735
  352.5000    87.1075     8.9378     2.4571     0.1390     0.0787
  353.0000    86.9150     8.9551     2.4718     0.1333     0.0836
  353.5000    86.7267     8.9721     2.4858     0.1248     0.0899
  354.0000    85.4081     8.9592     2.4813     0.1194     0.0919
  354.5000    83.9029     8.9419     2.4639     0.1358     0.0828
  355.0000    82.3926     8.9247     2.4471     0.1431     0.0730
  355.5000    81.5719     8.9241     2.4396     0.1494     0.0715
  356.0000    83.7489     8.9436     2.4461     0.1464     0.0752
  356.5000    86.2830     8.9498     2.4521     0.1418     0.0762
  357.0000    87.6572     8.9394     2.4447     0.1447     0.0704
  357.5000    86.2471     8.9292     2.4376     0.1482     0.0653
  358.0000    84.8466     8.9185     2.4252     0.1566     0.0584
  358.5000    83.6992     8.9322     2.4134     0.1662     0.0515
  359.0000    83.1428     8.9585     2.3933     0.1739     0.0445
  359.5000    82.5512     8.9715     2.3871     0.1813     0.0375
  360.0000    81.9453     8.9585     2.3825     0.1838     0.0313
  360.5000    80.8650     8.9458     2.3760     0.1894     0.0327
  361.0000    79.7777     8.9330     2.3751     0.1856     0.0390
  361.5000    78.6918     8.9197     2.3886     0.1782     0.0443
  362.0000    77.6205     8.9376     2.4022     0.1681     0.0527
  362.5000    76.9854     8.9744     2.4161     0.1596     0.0612
  363.0000    77.0024     9.0110     2.4153     0.1634     0.0650
  363.5000    76.9885     9.0301     2.4104     0.1658     0.0660
  364.0000    77.4747     9.0092     2.4070     0.1662     0.0670
  364.5000    78.0632     8.9886     2.4048     0.1710     0.0690
  365.0000    78.6587     8.9681     2.3954     0.1760     0.0724
  365.5000    79.2630     8.9477     2.3855     0.1810     0.0759
  366.0000    79.4975     8.9347     2.3842     0.1822     0.0793
  366.5000    79.8161     8.9424     2.3742     0.1881     0.0828
  367.0000    80.1262     8.9638     2.3614     0.1957     0.0851
  367.5000    80.4362     8.9850     2.3484     0.2022     0.0844
  368.0000    80.3910     8.9789     2.3372     0.2094     0.0837
  368.5000    79.8583     8.9347     2.3286     0.2158     0.0831
  369.0000    79.3318     8.9629     2.3338     0.2135     0.0859
  369.5000    78.9864     8.9937     2.3434     0.2073     0.0888
  370.0000    79.1913     8.9765     2.3528     0.1998     0.0918
  370.5000    79.7787     8.9577     2.3509     0.2027     0.0929
  371.0000    80.3825     8.9388     2.3409     0.2078     0.0873
  371.5000    80.9678     8.9198     2.3312     0.2129     0.0814
  372.0000    81.3777     8.9222     2.3182     0.2200     0.0755
  372.5000    81.3193     8.9476     2.3100     0.2266     0.0697
  373.0000    80.9246     8.9724     2.3126     0.2246     0.0649
  373.5000    80.5835     8.9966     2.3156     0.2222     0.0663
  374.0000    81.0761     9.0085     2.3300     0.2184     0.0697
  374.5000    81.5531     8.9867     2.3451     0.2091     0.0728
  375.0000    80.8508     8.9660     2.3533     0.1998     0.0766
  375.5000    80.7888     8.9454     2.3531     0.2000     0.0809
  376.0000    84.0296     8.9393     2.3477     0.2018     0.0791
  376.5000    85.8938     8.9482     2.3643     0.1970     0.0781
  377.0000    86.1179     8.9571     2.3843     0.1844     0.0840
  377.5000    85.1236     8.9661     2.3969     0.1752     0.0897
  378.0000    83.9905     8.9742     2.4055     0.1704     0.0955
  378.5000    83.1271     8.9648     2.4237     0.1590     0.1014
  379.0000    83.1560     8.9538     2.4311     0.1540     0.1069
  379.5000    84.6074     8.9429     2.4299     0.1564     0.1060
  380.0000    86.2701     8.9344     2.4139     0.1638     0.0993
  380.5000    87.5578     8.9305     2.3980     0.1728     0.0903
  381.0000    87.4846     8.9263     2.3876     0.1798     0.0871
  381.5000    87.3870     8.9222     2.3807     0.1850     0.0867
  382.0000    85.6462     8.9181     2.3685     0.1902     0.0818
  382.5000    84.0667     8.9132     2.3588     0.1958     0.0779
  383.0000    83.9064     8.9057     2.3539     0.1994     0.0740
  383.5000    83.7278     8.8983     2.3535     0.1975     0.0709
  384.0000    83.4515     8.9138     2.3633     0.1931     0.0735
  384.5000    80.5097     8.9525     2.3703     0.1898     0.0789
  385.0000    77.6668     8.9145     2.3669     0.1918     0.0787
  385.5000    77.7631     8.8765     2.3748     0.1875     0.0782
  386.0000    78.2279     8.8789     2.3783     0.1846     0.0777
  386.5000    78.8067     8.8881     2.3711     0.1902     0.0772
  387.0000    80.3922     8.8971     2.3765     0.1875     0.0793
  387.5000    81.9986     8.9061     2.3849     0.1826     0.0828
  388.0000    83.1269     8.9149     2.3892     0.1810     0.0864
  388.5000    82.9926     8.9188     2.4029     0.1718     0.0901
  389.0000    82.0714     8.9226     2.4165     0.1610     0.0940
  389.5000    81.1529     8.9263     2.4162     0.1634     0.0947
  390.0000    80.7706     8.9302     2.4081     0.1685     0.0880
  390.5000    81.0231     8.9340     2.4001     0.1738     0.0811
  391.0000    82.2568     8.9338     2.4036     0.1700     0.0808
  391.5000    83.6527     8.9691     2.4093     0.1666     0.0857
  392.0000    84.0716     9.0131     2.4172     0.1621     0.0884
  392.5000    71.7069     8.9890     2.4347     0.1525     0.0917
  393.0000    59.1033     8.9562     2.4463     0.1457     0.0948
  393.5000    46.6873     8.9232     2.4514     0.1420     0.0981
  394.0000    40.5076     8.8903     2.4569     0.1386     0.0990
  394.5000    40.0455     8.8577     2.4388     0.1473     0.0922
  395.0000    82.1019     8.8356     2.4265     0.1572     0.0844
  395.5000    81.1857     8.8360     2.4087     0.1671     0.0765
  396.0000    82.5202     8.8360     2.3998     0.1738     0.0693
  396.5000    80.2763     8.8359     2.4150     0.1667     0.0730
  397.0000    81.7386     8.8360     2.4298     0.1563     0.0813
  397.5000    81.6152     8.8360     2.4445     0.1476     0.0896
  398.0000    80.3153     8.8350     2.4510     0.1414     0.0969
  398.5000    79.4145     8.8762     2.4492     0.1430     0.0952
  399.0000    80.7917     8.9169     2.4525     0.1417     0.0880
  399.5000    79.8110     8.8737     2.4361     0.1463     0.0826
  400.0000    77.2972     8.8135     2.4231     0.1559     0.0767
  400.5000    79.9032     8.7968     2.4299     0.1593     0.0711
  401.0000    80.0127     8.7964     2.4389     0.1509     0.0716
  401.5000    74.7202     8.8050     2.4478     0.1456     0.0760
  402.0000  -999.2500     8.8422     2.4567     0.1401     0.0804
  402.5000  -999.2500     8.8743     2.4657     0.1344     0.0847
  403.0000  -999.2500     8.8596     2.4737     0.1290     0.0869
  403.5000  -999.2500     8.8554     2.4648     0.1348     0.0844
  404.0000  -999.2500     8.8551     2.4578     0.1366     0.0791
  404.5000  -999.2500     8.8365     2.4817     0.1259     0.0928
  405.0000  -999.2500     8.8168     2.4933     0.1172     0.1008
  405.5000  -999.2500     8.7975     2.5041     0.1106     0.1037
  406.0000  -999.2500     8.8201     2.5144     0.1051     0.1061
  406.5000  -999.2500     8.8368     2.5240     0.0987     0.1123
  407.0000  -999.2500     8.8117     2.5327     0.0926     0.1214
  407.5000  -999.2500     8.7783     2.5291     0.0961     0.1268
