~VERSION INFORMATION
 VERS.                2.0:   CWLS LOG ASCII STANDARD - VERSION 2.0
 WRAP.                 NO:   ONE LINE PER DEPTH STEP
~WELL INFORMATION
#MNEM.UNIT      DATA TYPE    INFORMATION
#----------   ------------   ------------------------------
 STRT.F          974.5000:   START DEPTH
 STOP.F         2805.0000:   STOP DEPTH
 STEP.F            0.5000:   STEP LENGTH
 NULL.          -999.2500:   NO VALUE
 COMP.   FLUOR DANIEL INC:   COMPANY
 WELL. NAVAL PETROLEUM RESERVE 3 SHX- #38-14:   WELL
 FLD .             TEAPOT:   FIELD
 LOC .      S14 T38N R78W:   LOCATION
 CNTY.            NATRONA:   COUNTY
 STAT.            WYOMING:   STATE
 CTRY. UNITED STATES OF AMERICA:   COUNTRY
 SRVC.            Unknown:   SERVICE COMPANY
 DATE.        20-AUG-1995:   LOGDATE
 API .       490252273400:   API NUMBER
~CURVE INFORMATION
#MNEM.UNIT       API CODE    CURVE DESCRIPTION
#----------   ------------   ------------------------------
 DEPT.F                  :   
 ROP .MIN/FT 91 810 01 00:   RAT OF DRILLING PENETRATION
 TGAS.UNITS  91 830 01 00:   TOTAL GAS FROM HOTWIRE
~PARAMETER INFORMATION
#MNEM.UNIT          VALUE    DESCRIPTION
#----------   ------------   ------------------------------
 EKB .F              5264:   KELLING BUSHING
 EGL .F              5254:   GROUND LEVEL
 DATE.            8-20-95:   RUN DATE
 DD  .F              2805:   DEPTH DRILLER
 CBD .F               980:   CASING BOTTOM DRILLER
 ENGI.              TOWER:   RECORDING ENGINEER
 WITN.               HUSK:   WITNESSED BY
 CLNT.            A2DTECH:   CLIENT CODE
 ORIG.           5" PRINT:   ORIGIN OF DATA
 UWI .       490252273400:   UNIQUE WELL ID
 DICO. A2D Technologies, Inc.:   DIGITIZING COMPANY
~OTHER INFORMATION
~A   DEPT      ROP         TGAS 
# ...
 1703.5000     0.6522     9.4862
 1704.0000     0.6522     9.5027
 1704.5000     0.6522     9.5192
 1705.0000     0.6522     9.5358
 1705.5000     0.6522     9.5523
 1706.0000     0.6522     9.5688
 1706.5000     0.6522     9.5854
 1707.0000     0.6522     9.6019
 1707.5000     0.6522     9.6184
 1708.0000     0.6522     9.6350
 1708.5000     0.6522     9.6515
 1709.0000     0.6522     9.6680
 1709.5000     0.6522     9.6846
 1710.0000     0.6522     9.7011
 1710.5000     0.6522     9.7176
 1711.0000     0.6522     9.7341
 1711.5000     0.6522     9.7507
 1712.0000     0.6522     9.7672
 1712.5000     0.6522     9.7837
 1713.0000     0.6522     9.8003
 1713.5000     0.6630     9.8168
 1714.0000     0.4565     9.8317
 1714.5000     0.4565     9.8336
 1715.0000     0.4674     9.8355
 1715.5000     0.4783     9.8374
 1716.0000     0.4891     9.8393
 1716.5000     0.4891     9.8412
 1717.0000     0.4891     9.8430
 1717.5000     0.4891     9.8449
 1718.0000     0.4891     9.8468
 1718.5000     0.4891     9.8487
 1719.0000     0.4891     9.8506
 1719.5000     0.4891     9.8525
 1720.0000     0.4783     9.8544
 1720.5000     0.4678     9.8563
 1721.0000     0.4685     9.8582
 1721.5000     0.4799     9.8601
 1722.0000     0.4696     9.8620
 1722.5000     0.4701     9.8639
 1723.0000     0.4707     9.8658
 1723.5000     0.4713     9.8677
 1724.0000     0.4718     9.8696
 1724.5000     0.4614     9.8715
 1725.0000     0.4620     9.8734
 1725.5000     0.4626     9.8753
 1726.0000     0.4631     9.8772
 1726.5000     0.4636     9.8791
 1727.0000     0.4642     9.8810
 1727.5000     0.4647     9.8829
 1728.0000     0.4761     9.8848
 1728.5000     0.4766     9.8867
 1729.0000     0.4772     9.8886
 1729.5000     0.4778     9.8905
 1730.0000     0.4783     9.8935
 1730.5000     0.4789     9.9022
 1731.0000     0.4794     9.9109
 1731.5000     0.4908     9.9196
 1732.0000     0.4913     9.9283
 1732.5000     0.4919     9.9370
 1733.0000     0.4924     9.9458
 1733.5000     0.4929     9.9545
 1734.0000     0.5152     9.9632
 1734.5000     0.5266     9.9719
 1735.0000     0.5272     9.9806
 1735.5000     0.5278     9.9893
 1736.0000     0.5283     9.9981
 1736.5000     0.5289    10.0068
 1737.0000     0.5294    10.0155
 1737.5000     0.5299    10.0242
 1738.0000     0.5305    10.0329
 1738.5000     0.5310    10.0416
 1739.0000     0.5207    10.0504
 1739.5000     0.5212    10.0591
 1740.0000     0.5109    10.0678
 1740.5000     0.6527    10.0765
 1741.0000     0.6533    10.0852
 1741.5000     0.6539    10.0939
 1742.0000     0.6544    10.1027
 1742.5000     0.6658    10.1114
 1743.0000     0.6664    10.1201
 1743.5000     0.6669    10.1288
 1744.0000     0.6674    10.1375
 1744.5000     0.6680    10.1462
 1745.0000     0.6685    10.1550
 1745.5000     0.6690    10.1637
 1746.0000     0.6478    10.1724
 1746.5000     0.5723    10.1811
 1747.0000     0.5728    10.1898
 1747.5000     0.5735    10.1985
 1748.0000     0.5740    10.2073
 1748.5000     0.5635    10.2160
 1749.0000     0.5642    10.2247
 1749.5000     0.5537    10.2334
 1750.0000     0.5544    10.2428
 1750.5000     0.5549    10.2391
 1751.0000     0.5555    10.2350
 1751.5000     0.5560    10.2309
 1752.0000     0.5565    10.2268
 1752.5000     0.5462    10.2227
 1753.0000     0.5467    10.2186
 1753.5000     0.5474    10.2145
 1754.0000     0.5479    10.2104
 1754.5000     0.5484    10.2063
 1755.0000     0.5490    10.2022
 1755.5000     0.5495    10.1981
 1756.0000     0.5500    10.1940
 1756.5000     0.5396    10.1899
 1757.0000     0.5402    10.1858
 1757.5000     0.5408    10.1818
 1758.0000     0.5304    10.1777
 1758.5000     0.5201    10.1736
 1759.0000     0.5207    10.1695
 1759.5000     0.5213    10.1654
 1760.0000     0.5218    10.1613
 1760.5000     0.5435    10.1527
 1761.0000     0.5435    10.1339
 1761.5000     0.5435    10.1150
 1762.0000     0.5543    10.0962
 1762.5000     0.5652    10.0774
 1763.0000     0.5652    10.0586
 1763.5000     0.5652    10.0398
 1764.0000     0.5652    10.0209
 1764.5000     0.5652    10.0021
 1765.0000     0.5652     9.9833
 1765.5000     0.5652     9.9645
 1766.0000     0.5652     9.9456
 1766.5000     0.5652     9.9268
 1767.0000     0.5652     9.9080
 1767.5000     0.5652     9.8892
 1768.0000     0.5652     9.8704
 1768.5000     0.5652     9.8515
 1769.0000     0.5652     9.8327
 1769.5000     0.5652     9.8139
 1770.0000     0.5652     9.7951
 1770.5000     0.5652     9.7762
 1771.0000     0.5652     9.7574
 1771.5000     0.5652     9.7386
 1772.0000     0.5652     9.7198
 1772.5000     0.5652     9.7161
 1773.0000     0.5543     9.7366
 1773.5000     0.5543     9.7540
 1774.0000     0.5652     9.7714
 1774.5000     0.6196     9.7889
 1775.0000     0.6196     9.8063
 1775.5000     0.6196     9.8237
 1776.0000     0.6304     9.8412
 1776.5000     0.6522     9.8586
 1777.0000     0.6522     9.8760
 1777.5000     0.6522     9.8935
 1778.0000     0.6522     9.9109
 1778.5000     0.5543     9.9283
 1779.0000     0.5543     9.9458
 1779.5000     0.5534     9.9632
 1780.0000     0.5435     9.9806
 1780.5000     0.5543     9.9981
 1781.0000     0.5562    10.0155
 1781.5000     0.5652    10.0329
 1782.0000     0.5652    10.0504
 1782.5000     0.5761    10.0678
 1783.0000     0.5761    10.0852
 1783.5000     0.5761    10.1027
 1784.0000     0.5761    10.1201
 1784.5000     0.5761    10.1375
 1785.0000     0.5761    10.1550
 1785.5000     0.5761    10.1724
 1786.0000     0.5652    10.1898
 1786.5000     0.5543    10.2073
 1787.0000     0.5435    10.2247
 1787.5000     0.5326    10.2421
 1788.0000     0.5326    10.2596
 1788.5000     0.5326    10.2770
 1789.0000     0.5217    10.2972
 1789.5000     0.5217    10.0906
 1790.0000     0.5217    10.0943
 1790.5000     0.5217    10.0799
 1791.0000     0.5217    10.0655
 1791.5000     0.5217    10.0511
 1792.0000     0.5217    10.0367
 1792.5000     0.5217    10.0223
 1793.0000     0.5217    10.0079
 1793.5000     0.5217     9.9935
 1794.0000     0.5217     9.9791
 1794.5000     0.5217     9.9647
 1795.0000     0.5217     9.9503
 1795.5000     0.5217     9.9359
 1796.0000     0.5217     9.9215
 1796.5000     0.5217     9.9071
 1797.0000     0.5217     9.8927
 1797.5000     0.5217     9.8783
 1798.0000     0.5761     9.8639
 1798.5000     0.5761     9.8495
 1799.0000     0.5978     9.8351
 1799.5000     0.5978     9.8207
 1800.0000     0.5870     9.8063
 1800.5000     0.5761     9.8336
 1801.0000     0.5652     9.8609
 1801.5000     0.5652     9.8882
 1802.0000     0.6848     9.9155
 1802.5000     0.6739     9.9428
 1803.0000     0.6739     9.9701
 1803.5000     0.6739     9.9974
 1804.0000     0.6739    10.0247
 1804.5000     0.6848    10.0520
 1805.0000     0.6848    10.0793
 1805.5000     0.6848    10.1066
 1806.0000     0.7375    10.1339
 1806.5000     0.7374    10.1612
 1807.0000     0.7372    10.1885
 1807.5000     0.7371    10.2158
 1808.0000     0.7478    10.2431
 1808.5000     0.5303    10.2704
 1809.0000     0.5519    10.2977
 1809.5000     0.5517    10.3250
 1810.0000     0.5516    10.3523
 1810.5000     0.4210    10.3804
 1811.0000     0.4209    10.3889
 1811.5000     0.4317    10.4011
 1812.0000     0.4424    10.4133
 1812.5000     0.4423    10.4254
 1813.0000     0.4421    10.4376
 1813.5000     0.4420    10.4498
 1814.0000     0.4418    10.4620
 1814.5000     0.4417    10.4741
 1815.0000     0.4307    10.4863
 1815.5000     0.4306    10.4985
 1816.0000     0.4304    10.5107
 1816.5000     0.4303    10.5228
 1817.0000     0.4193    10.5350
 1817.5000     0.4191    10.5472
 1818.0000     0.4190    10.5594
 1818.5000     0.4189    10.5715
 1819.0000     0.4187    10.5837
 1819.5000     0.4177    10.5959
 1820.0000     0.3804    10.6081
 1820.5000     0.3314    10.6202
 1821.0000     0.3421    10.6324
 1821.5000     0.3420    10.6446
 1822.0000     0.3418    10.6568
 1822.5000     0.3417    10.6689
 1823.0000     0.3416    10.6811
 1823.5000     0.3414    10.6933
 1824.0000     0.3413    10.7055
 1824.5000     0.3412    10.7176
