~VERSION INFORMATION
 VERS.                2.0:   CWLS LOG ASCII STANDARD - VERSION 2.0
 WRAP.                 NO:   ONE LINE PER DEPTH STEP
~WELL INFORMATION
#MNEM.UNIT      DATA TYPE    INFORMATION
#----------   ------------   ------------------------------
 STRT.F           20.0000:   START DEPTH
 STOP.F          508.0000:   STOP DEPTH
 STEP.F            0.5000:   STEP LENGTH
 NULL.          -999.2500:   NO VALUE
 COMP. FENIX & SCISSON INC:   COMPANY
 WELL.      NPR #3 #45-10:   WELL
 FLD .             TEAPOT:   FIELD
 LOC .      S10 T38N R78W:   LOCATION
 CNTY.            NATRONA:   COUNTY
 STAT.            WYOMING:   STATE
 CTRY. UNITED STATES OF AMERICA:   COUNTRY
 SRVC.              Welex:   SERVICE COMPANY
 DATE.        09-MAY-1980:   LOGDATE
 API .       490251081000:   API NUMBER
~CURVE INFORMATION
#MNEM.UNIT       API CODE    CURVE DESCRIPTION
#----------   ------------   ------------------------------
 DEPT.F                  :   
 SPR .MV     07 010 01 00:   SPONTANEOUS POTENTIAL
 SGRD.OHMM   07 220 05 00:   SHALLOW GUARD RESISTIVITY
 ILD .OHMM   07 120 46 00:   INDUCTION LOG DEEP RESISTIVITY
 ILM .OHMM   07 120 44 00:   INDUCTION LOG MEDIUM
 GRD .GAPI   45 310 01 00:   GAMMA RAY FROM DENSITY LOG
 CALD.IN     45 280 60 00:   CALIPER
 CORR.G/C3   45 356 01 00:   DENSITY CORRECTION
 RHOB.G/C3   45 350 01 00:   BULK DENSITY
 DPHI.DEC    45 890 12 00:   DENSITY POROSITY SANDSTONE
~PARAMETER INFORMATION
#MNEM.UNIT          VALUE    DESCRIPTION
#----------   ------------   ------------------------------
 PD  .                 GL:   PERMANENT DATUM
 EPD .F              5228:   ELEVATION PERMANENT DATUM
 LMF .                 KB:   LOG MEASURED FROM
 DAPD.F                 5:   FEET ABOVE PERMANENT DATUM
 DMF .                 KB:   DRILLING MEASURED FROM
 EKB .F              5233:   KELLING BUSHING
 EGL .F              5228:   GROUND LEVEL
 DATE.             5-9-80:   RUN DATE
 RUN .                  1:   RUN NUMBER
 DD  .F               507:   DEPTH DRILLER
 DL  .F               510:   DEPTH LOGGER
 BLI .F               508:   BOTTOM LOG INTERVAL
 TLI .F                20:   TOP LOG INTERVAL
 BS  .IN            7.875:   BIT SIZE
 BSD .F               507:   BIT SIZE AT DEPTH
 DFT .                KCL:   DRILLING FLUID TYPE
 DFD .                8.9:   DRILLING FLUID DENSITY
 DFV .                 42:   DRILLING FLUID VISCOSITY
 MSS .                PIT:   MUD SAMPLE SOURCE
 RMS .OHMM            .36:   RESISTIVITY MUD SAMPLE
 MST .F                75:   MUD SAMPLE TEMPERATURE
 RMF .OHMM            .29:   RESISTIVITY MUD FILTRATE SAMPLE
 MFST.F                75:   MUD FILTRATE SAMPLE TEMPERATURE
 RMC .OHMM            .43:   RESISTIVITY MUD CAKE
 MCST.F                75:   MUD CAKE SAMPLE TEMPERATURE
 MFSS.           MEASURED:   MUD FILTRATE SAMPLE SOURCE
 MCSS.           MEASURED:   MUD CAKE SAMPLE SOURCE
 TCS .HRS               2:   TIME CURCULATED STOPPED
 MRT .F               100:   MAXIMUM RECORDED TEMPERATURE
 LUN .               9685:   LOGGING UNIT NUMBER
 LUL .             CASPER:   LOGGING UNIT LOCATION
 ENGI.            TOTHILL:   RECORDING ENGINEER
 WITN.           DINSMORE:   WITNESSED BY
 CLNT.            A2DTECH:   CLIENT CODE
 ORIG.         2.5" PRINT:   ORIGIN OF DATA
 UWI .       490251081000:   UNIQUE WELL ID
 DICO. A2D Technologies, Inc.:   DIGITIZING COMPANY
~OTHER INFORMATION
~A   DEPT      SPR       SGRD        ILD        ILM         GRD        CALD       CORR       RHOB       DPHI 
# ...
  385.0000   -41.4431    12.5291     9.9683     9.2186    83.7661     7.8314     0.0399     2.4398     0.1443
  385.5000   -40.9068    12.9275     9.9665     9.1725    83.0408     7.8141     0.0360     2.4239     0.1499
  386.0000   -41.4900    12.8354     9.9719     9.1269    82.0663     7.7956     0.0474     2.4281     0.1474
  386.5000   -43.1485    12.4884     9.9104     9.0849    81.0811     7.7900     0.0509     2.4405     0.1418
  387.0000   -43.6888    12.1508     9.7799     9.0844    80.6052     7.8007     0.0415     2.4244     0.1491
  387.5000   -43.9707    11.8223     9.6517     9.0838    80.3735     7.8099     0.0327     2.4113     0.1604
  388.0000   -43.8314    11.5028     9.5267     9.0842    80.1198     7.8193     0.0208     2.3823     0.1773
  388.5000   -43.7290    11.3517     9.4032     9.0842    79.1271     7.8288     0.0000     2.3425     0.1942
  389.0000   -43.6488    11.4818     9.2813     9.0842    78.0491     7.8382    -0.0149     2.3045     0.2127
  389.5000   -43.3611    11.6630     9.1609     9.0842    76.9483     7.8479    -0.0204     2.2737     0.2336
  390.0000   -42.8188    11.8471     9.0842     9.0842    75.8613     7.8566    -0.0275     2.2498     0.2568
  390.5000   -42.3289    12.0340     9.3161     9.0842    74.7765     7.8664    -0.0229     2.2310     0.2667
  391.0000   -41.8409    12.2240     9.4279     9.3930    73.6731     7.8495    -0.0097     2.2349     0.2650
  391.5000   -40.9685    12.4169     9.8940     9.7680    72.5928     7.8277    -0.0124     2.2364     0.2637
  392.0000   -40.6397    12.4562    10.3911    10.1549    71.6854     7.7907    -0.0087     2.2374     0.2650
  392.5000   -41.5613    13.7585    10.9132    10.6163    71.6687     7.7541     0.0023     2.2579     0.2547
  393.0000   -41.5440    15.1851    11.4615    10.9786    71.8319     7.7101     0.0126     2.2720     0.2453
  393.5000   -41.2774    16.7596    12.0374    11.3532    72.6045     7.7143     0.0225     2.2780     0.2358
  394.0000   -40.9948    18.3967    12.6422    11.7407    73.3762     7.7215     0.0350     2.2966     0.2264
  394.5000   -40.7223    18.6261    13.2774    12.1414    74.2179     7.7315     0.0482     2.3164     0.2174
  395.0000   -40.5589    19.0220    13.9445    12.5557    74.7482     7.7394     0.0627     2.3336     0.2084
  395.5000   -40.3613    19.6272    14.7219    12.6896    74.6901     7.7459     0.0683     2.3426     0.1997
  396.0000   -40.0758    20.1831    15.0230    12.7663    74.6986     7.7342     0.0697     2.3437     0.1973
  396.5000   -39.7305    19.5251    15.0735    12.8507    74.7122     7.7240     0.0621     2.3382     0.2002
  397.0000   -39.3526    18.6300    15.1241    12.9316    74.6897     7.7129     0.0553     2.3327     0.2052
  397.5000   -39.2891    17.7753    15.1750    12.9232    74.6851     7.7020     0.0514     2.3332     0.2058
  398.0000   -39.8428    17.4000    15.2260    13.1166    74.1653     7.6912     0.0479     2.3326     0.2039
  398.5000   -40.3379    18.0394    15.2790    13.4801    73.5277     7.6802     0.0576     2.3324     0.2060
  399.0000   -40.7339    18.6137    15.2790    13.8540    72.9271     7.6693     0.0668     2.3449     0.1995
  399.5000   -40.4974    18.7422    15.5211    14.2387    72.3288     7.6600     0.0759     2.3564     0.1930
  400.0000   -40.3071    18.7415    15.8376    14.7219    72.7444     7.6514     0.0868     2.3701     0.1877
  400.5000   -40.0635    19.2447    16.1606    14.3716    73.1877     7.6428     0.0860     2.3707     0.1829
  401.0000   -39.8491    19.8908    16.4902    13.9466    73.6752     7.6342     0.0844     2.3614     0.1863
  401.5000   -39.6987    20.5586    16.8264    13.5341    74.1429     7.6262     0.0852     2.3588     0.1918
  402.0000   -38.9187    21.3430    17.0300    13.1339    74.6090     7.6334     0.0885     2.3636     0.1898
  402.5000   -38.3080    21.1982    16.8398    12.9275    75.0848     7.6542     0.0907     2.3674     0.1845
  403.0000   -38.3759    21.0322    16.6518    13.0419    75.5589     7.6749     0.0781     2.3633     0.1861
  403.5000   -39.1248    20.9503    16.4658    13.2107    75.9046     7.6972     0.0672     2.3537     0.1889
  404.0000   -40.0409    23.4195    16.2819    13.3818    75.9038     7.7034     0.0560     2.3525     0.1935
  404.5000   -40.9321    22.2660    16.1001    13.6681    75.9090     7.6914     0.0438     2.3511     0.1950
  405.0000   -41.8985    20.2617    15.9203    13.5921    75.9022     7.6808     0.0402     2.3535     0.1950
  405.5000   -41.8469    19.4506    15.7425    13.3801    75.9177     7.6715     0.0472     2.3589     0.1895
  406.0000   -41.7452    19.8152    15.5653    13.1698    75.9150     7.6656     0.0453     2.3639     0.1799
  406.5000   -41.5963    19.5375    15.5105    13.6348    76.5658     7.6626     0.0421     2.3730     0.1829
  407.0000   -41.2185    19.0928    15.4194    14.0072    77.3519     7.6248     0.0518     2.3877     0.1769
  407.5000   -40.7109    19.4362    15.3301    14.4511    78.0593     7.6334     0.0601     2.4022     0.1673
  408.0000   -40.1677    20.1866    15.2394    14.1912    78.8650     7.6449     0.0731     2.4171     0.1576
  408.5000   -39.9495    19.9692    15.1493    13.6290    78.6256     7.6572     0.0870     2.4255     0.1483
  409.0000   -39.9966    19.1780    15.0600    13.0890    78.2849     7.6696     0.0883     2.4241     0.1499
  409.5000   -40.8069    18.0582    14.9714    12.9275    78.6678     7.6821     0.0847     2.4181     0.1555
  410.0000   -41.6622    19.0662    14.8834    12.8908    79.3086     7.6938     0.0859     2.4121     0.1556
  410.5000   -42.5645    21.3430    14.7959    12.8195    79.9103     7.7057     0.0589     2.3782     0.1790
  411.0000   -42.7066    20.1866    14.7090    12.7486    80.1575     7.6949     0.0360     2.3561     0.1887
  411.5000   -42.5999    20.3597    14.6225    12.6780    80.1416     7.6832     0.0309     2.3421     0.1998
  412.0000   -42.4855    20.5649    14.5365    12.6079    80.1398     7.6704     0.0280     2.3446     0.1998
  412.5000   -42.3837    18.0582    14.4511    12.5381    80.1421     7.6585     0.0428     2.3523     0.1958
  413.0000   -41.9292    17.3999    14.3661    12.4562    80.1419     7.6462     0.0493     2.3677     0.1864
  413.5000   -41.3488    17.5752    14.2817    12.3525    80.1436     7.6326     0.0530     2.3789     0.1797
  414.0000   -40.7870    18.0582    14.1978    12.1121    80.1267     7.6316     0.0540     2.3862     0.1763
  414.5000   -40.3285    17.5231    14.1143    11.8764    80.2866     7.6486     0.0490     2.3860     0.1732
  415.0000   -39.9681    17.0798    14.0313    11.6453    80.5657     7.6642     0.0442     2.3802     0.1746
  415.5000   -40.6452    17.3182    13.9488    11.4164    80.8268     7.6798     0.0393     2.3785     0.1758
  416.0000   -41.5860    17.7260    13.8668    11.5791    81.0882     7.6957     0.0344     2.3765     0.1771
  416.5000   -42.7160    17.5408    13.7853    11.9115    81.3500     7.7115     0.0295     2.3742     0.1789
  417.0000   -42.8434    17.1898    13.7043    12.2534    81.6065     7.7272     0.0246     2.3722     0.1797
  417.5000   -42.9998    16.8458    13.6237    12.6156    81.8931     7.7430     0.0241     2.3696     0.1853
  418.0000   -43.0955    16.5087    13.5436    12.4763    81.8074     7.7588     0.0259     2.3759     0.1815
  418.5000   -43.1014    16.1783    13.4640    12.2025    81.5199     7.7745     0.0276     2.3831     0.1773
  419.0000   -42.8426    15.8571    13.3183    11.9346    81.2662     7.7904     0.0292     2.3904     0.1731
  419.5000   -42.5948    16.1543    13.0747    11.6726    80.9855     7.8061     0.0310     2.3970     0.1689
  420.0000   -42.3444    15.7397    12.8353    11.4164    80.7237     7.8213     0.0326     2.3927     0.1682
  420.5000   -42.0606    15.2525    12.6002    11.1658    79.8827     7.8356     0.0343     2.3953     0.1707
  421.0000   -42.1264    14.7804    12.3692    10.9379    78.8838     7.8498     0.0360     2.4045     0.1652
