~VERSION INFORMATION
 VERS.                2.0:   CWLS LOG ASCII STANDARD - VERSION 2.0
 WRAP.                 NO:   ONE LINE PER DEPTH STEP
~WELL INFORMATION
#MNEM.UNIT      DATA TYPE    INFORMATION
#----------   ------------   ------------------------------
 STRT.F           31.0000:   START DEPTH
 STOP.F          521.0000:   STOP DEPTH
 STEP.F            0.5000:   STEP LENGTH
 NULL.          -999.2500:   NO VALUE
 COMP. FENIX & SCISSON INC:   COMPANY
 WELL.      NPR-3 #52SX-3:   WELL
 FLD .             TEAPOT:   FIELD
 LOC .       S3 T38N R78W:   LOCATION
 CNTY.            NATRONA:   COUNTY
 STAT.            WYOMING:   STATE
 CTRY. UNITED STATES OF AMERICA:   COUNTRY
 SRVC.            Unknown:   SERVICE COMPANY
 DATE.        03-OCT-1978:   LOGDATE
 API .       490251071800:   API NUMBER
~CURVE INFORMATION
#MNEM.UNIT       API CODE    CURVE DESCRIPTION
#----------   ------------   ------------------------------
 DEPT.F                  :   
 SPR .MV     05 010 01 00:   SPONTANEOUS POTENTIAL FROM RES.
 GRD .GAPI   45 310 01 00:   GAMMA RAY FROM DENSITY LOG
 CALD.IN     45 280 60 00:   CALIPER
 RHOB.G/C3   45 350 01 00:   BULK DENSITY
 DPHI.DEC    45 890 12 00:   DENSITY POROSITY SANDSTONE
 CORR.G/C3   45 356 01 00:   DENSITY CORRECTION
 SN  .OHMM   05 040 16 00:   SHORT NORMAL 16"
 IL  .OHMM   05 120 00 00:   INDUCTION LOG
~PARAMETER INFORMATION
#MNEM.UNIT          VALUE    DESCRIPTION
#----------   ------------   ------------------------------
 PD  .                 GL:   PERMANENT DATUM
 EPD .F              5129:   ELEVATION PERMANENT DATUM
 LMF .                 KB:   LOG MEASURED FROM
 DAPD.F                 4:   FEET ABOVE PERMANENT DATUM
 DMF .                 KB:   DRILLING MEASURED FROM
 EKB .F              5133:   KELLING BUSHING
 EGL .F              5129:   GROUND LEVEL
 DATE.            10-3-78:   RUN DATE
 RUN .                  1:   RUN NUMBER
 DD  .F               521:   DEPTH DRILLER
 DL  .F               520:   DEPTH LOGGER
 BLI .F               514:   BOTTOM LOG INTERVAL
 TLI .F                46:   TOP LOG INTERVAL
 CS  .IN            8.625:   CASING SIZE
 CBL .F                44:   CASING BOTTOM LOGGER
 BS  .IN            7.875:   BIT SIZE
 BSD .F               521:   BIT SIZE AT DEPTH
 DFT .                KCL:   DRILLING FLUID TYPE
 DFD .                8.7:   DRILLING FLUID DENSITY
 DFV .                 34:   DRILLING FLUID VISCOSITY
 DFPH.                  9:   DRILLING FLUID PH
 DFL .               10.8:   DRILLING FLUID LOSS
 MSS .            MUD PIT:   MUD SAMPLE SOURCE
 RMS .OHMM            .24:   RESISTIVITY MUD SAMPLE
 MST .F                54:   MUD SAMPLE TEMPERATURE
 RMF .OHMM            .22:   RESISTIVITY MUD FILTRATE SAMPLE
 MFST.F                60:   MUD FILTRATE SAMPLE TEMPERATURE
 RMC .OHMM             .3:   RESISTIVITY MUD CAKE
 MCST.F                64:   MUD CAKE SAMPLE TEMPERATURE
 MFSS.               MEAS:   MUD FILTRATE SAMPLE SOURCE
 MCSS.               MEAS:   MUD CAKE SAMPLE SOURCE
 BHT .F                60:   BOTTOM HOLE TEMPERATURE
 TCS .HRS               3:   TIME CURCULATED STOPPED
 MRT .F                60:   MAXIMUM RECORDED TEMPERATURE
 LUN .               2958:   LOGGING UNIT NUMBER
 LUL .               CASP:   LOGGING UNIT LOCATION
 ENGI.             MILLER:   RECORDING ENGINEER
 WITN.           DINSMORE:   WITNESSED BY
 CLNT.            A2DTECH:   CLIENT CODE
 ORIG.       2", 5" PRINT:   ORIGIN OF DATA
 UWI .       490251071800:   UNIQUE WELL ID
 DICO. A2D Technologies, Inc.:   DIGITIZING COMPANY
~OTHER INFORMATION
~A   DEPT      SPR         GRD      CALD       RHOB       DPHI       CORR         SN         IL   
# ...
  314.5000    -6.0951    67.1467     7.7939     2.4626     0.1307     0.1701    16.3318    24.0497
  315.0000    -6.0380    65.3952     7.7785     2.4658     0.1301     0.1735    16.6263    23.7542
  315.5000    -5.9808    63.9062     7.7632     2.4624     0.1310     0.1716    16.9417    23.4959
  316.0000    -5.9239    64.6635     7.7478     2.4618     0.1319     0.1654    17.0416    23.1790
  316.5000    -5.8654    66.3564     7.7326     2.4571     0.1346     0.1339    17.1475    23.2145
  317.0000    -5.8506    66.5328     7.7226     2.4281     0.1439     0.1070    17.2570    23.2614
  317.5000    -5.6843    66.3436     7.7228     2.4202     0.1583     0.0889    17.2365    23.3085
  318.0000    -5.2267    65.8541     7.7228     2.4258     0.1595     0.0670    17.2155    23.3556
  318.5000    -4.8606    65.3107     7.7228     2.4312     0.1516     0.0387    17.1944    23.4751
  319.0000    -4.9195    65.0744     7.7228     2.4305     0.1508     0.0185    17.1734    23.8984
  319.5000    -4.9707    64.7239     7.7228     2.4292     0.1530     0.0039    17.1523    24.3293
  320.0000    -5.0208    63.7931     7.7228     2.4157     0.1567     0.0026    17.1315    25.0769
  320.5000    -5.0708    62.9545     7.7243     2.3722     0.1814     0.0019    17.1105    26.0486
  321.0000    -5.1208    63.3343     7.7280     2.3295     0.2057     0.0011    17.0130    26.6167
  321.5000    -5.1708    64.7672     7.7317     2.2952     0.2299     0.0003    16.8165    26.6167
  322.0000    -5.2208    66.6998     7.7353     2.2930     0.2341    -0.0004    16.6222    26.5297
  322.5000    -5.2708    68.6506     7.7387     2.3222     0.2171     0.0017    16.4303    26.4272
  323.0000    -5.3210    70.4326     7.7452     2.3439     0.2054     0.0039    16.2405    26.0333
  323.5000    -5.3717    70.4664     7.8038     2.3455     0.2023     0.0060    16.0529    25.3175
  324.0000    -5.4201    70.4578     7.8183     2.3507     0.2033     0.0070    16.0300    24.6214
  324.5000    -5.3921    70.4536     7.8139     2.3615     0.1960     0.0045    16.0300    24.2725
  325.0000    -5.1170    70.4629     7.8091     2.3637     0.1916     0.0021    16.0300    24.3927
  325.5000    -4.8544    70.6628     7.8043     2.3533     0.1941    -0.0004    16.0300    24.4737
  326.0000    -4.5900    72.3676     7.8173     2.3353     0.2032     0.0009    16.0300    24.8775
  326.5000    -4.5277    72.8893     7.8473     2.3169     0.2151     0.0026    16.0302    25.4229
  327.0000    -4.6427    73.0232     7.8596     2.3046     0.2270     0.0041    16.0299    26.1304
  327.5000    -4.7598    72.6216     7.8569     2.2973     0.2328     0.0047    16.0288    25.9527
  328.0000    -4.9099    70.1861     7.8540     2.3008     0.2302    -0.0006    16.0300    25.7127
  328.5000    -5.2445    67.5595     7.8510     2.3192     0.2212    -0.0005    15.5964    25.4748
  329.0000    -5.7415    66.7057     7.8481     2.3513     0.2044    -0.0005    15.3217    25.2393
  329.5000    -6.5373    67.3836     7.8452     2.3688     0.1888    -0.0005    15.0519    25.0130
  330.0000    -6.8610    70.9062     7.8422     2.3797     0.1832    -0.0005    14.7868    23.8939
  330.5000    -6.8548    74.6957     7.8407     2.3890     0.1781    -0.0005    14.5265    22.9664
  331.0000    -7.2012    74.9450     7.8396     2.3902     0.1762     0.0000    14.2706    22.1619
  331.5000    -7.5504    75.0256     7.8385     2.3910     0.1743     0.0006    14.2077    21.3882
  332.0000    -7.9031    75.1214     7.8373     2.3913     0.1746     0.0012    14.1931    20.8246
  332.5000    -8.0386    75.2121     7.8362     2.3913     0.1758     0.0018    14.1784    20.5363
  333.0000    -7.6579    75.1366     7.8351     2.3913     0.1752     0.0025    14.1638    20.3722
  333.5000    -7.0573    75.0343     7.8340     2.3913     0.1740     0.0031    14.1491    20.4952
  334.0000    -6.8277    76.1029     7.8329     2.3913     0.1744     0.0037    14.1346    20.5817
  334.5000    -6.7917    77.7476     7.8317     2.3912     0.1757     0.0043    14.1200    20.6691
  335.0000    -6.7597    78.9836     7.8306     2.3885     0.1770     0.0049    14.1055    20.7565
  335.5000    -6.7278    78.8531     7.8295     2.3857     0.1783     0.0056    14.0913    20.8444
  336.0000    -6.6956    77.4960     7.8284     2.3834     0.1787     0.0062    14.0597    20.9327
  336.5000    -6.6641    75.5909     7.8273     2.3850     0.1784     0.0068    14.0263    21.0213
  337.0000    -6.6891    75.2018     7.8261     2.3852     0.1796     0.0074    13.9929    21.1103
  337.5000    -6.7764    75.4372     7.8250     2.3805     0.1823     0.0080    13.9596    21.3294
  338.0000    -6.8628    75.6905     7.8240     2.3727     0.1869     0.0087    13.9264    21.6087
  338.5000    -6.9492    75.7810     7.8229     2.3618     0.1934     0.0093    13.8933    21.8917
  339.0000    -7.0467    75.7225     7.8171     2.3529     0.2004     0.0099    13.8602    22.1784
  339.5000    -7.4220    75.6639     7.7789     2.3508     0.2004     0.0105    13.8272    22.5466
  340.0000    -7.5093    75.7363     7.7401     2.3518     0.1987     0.0111    13.7943    22.2917
  340.5000    -7.5790    76.6400     7.7233     2.3555     0.1968     0.0115    13.7615    21.9491
  341.0000    -7.6500    77.4294     7.7232     2.3562     0.1958     0.0115    13.7287    21.6118
  341.5000    -7.7210    77.3688     7.7950     2.3569     0.1955     0.0115    13.6960    21.1375
  342.0000    -7.7917    76.0163     7.8394     2.3598     0.1947     0.0115    13.6634    21.0303
  342.5000    -7.8416    74.8356     7.5510     2.3644     0.1920     0.0094    13.6309    20.8912
  343.0000    -8.0638    76.4749     7.6223     2.3637     0.1892     0.0037    13.5985    20.7530
  343.5000    -8.6652    78.3342     7.7223     2.3613     0.1921     0.0035    13.5082    20.6157
  344.0000    -9.0362    78.9328     7.8241     2.3581     0.1944     0.0035    13.3300    20.3899
  344.5000    -9.0433    78.5340     7.8417     2.3598     0.1938     0.0035    13.1542    20.1076
  345.0000    -9.0556    78.1455     7.8418     2.3595     0.1924     0.0035    12.9807    19.8293
  345.5000    -9.0668    77.7496     7.8417     2.3667     0.1904     0.0035    12.8374    19.5548
  346.0000    -9.0783    77.4957     7.8412     2.3742     0.1839     0.0035    12.7902    19.4244
  346.5000    -9.0898    79.7536     7.8308     2.3817     0.1793     0.0035    12.7430    19.3550
  347.0000    -9.1012    82.0503     7.8202     2.3832     0.1788     0.0035    12.6963    19.2860
  347.5000    -9.1127    83.7985     7.8097     2.3817     0.1810     0.0035    12.6496    19.2172
  348.0000    -9.1242    83.7038     7.7992     2.3801     0.1836     0.0035    12.6031    19.1486
  348.5000    -9.1356    82.4649     7.7887     2.3794     0.1833     0.0035    12.5567    19.0801
  349.0000    -9.1471    77.7850     7.7782     2.3798     0.1826     0.0035    12.5105    19.0116
  349.5000    -9.1586    74.9136     7.7677     2.3802     0.1820     0.0035    12.4646    18.9247
  350.0000    -9.1701    74.4133     7.7649     2.3751     0.1837     0.0035    12.4187    19.0297
  350.5000    -9.1816    73.9369     7.7701     2.3680     0.1858     0.0034    12.3730    19.1876
  351.0000    -9.1930    73.8973     7.7753     2.3605     0.1917     0.0067    12.3276    19.3468
  351.5000    -9.2039    73.9887     7.7805     2.3561     0.1969     0.0111    12.2694    19.4534
  352.0000    -9.2151    74.0839     7.7856     2.3547     0.1978     0.0155    12.2736    19.3667
  352.5000    -9.2607    74.1785     7.7908     2.3556     0.1968     0.0256    12.2794    19.2992
  353.0000    -9.5644    74.2727     7.7960     2.3565     0.1962     0.0393    12.2851    19.2321
  353.5000    -9.8712    74.3628     7.8011     2.3575     0.1959     0.0482    12.2910    19.1655
  354.0000   -10.1774    74.2566     7.8063     2.3587     0.1956     0.0572    12.2969    19.0991
  354.5000   -10.4850    73.7957     7.8115     2.3612     0.1942     0.0662    12.3027    19.0329
