~VERSION INFORMATION
 VERS.                2.0:   CWLS LOG ASCII STANDARD - VERSION 2.0
 WRAP.                 NO:   ONE LINE PER DEPTH STEP
~WELL INFORMATION
#MNEM.UNIT      DATA TYPE    INFORMATION
#----------   ------------   ------------------------------
 STRT.F            8.0000:   START DEPTH
 STOP.F          970.0000:   STOP DEPTH
 STEP.F            0.1000:   STEP LENGTH
 NULL.          -999.2500:   NO VALUE
 COMP.       F D SERV INC:   COMPANY
 WELL. N P R 3 STX-35 #15-35:   WELL
 FLD .             TEAPOT:   FIELD
 LOC .      S35 T39N R78W:   LOCATION
 CNTY.            NATRONA:   COUNTY
 STAT.            WYOMING:   STATE
 CTRY. UNITED STATES OF AMERICA:   COUNTRY
 SRVC.     Atlas Wireline:   SERVICE COMPANY
 DATE.        02-FEB-1992:   LOGDATE
 API .       490252250100:   API NUMBER
~CURVE INFORMATION
#MNEM.UNIT       API CODE    CURVE DESCRIPTION
#----------   ------------   ------------------------------
 DEPT.F                  :   
 GRR .GAPI   07 310 01 00:   GAMMA RAY
 RILD.OHMM   07 120 46 00:   INDUCTION LOG DEEP RESISTIVITY
 RILM.OHMM   07 120 44 00:   INDUCTION LOG MEDIUM RESISTIVITY
~PARAMETER INFORMATION
#MNEM.UNIT          VALUE    DESCRIPTION
#----------   ------------   ------------------------------
 PD  .                 GL:   PERMANENT DATUM
 EPD .F              5084:   ELEVATION PERMANENT DATUM
 LMF .                 KB:   LOG MEASURED FROM
 DAPD.F                10:   FEET ABOVE PERMANENT DATUM
 DMF .                 KB:   DRILLING MEASURED FROM
 EKB .F              5094:   KELLING BUSHING
 EDF .F              5093:   DRILLING FLOOR
 EGL .F              5084:   GROUND LEVEL
 DATE.        02-FEB-1982:   RUN DATE
 RUN .                  1:   RUN NUMBER
 DD  .F               980:   DEPTH DRILLER
 CS  .IN            8.625:   CASING SIZE
 BSD .F               980:   BIT SIZE AT DEPTH
 DFT .                AIR:   DRILLING FLUID TYPE
 LUN .            HL-6272:   LOGGING UNIT NUMBER
 LUL .             CASPER:   LOGGING UNIT LOCATION
 ENGI.       R. RASMLSSEN:   RECORDING ENGINEER
 WITN.          G. STRONG:   WITNESSED BY
 CLNT.            A2DTECH:   CLIENT CODE
 ORIG.           5" PRINT:   ORIGIN OF DATA
 UWI .       490252250100:   UNIQUE WELL ID
 DICO. A2D Technologies, Inc.:   DIGITIZING COMPANY
~OTHER INFORMATION
~A    DEPT      GRR      RILD       RILM   
# ...
  499.4000   140.6949     7.7770     7.2626
  499.5000   140.2980     7.8207     7.3047
  499.6000   139.7941     7.8309     7.3476
  499.7000   139.2900     7.8309     7.3655
  499.8000   138.7818     7.8484     7.3830
  499.9000   138.0302     7.8852     7.4178
  500.0000   136.6606     7.8851     7.4183
  500.1000   135.1354     7.9219     7.4690
  500.2000   133.6102     7.9587     7.5198
  500.3000   132.3159     7.9955     7.5705
  500.4000   131.8086     8.0323     7.6212
  500.5000   131.2246     8.0692     7.6720
  500.6000   130.5771     8.1060     7.7227
  500.7000   129.6463     8.1428     7.7734
  500.8000   128.5085     8.1848     7.8242
  500.9000   127.4529     8.2327     7.8749
  501.0000   126.9937     8.2857     7.9236
  501.1000   126.9966     8.3912     7.9704
  501.2000   127.4609     8.4814     8.0118
  501.3000   128.3391     8.5444     8.0122
  501.4000   129.6313     8.5943     8.0566
  501.5000   131.0768     8.6445     8.0689
  501.6000   132.2762     8.6950     8.0959
  501.7000   133.0716     8.7468     8.1437
  501.8000   133.3196     8.7967     8.1919
  501.9000   133.3794     8.8481     8.2404
  502.0000   133.3818     8.8998     8.2982
  502.1000   133.2828     8.9300     8.3380
  502.2000   133.0303     8.9416     8.3874
  502.3000   132.7830     8.9938     8.4369
  502.4000   132.7859     9.0541     8.4745
  502.5000   132.5759     9.0991     8.4749
  502.6000   132.4873     9.1167     8.4755
  502.7000   132.4897     9.1420     8.5192
  502.8000   132.4922     9.1798     8.5354
  502.9000   132.4946     9.1850     8.5607
  503.0000   132.4972     9.2433     8.6113
  503.1000   132.7260     9.2926     8.6622
  503.2000   132.8049     9.3468     8.7168
  503.3000   132.9377     9.3718     8.7173
  503.4000   133.1950     9.3908     8.7558
  503.5000   133.4869     9.4455     8.7789
  503.6000   134.0268     9.5021     8.7794
  503.7000   134.2704     9.5562     8.7893
  503.8000   134.5277     9.6120     8.8415
  503.9000   134.6400     9.6342     8.8420
  504.0000   134.6424     9.6573     8.9264
  504.1000   134.5959     9.7136     8.9664
  504.2000   134.3435     9.7703     8.9896
  504.3000   134.0441     9.8360     9.0298
  504.4000   133.6307     9.8847     9.0334
  504.5000   133.2829     9.9425     9.0938
  504.6000   133.0304     9.9728     9.0942
  504.7000   132.7143     9.9893     9.1311
  504.8000   132.2223    10.0476     9.1586
  504.9000   131.9373    10.1114     9.1755
  505.0000   131.9394    10.1112     9.2233
  505.1000   131.7678    10.1538     9.2238
  505.2000   131.7672    10.2130     9.2746
  505.3000   132.0246    10.2517     9.2890
  505.4000   132.3118    10.2611     9.2895
  505.5000   132.8608    10.3226     9.3101
  505.6000   133.0998    10.3812     9.3552
  505.7000   133.3572    10.3940     9.3557
  505.8000   133.7552    10.4301     9.4215
  505.9000   134.2674    10.4910     9.4664
  506.0000   134.7353    10.5385     9.4880
  506.1000   134.9964    10.5403     9.5124
  506.2000   135.2501    10.6113     9.5551
  506.3000   135.1010    10.6111     9.5556
  506.4000   134.8485    10.6518     9.5562
  506.5000   134.5960    10.6844     9.5567
  506.6000   134.3435    10.7019     9.5953
  506.7000   134.0799    10.7644     9.6242
  506.8000   133.4985    10.8330     9.6419
  506.9000   132.8472    10.8327     9.6990
  507.0000   132.2545    10.8782     9.7604
  507.1000   131.7472    10.9076     9.7609
  507.2000   131.1664    10.9073     9.8038
  507.3000   130.4036    10.9171     9.8299
  507.4000   129.5735    10.9827     9.8304
  507.5000   129.1111    11.0449     9.8310
  507.6000   128.6037    11.0586     9.8315
  507.7000   128.2324    11.0583     9.9006
  507.8000   127.9799    11.0845     9.9476
  507.9000   127.7669    11.1348    10.0065
  508.0000   127.7698    11.1345    10.0405
  508.1000   127.7722    11.1341    10.0410
  508.2000   127.7745    11.1890    10.0446
  508.3000   127.7769    11.2112    10.1121
  508.4000   127.7794    11.2417    10.1125
  508.5000   127.7818    11.2887    10.1131
  508.6000   127.7843    11.2884    10.1137
  508.7000   127.7871    11.2880    10.1143
  508.8000   127.7891    11.2878    10.1148
  508.9000   127.7915    11.2875    10.1154
  509.0000   127.7939    11.2871    10.1159
  509.1000   127.7964    11.2868    10.1165
  509.2000   127.7779    11.2865    10.1170
  509.3000   127.4984    11.2862    10.1176
  509.4000   127.0450    11.2859    10.1182
  509.5000   126.3576    11.2855    10.1187
  509.6000   125.5951    11.2853    10.1194
  509.7000   124.9165    11.2850    10.1199
  509.8000   124.3737    11.2846    10.1204
  509.9000   123.5735    11.2843    10.1210
  510.0000   123.0911    11.2839    10.1215
  510.1000   122.5834    11.2837    10.1221
  510.2000   121.7834    11.2834    10.1227
  510.3000   120.8642    11.2830    10.1232
  510.4000   120.0514    11.2827    10.1238
  510.5000   119.0384    11.2825    10.1243
  510.6000   118.4392    11.2821    10.1249
  510.7000   118.0235    11.2818    10.1255
  510.8000   117.6768    11.2815    10.1261
  510.9000   117.5370    11.2464    10.1266
  511.0000   117.6041    11.2028    10.1271
  511.1000   117.8945    11.2024    10.1277
  511.2000   118.7567    11.2021    10.1283
  511.3000   119.4291    11.2019    10.1289
  511.4000   119.8456    11.2015    10.1294
  511.5000   120.2303    11.2012    10.1300
  511.6000   120.6635    11.1746    10.1306
  511.7000   120.9208    11.1230    10.1311
  511.8000   121.1953    11.1228    10.1316
  511.9000   121.1976    11.1224    10.1322
  512.0000   121.2000    11.1221    10.1328
  512.1000   121.2025    11.0796    10.1334
  512.2000   121.1112    11.0445    10.1339
  512.3000   120.8124    11.0442    10.1345
  512.4000   120.3006    11.0382    10.1350
  512.5000   120.0005    10.9671    10.1356
  512.6000   119.5935    10.9669    10.1362
  512.7000   119.0863    10.9210    10.1368
  512.8000   118.6869    10.8904    10.1373
  512.9000   118.3737    10.8686    10.1378
  513.0000   117.8786    10.8049    10.1384
  513.1000   117.5906    10.7392    10.1390
  513.2000   117.3737    10.7390    10.1395
  513.3000   117.2921    10.6901    10.1401
  513.4000   117.4173    10.6275    10.1407
  513.5000   117.8999    10.5652    10.0476
  513.6000   118.9218    10.5033     9.9315
  513.7000   120.0293    10.4432     9.8407
  513.8000   120.2650    10.4429     9.7707
  513.9000   120.7075    10.3917     9.6603
  514.0000   121.0828    10.3308     9.5966
  514.1000   121.3405    10.2980     9.5492
  514.2000   121.6391    10.2977     9.4572
  514.3000   122.1649    10.2974     9.3741
  514.4000   122.1673    10.2971     9.3200
  514.5000   122.3695    10.2429     9.2663
  514.6000   122.4752    10.2253     9.2085
  514.7000   122.4776    10.2250     9.1597
  514.8000   122.4800    10.2247     9.1069
  514.9000   122.4748    10.2245     9.0831
  515.0000   122.1822    10.2241     9.0836
  515.1000   122.1842    10.2239     9.0841
  515.2000   122.0202    10.2699     9.0846
  515.3000   121.7675    10.2946     9.0851
  515.4000   121.5151    10.2943     9.0856
  515.5000   121.2403    10.2939     9.0861
  515.6000   120.6815    10.2937     9.0866
  515.7000   119.7675    10.2934     9.0994
  515.8000   118.9305    10.2931     9.1532
  515.9000   118.0349    10.2928     9.2152
  516.0000   117.1028    10.3203     9.2156
  516.1000   116.3407    10.3640     9.2522
  516.2000   115.5443    10.3687     9.3068
  516.3000   115.3028    10.4356     9.3458
  516.4000   115.4418    10.4354     9.3521
  516.5000   115.8468    10.4351     9.4120
  516.6000   116.3590    10.4348     9.4630
  516.7000   116.9223    10.4549     9.5190
  516.8000   117.6890    10.5070     9.5753
  516.9000   118.5919    10.5066     9.6120
  517.0000   119.2249    10.5064     9.6219
  517.1000   119.8298    10.5536     9.6800
  517.2000   120.4559    10.5790     9.7360
  517.3000   121.0912    10.5787     9.7936
  517.4000   121.3309    10.5784     9.8515
  517.5000   121.3336    10.5793     9.8856
