~VERSION INFORMATION
 VERS.                2.0:   CWLS LOG ASCII STANDARD - VERSION 2.0
 WRAP.                 NO:   ONE LINE PER DEPTH STEP
~WELL INFORMATION
#MNEM.UNIT      DATA TYPE    INFORMATION
#----------   ------------   ------------------------------
 STRT.M            0.0000:   START DEPTH
 STOP.M          642.0000:   STOP DEPTH
 STEP.M            0.1000:   STEP LENGTH
 NULL.          -999.2500:   NO VALUE
 COMP.   FLUOR DANIEL INC:   COMPANY
 WELL.     71-1 X 3 #71-3:   WELL
 FLD .             TEAPOT:   FIELD
 LOC .       S3 T38N R78W:   LOCATION
 CNTY.            NATRONA:   COUNTY
 STAT.            WYOMING:   STATE
 CTRY. UNITED STATES OF AMERICA:   COUNTRY
 SRVC.      Western Atlas:   SERVICE COMPANY
 DATE.        04-JAN-1995:   LOGDATE
 API .       490252267900:   API NUMBER
~CURVE INFORMATION
#MNEM.UNIT       API CODE    CURVE DESCRIPTION
#----------   ------------   ------------------------------
 DEPT.M                  :   
 RILD.OHMM   07 120 46 00:   INDUCTION LOG DEEP RESISTIVITY
 RILM.OHMM   07 120 44 00:   INDUCTION LOG MEDIUM RESISTIVITY
 GRR .GAPI   07 310 01 00:   GAMMA RAY
~PARAMETER INFORMATION
#MNEM.UNIT          VALUE    DESCRIPTION
#----------   ------------   ------------------------------
 PD  .                 GL:   PERMANENT DATUM
 EPD .F              5123:   ELEVATION PERMANENT DATUM
 LMF .                 KB:   LOG MEASURED FROM
 DAPD.F                10:   FEET ABOVE PERMANENT DATUM
 DMF .                 KB:   DRILLING MEASURED FROM
 EKB .F              5133:   KELLING BUSHING
 EDF .F              5132:   DRILLING FLOOR
 EGL .F              5123:   GROUND LEVEL
 DATE.        04-JAN-1995:   RUN DATE
 RUN .                  1:   RUN NUMBER
 DD  .F               647:   DEPTH DRILLER
 DL  .F               650:   DEPTH LOGGER
 BLI .F               642:   BOTTOM LOG INTERVAL
 TLI .F                96:   TOP LOG INTERVAL
 CS  .IN            9.625:   CASING SIZE
 CBD .F                96:   CASING BOTTOM DRILLER
 CBL .F                96:   CASING BOTTOM LOGGER
 BS  .IN             8.75:   BIT SIZE
 BSD .F               647:   BIT SIZE AT DEPTH
 DFT .                AIR:   DRILLING FLUID TYPE
 MRT .F                91:   MAXIMUM RECORDED TEMPERATURE
 LUN .            HL 6530:   LOGGING UNIT NUMBER
 LUL .             CASPER:   LOGGING UNIT LOCATION
 ENGI.        VERN RAUTIO:   RECORDING ENGINEER
 WITN.        GARY STRONG:   WITNESSED BY
 CLNT.            A2DTECH:   CLIENT CODE
 ORIG.           5" PRINT:   ORIGIN OF DATA
 UWI .       490252267900:   UNIQUE WELL ID
 DICO. A2D Technologies, Inc.:   DIGITIZING COMPANY
~OTHER INFORMATION
~A    DEPT    RILD       RILM        GRR   
# ...
  473.2000    21.1924    20.8511    86.2212
  473.3000    21.0091    20.8511    86.2230
  473.4000    20.8089    20.8511    86.0701
  473.5000    20.6914    20.8511    85.5780
  473.6000    20.5591    20.8511    85.0202
  473.7000    20.4587    20.8402    84.5939
  473.8000    20.3432    20.7068    83.9431
  473.9000    20.2284    20.7068    83.2042
  474.0000    20.1142    20.6322    82.4171
  474.1000    19.9975    20.5158    81.4037
  474.2000    19.8879    20.4211    80.6852
  474.3000    19.7757    20.4211    79.9463
  474.4000    19.6641    20.3110    79.3370
  474.5000    19.5531    20.1965    78.8449
  474.6000    19.4513    20.0261    78.3528
  474.7000    19.4516    19.8310    77.7894
  474.8000    19.2645    19.7190    77.5798
  474.9000    19.1840    19.5876    77.3347
  475.0000    19.1400    19.4074    77.1903
  475.1000    19.0319    19.2530    77.1921
  475.2000    18.9203    19.1443    77.1940
  475.3000    18.9205    19.0217    77.6703
  475.4000    18.7636    18.7880    78.1660
  475.5000    18.6602    18.5962    78.9155
  475.6000    18.6298    18.5288    79.9768
  475.7000    18.5247    18.4344    81.2132
  475.8000    18.4038    18.2499    82.6432
  475.9000    18.4040    18.1467    83.6859
  476.0000    18.3398    18.0445    84.9224
  476.1000    18.2362    17.8650    86.0610
  476.2000    18.1510    17.7180    87.0506
  476.3000    18.1513    17.6180    88.0901
  476.4000    18.0541    17.5273    89.0297
  476.5000    18.0263    17.5273    90.1985
  476.6000    18.0265    17.4422    91.3108
  476.7000    17.9983    17.3438    92.2313
  476.8000    17.9023    17.2855    92.9603
  476.9000    17.9026    17.2681    93.5393
  477.0000    17.9028    17.1658    93.9516
  477.1000    17.9031    17.0738    94.4473
  477.2000    17.9033    17.0470    94.6578
  477.3000    17.9036    16.9993    94.4127
  477.4000    17.9038    16.9034    94.1524
  477.5000    17.9041    16.8118    93.9224
  477.6000    17.8320    16.8118    93.6774
  477.7000    17.7807    16.8118    93.5535
  477.8000    17.7541    16.7563    93.5553
  477.9000    17.6582    16.6955    93.5571
  478.0000    17.6585    16.6955    93.5592
  478.1000    17.6587    16.6955    93.5607
  478.2000    17.6590    16.6104    93.7100
  478.3000    17.6219    16.5799    93.9587
  478.4000    17.5373    16.5799    94.1704
  478.5000    17.5376    16.5799    94.1723
  478.6000    17.4919    16.5799    94.4028
  478.7000    17.4425    16.5799    94.6515
  478.8000    17.4170    16.5083    94.7819
  478.9000    17.4172    16.4651    94.7837
  479.0000    17.4175    16.4651    94.7694
  479.1000    17.4177    16.4651    94.1834
  479.2000    17.4179    16.4651    93.7853
  479.3000    17.4182    16.4651    93.2932
  479.4000    17.4184    16.4651    92.8012
  479.5000    17.4050    16.4651    92.3092
  479.6000    17.2984    16.4651    91.7754
  479.7000    17.2987    16.4651    91.3251
  479.8000    17.2989    16.4651    90.8330
  479.9000    17.2991    16.5323    90.3410
  480.0000    17.2994    16.5799    89.8489
  480.1000    17.2996    16.5799    89.3568
  480.2000    17.2999    16.5799    88.8648
  480.3000    17.3001    16.5799    88.7668
  480.4000    17.3003    16.5799    88.6268
  480.5000    17.3006    16.5799    88.5549
  480.6000    17.3134    16.5799    88.8036
  480.7000    17.4216    16.5799    89.0763
  480.8000    17.4218    16.5799    89.7475
  480.9000    17.4221    16.5799    90.6581
  481.0000    17.4223    16.5799    91.6476
  481.1000    17.4225    16.6217    92.6371
  481.2000    17.4228    16.6955    93.6264
  481.3000    17.4230    16.6955    94.6160
  481.4000    17.4233    16.6955    95.6056
  481.5000    17.4235    16.6955    96.5951
  481.6000    17.4237    16.6955    97.5847
  481.7000    17.4240    16.6955    98.5742
  481.8000    17.4243    16.6955    99.6703
  481.9000    17.4245    16.6955   100.5534
  482.0000    17.4247    16.6955   101.2125
  482.1000    17.4691    16.6955   101.7082
  482.2000    17.5466    16.6955   102.2038
  482.3000    17.5468    16.6955   102.7003
  482.4000    17.5470    16.6955   102.9486
  482.5000    17.6247    16.6955   102.4320
  482.6000    17.6698    16.6955   101.5569
  482.7000    17.6700    16.6955   100.5709
  482.8000    17.6702    16.7200    99.5850
  482.9000    17.6705    16.8118    98.4818
  483.0000    17.7594    16.8118    97.6133
  483.1000    17.7941    16.8118    96.3029
  483.2000    17.8382    16.8118    95.0373
  483.3000    17.9185    16.8118    94.1553
  483.4000    17.9187    16.8118    93.6568
  483.5000    17.9190    16.8118    92.9275
  483.6000    17.9192    16.8971    92.3770
  483.7000    17.9195    16.9290    92.0183
  483.8000    17.9197    16.9712    91.7732
  483.9000    17.9200    17.0470    91.5281
  484.0000    17.9203    17.0470    91.2510
  484.1000    17.9205    17.0470    91.2526
  484.2000    17.9207    17.0470    91.2544
  484.3000    17.9210    17.0470    91.3605
  484.4000    17.9212    17.0470    91.5601
  484.5000    17.9215    17.0470    91.5620
  484.6000    17.9217    17.0470    91.8047
  484.7000    17.9987    17.0470    91.8677
  484.8000    18.0470    17.0470    92.0000
  484.9000    18.0473    17.0470    92.2487
  485.0000    18.0475    17.0470    92.4773
  485.1000    18.0478    17.0470    92.4794
  485.2000    18.0480    17.0470    92.4810
  485.3000    18.0483    17.0470    92.4828
  485.4000    18.0485    17.0470    92.4846
  485.5000    18.0488    17.0470    92.4401
  485.6000    18.0491    17.0470    92.1862
  485.7000    18.0493    17.0470    91.9499
  485.8000    17.9740    17.0470    91.5219
  485.9000    17.9250    16.9921    91.0298
  486.0000    17.9252    16.8962    90.5378
  486.1000    17.9255    16.8118    90.0284
  486.2000    17.9257    16.8118    89.1761
  486.3000    17.9259    16.8118    88.3413
  486.4000    17.9262    16.8118    87.3554
  486.5000    17.8859    16.7707    86.3695
  486.6000    17.8027    16.6955    85.4271
  486.7000    17.8030    16.6955    84.6533
  486.8000    17.7073    16.6955    84.6550
  486.9000    17.6803    16.6955    85.0169
  487.0000    17.6805    16.6462    85.5126
  487.1000    17.6526    16.5799    86.0083
  487.2000    17.5587    16.5799    86.5330
  487.3000    17.5590    16.5799    87.6855
  487.4000    17.4763    16.5799    88.0996
  487.5000    17.4380    16.5225    88.5952
  487.6000    17.4383    16.4293    88.9949
  487.7000    17.4385    16.3512    89.2030
  487.8000    17.4388    16.3512    89.2049
  487.9000    17.3462    16.3512    89.2066
  488.0000    17.2835    16.2863    89.2085
  488.1000    17.2348    16.2380    89.2103
  488.2000    17.1993    16.2152    89.2790
  488.3000    17.1949    16.1256    89.5160
  488.4000    17.0809    16.1256    89.5182
  488.5000    17.0810    16.1256    89.9264
  488.6000    17.0233    16.0230    90.4221
  488.7000    16.9634    15.9031    90.9178
  488.8000    16.9489    15.9031    91.3378
  488.9000    16.8465    15.9031    91.3397
  489.0000    16.7582    15.8239    90.8821
  489.1000    16.7305    15.7346    90.3901
  489.2000    16.6850    15.6837    89.8980
  489.3000    16.5908    15.6837    89.4060
  489.4000    16.5005    15.6837    88.9052
  489.5000    16.5008    15.5121    88.0275
  489.6000    16.4252    15.4674    87.8284
  489.7000    16.3325    15.4221    87.2925
  489.8000    16.2739    15.3603    86.6437
  489.9000    16.2611    15.3548    86.1867
  490.0000    16.1618    15.2540    85.9216
  490.1000    16.1621    15.2540    86.6037
  490.2000    16.0988    15.2016    87.3462
  490.3000    16.0507    15.1158    88.2051
  490.4000    16.0284    15.0435    89.0723
  490.5000    15.9379    15.0435    89.5740
  490.6000    15.8301    14.9650    90.4644
  490.7000    15.8303    14.8805    90.6637
  490.8000    15.7789    14.8360    90.7698
  490.9000    15.7213    14.8360    90.6842
  491.0000    15.7099    14.8346    90.4390
  491.1000    15.6130    14.7510    90.1712
  491.2000    15.6132    14.6678    90.1728
  491.3000    15.6134    14.6313    90.0059
