~VERSION INFORMATION
 VERS.                2.0:   CWLS LOG ASCII STANDARD - VERSION 2.0
 WRAP.                 NO:   ONE LINE PER DEPTH STEP
~WELL INFORMATION
#MNEM.UNIT      DATA TYPE    INFORMATION
#----------   ------------   ------------------------------
 STRT.F           45.5000:   START DEPTH
 STOP.F          740.0000:   STOP DEPTH
 STEP.F            0.5000:   STEP LENGTH
 NULL.          -999.2500:   NO VALUE
 COMP. FENIX & SCISSON INC:   COMPANY
 WELL.       NPR 3 #22-14:   WELL
 FLD .             TEAPOT:   FIELD
 LOC .      S14 T38N R78W:   LOCATION
 CNTY.            NATRONA:   COUNTY
 STAT.            WYOMING:   STATE
 CTRY. UNITED STATES OF AMERICA:   COUNTRY
 SRVC.           BIRDWELL:   SERVICE COMPANY
 DATE.        23-DEC-1978:   LOGDATE
 API .       490251075800:   API NUMBER
~CURVE INFORMATION
#MNEM.UNIT       API CODE    CURVE DESCRIPTION
#----------   ------------   ------------------------------
 DEPT.F                  :   
 SPR .MV     05 010 01 00:   SPONTANEOUS POTENTIAL FROM RES.
 SN  .OHMM   05 040 16 00:   SHORT NORMAL 16"
 IL  .OHMM   05 120 00 00:   INDUCTION LOG
 CALD.IN     45 280 60 00:   CALIPER
 GRD .GAPI   45 310 01 00:   GAMMA RAY FROM DENSITY LOG
 RHOB.G/C3   45 350 01 00:   BULK DENSITY
 DPHI.DEC    45 890 12 00:   DENSITY POROSITY SANDSTONE
 CORR.G/C3   45 356 01 00:   DENSITY CORRECTION
~PARAMETER INFORMATION
#MNEM.UNIT          VALUE    DESCRIPTION
#----------   ------------   ------------------------------
 PD  .                 GL:   PERMANENT DATUM
 EPD .F              5212:   ELEVATION PERMANENT DATUM
 LMF .                 KB:   LOG MEASURED FROM
 DAPD.F                 4:   FEET ABOVE PERMANENT DATUM
 DMF .                 KB:   DRILLING MEASURED FROM
 EKB .F              5216:   KELLING BUSHING
 EGL .F              5212:   GROUND LEVEL
 DATE.           12-23-78:   RUN DATE
 RUN .                  1:   RUN NUMBER
 DD  .F               735:   DEPTH DRILLER
 DL  .F               740:   DEPTH LOGGER
 BLI .F               733:   BOTTOM LOG INTERVAL
 TLI .F                50:   TOP LOG INTERVAL
 CS  .IN            8.625:   CASING SIZE
 CBD .F                40:   CASING BOTTOM DRILLER
 CBL .F                40:   CASING BOTTOM LOGGER
 BS  .IN            7.875:   BIT SIZE
 BSD .F               735:   BIT SIZE AT DEPTH
 DFT .                KCL:   DRILLING FLUID TYPE
 DFD .                8.7:   DRILLING FLUID DENSITY
 DFV .                 35:   DRILLING FLUID VISCOSITY
 DFPH.               10.5:   DRILLING FLUID PH
 DFL .               11.6:   DRILLING FLUID LOSS
 MSS .           FLOWLINE:   MUD SAMPLE SOURCE
 RMS .OHMM             .5:   RESISTIVITY MUD SAMPLE
 MST .F                60:   MUD SAMPLE TEMPERATURE
 RMF .OHMM             .5:   RESISTIVITY MUD FILTRATE SAMPLE
 MFST.F                60:   MUD FILTRATE SAMPLE TEMPERATURE
 RMC .OHMM             .7:   RESISTIVITY MUD CAKE
 MCST.F                60:   MUD CAKE SAMPLE TEMPERATURE
 MFSS.           MEASURED:   MUD FILTRATE SAMPLE SOURCE
 MCSS.           MEASURED:   MUD CAKE SAMPLE SOURCE
 RMB .OHMM           .518:   RESISTIVITY MUD AT BHT
 BHT .F                58:   BOTTOM HOLE TEMPERATURE
 TCS .HRS               5:   TIME CURCULATED STOPPED
 MRT .F                58:   MAXIMUM RECORDED TEMPERATURE
 LUN .               2958:   LOGGING UNIT NUMBER
 LUL .             CASPER:   LOGGING UNIT LOCATION
 ENGI.         B. ROLLINS:   RECORDING ENGINEER
 WITN.              IMMEL:   WITNESSED BY
 CLNT.            A2DTECH:   CLIENT CODE
 ORIG.           5" PRINT:   ORIGIN OF DATA
 UWI .       490251075800:   UNIQUE WELL ID
 DICO. A2D Technologies, Inc.:   DIGITIZING COMPANY
~OTHER INFORMATION
~A   DEPT      SPR         SN         IL       CALD         GRD      RHOB       DPHI       CORR   
# ...
  572.0000   -59.2180    14.0530    16.9200     7.4880    72.3860     2.4230     0.1460     0.1980
  572.5000   -59.2180    14.1040    17.1100     7.4700    72.9160     2.4360     0.1550     0.1770
  573.0000   -59.2180    14.1560    17.3500     7.4740    73.8010     2.4380     0.1640     0.1900
  573.5000   -59.2180    14.2070    17.5910     7.4850    74.1400     2.4240     0.1720     0.2080
  574.0000   -59.2190    14.3570    17.8800     7.4950    74.3590     2.4060     0.1760     0.2180
  574.5000   -59.2180    14.5080    17.6930     7.5050    74.5710     2.3910     0.1710     0.2200
  575.0000   -59.2130    14.6590    17.4570     7.5160    74.7740     2.4030     0.1610     0.2210
  575.5000   -59.1920    14.8100    17.2220     7.5260    74.8350     2.4140     0.1510     0.2140
  576.0000   -59.1720    14.9610    16.9860     7.5370    73.0360     2.4240     0.1230     0.1640
  576.5000   -59.1520    15.1120    16.7510     7.5470    70.6300     2.4380     0.0980     0.1120
  577.0000   -59.1320    15.2920    16.5160     7.5570    70.6490     2.5020     0.0700     0.0960
  577.5000   -59.1120    15.0700    16.2800     7.5670    70.8170     2.5570     0.0660     0.0900
  578.0000   -59.0920    14.7050    16.0450     7.5990    68.6210     2.5630     0.0620     0.0850
  578.5000   -59.0710    14.3390    15.8090     7.6350    66.9390     2.5670     0.0700     0.0820
  579.0000   -59.0510    13.9740    15.5740     7.6720    67.9110     2.5600     0.0910     0.0870
  579.5000   -59.0430    13.6090    15.3380     7.7080    69.2360     2.5520     0.1090     0.0910
  580.0000   -59.1690    13.2440    15.1030     7.7450    70.5660     2.5230     0.1280     0.0960
  580.5000   -58.9510    12.8790    14.9830     7.7810    71.9040     2.4900     0.1370     0.0890
  581.0000   -58.6910    12.5130    14.9340     7.8180    73.2470     2.4600     0.1350     0.0800
  581.5000   -58.4280    12.3760    14.8860     7.8540    74.5960     2.4560     0.1330     0.0760
  582.0000   -58.4540    12.3680    14.8370     7.8580    75.3280     2.4600     0.1370     0.0780
  582.5000   -58.5000    12.3580    14.7880     7.8380    75.6330     2.4570     0.1410     0.0830
  583.0000   -58.5460    12.3480    14.7390     7.8190    75.1110     2.4490     0.1440     0.0870
  583.5000   -58.5800    12.3370    14.6910     7.7990    74.0100     2.4440     0.1410     0.0910
  584.0000   -58.3510    12.3270    14.6420     7.7790    74.0730     2.4480     0.1380     0.0950
  584.5000   -57.4990    12.3170    14.6010     7.7590    74.7640     2.4520     0.1360     0.0980
  585.0000   -57.3710    12.3070    14.5840     7.7390    75.4700     2.4550     0.1360     0.0980
  585.5000   -57.3080    12.2970    14.5660     7.7200    75.8270     2.4550     0.1360     0.0980
  586.0000   -57.2450    12.2870    14.5490     7.7240    73.6390     2.4550     0.1360     0.0980
  586.5000   -57.1830    12.2760    14.5320     7.7710    71.0500     2.4550     0.1350     0.0980
  587.0000   -57.1200    12.2660    14.5150     7.8190    70.9420     2.4560     0.1330     0.0980
  587.5000   -57.0580    12.2560    14.4980     7.8390    71.6720     2.4600     0.1340     0.1010
  588.0000   -57.0140    12.2460    14.4810     7.8080    74.5360     2.4610     0.1340     0.1110
  588.5000   -57.0120    12.2360    14.4590     7.7770    76.8710     2.4600     0.1340     0.1280
  589.0000   -56.9180    12.2250    14.4340     7.7900    77.0360     2.4600     0.1320     0.1430
  589.5000   -56.5490    12.2150    14.4080     7.8170    77.2360     2.4620     0.1310     0.1510
  590.0000   -56.1900    12.2050    14.3830     7.8440    77.4420     2.4630     0.1290     0.1530
  590.5000   -55.8680    12.1950    14.3570     7.8410    77.6490     2.4690     0.1230     0.1550
  591.0000   -55.6130    12.1850    14.3310     7.8290    77.9370     2.4770     0.1160     0.1680
  591.5000   -55.6100    12.1750    14.3060     7.8170    78.4860     2.4850     0.1120     0.1820
  592.0000   -55.6110    12.1640    14.2800     7.8060    79.0180     2.4900     0.1110     0.1870
  592.5000   -55.6110    12.1510    14.2540     7.7940    79.3850     2.4980     0.1080     0.1900
  593.0000   -55.6110    12.1590    14.2290     7.7820    79.3690     2.5050     0.1050     0.1870
  593.5000   -55.6120    12.1710    14.2030     7.7700    78.8820     2.5060     0.0970     0.1630
  594.0000   -55.6100    12.1830    14.1770     7.7580    78.3440     2.5090     0.0850     0.1230
  594.5000   -55.6090    12.1950    14.1520     7.7500    77.8330     2.5200     0.0910     0.0940
  595.0000   -55.2610    12.2070    14.1260     7.7500    79.2630     2.5310     0.1050     0.0980
  595.5000   -54.5620    12.2200    14.1000     7.7500    80.8850     2.5390     0.1190     0.1030
  596.0000   -53.8390    12.2320    14.0750     7.7500    80.2830     2.5040     0.1210     0.1080
  596.5000   -53.8390    12.2440    14.0490     7.7500    79.3540     2.4830     0.1220     0.1120
  597.0000   -53.8850    12.2560    14.0230     7.7500    77.8440     2.4780     0.1240     0.1120
  597.5000   -53.9290    12.2680    13.9980     7.7500    76.3760     2.4760     0.1260     0.1110
  598.0000   -53.9710    12.2800    13.9720     7.7500    74.9050     2.4740     0.1270     0.1110
  598.5000   -54.0080    12.2920    13.9470     7.7470    74.2360     2.4730     0.1250     0.1100
  599.0000   -54.0080    12.3050    13.9210     7.7430    74.3300     2.4730     0.1220     0.1180
  599.5000   -54.0060    12.3170    13.8950     7.7390    75.2680     2.4760     0.1190     0.1290
  600.0000   -53.8010    12.3290    13.8670     7.7360    76.5250     2.4800     0.1160     0.1230
  600.5000   -53.3910    12.3410    13.8440     7.7320    77.8290     2.4860     0.1140     0.1010
  601.0000   -52.9810    12.3520    13.8210     7.7790    77.9850     2.4880     0.1180     0.0800
  601.5000   -52.6080    12.3760    14.8280     7.8780    77.7530     2.4960     0.1230     0.0700
  602.0000   -52.5740    12.3650    15.7510     7.9070    77.5710     2.5090     0.1280     0.0750
  602.5000   -52.5490    12.7950    16.6730     7.8930    77.7480     2.4830     0.1320     0.0770
  603.0000   -52.5220    13.1810    17.5950     7.8810    77.9530     2.4610     0.1300     0.0690
  603.5000   -52.4950    13.5670    18.5180     7.8680    78.1820     2.4650     0.1280     0.0620
  604.0000   -52.4680    14.0020    19.4400     7.8560    77.1170     2.4710     0.1310     0.0580
  604.5000   -52.4410    14.5610    20.3620     7.8430    75.9980     2.4670     0.1390     0.0660
  605.0000   -52.4170    15.4000    21.2850     7.8300    75.8980     2.4550     0.1460     0.0780
  605.5000   -52.2860    16.2390    22.2070     7.8180    75.8270     2.4430     0.1500     0.0900
  606.0000   -52.0880    17.0780    22.9350     7.8050    75.7070     2.4350     0.1500     0.1010
  606.5000   -51.9100    17.9180    23.7800     7.7920    74.1390     2.4340     0.1490     0.0800
  607.0000   -50.6940    18.0460    23.6860     7.7900    68.2820     2.4350     0.1570     0.0790
  607.5000   -49.6290    18.0460    23.5410     7.7890    62.6490     2.4370     0.1760     0.0810
  608.0000   -48.8680    18.0460    23.3970     7.7900    60.0900     2.4110     0.1950     0.0960
  608.5000   -48.3030    18.0460    23.2520     7.7380    59.3450     2.3680     0.2060     0.1120
  609.0000   -48.1670    18.0460    23.1070     7.6530    59.5880     2.3420     0.2050     0.1290
  609.5000   -48.1290    18.0460    22.9620     7.5680    60.9610     2.3440     0.2030     0.1320
  610.0000   -48.0930    18.0460    22.8170     7.5420    62.2260     2.3450     0.1910     0.1210
  610.5000   -48.0570    17.9930    22.6730     7.5290    63.3700     2.3590     0.1770     0.1110
  611.0000   -48.0190    17.9090    22.5280     7.4640    64.2860     2.3750     0.1720     0.1120
  611.5000   -47.8900    17.8250    22.3830     7.4610    63.6720     2.3920     0.1730     0.1170
  612.0000   -47.5860    17.7400    22.1440     7.4740    63.0450     2.3960     0.1730     0.1360
