~VERSION INFORMATION
 VERS.                2.0:   CWLS LOG ASCII STANDARD - VERSION 2.0
 WRAP.                 NO:   ONE LINE PER DEPTH STEP
~WELL INFORMATION
#MNEM.UNIT      DATA TYPE    INFORMATION
#----------   ------------   ------------------------------
 STRT.F            0.0000:   START DEPTH
 STOP.F          649.0000:   STOP DEPTH
 STEP.F            0.1000:   STEP LENGTH
 NULL.          -999.2500:   NO VALUE
 COMP.   FLUOR DANIEL INC:   COMPANY
 WELL.     17-1 X 2 #17-2:   WELL
 FLD .             TEAPOT:   FIELD
 LOC .       S2 T38N R78W:   LOCATION
 CNTY.            NATRONA:   COUNTY
 STAT.            WYOMING:   STATE
 CTRY. UNITED STATES OF AMERICA:   COUNTRY
 SRVC.      Western Atlas:   SERVICE COMPANY
 DATE.        20-MAY-1995:   LOGDATE
 API .       490252271000:   API NUMBER
~CURVE INFORMATION
#MNEM.UNIT       API CODE    CURVE DESCRIPTION
#----------   ------------   ------------------------------
 DEPT.F                  :   
 GRR .GAPI   07 310 01 00:   GAMMA RAY
 RILD.OHMM   07 120 46 00:   INDUCTION LOG DEEP RESISTIVITY
 RILM.OHMM   07 120 44 00:   RESITIVITY LOG MEDIUM
~PARAMETER INFORMATION
#MNEM.UNIT          VALUE    DESCRIPTION
#----------   ------------   ------------------------------
 PD  .                 GL:   PERMANENT DATUM
 EPD .F              5145:   ELEVATION PERMANENT DATUM
 LMF .                 KB:   LOG MEASURED FROM
 DAPD.F                10:   FEET ABOVE PERMANENT DATUM
 DMF .                 KB:   DRILLING MEASURED FROM
 EKB .F              5155:   KELLING BUSHING
 EDF .F              5154:   DRILLING FLOOR
 EGL .F              5145:   GROUND LEVEL
 DATE.        20-MAY-1995:   RUN DATE
 RUN .                  1:   RUN NUMBER
 DD  .F               657:   DEPTH DRILLER
 DL  .F               657:   DEPTH LOGGER
 BLI .F               649:   BOTTOM LOG INTERVAL
 CS  .IN            9.625:   CASING SIZE
 CBD .F                82:   CASING BOTTOM DRILLER
 CBL .F                82:   CASING BOTTOM LOGGER
 BS  .IN             8.75:   BIT SIZE
 BSD .F               657:   BIT SIZE AT DEPTH
 DFT .                AIR:   DRILLING FLUID TYPE
 MRT .F                92:   MAXIMUM RECORDED TEMPERATURE
 LUN .            HL 6530:   LOGGING UNIT NUMBER
 LUL .             CASPER:   LOGGING UNIT LOCATION
 ENGI.        VERN RAUTIO:   RECORDING ENGINEER
 WITN.        STEVE HARDY:   WITNESSED BY
 CLNT.            A2DTECH:   CLIENT CODE
 ORIG.           5" PRINT:   ORIGIN OF DATA
 UWI .       490252271000:   UNIQUE WELL ID
 DICO. A2D Technologies, Inc.:   DIGITIZING COMPANY
~OTHER INFORMATION
~A    DEPT      GRR      RILD       RILM   
# ...
  418.6000   100.9198    18.0064    17.0780
  418.7000   100.5596    18.0078    17.0784
  418.8000   100.0688    18.0089    17.0789
  418.9000    99.5730    18.0102    17.0795
  419.0000    98.8357    18.0582    17.1600
  419.1000    98.0983    18.1380    17.2583
  419.2000    97.6426    18.1393    17.3196
  419.3000    97.4836    18.1406    17.3201
  419.4000    97.4552    18.1418    17.3206
  419.5000    97.1857    18.1431    17.4139
  419.6000    97.4085    18.1443    17.5137
  419.7000    97.4908    18.1564    17.5641
  419.8000    97.8244    18.2733    17.5925
  419.9000    98.5652    18.2744    17.6874
  420.0000    99.3062    18.2757    17.6880
  420.1000   100.0471    18.2769    17.7729
  420.2000   100.9792    18.2782    17.8121
  420.3000   101.8305    18.2795    17.8126
  420.4000   102.4104    18.2807    17.8131
  420.5000   102.6586    18.3600    17.8136
  420.6000   102.9372    18.4105    17.8141
  420.7000   102.7225    18.4118    17.8893
  420.8000   102.4780    18.4131    17.9391
  420.9000   102.1279    18.4145    17.9396
  421.0000   101.6370    18.4156    17.9401
  421.1000   101.1361    18.4169    17.9407
  421.2000   100.4138    18.4182    17.9411
  421.3000    99.3047    18.4195    17.9416
  421.4000    98.0747    18.4208    17.9843
  421.5000    97.0709    18.4220    18.0676
  421.6000    96.5799    18.4233    18.0681
  421.7000    96.0190    18.4246    18.0686
  421.8000    95.3870    18.4259    18.0691
  421.9000    94.6497    18.4271    18.0696
  422.0000    94.0130    18.4286    18.0701
  422.1000    93.5222    18.4297    18.0706
  422.2000    93.0112    18.4310    18.0712
  422.3000    92.7767    18.4322    18.0716
  422.4000    92.7131    18.4335    18.0721
  422.5000    92.4635    18.4349    18.0726
  422.6000    92.1134    18.4361    18.0731
  422.7000    92.1152    18.4374    18.0736
  422.8000    92.1173    18.4386    18.0741
  422.9000    92.1189    18.4148    17.9962
  423.0000    92.1207    18.3137    17.9501
  423.1000    92.1225    18.3150    17.9176
  423.2000    92.1645    18.2346    17.8164
  423.3000    92.4279    18.1330    17.7042
  423.4000    92.4296    18.0318    17.4405
  423.5000    92.4314    17.9427    17.2104
  423.6000    92.5539    17.9442    17.0162
  423.7000    92.7367    17.8554    16.8664
  423.8000    92.7385    17.8225    16.8669
  423.9000    92.7406    17.7798    16.8673
  424.0000    95.1557    17.7018    16.8678
  424.1000    96.8013    17.7031    16.8683
  424.2000    97.3611    17.6057    16.8687
  424.3000    97.6445    17.5831    16.8692
  424.4000    98.1793    17.5844    16.8697
  424.5000    98.4073    17.5548    16.8701
  424.6000    98.6554    17.4651    16.8706
  424.7000    98.9035    17.4666    16.7838
  424.8000    99.1517    17.3830    16.5943
  424.9000    99.3999    17.3481    16.4100
  425.0000    99.6480    17.3493    16.4105
  425.1000    99.8962    17.3326    16.3369
  425.2000   100.0036    17.2319    16.2447
  425.3000   100.0909    17.2330    16.1530
  425.4000   100.3391    17.2342    16.0741
  425.5000   100.6126    17.1862    16.0746
  425.6000   100.6142    17.1175    16.0750
  425.7000   100.7819    17.1187    16.0755
  425.8000   100.9195    17.1200    16.0328
  425.9000   100.9766    17.1210    15.9882
  426.0000   101.2247    17.1222    16.0768
  426.1000   101.2265    17.1234    16.0773
  426.2000   101.2284    17.1246    16.0777
  426.3000   101.3659    17.1259    16.0781
  426.4000   101.6141    17.1270    16.0786
  426.5000   101.8622    17.1282    16.0790
  426.6000   102.1408    17.0832    16.0795
  426.7000   102.3586    17.0121    16.0799
  426.8000   102.4459    17.0133    16.0804
  426.9000   102.6589    17.0147    16.0808
  427.0000   103.1532    17.0157    16.0813
  427.1000   103.6580    17.0169    16.0861
  427.2000   103.6597    17.0180    16.1942
  427.3000   104.0336    17.0192    16.1946
  427.4000   104.3974    17.0205    16.1951
  427.5000   104.6455    17.0216    16.1955
  427.6000   104.8735    17.0228    16.1960
  427.7000   104.5740    17.0239    16.1964
  427.8000   104.1532    17.0038    16.1969
  427.9000   103.5065    16.9086    16.1973
  428.0000   102.5683    16.9098    16.1978
  428.1000   101.3834    16.9110    16.1721
  428.2000   100.3596    16.8601    16.0866
  428.3000    99.4160    16.7964    16.0871
  428.4000    98.9755    16.7976    16.0107
  428.5000    98.4797    16.7989    15.9767
  428.6000    97.8128    16.7175    15.9771
  428.7000    97.3219    16.6850    15.9776
  428.8000    96.7508    16.6468    15.9780
  428.9000    96.5462    16.5717    15.8914
  429.0000    96.1508    16.5731    15.8684
  429.1000    95.7554    16.4838    15.8221
  429.2000    95.5109    16.3920    15.7595
  429.3000    95.2514    16.3006    15.7458
  429.4000    95.2531    16.2363    15.5432
  429.5000    95.2549    16.2315    15.5435
  429.6000    95.2567    16.1265    15.4878
  429.7000    95.2585    16.0511    15.4004
  429.8000    95.2603    15.9616    15.3134
  429.9000    95.2625    15.8726    15.2249
  430.0000    95.2639    15.7841    15.1411
  430.1000    95.2658    15.6906    15.1205
  430.2000    95.1771    15.6916    15.0750
  430.3000    94.9675    15.6297    14.9899
  430.4000    94.9697    15.5426    14.9053
  430.5000    94.9713    15.4559    14.8106
  430.6000    94.8022    15.3728    14.7376
  430.7000    94.6733    15.3741    14.7089
  430.8000    94.6751    15.3046    14.6732
  430.9000    94.6719    15.2697    14.5904
  431.0000    94.4274    15.2398    14.5073
  431.1000    94.3789    15.1548    14.5077
  431.2000    94.8030    15.0626    14.5081
  431.3000    95.5438    14.9864    14.5085
  431.4000    96.2848    14.9605    14.5089
  431.5000    97.1012    14.9229    14.5003
  431.6000    97.9879    14.8397    14.4094
  431.7000    98.9751    14.7569    14.4098
  431.8000    99.8516    14.6747    14.3556
  431.9000   100.5924    14.6575    14.2746
  432.0000   101.3333    14.6126    14.1940
  432.1000   101.3352    14.5582    14.1144
  432.2000   101.3370    14.5506    14.1148
  432.3000   101.2030    14.4597    14.0523
  432.4000   100.9585    14.3889    13.9730
  432.5000   100.7389    14.3617    13.9214
  432.6000   100.7411    14.3280    13.9218
  432.7000   100.5265    14.2644    13.9222
  432.8000   100.4428    14.2654    13.9225
  432.9000   100.5502    14.2664    13.9229
  433.0000   100.7984    14.2673    13.9233
  433.1000   101.0516    14.2683    13.9237
  433.2000   101.2947    14.2693    13.9259
  433.3000   101.5429    14.2703    14.0215
  433.4000   101.9218    14.2715    14.0219
  433.5000   102.3409    14.2723    14.0222
  433.6000   102.6090    14.2733    14.0515
  433.7000   103.1743    14.2743    14.1207
  433.8000   103.8093    14.2753    14.1211
  433.9000   104.5503    14.2763    14.1215
  434.0000   105.1906    14.2772    14.1783
  434.1000   105.6398    14.2201    14.2206
  434.2000   105.8981    14.1805    14.2210
  434.3000   105.6636    14.1815    14.2214
  434.4000   105.2380    14.1825    14.2219
  434.5000   104.7471    14.1837    14.2222
  434.6000   104.1859    14.1845    14.1744
  434.7000   103.4486    14.1855    14.1246
  434.8000   102.5909    14.1864    14.1250
  434.9000   101.9739    14.1874    14.1254
  435.0000   101.5384    14.1885    14.1258
  435.1000   101.1984    14.1159    14.0689
  435.2000   100.7477    14.0923    13.9895
  435.3000   100.4882    14.0933    13.9322
  435.4000   100.2586    14.0750    13.9326
  435.5000   100.1900    13.9978    13.9331
  435.6000   100.0712    13.9988    13.8676
  435.7000    99.8920    13.9998    13.8374
  435.8000    99.9039    13.9561    13.8070
  435.9000   100.1976    13.9049    13.7424
  436.0000   100.1991    13.8969    13.7428
  436.1000   100.2009    13.8108    13.6691
  436.2000   100.3837    13.7425    13.6485
  436.3000   100.8431    13.7172    13.6094
  436.4000   101.1115    13.6842    13.5549
  436.5000   101.3394    13.6243    13.5553
  436.6000   101.4166    13.6252    13.5557
  436.7000   101.4184    13.5503    13.4908
