~VERSION INFORMATION
 VERS.                2.0:   CWLS LOG ASCII STANDARD - VERSION 2.0
 WRAP.                 NO:   ONE LINE PER DEPTH STEP
~WELL INFORMATION
#MNEM.UNIT      DATA TYPE    INFORMATION
#----------   ------------   ------------------------------
 STRT.F            0.0000:   START DEPTH
 STOP.F          534.0000:   STOP DEPTH
 STEP.F            0.1000:   STEP LENGTH
 NULL.          -999.2500:   NO VALUE
 COMP.       F D SERV INC:   COMPANY
 WELL. NAVAL PETROLEUM RESERVE 3 SX-1 #71-2-10:   WELL
 FLD .            N.P.R 3:   FIELD
 LOC .      S10 T38N R78W:   LOCATION
 CNTY.            NATRONA:   COUNTY
 STAT.            WYOMING:   STATE
 CTRY. UNITED STATES OF AMERICA:   COUNTRY
 SRVC.     Atlas Wireline:   SERVICE COMPANY
 DATE.        07-DEC-1992:   LOGDATE
 API .       490252257200:   API NUMBER
~CURVE INFORMATION
#MNEM.UNIT       API CODE    CURVE DESCRIPTION
#----------   ------------   ------------------------------
 DEPT.F                  :   
 GRR .GAPI   07 310 01 00:   GAMMA RAY
 RILD.OHMM   07 120 46 00:   INDUCTION LOG DEEP RESISTIVITY
 RILM.OHMM   07 120 44 00:   RESITIVITY LONG MEDIUM
~PARAMETER INFORMATION
#MNEM.UNIT          VALUE    DESCRIPTION
#----------   ------------   ------------------------------
 PD  .                 GL:   PERMANENT DATUM
 EPD .F              5165:   ELEVATION PERMANENT DATUM
 LMF .                 KB:   LOG MEASURED FROM
 DAPD.F                10:   FEET ABOVE PERMANENT DATUM
 DMF .                 KB:   DRILLING MEASURED FROM
 EKB .F              5175:   KELLING BUSHING
 EDF .F              5174:   DRILLING FLOOR
 EGL .F              5165:   GROUND LEVEL
 DATE.        07-DEC-1992:   RUN DATE
 RUN .                  1:   RUN NUMBER
 DD  .F               540:   DEPTH DRILLER
 DL  .F               542:   DEPTH LOGGER
 BLI .F               534:   BOTTOM LOG INTERVAL
 CS  .IN            8.625:   CASING SIZE
 CBD .F                78:   CASING BOTTOM DRILLER
 CBL .F                82:   CASING BOTTOM LOGGER
 BS  .IN            7.875:   BIT SIZE
 BSD .F               540:   BIT SIZE AT DEPTH
 DFT .           AIR FOAM:   DRILLING FLUID TYPE
 BHT .F                70:   BOTTOM HOLE TEMPERATURE
 MRT .F                70:   MAXIMUM RECORDED TEMPERATURE
 LUN .           HL- 6345:   LOGGING UNIT NUMBER
 LUL .         FT. MORGAN:   LOGGING UNIT LOCATION
 ENGI.             BURLEY:   RECORDING ENGINEER
 WITN.        GARY STRONG:   WITNESSED BY
 CLNT.            A2DTECH:   CLIENT CODE
 ORIG.           5" PRINT:   ORIGIN OF DATA
 UWI .       490252257200:   UNIQUE WELL ID
 DICO. A2D Technologies, Inc.:   DIGITIZING COMPANY
~OTHER INFORMATION
~A    DEPT      GRR      RILD       RILM   
# ...
  309.4000   115.5909    11.0574    10.7950
  309.5000   115.6116    11.2433    10.9211
  309.6000   116.1900    11.3847    11.1005
  309.7000   116.6142    11.6325    11.2955
  309.8000   117.1156    11.8559    11.4939
  309.9000   117.6170    12.0275    11.6957
  310.0000   118.0577    12.1680    11.9008
  310.1000   118.2970    12.3100    12.1811
  310.2000   118.2926    12.4655    12.4678
  310.3000   118.0783    12.5994    12.8518
  310.4000   117.3414    12.7467    13.2757
  310.5000   116.3277    12.9348    13.6827
  310.6000   115.0224    13.1620    14.1664
  310.7000   112.7301    13.3841    14.6707
  310.8000   109.8857    13.5539    15.1208
  310.9000   107.8218    13.8458    15.5667
  311.0000   106.1845    14.2313    16.0252
  311.1000   102.3162    14.6510    16.4770
  311.2000    93.6734    15.0546    16.8634
  311.3000    92.0129    15.4180    17.2606
  311.4000    89.6765    15.9140    17.6669
  311.5000    88.2003    16.2549    18.0185
  311.6000    86.7884    16.6375    18.3349
  311.7000    80.2702    17.0287    18.6348
  311.8000    77.2630    17.3973    18.8520
  311.9000    76.2362    17.7138    19.1837
  312.0000    74.9701    18.1703    19.5211
  312.1000    72.9847    18.5574    19.7944
  312.2000    70.4171    18.8383    20.1200
  312.3000    69.6575    19.1146    20.5678
  312.4000    69.3504    19.4851    20.9286
  312.5000    69.3475    19.9306    21.2219
  312.6000    69.3439    20.3164    21.5208
  312.7000    69.3402    20.6381    21.8221
  312.8000    69.3366    21.0012    22.0767
  312.9000    69.3329    21.3082    22.3341
  313.0000    69.3293    21.5570    22.5943
  313.1000    69.5255    21.8086    22.9111
  313.2000    69.9232    22.0903    23.1252
  313.3000    70.4246    22.3214    23.3952
  313.4000    70.8791    22.5823    23.7800
  313.5000    71.1320    22.7803    24.2521
  313.6000    71.6253    22.9128    24.3928
  313.7000    71.9292    23.0583    24.6777
  313.8000    72.0316    23.3575    24.8496
  313.9000    72.1234    23.4784    24.9938
  314.0000    72.3284    23.6150    25.1389
  314.1000    72.3240    23.7524    25.2847
  314.2000    72.3205    23.8905    25.4314
  314.3000    72.3168    24.0175    25.6086
  314.4000    72.3132    24.0171    25.6080
  314.5000    72.3096    24.1407    25.6969
  314.6000    72.3059    24.1847    25.7859
  314.7000    72.3021    24.2525    25.8152
  314.8000    72.2986    24.3535    25.9650
  314.9000    72.2950    24.3532    26.1459
  315.0000    72.2914    24.3528    26.2674
  315.1000    72.1064    24.3525    26.3276
  315.2000    71.5978    24.3521    26.3883
  315.3000    71.0663    24.3518    26.5105
  315.4000    70.8217    24.3515    26.5098
  315.5000    70.3753    24.3511    26.6945
  315.6000    69.8666    24.3507    26.8185
  315.7000    69.4462    24.3504    26.9742
  315.8000    69.1530    24.3501    27.0675
  315.9000    68.6165    24.3498    27.0667
  316.0000    68.1355    24.3494    27.0660
  316.1000    68.0024    24.3491    27.0651
  316.2000    68.1356    24.3487    27.1908
  316.3000    68.5560    24.3484    27.1585
  316.4000    69.2402    24.3481    27.0630
  316.5000    69.5051    24.2816    27.0308
  316.6000    69.7380    24.1780    26.8733
  316.7000    70.1722    24.1776    26.5622
  316.8000    70.6735    24.1772    26.3766
  316.9000    71.4248    24.1769    26.2229
  317.0000    72.5867    24.0835    25.9502
  317.1000    73.1251    24.0080    25.5296
  317.2000    73.5896    24.0077    25.2333
  317.3000    73.9079    24.0074    24.9413
  317.4000    74.0249    24.0070    24.5387
  317.5000    74.1022    23.8870    24.1138
  317.6000    74.3215    23.7482    23.7505
  317.7000    74.3172    23.6731    23.4751
  317.8000    74.5453    23.6728    23.2027
  317.9000    74.6137    23.6646    23.0406
  318.0000    74.7395    23.5073    22.9333
  318.1000    75.2239    23.3905    22.8793
  318.2000    76.2028    23.3432    22.8786
  318.3000    77.0267    23.3428    22.8780
  318.4000    77.4814    23.3083    22.8774
  318.5000    77.8047    23.1728    22.8766
  318.6000    78.3078    23.0181    22.9829
  318.7000    79.1378    22.9043    23.0356
  318.8000    80.1189    22.7712    23.0887
  318.9000    80.9502    22.6980    23.2227
  319.0000    81.4000    22.6650    23.3574
  319.1000    81.7258    22.5332    23.5201
  319.2000    81.7254    22.3822    23.5196
  319.3000    81.4693    22.2722    23.5189
  319.4000    81.1905    22.1428    23.5183
  319.5000    80.6248    22.0709    23.5451
  319.6000    80.3974    22.0395    23.6816
  319.7000    79.7948    21.9113    23.6810
  319.8000    78.9114    21.7638    23.6803
  319.9000    78.1115    21.6575    23.7626
  320.0000    77.8554    21.5317    23.9005
  320.1000    77.5680    21.4612    24.0391
  320.2000    77.3430    21.4312    24.1785
  320.3000    77.0869    21.3066    24.3189
  320.4000    76.9505    21.1626    24.4601
  320.5000    77.0156    21.3697    24.6885
  320.6000    77.2470    21.5393    24.9181
  320.7000    77.2426    21.7197    25.0627
  320.8000    77.2394    21.9432    25.2081
  320.9000    77.4042    22.0750    25.5025
  321.0000    77.5357    22.3766    25.6802
  321.1000    77.5320    22.5942    25.8292
  321.2000    77.5438    22.8583    26.0400
  321.3000    77.8277    23.1253    26.3437
  321.4000    78.0415    23.3639    26.6507
  321.5000    78.6221    23.4997    27.2135
  321.6000    79.3759    23.6602    27.5967
  321.7000    80.0020    23.8890    27.8851
  321.8000    80.2381    24.0799    28.1788
  321.9000    80.2337    24.2200    28.6396
  322.0000    80.2307    24.3928    28.9734
  322.1000    80.2270    24.6742    29.3796
  322.2000    80.2234    24.8433    29.6542
  322.3000    80.2197    25.0822    30.0003
  322.4000    80.1844    25.2834    30.2792
  322.5000    79.3014    25.4305    30.4907
  322.6000    78.8743    25.6113    30.8461
  322.7000    78.3656    25.9073    31.2064
  322.8000    77.7468    26.0856    31.4238
  322.9000    76.9856    26.2098    31.7172
  323.0000    76.2327    26.4574    32.0122
  323.1000    75.6376    26.7014    32.1979
  323.2000    75.4250    26.8567    32.3846
  323.3000    74.6929    27.0106    32.7629
  323.4000    74.1099    27.0102    32.8379
  323.5000    74.2195    27.2670    32.9520
  323.6000    74.7152    27.4871    33.1432
  323.7000    75.0088    27.6470    33.3354
  323.8000    75.0058    27.7738    33.5288
  323.9000    75.0021    27.7748    33.7235
  324.0000    74.9985    27.9675    33.7617
  324.1000    74.9948    28.0991    33.8789
  324.2000    74.9912    28.2625    33.9962
  324.3000    74.9869    28.3598    33.9952
  324.4000    74.9839    28.3594    33.9943
  324.5000    74.9803    28.3590    33.9933
  324.6000    74.8739    28.5572    33.9924
  324.7000    74.6177    28.5569    34.1104
  324.8000    74.3624    28.6568    34.2285
  324.9000    74.3580    28.7562    34.2275
  325.0000    74.3551    28.7894    34.2266
  325.1000    74.2001    28.9569    34.4253
  325.2000    73.9440    28.9565    34.4643
  325.3000    73.7372    29.0909    34.5840
  325.4000    73.7335    29.1586    34.7037
  325.5000    73.7299    29.1582    34.7432
  325.6000    73.7263    29.1578    34.9447
  325.7000    73.7226    29.1573    35.1476
  325.8000    73.9148    29.3261    35.3516
  325.9000    74.3230    29.3608    35.5568
  326.0000    74.3186    29.3604    35.7632
  326.1000    74.8120    29.3600    35.9706
  326.2000    75.1158    29.3596    36.1793
  326.3000    75.3647    29.3592    36.3894
  326.4000    75.8046    29.5283    36.6007
  326.5000    76.5585    29.5641    36.8131
  326.6000    77.3316    29.6651    37.0267
  326.7000    78.3120    29.7704    37.2415
  326.8000    78.9284    29.7700    37.4575
  326.9000    79.4298    29.7696    37.6750
  327.0000    79.9313    29.7692    37.8937
  327.1000    80.3490    29.9049    38.2476
  327.2000    80.3446    29.9769    38.6033
  327.3000    80.5847    29.9765    38.7820
  327.4000    80.6410    29.9761    38.7809
  327.5000    80.6373    29.9757    39.0511
