~VERSION INFORMATION
 VERS.                2.0:   CWLS LOG ASCII STANDARD - VERSION 2.0
 WRAP.                 NO:   ONE LINE PER DEPTH STEP
~WELL INFORMATION
#MNEM.UNIT      DATA TYPE    INFORMATION
#----------   ------------   ------------------------------
 STRT.F         1596.0000:   START DEPTH
 STOP.F         3210.0000:   STOP DEPTH
 STEP.F            0.5000:   STEP LENGTH
 NULL.          -999.2500:   NO VALUE
 COMP.   FLUOR DANIEL INC:   COMPANY
 WELL. NAVAL PETROLEUM RESERVE 3 X-23 #73-23:   WELL
 FLD .             TEAPOT:   FIELD
 LOC .      S23 T38N R78W:   LOCATION
 CNTY.            NATRONA:   COUNTY
 STAT.            WYOMING:   STATE
 CTRY. UNITED STATES OF AMERICA:   COUNTRY
 SRVC.            Unknown:   SERVICE COMPANY
 DATE.        29-JAN-1995:   LOGDATE
 API .       490252265000:   API NUMBER
~CURVE INFORMATION
#MNEM.UNIT       API CODE    CURVE DESCRIPTION
#----------   ------------   ------------------------------
 DEPT.F                  :   
 TGAS.TC/CC  91 830 01 00:   TOTAL GAS UNIT
 ROP .FT/HR  91 810 01 00:   RAT OF DRILLING PENETRATION
~PARAMETER INFORMATION
#MNEM.UNIT          VALUE    DESCRIPTION
#----------   ------------   ------------------------------
 EKB .F              5433:   KELLING BUSHING
 EGL .F              5423:   GROUND LEVEL
 DATE.        29-JAN-1995:   RUN DATE
 RUN .                  1:   RUN NUMBER
 BLI .F              3210:   BOTTOM LOG INTERVAL
 TLI .F              1600:   TOP LOG INTERVAL
 WITN.     C.TOWER/R.HUSK:   WITNESSED BY
 CLNT.            A2DTECH:   CLIENT CODE
 ORIG.           5" PRINT:   ORIGIN OF DATA
 UWI .       490252265000:   UNIQUE WELL ID
 DICO. A2D Technologies, Inc.:   DIGITIZING COMPANY
~OTHER INFORMATION
~A  DEPT        TGAS        ROP 
# ...
 1839.0000     1.2810     0.5189
 1839.5000     0.5660     0.5189
 1840.0000     0.5660     0.5189
 1840.5000     0.5660     0.5189
 1841.0000     0.5660     0.5189
 1841.5000     0.5660     0.5189
 1842.0000     0.5660     0.5189
 1842.5000     0.5660     0.5283
 1843.0000     0.7547     0.5280
 1843.5000     0.9434     0.5272
 1844.0000     1.1321     0.5264
 1844.5000     1.3208     0.5256
 1845.0000     1.3208     0.5248
 1845.5000     1.3208     0.5240
 1846.0000     1.3208     0.5232
 1846.5000     1.3208     0.5224
 1847.0000     1.3208     0.5216
 1847.5000     1.1206     0.5208
 1848.0000     1.0858     0.5200
 1848.5000     1.0509     0.5192
 1849.0000     1.0160     0.5189
 1849.5000     0.9811     0.5189
 1850.0000     0.9434     0.5189
 1850.5000     1.1321     0.5189
 1851.0000     1.1321     0.5283
 1851.5000     1.3208     0.5377
 1852.0000     1.3208     0.5377
 1852.5000     1.3208     0.5472
 1853.0000     1.1321     0.5377
 1853.5000     1.1321     0.5283
 1854.0000     0.9434     0.5283
 1854.5000     0.9434     0.5189
 1855.0000     0.9434     0.5094
 1855.5000     0.7547     0.5000
 1856.0000     0.7547     0.5000
 1856.5000     0.7547     0.5000
 1857.0000     0.9434     0.5000
 1857.5000     0.9434     0.4906
 1858.0000     0.9434     0.4906
 1858.5000     0.9434     0.4906
 1859.0000     0.7547     0.4906
 1859.5000     0.7547     0.5000
 1860.0000     0.7547     0.5094
 1860.5000     0.9434     0.5189
 1861.0000     1.1321     0.5189
 1861.5000     1.1321     0.5189
 1862.0000     0.9434     0.5283
 1862.5000     0.9434     0.5283
 1863.0000     0.9434     0.5283
 1863.5000     0.9434     0.5281
 1864.0000     0.9434     0.5277
 1864.5000     0.9434     0.5273
 1865.0000     0.9434     0.5270
 1865.5000     0.9434     0.5266
 1866.0000     0.7743     0.5262
 1866.5000     0.8185     0.5258
 1867.0000     0.8627     0.5255
 1867.5000     0.9070     0.5251
 1868.0000     0.9512     0.5247
 1868.5000     0.9954     0.5243
 1869.0000     1.0397     0.5240
 1869.5000     1.0839     0.5238
 1870.0000     1.1281     0.5236
 1870.5000     1.1723     0.5233
 1871.0000     1.2169     0.5231
 1871.5000     1.2122     0.5229
 1872.0000     1.2075     0.5226
 1872.5000     1.2027     0.5130
 1873.0000     1.1980     0.5033
 1873.5000     1.1933     0.4936
 1874.0000     0.9998     0.4934
 1874.5000     0.8064     0.5026
 1875.0000     0.8017     0.5024
 1875.5000     0.7970     0.5021
 1876.0000     0.7922     0.5113
 1876.5000     0.7875     0.5111
 1877.0000     0.7827     0.5108
 1877.5000     0.7780     0.5106
 1878.0000     0.7733     0.5103
 1878.5000     0.9584     0.5195
 1879.0000     1.3310     0.5193
 1879.5000     1.3251     0.5191
 1880.0000     1.3204     0.5188
 1880.5000     1.3156     0.5281
 1881.0000     1.5008     0.5278
 1881.5000     1.3061     0.5370
 1882.0000     1.4913     0.5358
 1882.5000     1.4854     0.4988
 1883.0000     1.3947     0.4891
 1883.5000     1.2935     0.4889
 1884.0000     1.1923     0.4792
 1884.5000     1.1321     0.4885
 1885.0000     1.1321     0.4882
 1885.5000     1.1321     0.4785
 1886.0000     1.3208     0.4783
 1886.5000     1.3208     0.4686
 1887.0000     1.1321     0.4683
 1887.5000     1.1321     0.4681
 1888.0000     1.1321     0.4679
 1888.5000     1.1321     0.4772
 1889.0000     1.1321     0.4769
 1889.5000     1.1321     0.4766
 1890.0000     1.1321     0.4670
 1890.5000     1.1321     0.4667
 1891.0000     1.1321     0.4665
 1891.5000     1.1321     0.4783
 1892.0000     1.1321     0.4207
 1892.5000     1.1635     0.4198
 1893.0000     1.3208     0.4189
 1893.5000     1.1321     0.4179
 1894.0000     1.1321     0.4066
 1894.5000     1.1321     0.3876
 1895.0000     1.1321     0.3866
 1895.5000     1.3208     0.3857
 1896.0000     1.3208     0.3848
 1896.5000     1.3208     0.3935
 1897.0000     1.3208     0.3829
 1897.5000     1.3208     0.3917
 1898.0000     1.3208     0.3905
 1898.5000     1.3208     0.3896
 1899.0000     1.3208     0.3981
 1899.5000     1.5094     0.3972
 1900.0000     1.3208     0.4057
 1900.5000     1.5094     0.4047
 1901.0000     1.5094     0.4038
 1901.5000     1.5094     0.4123
 1902.0000     1.5094     0.4200
 1902.5000     1.5094     0.4168
 1903.0000     1.3208     0.4135
 1903.5000     1.3208     0.4103
 1904.0000     1.3208     0.4070
 1904.5000     1.5094     0.4038
 1905.0000     1.5094     0.4006
 1905.5000     1.6981     0.3973
 1906.0000     1.6981     0.3941
 1906.5000     1.7171     0.3908
 1907.0000     1.8868     0.3876
 1907.5000     1.8868     0.3868
 1908.0000     1.8868     0.3774
 1908.5000     1.8868     0.3868
 1909.0000     1.8868     0.3868
 1909.5000     1.8868     0.3868
 1910.0000     1.8868     0.3868
 1910.5000     1.8868     0.3868
 1911.0000     1.8784     0.3868
 1911.5000     1.7941     0.3868
 1912.0000     1.7098     0.3868
 1912.5000     1.6254     0.3774
 1913.0000     1.5411     0.3868
 1913.5000     1.4567     0.3774
 1914.0000     1.3724     0.3774
 1914.5000     1.2881     0.3774
 1915.0000     1.2029     0.3679
 1915.5000     1.2052     0.3679
 1916.0000     1.2202     0.3679
 1916.5000     1.3986     0.3679
 1917.0000     1.4009     0.3680
 1917.5000     1.4033     0.3774
 1918.0000     1.4061     0.3868
 1918.5000     1.4084     0.3868
 1919.0000     1.4104     0.3868
 1919.5000     1.2238     0.3962
 1920.0000     1.2267     0.3962
 1920.5000     1.2290     0.3962
 1921.0000     1.2314     0.3962
 1921.5000     1.1289     0.3962
 1922.0000     1.2358     0.3868
 1922.5000     1.2383     0.3868
 1923.0000     1.2407     0.3962
 1923.5000     1.4317     0.3979
 1924.0000     1.4340     0.4075
 1924.5000     1.4363     0.4172
 1925.0000     1.4387     0.4245
 1925.5000     1.4410     0.4245
 1926.0000     1.4434     0.4245
 1926.5000     1.4458     0.4245
 1927.0000     1.4485     0.4245
 1927.5000     1.4509     0.4245
 1928.0000     1.6415     0.4245
 1928.5000     1.5545     0.4245
 1929.0000     1.4277     0.4252
 1929.5000     1.2709     0.4340
 1930.0000     1.2736     0.4434
 1930.5000     1.4648     0.4434
 1931.0000     1.4672     0.4434
 1931.5000     1.4693     0.4528
 1932.0000     1.4717     0.4528
 1932.5000     1.5615     0.4528
 1933.0000     1.6651     0.4434
 1933.5000     1.6675     0.4434
 1934.0000     1.6698     0.4434
 1934.5000     1.6722     0.4434
 1935.0000     1.6745     0.4434
 1935.5000     1.6769     0.4434
 1936.0000     1.6797     0.4340
 1936.5000     1.6820     0.4340
 1937.0000     1.6843     0.4245
 1937.5000     1.6867     0.4245
 1938.0000     1.6890     0.4245
 1938.5000     1.8800     0.4245
 1939.0000     1.8823     0.4245
 1939.5000     1.8847     0.4245
 1940.0000     1.8870     0.4245
 1940.5000     1.8893     0.4245
 1941.0000     1.8916     0.4245
 1941.5000     1.8940     0.4245
 1942.0000     1.8963     0.4278
 1942.5000     1.8986     0.4340
 1943.0000     1.9009     0.4434
 1943.5000     1.7146     0.4434
 1944.0000     1.3396     0.4434
 1944.5000     1.3420     0.4528
 1945.0000     1.5335     0.4528
 1945.5000     1.5601     0.4528
 1946.0000     1.7268     0.4434
 1946.5000     1.9178     0.4434
 1947.0000     1.9201     0.4519
 1947.5000     1.9225     0.4504
 1948.0000     2.1135     0.4510
 1948.5000     2.0602     0.4515
 1949.0000     1.9289     0.4614
 1949.5000     1.9316     0.4619
 1950.0000     1.7448     0.4528
 1950.5000     2.5524     0.4533
 1951.0000     2.5570     0.4444
 1951.5000     2.5617     0.4449
 1952.0000     2.5663     0.4453
 1952.5000     2.5710     0.4458
 1953.0000     2.3868     0.4463
 1953.5000     2.2028     0.4467
 1954.0000     1.9602     0.4566
 1954.5000     1.8349     0.4571
 1955.0000     1.8396     0.4670
 1955.5000     1.8443     0.4675
 1956.0000     2.0387     0.4679
 1956.5000     2.1490     0.4684
 1957.0000     2.2358     0.4593
 1957.5000     2.2413     0.4549
 1958.0000     2.2459     0.4505
 1958.5000     2.2500     0.4461
 1959.0000     2.2552     0.4417
 1959.5000     2.2599     0.4373
 1960.0000     2.2645     0.4330
