~VERSION INFORMATION
 VERS.                2.0:   CWLS LOG ASCII STANDARD - VERSION 2.0
 WRAP.                 NO:   ONE LINE PER DEPTH STEP
~WELL INFORMATION
#MNEM.UNIT      DATA TYPE    INFORMATION
#----------   ------------   ------------------------------
 STRT.F         1596.0000:   START DEPTH
 STOP.F         3210.0000:   STOP DEPTH
 STEP.F            0.5000:   STEP LENGTH
 NULL.          -999.2500:   NO VALUE
 COMP.   FLUOR DANIEL INC:   COMPANY
 WELL. NAVAL PETROLEUM RESERVE 3 X-23 #73-23:   WELL
 FLD .             TEAPOT:   FIELD
 LOC .      S23 T38N R78W:   LOCATION
 CNTY.            NATRONA:   COUNTY
 STAT.            WYOMING:   STATE
 CTRY. UNITED STATES OF AMERICA:   COUNTRY
 SRVC.            Unknown:   SERVICE COMPANY
 DATE.        29-JAN-1995:   LOGDATE
 API .       490252265000:   API NUMBER
~CURVE INFORMATION
#MNEM.UNIT       API CODE    CURVE DESCRIPTION
#----------   ------------   ------------------------------
 DEPT.F                  :   
 TGAS.TC/CC  91 830 01 00:   TOTAL GAS UNIT
 ROP .FT/HR  91 810 01 00:   RAT OF DRILLING PENETRATION
~PARAMETER INFORMATION
#MNEM.UNIT          VALUE    DESCRIPTION
#----------   ------------   ------------------------------
 EKB .F              5433:   KELLING BUSHING
 EGL .F              5423:   GROUND LEVEL
 DATE.        29-JAN-1995:   RUN DATE
 RUN .                  1:   RUN NUMBER
 BLI .F              3210:   BOTTOM LOG INTERVAL
 TLI .F              1600:   TOP LOG INTERVAL
 WITN.     C.TOWER/R.HUSK:   WITNESSED BY
 CLNT.            A2DTECH:   CLIENT CODE
 ORIG.           5" PRINT:   ORIGIN OF DATA
 UWI .       490252265000:   UNIQUE WELL ID
 DICO. A2D Technologies, Inc.:   DIGITIZING COMPANY
~OTHER INFORMATION
~A  DEPT        TGAS        ROP 
# ...
 2325.0000     2.0276     0.5554
 2325.5000     2.0230     0.5553
 2326.0000     2.0184     0.5552
 2326.5000     1.8251     0.5550
 2327.0000     1.8204     0.5455
 2327.5000     1.6271     0.5454
 2328.0000     1.6226     0.5547
 2328.5000     1.6179     0.5546
 2329.0000     1.6132     0.5545
 2329.5000     1.6085     0.5572
 2330.0000     1.7927     0.5640
 2330.5000     1.7944     0.5656
 2331.0000     1.7961     0.5651
 2331.5000     1.7978     0.5646
 2332.0000     1.7996     0.5642
 2332.5000     1.8013     0.5637
 2333.0000     1.8030     0.5632
 2333.5000     1.8047     0.7985
 2334.0000     1.8064     0.7980
 2334.5000     1.7766     0.7976
 2335.0000     1.6022     0.8067
 2335.5000     1.5929     0.9476
 2336.0000     1.5849     0.9471
 2336.5000     1.7654     0.9467
 2337.0000     1.7538     0.9462
 2337.5000     1.7445     0.9553
 2338.0000     1.9262     0.6622
 2338.5000     1.9146     0.6712
 2339.0000     2.0943     0.6613
 2339.5000     2.0849     0.6703
 2340.0000     1.9282     0.8962
 2340.5000     1.3193     0.8958
 2341.0000     1.1406     0.9047
 2341.5000     1.1469     0.8977
 2342.0000     1.1509     0.8093
 2342.5000     1.1559     0.7994
 2343.0000     1.1610     0.7895
 2343.5000     1.3538     0.7796
 2344.0000     1.3586     0.6188
 2344.5000     1.3637     0.6183
 2345.0000     1.3688     0.6179
 2345.5000     1.3726     0.6080
 2346.0000     1.5660     0.6171
 2346.5000     1.5715     0.6165
 2347.0000     1.3866     0.6255
 2347.5000     1.3917     0.6156
 2348.0000     1.2069     0.6218
 2348.5000     1.2123     0.6355
 2349.0000     1.2170     0.6415
 2349.5000     1.2222     0.6415
 2350.0000     1.2264     0.6415
 2350.5000     1.0424     0.6415
 2351.0000     1.0475     0.6321
 2351.5000     1.2413     0.6321
 2352.0000     1.0564     0.6321
 2352.5000     1.0615     0.6321
 2353.0000     1.0666     0.6321
 2353.5000     0.8818     0.6321
 2354.0000     0.8869     0.6321
 2354.5000     0.7020     0.6226
 2355.0000     0.8971     0.6226
 2355.5000     0.9009     0.6226
 2356.0000     1.0947     0.6226
 2356.5000     1.0998     0.6226
 2357.0000     1.1038     0.6226
 2357.5000     1.1087     0.6226
 2358.0000     1.1138     0.6226
 2358.5000     1.3066     0.6226
 2359.0000     1.3114     0.6226
 2359.5000     1.3165     0.6226
 2360.0000     1.1316     0.6226
 2360.5000     1.1368     0.6226
 2361.0000     0.9528     0.6226
 2361.5000     0.9575     0.6219
 2362.0000     1.0629     0.6212
 2362.5000     1.1559     0.6205
 2363.0000     1.1610     0.6198
 2363.5000     1.3538     0.6191
 2364.0000     1.3586     0.6184
 2364.5000     1.3637     0.6176
 2365.0000     1.3688     0.6169
 2365.5000     1.3726     0.6162
 2366.0000     1.3777     0.6160
 2366.5000     1.3828     0.6163
 2367.0000     1.3868     0.6165
 2367.5000     1.3917     0.6168
 2368.0000     1.2797     0.6264
 2368.5000     1.2406     0.6267
 2369.0000     1.2350     0.6363
 2369.5000     1.0416     0.6366
 2370.0000     1.0370     0.6462
 2370.5000     0.8436     0.6465
 2371.0000     0.8390     0.6467
 2371.5000     0.6456     0.6469
 2372.0000     0.6410     0.6472
 2372.5000     0.6363     0.6474
 2373.0000     0.4441     0.6476
 2373.5000     0.6282     0.6479
 2374.0000     0.6223     0.6387
 2374.5000     0.6177     0.6484
 2375.0000     0.8017     0.6486
 2375.5000     0.7970     0.5262
 2376.0000     0.7924     0.5264
 2376.5000     0.9764     0.5267
 2377.0000     1.1604     0.5174
 2377.5000     1.3444     0.5083
 2378.0000     1.3396     0.4990
 2378.5000     1.3696     0.4804
 2379.0000     1.5191     0.4712
 2379.5000     1.5133     0.4715
 2380.0000     1.3200     0.4717
 2380.5000     1.3153     0.4719
 2381.0000     1.3107     0.4722
 2381.5000     1.1173     0.4732
 2382.0000     1.1127     0.4821
 2382.5000     1.1080     0.4824
 2383.0000     1.1033     0.4828
 2383.5000     0.9100     0.4856
 2384.0000     0.9057     0.4884
 2384.5000     0.7120     0.4912
 2385.0000     0.7074     0.4941
 2385.5000     0.7027     0.4969
 2386.0000     0.5094     0.4997
 2386.5000     0.5047     0.5025
 2387.0000     0.5000     0.5054
 2387.5000     0.4953     0.5082
 2388.0000     0.4906     0.5000
 2388.5000     0.4858     0.4811
 2389.0000     0.6701     0.4811
 2389.5000     0.6654     0.4811
 2390.0000     0.6711     0.4811
 2390.5000     0.6764     0.4906
 2391.0000     0.6817     0.4906
 2391.5000     0.6870     0.5000
 2392.0000     0.6923     0.5000
 2392.5000     0.6976     0.5000
 2393.0000     0.6989     0.5000
 2393.5000     0.6871     0.5000
 2394.0000     0.6778     0.5000
 2394.5000     0.8571     0.5000
 2395.0000     0.8477     0.5000
 2395.5000     0.8383     0.5013
 2396.0000     0.8289     0.5094
 2396.5000     0.8196     0.5000
 2397.0000     0.8102     0.5094
 2397.5000     0.8008     0.5000
 2398.0000     0.7914     0.5094
 2398.5000     0.7821     0.5094
 2399.0000     0.7727     0.5189
 2399.5000     0.7633     0.9057
 2400.0000     0.7539     0.9057
 2400.5000     0.7446     0.9057
 2401.0000     0.7352     0.9057
 2401.5000     0.7258     0.9057
 2402.0000     0.7164     0.9057
 2402.5000     0.7071     0.8113
 2403.0000     0.6977     0.8019
 2403.5000     0.8774     0.8026
 2404.0000     0.8676     0.8113
 2404.5000     0.8582     0.8113
 2405.0000     0.8489     0.8113
 2405.5000     1.0283     0.8019
 2406.0000     1.0189     0.8113
 2406.5000     1.0094     0.5377
 2407.0000     1.1887     0.5472
 2407.5000     1.1792     0.5472
 2408.0000     1.1698     0.5472
 2408.5000     1.1604     0.5377
 2409.0000     0.9623     0.5377
 2409.5000     0.9528     0.5283
 2410.0000     0.7547     0.5283
 2410.5000     0.7453     0.5283
 2411.0000     0.7340     0.5288
 2411.5000     0.7246     0.5300
 2412.0000     0.7153     0.5311
 2412.5000     0.7059     0.5322
 2413.0000     0.6989     0.5333
 2413.5000     0.7021     0.5344
 2414.0000     0.7051     0.5356
 2414.5000     0.7082     0.5367
 2415.0000     0.7112     0.5377
 2415.5000     0.7142     0.7170
 2416.0000     0.7173     0.7925
 2416.5000     0.7203     0.7925
 2417.0000     0.7233     0.7925
 2417.5000     0.7263     0.7925
 2418.0000     0.7294     0.7830
 2418.5000     0.7324     0.5377
 2419.0000     0.7354     0.5377
 2419.5000     0.7384     0.5377
 2420.0000     0.7415     0.4434
 2420.5000     0.7445     0.4528
 2421.0000     0.7455     0.4528
 2421.5000     0.7397     0.4528
 2422.0000     0.7351     0.4528
 2422.5000     0.5425     0.4528
 2423.0000     0.5372     0.4528
 2423.5000     0.5326     0.4528
 2424.0000     0.5280     0.4528
 2424.5000     0.5234     0.4528
 2425.0000     0.7075     0.5472
 2425.5000     0.7028     0.5377
 2426.0000     0.6981     0.5377
 2426.5000     0.6934     0.5472
 2427.0000     0.6887     0.5566
 2427.5000     0.6832     0.5660
 2428.0000     0.6786     0.7170
 2428.5000     0.6903     0.7075
 2429.0000     0.8017     0.7170
 2429.5000     0.9131     0.7170
 2430.0000     1.0383     1.0094
 2430.5000     1.0430     1.0189
 2431.0000     1.2363     1.0189
 2431.5000     1.2410     0.9057
 2432.0000     1.4344     0.8962
 2432.5000     1.4390     0.8962
 2433.0000     1.6324     0.8954
 2433.5000     1.4394     0.7514
 2434.0000     1.1581     0.6472
 2434.5000     0.8913     0.6373
 2435.0000     0.8971     0.6368
 2435.5000     1.0893     0.6363
 2436.0000     0.9053     0.6452
 2436.5000     0.9111     0.6447
 2437.0000     0.9158     0.6632
 2437.5000     1.1091     0.6627
 2438.0000     1.1138     0.5396
 2438.5000     1.1185     0.5391
 2439.0000     1.1231     0.5292
 2439.5000     0.9380     0.5287
 2440.0000     0.9438     0.5283
 2440.5000     0.9485     0.5184
 2441.0000     0.7633     0.5179
 2441.5000     0.7691     0.5174
 2442.0000     0.7738     0.5170
 2442.5000     0.7784     0.5165
 2443.0000     0.7831     0.5160
 2443.5000     0.7653     0.5156
 2444.0000     0.6753     0.5151
 2444.5000     0.5853     0.5145
 2445.0000     0.4953     0.5141
 2445.5000     0.4053     0.5136
 2446.0000     0.3154     0.5131
