~VERSION INFORMATION
 VERS.                2.0:   CWLS LOG ASCII STANDARD - VERSION 2.0
 WRAP.                 NO:   ONE LINE PER DEPTH STEP
~WELL INFORMATION
#MNEM.UNIT      DATA TYPE    INFORMATION
#----------   ------------   ------------------------------
 STRT.F            0.0000:   START DEPTH
 STOP.F          561.0000:   STOP DEPTH
 STEP.F            0.1000:   STEP LENGTH
 NULL.          -999.2500:   NO VALUE
 COMP.       F D SERV INC:   COMPANY
 WELL.  83-1 sx 10 #83-10:   WELL
 FLD .             TEAPOT:   FIELD
 LOC .      S10 T38N R78W:   LOCATION
 CNTY.            NATRONA:   COUNTY
 STAT.            WYOMING:   STATE
 CTRY. UNITED STATES OF AMERICA:   COUNTRY
 SRVC.     Atlas Wireline:   SERVICE COMPANY
 DATE.        10-DEC-1992:   LOGDATE
 API .       490252258000:   API NUMBER
~CURVE INFORMATION
#MNEM.UNIT       API CODE    CURVE DESCRIPTION
#----------   ------------   ------------------------------
 DEPT.F                  :   
 GRR .GAPI   07 310 01 00:   GAMMA RAY
 RILD.OHMM   07 120 46 00:   INDUCTION LOG DEEP RESISTIVITY
 RILM.OHMM   07 120 44 00:   INDUCTION LOG MEDIUM RESISTIVITY
~PARAMETER INFORMATION
#MNEM.UNIT          VALUE    DESCRIPTION
#----------   ------------   ------------------------------
 PD  .                 GL:   PERMANENT DATUM
 EPD .F              5170:   ELEVATION PERMANENT DATUM
 LMF .                 KB:   LOG MEASURED FROM
 DAPD.F                10:   FEET ABOVE PERMANENT DATUM
 DMF .                 KB:   DRILLING MEASURED FROM
 EKB .F              5180:   KELLING BUSHING
 EDF .F              5179:   DRILLING FLOOR
 EGL .F              5170:   GROUND LEVEL
 DATE.        10-DEC-1992:   RUN DATE
 RUN .                  1:   RUN NUMBER
 DD  .F               567:   DEPTH DRILLER
 DL  .F               569:   DEPTH LOGGER
 BLI .F               560:   BOTTOM LOG INTERVAL
 TLI .F                97:   TOP LOG INTERVAL
 CS  .IN            8.625:   CASING SIZE
 CBD .F                97:   CASING BOTTOM DRILLER
 CBL .F                97:   CASING BOTTOM LOGGER
 BS  .IN            7.875:   BIT SIZE
 BSD .F               567:   BIT SIZE AT DEPTH
 DFT .           AIR FOAM:   DRILLING FLUID TYPE
 MRT .F                65:   MAXIMUM RECORDED TEMPERATURE
 LUN .           HL- 6274:   LOGGING UNIT NUMBER
 LUL .             CASPER:   LOGGING UNIT LOCATION
 ENGI.       P. RASMUSSEN:   RECORDING ENGINEER
 WITN.          G. STRONG:   WITNESSED BY
 CLNT.            A2DTECH:   CLIENT CODE
 ORIG.           5" PRINT:   ORIGIN OF DATA
 UWI .       490252258000:   UNIQUE WELL ID
 DICO. A2D Technologies, Inc.:   DIGITIZING COMPANY
~OTHER INFORMATION
~A    DEPT      GRR      RILD       RILM   
# ...
  455.0000   101.1128    19.5307    19.1039
  455.1000   101.3657    19.5310    18.9912
  455.2000   101.3657    19.4211    18.9463
  455.3000   101.3657    19.3957    18.8986
  455.4000   101.3657    19.3256    18.7870
  455.5000   101.3657    19.2108    18.6864
  455.6000   101.3657    19.0966    18.6870
  455.7000   101.3657    18.9946    18.5851
  455.8000   101.3657    18.9949    18.5587
  455.9000   101.3657    18.8897    18.4944
  456.0000   101.5883    18.7775    18.4313
  456.1000   102.0273    18.6660    18.4042
  456.2000   102.5473    18.5551    18.3046
  456.3000   102.9752    18.4730    18.3052
  456.4000   103.2838    18.4732    18.2064
  456.5000   103.7987    18.4735    18.0990
  456.6000   104.0971    18.3728    17.9922
  456.7000   104.0971    18.2637    17.9297
  456.8000   104.0971    18.1552    17.9044
  456.9000   104.0971    18.0473    17.8065
  457.0000   104.0971    17.9401    17.8071
  457.1000   104.0019    17.8334    17.7119
  457.2000   103.4819    17.7173    17.6848
  457.3000   102.8832    17.7175    17.6256
  457.4000   102.4420    17.6403    17.5216
  457.5000   101.7449    17.5355    17.4181
  457.6000   101.0985    17.4313    17.3153
  457.7000   100.5785    17.3278    17.2026
  457.8000   100.1517    17.2247    17.0208
  457.9000   100.1548    17.1110    16.8929
  458.0000   100.4552    17.0208    16.7933
  458.1000   100.4552    16.9924    16.7331
  458.2000   100.6313    16.9370    16.7113
  458.3000   100.8912    16.8746    16.6127
  458.4000   101.1512    16.8749    16.5037
  458.5000   101.4112    16.8751    16.5041
  458.6000   101.6712    16.8754    16.5045
  458.7000   101.9727    16.8756    16.5050
  458.8000   101.9727    16.8758    16.5054
  458.9000   101.9727    16.8761    16.5059
  459.0000   101.9727    16.8763    16.5064
  459.1000   101.9727    16.8765    16.5069
  459.2000   101.9727    16.8740    16.4214
  459.3000   101.9727    16.7596    16.3935
  459.4000   101.9727    16.7598    16.3939
  459.5000   101.9727    16.6912    16.3581
  459.6000   101.9727    16.5921    16.2814
  459.7000   101.8422    16.5281    16.2782
  459.8000   101.5822    16.5283    16.1696
  459.9000   101.3222    16.5272    16.1700
  460.0000   101.0622    16.4138    16.1705
  460.1000   100.7587    16.4140    16.1709
  460.2000   100.1092    16.3483    16.1714
  460.3000    99.3292    16.3002    16.1718
  460.4000    98.5493    16.3004    16.1723
  460.5000    97.8553    16.3007    16.1728
  460.6000    97.2928    16.3009    16.1732
  460.7000    96.5099    16.1877    16.1736
  460.8000    96.2064    16.1879    16.1741
  460.9000    95.5600    16.1881    16.1405
  461.0000    95.1240    16.1884    16.0629
  461.1000    94.7355    16.1886    16.0634
  461.2000    94.2155    16.1888    16.0639
  461.3000    93.6955    16.1890    16.0643
  461.4000    93.1715    16.1893    16.0648
  461.5000    92.5645    16.1895    16.0652
  461.6000    92.3500    16.1897    16.0327
  461.7000    91.9191    16.1899    15.9548
  461.8000    91.5266    16.1902    15.9553
  461.9000    91.1826    16.1904    15.9559
  462.0000    90.7031    16.1906    15.8767
  462.1000    90.4401    16.1908    15.8462
  462.2000    90.1366    16.1140    15.8467
  462.3000    90.1366    16.0786    15.8471
  462.4000    89.9666    16.0789    15.8476
  462.5000    89.7066    16.0791    15.8480
  462.6000    89.5296    16.0793    15.8485
  462.7000    89.5296    16.0795    15.8489
  462.8000    89.5296    15.9885    15.8493
  462.9000    89.5296    15.9681    15.8498
  463.0000    89.5296    15.9683    15.8502
  463.1000    89.5296    15.9685    15.8506
  463.2000    89.6551    15.9688    15.8511
  463.3000    89.9151    15.9690    15.8516
  463.4000    90.1366    15.9692    15.7747
  463.5000    90.1366    15.8801    15.7427
  463.6000    90.7436    15.8585    15.7431
  463.7000    90.9551    15.8587    15.7139
  463.8000    91.3830    15.8182    15.6349
  463.9000    92.0274    15.7488    15.6354
  464.0000    92.6454    15.7403    15.6359
  464.1000    92.9427    15.6397    15.6363
  464.2000    93.4750    15.6399    15.6367
  464.3000    94.0819    15.6401    15.6372
  464.4000    94.5027    15.6403    15.6376
  464.5000    95.1895    15.6406    15.6380
  464.6000    95.9695    15.6408    15.6385
  464.7000    96.6696    15.6336    15.5307
  464.8000    97.1532    15.5324    15.5311
  464.9000    97.4203    15.5326    15.4730
  465.0000    97.4203    15.4644    15.4244
  465.1000    97.6297    15.4249    15.3975
  465.2000    97.7238    15.3882    15.3067
  465.3000    97.7238    15.3180    15.2129
  465.4000    97.7238    15.3124    15.2133
  465.5000    97.7238    15.2119    15.1422
  465.6000    97.7238    15.2121    15.1089
  465.7000    97.7238    15.2123    15.0683
  465.8000    97.7238    15.1621    15.0051
  465.9000    97.5589    15.1069    14.9947
  466.0000    97.1775    15.0874    14.9021
  466.1000    96.6576    15.0021    14.9025
  466.2000    96.1032    15.0024    14.8336
  466.3000    95.2959    14.9240    14.8002
  466.4000    93.5396    14.8984    14.8006
  466.5000    92.5493    14.8506    14.7764
  466.6000    91.9332    14.7951    14.6989
  466.7000    91.4132    14.7774    14.6994
  466.8000    90.8932    14.6926    14.6176
  466.9000    90.3398    14.6928    14.5984
  467.0000    89.5296    14.6930    14.5988
  467.1000    88.5299    14.6323    14.5992
  467.2000    87.9029    14.5912    14.5762
  467.3000    87.3830    14.5914    14.4901
  467.4000    86.9823    14.5752    14.3991
  467.5000    86.7982    14.4902    14.3994
  467.6000    86.8305    14.4905    14.3344
  467.7000    87.1017    14.4906    14.3006
  467.8000    87.3505    14.4908    14.2645
  467.9000    87.6105    14.4469    14.1803
  468.0000    87.8705    14.3904    14.1044
  468.1000    88.0121    14.3906    14.1049
  468.2000    88.0121    14.3904    14.0279
  468.3000    88.0121    14.2909    14.0080
  468.4000    88.0121    14.2911    13.9595
  468.5000    88.0121    14.2346    13.9118
  468.6000    88.0121    14.1920    13.9122
  468.7000    88.1730    14.1645    13.9056
  468.8000    88.3156    14.0936    13.8167
  468.9000    88.3156    14.0939    13.8170
  469.0000    88.3156    14.0941    13.8174
  469.1000    88.3156    14.0943    13.8178
  469.2000    88.5625    14.0945    13.8182
  469.3000    88.8225    14.0946    13.8186
  469.4000    88.9226    14.0948    13.8128
  469.5000    89.0390    14.0830    13.7237
  469.6000    89.2989    13.9972    13.7241
  469.7000    89.5589    13.9974    13.7244
  469.8000    89.8331    13.9975    13.6785
  469.9000    90.0789    13.9447    13.6302
  470.0000    90.5412    13.9005    13.6306
  470.1000    90.9024    13.8760    13.6257
  470.2000    91.1624    13.8042    13.5370
  470.3000    91.4942    13.8044    13.5374
  470.4000    91.9858    13.7257    13.5377
  470.5000    92.2610    13.6442    13.4931
  470.6000    92.5058    13.6135    13.4448
  470.7000    92.7658    13.6137    13.4451
  470.8000    93.0257    13.5909    13.4455
  470.9000    93.1715    13.5193    13.4459
  471.0000    93.1715    13.5195    13.4463
  471.1000    93.1715    13.5197    13.3893
  471.2000    93.1715    13.4574    13.3539
  471.3000    93.1715    13.4260    13.3543
  471.4000    92.9712    13.4262    13.3547
  471.5000    92.8680    13.4049    13.3514
  471.6000    92.7547    13.3331    13.2630
  471.7000    92.5645    13.3334    13.2633
  471.8000    92.5645    13.2597    13.2637
  471.9000    92.5645    13.2409    13.2641
  472.0000    92.3217    13.2411    13.2644
  472.1000    92.2610    13.2413    13.2648
  472.2000    92.2610    13.2215    13.2652
  472.3000    92.2610    13.1495    13.2656
  472.4000    92.2610    13.1497    13.1976
  472.5000    92.2610    13.1499    13.1745
  472.6000    92.2610    13.1501    13.1748
  472.7000    92.5028    13.1503    13.1752
  472.8000    92.5645    13.1504    13.1756
  472.9000    92.5645    13.1506    13.1759
  473.0000    92.5645    13.1508    13.1763
  473.1000    92.5645    13.1510    13.1767
