~VERSION INFORMATION
 VERS.                2.0:   CWLS LOG ASCII STANDARD - VERSION 2.0
 WRAP.                 NO:   ONE LINE PER DEPTH STEP
~WELL INFORMATION
#MNEM.UNIT      DATA TYPE    INFORMATION
#----------   ------------   ------------------------------
 STRT.F           30.0000:   START DEPTH
 STOP.F          444.0000:   STOP DEPTH
 STEP.F            0.5000:   STEP LENGTH
 NULL.          -999.2500:   NO VALUE
 COMP. FENIX & SCISSON INC:   COMPANY
 WELL.       SX 3FO #54-3:   WELL
 FLD .             TEAPOT:   FIELD
 LOC .       S3 T38N R78W:   LOCATION
 CNTY.            NATRONA:   COUNTY
 STAT.            WYOMING:   STATE
 CTRY. UNITED STATES OF AMERICA:   COUNTRY
 SRVC.              Welex:   SERVICE COMPANY
 DATE.        08-JUL-1980:   LOGDATE
 API .       490251082800:   API NUMBER
~CURVE INFORMATION
#MNEM.UNIT       API CODE    CURVE DESCRIPTION
#----------   ------------   ------------------------------
 DEPT.F                  :   
 GRD .GAPI   45 310 01 00:   GAMMA RAY FROM DENSITY LOG
 CALD.IN     45 280 60 00:   CALIPER
 RHOB.G/C3   45 350 01 00:   BULK DENSITY
 DPHI.DEC    45 890 12 00:   DENSITY POROSITY SANDSTONE
 CORR.G/C3   45 356 01 00:   DENSITY CORRECTION
~PARAMETER INFORMATION
#MNEM.UNIT          VALUE    DESCRIPTION
#----------   ------------   ------------------------------
 PD  .                 GL:   PERMANENT DATUM
 EPD .F              5162:   ELEVATION PERMANENT DATUM
 LMF .                 KB:   LOG MEASURED FROM
 DAPD.F                 5:   FEET ABOVE PERMANENT DATUM
 DMF .                 KB:   DRILLING MEASURED FROM
 EKB .F              5167:   KELLING BUSHING
 EGL .F              5162:   GROUND LEVEL
 DATE.             7-8-80:   RUN DATE
 RUN .                  1:   RUN NUMBER
 DD  .F               470:   DEPTH DRILLER
 DL  .F               446:   DEPTH LOGGER
 BLI .F               444:   BOTTOM LOG INTERVAL
 TLI .F                30:   TOP LOG INTERVAL
 CS  .IN                7:   CASING SIZE
 CBD .F                43:   CASING BOTTOM DRILLER
 BS  .IN             6.25:   BIT SIZE
 BSD .F               470:   BIT SIZE AT DEPTH
 DFT .        AIR DRILLED:   DRILLING FLUID TYPE
 BHT .F                75:   BOTTOM HOLE TEMPERATURE
 TCS .HRS             2.5:   TIME CURCULATED STOPPED
 MRT .F                75:   MAXIMUM RECORDED TEMPERATURE
 ENGI.               REIN:   RECORDING ENGINEER
 WITN.            RHOADES:   WITNESSED BY
 CLNT.            A2DTECH:   CLIENT CODE
 ORIG.           5" PRINT:   ORIGIN OF DATA
 UWI .       490251082800:   UNIQUE WELL ID
 DICO. A2D Technologies, Inc.:   DIGITIZING COMPANY
~OTHER INFORMATION
~A   DEPT       GRD      CALD       RHOB       DPHI       CORR   
# ...
  396.0000    77.5361     5.7824     2.5194     0.0999     0.0985
  396.5000    78.7858     5.7822     2.5252     0.0942     0.1011
  397.0000    78.7173     5.7856     2.5304     0.0902     0.1037
  397.5000    78.5772     5.7922     2.5315     0.0922     0.1024
  398.0000    78.9596     5.7987     2.5334     0.0934     0.1004
  398.5000    79.7688     5.8018     2.5322     0.0931     0.0983
  399.0000    80.3859     5.8070     2.5276     0.0924     0.0980
  399.5000    79.8715     5.8142     2.5327     0.0903     0.1014
  400.0000    78.8856     5.8211     2.5420     0.0906     0.1049
  400.5000    78.1753     5.7888     2.5342     0.0922     0.1058
  401.0000    78.6993     5.7672     2.5336     0.0910     0.1056
  401.5000    79.5881     5.7881     2.5413     0.0872     0.1142
  402.0000    80.5638     5.8023     2.5491     0.0837     0.1265
  402.5000    80.3265     5.8020     2.5570     0.0799     0.1313
  403.0000    79.3525     5.8020     2.5571     0.0794     0.1337
  403.5000    78.4103     5.8019     2.5558     0.0797     0.1358
  404.0000    77.4580     5.8066     2.5545     0.0802     0.1337
  404.5000    77.0969     5.8132     2.5533     0.0806     0.1309
  405.0000    79.2353     5.8202     2.5523     0.0810     0.1281
  405.5000    81.3230     5.8118     2.5499     0.0830     0.1252
  406.0000    83.4568     5.7978     2.5476     0.0851     0.1222
  406.5000    82.9144     5.7836     2.5451     0.0873     0.1164
  407.0000    81.9883     5.7695     2.5381     0.0894     0.1109
  407.5000    81.1870     5.7683     2.5313     0.0916     0.1062
  408.0000    81.8628     5.7799     2.5258     0.0922     0.1008
  408.5000    83.6809     5.7916     2.5345     0.0896     0.1012
  409.0000    84.1494     5.8017     2.5431     0.0868     0.1061
  409.5000    84.8935     5.7966     2.5460     0.0830     0.1109
  410.0000    85.6478     5.7916     2.5509     0.0874     0.1157
  410.5000    86.3333     5.7864     2.5571     0.0830     0.1206
  411.0000    85.8930     5.7832     2.5636     0.0778     0.1254
  411.5000    85.3466     5.8089     2.5663     0.0785     0.1297
  412.0000    85.6983     5.8050     2.5615     0.0798     0.1246
  412.5000    86.1080     5.7708     2.5560     0.0810     0.1188
  413.0000    85.9241     5.7801     2.5505     0.0836     0.1130
  413.5000    85.1187     5.8043     2.5450     0.0860     0.1073
  414.0000    84.3429     5.8216     2.5395     0.0883     0.1013
  414.5000    83.9827     5.8083     2.5339     0.0907     0.0987
  415.0000    84.0696     5.7958     2.5312     0.0912     0.0963
  415.5000    83.7919     5.7833     2.5304     0.0902     0.0939
  416.0000    82.4280     5.7712     2.5346     0.0910     0.0949
  416.5000    81.8108     5.7695     2.5404     0.0886     0.0965
  417.0000    82.3994     5.7977     2.5450     0.0851     0.0981
  417.5000    83.3130     5.8215     2.5482     0.0822     0.0997
  418.0000    83.1470     5.8053     2.5514     0.0843     0.1014
  418.5000    83.0689     5.7866     2.5599     0.0811     0.1045
  419.0000    84.5825     5.7672     2.5684     0.0755     0.1148
  419.5000    86.1684     5.7698     2.5717     0.0747     0.1238
  420.0000    87.7708     5.7800     2.5733     0.0766     0.1198
  420.5000    89.4393     5.7907     2.5709     0.0751     0.1159
  421.0000    90.3481     5.8013     2.5721     0.0735     0.1212
  421.5000    91.2590     5.7821     2.5750     0.0745     0.1266
  422.0000    92.2637     5.7633     2.5621     0.0802     0.1185
  422.5000    95.4702     5.7802     2.5437     0.0868     0.1056
  423.0000    99.1211     5.7976     2.5303     0.0926     0.0930
  423.5000   102.5548     5.7967     2.5295     0.0934     0.0943
  424.0000   105.4700     5.7894     2.5243     0.0943     0.0995
  424.5000   108.1004     5.7820     2.5161     0.0996     0.0958
  425.0000   110.3100     5.7745     2.5079     0.1068     0.0878
  425.5000   107.6709     5.7671     2.5002     0.1106     0.0799
  426.0000   103.9478     5.7596     2.5124     0.1106     0.0759
  426.5000    97.7289     5.7522     2.5355     0.0952     0.0800
  427.0000    93.9778     5.7449     2.5403     0.0873     0.0845
  427.5000  -999.2500     5.7425     2.5463     0.0855     0.0891
  428.0000  -999.2500     5.7652     2.5540     0.0834     0.0937
  428.5000  -999.2500     5.7831     2.5620     0.0805     0.0976
  429.0000  -999.2500     5.8019     2.5614     0.0786     0.0945
  429.5000  -999.2500     5.8211     2.5594     0.0802     0.0914
  430.0000  -999.2500     5.8412     2.5586     0.0802     0.0909
  430.5000  -999.2500     5.8243     2.5609     0.0782     0.0931
  431.0000  -999.2500     5.7997     2.5669     0.0764     0.0952
  431.5000  -999.2500     5.7750     2.5726     0.0744     0.0974
  432.0000  -999.2500     5.7696     2.5845     0.0710     0.0997
  432.5000  -999.2500     5.7836     2.5994     0.0675     0.1048
  433.0000  -999.2500     5.7984     2.6061     0.0654     0.1099
  433.5000  -999.2500     5.7909     2.6037     0.0664     0.1134
  434.0000  -999.2500     5.7755     2.6000     0.0675     0.1157
  434.5000  -999.2500     5.7596     2.5967     0.0671     0.1127
  435.0000  -999.2500     5.7434     2.5950     0.0666     0.1098
  435.5000  -999.2500     5.7535     2.5908     0.0678     0.1069
  436.0000  -999.2500     5.7660     2.5815     0.0730     0.1039
  436.5000  -999.2500     5.7792     2.5642     0.0786     0.0961
  437.0000  -999.2500     5.7646     2.5535     0.0804     0.0918
  437.5000  -999.2500     5.7402     2.5494     0.0827     0.0918
  438.0000  -999.2500     5.7226     2.5431     0.0871     0.0869
  438.5000  -999.2500     5.7469     2.5346     0.0914     0.0764
  439.0000  -999.2500     5.7745     2.5258     0.0962     0.0795
  439.5000  -999.2500     5.7437     2.5206     0.0972     0.0874
  440.0000  -999.2500     5.6667     2.5196     0.0974     0.0956
  440.5000  -999.2500     5.6730     2.5246     0.0954     0.0995
  441.0000  -999.2500     5.6849     2.5292     0.0921     0.1021
  441.5000  -999.2500     5.6965     2.5333     0.0898     0.1045
  442.0000  -999.2500     5.7079     2.5284     0.0967     0.1083
  442.5000  -999.2500     5.7201     2.5213     0.0982     0.1133
  443.0000  -999.2500     5.7113     2.5279     0.0947     0.1188
  443.5000  -999.2500     5.6936     2.5362     0.0914     0.1280
  444.0000  -999.2500     5.6588     2.5382     0.0906     0.1277
