~VERSION INFORMATION
 VERS.                2.0:   CWLS LOG ASCII STANDARD - VERSION 2.0
 WRAP.                 NO:   ONE LINE PER DEPTH STEP
~WELL INFORMATION
#MNEM.UNIT      DATA TYPE    INFORMATION
#----------   ------------   ------------------------------
 STRT.F           34.0000:   START DEPTH
 STOP.F          555.0000:   STOP DEPTH
 STEP.F            0.5000:   STEP LENGTH
 NULL.          -999.2500:   NO VALUE
 COMP. FENIX & SCISSON-U.S. NAVY:   COMPANY
 WELL.    NPR #3 #17-S-11:   WELL
 FLD .             TEAPOT:   FIELD
 LOC .      S11 T38N R78W:   LOCATION
 CNTY.            NATRONA:   COUNTY
 STAT.            WYOMING:   STATE
 CTRY. UNITED STATES OF AMERICA:   COUNTRY
 SRVC.       Schlumberger:   SERVICE COMPANY
 DATE.        20-FEB-1977:   LOGDATE
 API .       490251028100:   API NUMBER
~CURVE INFORMATION
#MNEM.UNIT       API CODE    CURVE DESCRIPTION
#----------   ------------   ------------------------------
 DEPT.F                  :   
 SPR .MV     07 010 01 00:   SPONTANEOUS POTENTIAL
 ILD .OHMM   07 120 46 00:   INDUCTION LOG DEEP
 ILM .OHMM   07 120 44 00:   INDUCTION LOG MEDIUM
 LL8 .OHMM   07 220 08 00:   LATEROLOG-8 RES.
 CALD.IN     45 280 60 00:   CALIPER FROM DENSITY LOG
 GRD .GAPI   45 310 01 00:   GAMMA RAY FROM DENSITY LOG
 CORR.G/C3   45 356 01 00:   DENSITY CORRECTION
 RHOB.G/C3   45 350 01 00:   BULK DENSITY
 DPHI.DEC    45 890 12 00:   DENSITY POROSITY SANDSTONE
~PARAMETER INFORMATION
#MNEM.UNIT          VALUE    DESCRIPTION
#----------   ------------   ------------------------------
 PD  .                 GL:   PERMANENT DATUM
 EPD .F              5204:   ELEVATION PERMANENT DATUM
 LMF .                 GL:   LOG MEASURED FROM
 DMF .                 GL:   DRILLING MEASURED FROM
 EKB .F              5209:   KELLING BUSHING
 EGL .F              5204:   GROUND LEVEL
 DATE.        20-FEB-1977:   RUN DATE
 RUN .                  1:   RUN NUMBER
 DD  .F               556:   DEPTH DRILLER
 DL  .F               556:   DEPTH LOGGER
 BLI .F               555:   BOTTOM LOG INTERVAL
 TLI .F                42:   TOP LOG INTERVAL
 CS  .IN            8.625:   CASING SIZE
 CBD .F                42:   CASING BOTTOM DRILLER
 CBL .F                42:   CASING BOTTOM LOGGER
 BS  .IN            7.875:   BIT SIZE
 BSD .F               556:   BIT SIZE AT DEPTH
 DFT .            KCL MUD:   DRILLING FLUID TYPE
 DFD .                8.8:   DRILLING FLUID DENSITY
 DFV .                 33:   DRILLING FLUID VISCOSITY
 DFPH.                8.0:   DRILLING FLUID PH
 DFL .                7.6:   DRILLING FLUID LOSS
 MSS .           FLOWLINE:   MUD SAMPLE SOURCE
 RMS .OHMM            .44:   RESISTIVITY MUD SAMPLE
 MST .F                66:   MUD SAMPLE TEMPERATURE
 RMF .OHMM            .41:   RESISTIVITY MUD FILTRATE SAMPLE
 MFST.F                66:   MUD FILTRATE SAMPLE TEMPERATURE
 MFSS.               MEAS:   MUD FILTRATE SAMPLE SOURCE
 TCS .HRS               3:   TIME CURCULATED STOPPED
 LUN .               7680:   LOGGING UNIT NUMBER
 LUL .               CSPR:   LOGGING UNIT LOCATION
 ENGI.             TAYLOR:   RECORDING ENGINEER
 WITN.               JAPP:   WITNESSED BY
 CLNT.            A2DTECH:   CLIENT CODE
 ORIG.           5" PRINT:   ORIGIN OF DATA
 UWI .       490251028100:   UNIQUE WELL ID
 DICO. A2D Technologies, Inc.:   DIGITIZING COMPANY
~OTHER INFORMATION
~A   DEPT      SPR        ILD        ILM        LL8       CALD        GRD       CORR       RHOB       DPHI   
# ...
  216.5000   -58.6080     7.8539     7.4820     9.2467     8.2745    98.0408     0.0191     2.4655     0.1144
  217.0000   -58.6201     7.9602     7.4789     9.3026     8.2738    97.8100     0.0049     2.4595     0.1198
  217.5000   -58.6346     8.0679     7.5802     9.4282     8.2730    97.1259     0.0153     2.4549     0.1134
  218.0000   -58.4915     8.2331     7.8057     9.4912     8.2723    96.6689     0.0161     2.4509     0.1101
  218.5000   -58.5063     8.4609     8.1171     9.6193     8.2715    97.7957     0.0085     2.4488     0.1110
  219.0000   -58.3632     8.5763     8.1130     9.7508     8.2708   100.0537     0.0040     2.4511     0.1236
  219.5000   -58.2231     8.6917     8.0537     9.9518     8.2700   102.5380     0.0160     2.4593     0.1201
  220.0000   -58.2379     8.7485     8.0505    10.1561     8.2693   103.8910     0.0280     2.4661     0.1085
  220.5000   -58.0977     8.7448     8.0472    10.2942     8.2684   102.9816     0.0219     2.4743     0.1012
  221.0000   -58.1096     8.7412     8.0998    10.2905     8.2676   101.6197     0.0219     2.4848     0.1021
  221.5000   -58.1216     8.7985     8.0966    10.2871     8.2669   100.2578     0.0271     2.4946     0.0970
  222.0000   -58.1337     8.7334     8.0933    10.2835     8.2662    99.3484     0.0429     2.5028     0.0828
  222.5000   -58.1480     8.7298     8.0900    10.2793     8.2654    98.4201     0.0290     2.5050     0.0894
  223.0000   -58.1599     8.7263     8.1429    10.1347     8.2647    97.4917     0.0248     2.4972     0.0960
  223.5000   -58.1717     8.7228     8.1962     9.9921     8.2639    95.2616     0.0286     2.4854     0.1032
  224.0000   -58.0286     8.7193     8.1920     9.9199     8.2632    94.8058     0.0218     2.4801     0.1110
  224.5000   -58.0434     8.6556     8.2464     9.8482     8.2625    98.6464     0.0293     2.4763     0.1131
  225.0000   -58.0552     8.7122     8.2422     9.9140     8.2617    99.9994     0.0360     2.4748     0.1023
  225.5000   -58.0670     8.7086     8.2389     9.9098     8.2610   100.2224     0.0127     2.4740     0.0986
  226.0000   -58.0790     8.7043     8.2356     9.6362     8.2602    98.6331     0.0194     2.4740     0.1149
  226.5000   -58.0912     8.7007     8.1754     9.6998     8.2593    95.2350     0.0239     2.4762     0.1109
  227.0000   -58.1055     8.6972     8.1157     9.9685     8.2586    94.4766     0.0299     2.4814     0.1046
  227.5000   -58.1173     8.7550     8.1124    10.0343     8.2578    95.9049     0.0471     2.4882     0.0963
  228.0000   -58.1292     8.7506     8.1090     9.9609     8.2571    97.2579     0.0194     2.4944     0.0916
  228.5000   -58.1410     8.8087     8.1057     9.8889     8.2564    97.9510     0.0291     2.5010     0.1157
  229.0000   -58.1528     8.8656     8.1580     9.8856     8.2556    98.6440     0.0463     2.5077     0.1117
  229.5000   -58.1647     8.9235     8.2122     9.9517     8.2549    99.0546     0.0568     2.5106     0.0972
  230.0000   -58.1765     9.0442     8.3234    10.2264     8.2541    98.1441     0.0530     2.4941     0.0864
  230.5000   -58.1884     9.1034     8.4938    10.5826     8.2534    98.5932     0.0372     2.4699     0.1090
  231.0000   -58.0253     9.2898     8.6096    10.9512     8.2526    98.8150     0.0184     2.4564     0.1144
  231.5000   -57.9080     9.4165     8.7262    11.2545     8.2519    98.1308     0.0187     2.4511     0.1179
  232.0000   -57.9228     9.6093     8.9048    11.5662     8.2510    98.3537     0.0214     2.4518     0.1180
  232.5000   -57.7797     9.6722     9.0253    11.7287     8.2502    99.0280     0.0386     2.4683     0.1083
  233.0000   -57.6425     9.6683     9.1475    11.9650     8.2495    99.2489     0.0409     2.4842     0.0962
  233.5000   -57.5024     9.8001     9.2713    11.7144     8.2488    97.2081     0.0431     2.4829     0.1013
  234.0000   -57.3593    10.0009     9.3310    11.3910     8.2480    92.6787     0.0341     2.4622     0.1112
  234.5000   -57.2219    10.2775     9.3930    11.2317     8.2473    90.6191     0.0198     2.4494     0.1166
  235.0000   -57.0770    10.4986     9.5201    12.1142     8.2465    89.4646     0.0123     2.4426     0.1205
  235.5000   -56.7685    10.8531     9.7151    12.7107     8.2458    87.9132     0.0214     2.4516     0.1226
  236.0000   -56.5007    11.0764     9.8476    12.9727     8.2451    86.5513     0.0337     2.4689     0.1141
  236.5000   -56.3605    11.3044    10.0492    13.3321     8.2443    85.6419     0.0415     2.4831     0.1039
  237.0000   -56.2174    11.5370    10.1854    13.7013     8.2436    84.7325     0.0272     2.4914     0.0927
  237.5000   -56.2322    11.6944    10.3949    14.1785     8.2428    84.0493     0.0159     2.4981     0.1008
  238.0000   -56.0891    11.7709    10.6087    14.5712     8.2419    83.5924     0.0242     2.5026     0.0996
  238.5000   -56.1039    11.8468    10.7604    14.1677     8.2412    84.0404     0.0421     2.5041     0.0824
  239.0000   -56.1158    11.9242    10.9724    13.7766     8.2404    87.8822     0.0189     2.4973     0.0812
  239.5000   -55.9756    11.9192    11.1210    13.5828     8.2397    89.2352     0.0121     2.4777     0.0950
  240.0000   -55.9878    11.9133    11.1164    13.2994     8.2390    86.5158     0.0317     2.4889     0.1031
  240.5000   -56.0022    11.9085    11.1119    13.0220     8.2382    83.5324     0.0383     2.5009     0.0835
  241.0000   -56.0141    11.9037    11.1074    13.0176     8.2375    82.8869     0.0248     2.4987     0.0853
  241.5000   -55.8710    11.8989    11.1029    12.9235     8.2367    84.6915     0.0210     2.4768     0.1034
  242.0000   -55.7338    11.8940    11.0984    12.9192     8.2360    87.8545     0.0240     2.4662     0.1136
  242.5000   -55.7456    11.8072    11.0174    13.0045     8.2353    91.6962     0.0352     2.4609     0.1175
  243.0000   -55.7575    11.7210    11.0129    13.0000     8.2345    91.2393     0.0329     2.4632     0.1084
  243.5000   -55.6170    11.6354    11.0025    12.9955     8.2336    90.1036     0.0419     2.4709     0.1126
  244.0000   -55.6292    11.5503    10.9278    12.6358     8.2329    89.1942     0.0764     2.4871     0.0876
  244.5000   -55.6413    11.5455    10.7722    11.7876     8.2321    87.6061     0.0630     2.5007     0.0873
  245.0000   -55.6558    11.4602    10.6198    11.3832     8.2314    85.7917     0.0546     2.5074     0.1008
  245.5000   -55.5127    11.3765    10.5422    12.0265     8.2306    84.4298     0.0605     2.5014     0.0854
  246.0000   -55.5275    11.2155    10.4652    12.9726     8.2452    83.0679     0.0313     2.4795     0.0999
  246.5000   -55.5393    11.1336    10.3888    12.8789     8.2443    84.9299     0.0290     2.4682     0.1146
  247.0000   -55.3962    11.0523    10.3129    11.9316     8.2589    86.9427     0.0417     2.4659     0.0989
  247.5000   -55.4110    11.0478    10.3087    12.0103     8.2579    88.0308     0.0305     2.4674     0.1055
  248.0000   -55.2705    11.0434    10.2334    12.5148     8.2572    87.8002     0.0282     2.4696     0.1151
  248.5000   -55.2827    10.9627    10.1586    13.4212     8.2564    88.0231     0.0349     2.4734     0.1172
  249.0000   -55.2945    10.9581    10.1544    14.5758     8.2557    88.2449     0.0494     2.4772     0.1018
  249.5000   -55.1544    10.8771    10.0793    13.0307     8.2548    88.0131     0.0296     2.4831     0.0963
  250.0000   -55.0142    10.7922    10.0672    12.1864     8.2542    87.2279     0.0266     2.4883     0.1181
  250.5000   -55.1649    10.7112     9.9555    11.4205     8.2539    85.2106     0.0483     2.4981     0.1093
  251.0000   -55.3044    10.6469     9.8439    11.3395     8.2536    83.7248     0.0355     2.5071     0.0964
  251.5000   -55.1992    10.5720     9.7942    11.3372     8.2533    82.8264     0.0392     2.5123     0.0925
  252.0000   -55.2097    10.4976     9.7923    11.3349     8.2530    81.0231     0.0444     2.5048     0.0873
  252.5000   -55.2204    10.3399     9.7903    11.4113     8.2527    84.1971     0.0264     2.4777     0.1189
