~VERSION INFORMATION
 VERS.                2.0:   CWLS LOG ASCII STANDARD - VERSION 2.0
 WRAP.                 NO:   ONE LINE PER DEPTH STEP
~WELL INFORMATION
#MNEM.UNIT      DATA TYPE    INFORMATION
#----------   ------------   ------------------------------
 STRT.F           30.0000:   START DEPTH
 STOP.F          440.0000:   STOP DEPTH
 STEP.F            0.5000:   STEP LENGTH
 NULL.          -999.2500:   NO VALUE
 COMP. FENIX & SCISSON INC:   COMPANY
 WELL.    54 SX 10 #54-10:   WELL
 FLD .             TEAPOT:   FIELD
 LOC .      S10 T38N R78W:   LOCATION
 CNTY.            NATRONA:   COUNTY
 STAT.            WYOMING:   STATE
 CTRY. UNITED STATES OF AMERICA:   COUNTRY
 SRVC.            Unknown:   SERVICE COMPANY
 DATE.        10-NOV-1978:   LOGDATE
 API .       490251072800:   API NUMBER
~CURVE INFORMATION
#MNEM.UNIT       API CODE    CURVE DESCRIPTION
#----------   ------------   ------------------------------
 DEPT.F                  :   
 CALD.IN     45 280 60 00:   CALIPER
 GRD .GAPI   45 310 01 00:   GAMMA RAY FROM DENSITY LOG
 DPHI.DEC    45 890 12 00:   DENSITY POROSITY SANDSTONE
 RHOB.G/C3   45 350 01 00:   BULK DENSITY
 CORR.G/C3   45 356 01 00:   DENSITY CORRECTION
 SPR .MV     05 010 01 00:   SPONTANEOUS POTENTIAL FROM RES.
 ILD .OHMM   05 120 46 00:   INDUCTION LOG DEEP
 SN  .OHMM   05 040 16 00:   SHORT NORMAL 16"
~PARAMETER INFORMATION
#MNEM.UNIT          VALUE    DESCRIPTION
#----------   ------------   ------------------------------
 PD  .                 GL:   PERMANENT DATUM
 EPD .F              5196:   ELEVATION PERMANENT DATUM
 LMF .                 KB:   LOG MEASURED FROM
 DAPD.F                 4:   FEET ABOVE PERMANENT DATUM
 DMF .                 KB:   DRILLING MEASURED FROM
 EKB .F              5200:   KELLING BUSHING
 EGL .F              5196:   GROUND LEVEL
 DATE.           11-10-78:   RUN DATE
 RUN .                  1:   RUN NUMBER
 DD  .F               435:   DEPTH DRILLER
 DL  .F               442:   DEPTH LOGGER
 BLI .F               436:   BOTTOM LOG INTERVAL
 TLI .F                50:   TOP LOG INTERVAL
 CS  .IN            8.625:   CASING SIZE
 CBD .F                40:   CASING BOTTOM DRILLER
 CBL .F                50:   CASING BOTTOM LOGGER
 BS  .IN            7.875:   BIT SIZE
 BSD .F               435:   BIT SIZE AT DEPTH
 DFT .            SEA MUD:   DRILLING FLUID TYPE
 DFD .                8.7:   DRILLING FLUID DENSITY
 DFV .                 34:   DRILLING FLUID VISCOSITY
 DFPH.                 10:   DRILLING FLUID PH
 MSS .            MUD PIT:   MUD SAMPLE SOURCE
 RMS .OHMM             .4:   RESISTIVITY MUD SAMPLE
 MST .F                57:   MUD SAMPLE TEMPERATURE
 RMF .OHMM            .34:   RESISTIVITY MUD FILTRATE SAMPLE
 MFST.F                64:   MUD FILTRATE SAMPLE TEMPERATURE
 RMC .OHMM            .44:   RESISTIVITY MUD CAKE
 MCST.F                60:   MUD CAKE SAMPLE TEMPERATURE
 MFSS.            MUD PIT:   MUD FILTRATE SAMPLE SOURCE
 MCSS.            MUD PIT:   MUD CAKE SAMPLE SOURCE
 RMB .OHMM            .36:   RESISTIVITY MUD AT BHT
 BHT .F                72:   BOTTOM HOLE TEMPERATURE
 TCS .HRS               1:   TIME CURCULATED STOPPED
 MRT .F                70:   MAXIMUM RECORDED TEMPERATURE
 LUN .               3006:   LOGGING UNIT NUMBER
 LUL .               CASP:   LOGGING UNIT LOCATION
 ENGI.             MILLER:   RECORDING ENGINEER
 WITN.           DINSMORE:   WITNESSED BY
 CLNT.            A2DTECH:   CLIENT CODE
 ORIG.           5" PRINT:   ORIGIN OF DATA
 UWI .       490251072800:   UNIQUE WELL ID
 DICO. A2D Technologies, Inc.:   DIGITIZING COMPANY
~OTHER INFORMATION
~A   DEPT     CALD         GRD      DPHI       RHOB       CORR        SPR        ILD         SN   
# ...
  354.0000     7.8443    73.1943     0.0751     2.5289     0.0098   -28.5318    32.4543    25.8668
  354.5000     7.8486    72.9676     0.1148     2.5481     0.0060   -30.1273    31.7639    25.7061
  355.0000     7.8631    72.3223     0.1392     2.5262     0.0091   -31.7397    31.2558    25.4260
  355.5000     7.8808    71.5318     0.1607     2.4882     0.0271   -32.4428    30.7576    25.1724
  356.0000     7.8987    70.7150     0.1822     2.4499     0.0450   -32.7411    30.2685    24.7888
  356.5000     7.9166    72.2100     0.1891     2.4115     0.0628   -33.0267    29.7872    24.3590
  357.0000     7.9344    74.2489     0.1931     2.3731     0.0691   -33.3376    29.3135    23.9367
  357.5000     7.9496    75.2899     0.1968     2.3614     0.0650   -31.9085    28.8473    23.5217
  358.0000     7.9451    76.0718     0.2004     2.3545     0.0580   -29.6866    27.9708    23.1139
  358.5000     7.9406    78.5151     0.2013     2.3489     0.0510   -29.0526    26.5919    22.7132
  359.0000     7.9362    81.3885     0.2002     2.3473     0.0440   -28.4705    25.1724    22.3194
  359.5000     7.9317    82.9454     0.1990     2.3476     0.0369   -27.8805    24.8337    21.9324
  360.0000     7.9273    82.0340     0.1980     2.3502     0.0296   -27.3576    24.6887    21.5522
  360.5000     7.9229    81.1681     0.1979     2.3525     0.0271   -28.1509    24.6481    21.1836
  361.0000     7.9184    80.4385     0.1978     2.3530     0.0256   -28.9850    24.6075    20.9954
  361.5000     7.9139    80.4522     0.1977     2.3536     0.0241   -29.8093    24.5670    20.8114
  362.0000     7.9102    80.4360     0.1978     2.3541     0.0226   -30.6787    24.5266    20.6291
  362.5000     7.9260    81.2922     0.1993     2.3529     0.0211   -32.5772    24.4862    20.4483
  363.0000     7.9427    82.3379     0.2008     2.3503     0.0198   -34.5655    24.4459    20.2691
  363.5000     7.9594    83.3904     0.2023     2.3477     0.0198   -36.5340    24.4057    20.0914
  364.0000     7.9760    84.4511     0.2036     2.3451     0.0225   -37.1589    24.3658    19.9154
  364.5000     7.9927    84.6995     0.2008     2.3426     0.0258   -37.5790    24.3259    19.7409
  365.0000     8.0094    84.7957     0.1961     2.3462     0.0292   -38.0126    24.2869    19.5679
  365.5000     8.0268    85.4989     0.1914     2.3512     0.0320   -38.4411    23.9115    19.3965
  366.0000     8.0032    87.1055     0.1867     2.3583     0.0284   -35.7477    23.4210    19.2271
  366.5000     7.9720    88.6861     0.1820     2.3654     0.0241   -32.8880    22.9405    19.0579
  367.0000     7.9411    89.2470     0.1773     2.3724     0.0199   -32.2974    22.4703    18.7740
  367.5000     7.8873    88.3830     0.1726     2.3795     0.0156   -31.7139    22.0097    18.4284
  368.0000     7.8224    87.5274     0.1712     2.3866     0.0113   -30.9155    21.5585    18.0891
  368.5000     7.7570    87.4898     0.1719     2.3937     0.0100   -29.9688    21.1166    17.7561
  369.0000     7.6915    89.2835     0.1726     2.3998     0.0099   -29.1018    20.6838    17.4292
  369.5000     7.6259    91.0075     0.1776     2.3948     0.0099   -29.0909    20.2598    17.1083
  370.0000     7.5600    92.0485     0.1822     2.3897     0.0100   -29.4299    19.8445    16.7933
  370.5000     7.5679    92.6535     0.1869     2.3819     0.0121   -30.5111    19.4378    16.4842
  371.0000     7.5868    92.7940     0.1929     2.3714     0.0128   -31.5808    19.0389    16.1807
  371.5000     7.6062    92.9320     0.2019     2.3607     0.0142   -32.6528    18.6500    15.9864
  372.0000     7.6243    93.4397     0.2108     2.3500     0.0157   -33.6218    18.3190    15.9864
  372.5000     7.6878    94.0754     0.2159     2.3376     0.0195   -33.5990    18.0357    15.9864
  373.0000     7.7693    93.1613     0.2191     2.3245     0.0362   -33.5545    17.7557    15.9864
  373.5000     7.8508    91.1182     0.2096     2.3162     0.0556   -33.5135    17.5060    15.9864
  374.0000     7.8970    87.8137     0.2015     2.3346     0.0541   -33.4734    17.3726    15.9862
  374.5000     7.8380    85.0594     0.1932     2.3508     0.0380   -33.4333    17.2259    15.9872
  375.0000     7.8101    83.7330     0.1931     2.3549     0.0219   -33.3933    17.0803    15.8376
  375.5000     7.8116    82.3584     0.1930     2.3561     0.0206   -33.3532    16.9360    15.7102
  376.0000     7.8251    82.7707     0.1928     2.3574     0.0225   -33.3131    16.7930    15.5839
  376.5000     7.8388    84.5741     0.1858     2.3598     0.0244   -33.2724    16.6511    15.4587
  377.0000     7.8524    86.7236     0.1772     2.3677     0.0262   -33.2365    16.5104    15.3345
  377.5000     7.8666    88.0575     0.1687     2.3805     0.0281   -33.2416    16.3709    15.2112
  378.0000     7.8657    86.5262     0.1652     2.3931     0.0298   -33.4444    16.2326    15.0890
  378.5000     7.8603    85.6926     0.1622     2.4026     0.0289   -33.4260    16.0955    14.9677
  379.0000     7.8547    85.7574     0.1597     2.4043     0.0280   -33.5248    15.9595    14.8475
  379.5000     7.8492    85.4979     0.1577     2.4089     0.0271   -34.0559    15.8247    14.7281
  380.0000     7.8436    84.5122     0.1559     2.4134     0.0262   -34.4587    15.6910    14.6098
  380.5000     7.8381    84.5471     0.1559     2.4179     0.0253   -34.8196    15.5585    14.4924
  381.0000     7.8326    86.7570     0.1559     2.4211     0.0244   -35.0024    15.4270    14.4545
  381.5000     7.8212    88.9410     0.1559     2.4214     0.0235   -35.1759    15.2967    14.3935
  382.0000     7.8053    91.1053     0.1513     2.4218     0.0226   -35.3492    15.2314    14.3327
  382.5000     7.7893    91.3632     0.1451     2.4261     0.0218   -35.5227    15.1783    14.2721
  383.0000     7.7734    91.6070     0.1456     2.4336     0.0209   -35.6962    15.1252    14.2119
  383.5000     7.7573    91.1300     0.1484     2.4414     0.0200   -35.8697    15.0723    14.1518
  384.0000     7.7501    89.3053     0.1507     2.4390     0.0191   -36.0432    15.0196    14.0921
  384.5000     7.7492    87.9706     0.1511     2.4339     0.0182   -36.2168    14.9671    14.0325
  385.0000     7.7483    92.2245     0.1516     2.4291     0.0173   -36.3908    14.9148    13.9733
  385.5000     7.7475    93.4959     0.1521     2.4285     0.0164   -36.5650    14.8626    13.9143
  386.0000     7.7466    91.3189     0.1526     2.4282     0.0161   -36.5796    14.8106    13.8555
  386.5000     7.7458    88.6728     0.1519     2.4279     0.0167   -36.5692    14.7588    13.7970
  387.0000     7.7449    87.4604     0.1508     2.4275     0.0172   -36.5586    14.7072    13.7387
  387.5000     7.7441    87.3882     0.1499     2.4271     0.0178   -36.5483    14.6556    13.6806
  388.0000     7.7432    88.4105     0.1483     2.4279     0.0183   -36.5381    14.6045    13.6229
  388.5000     7.7424    89.4113     0.1419     2.4303     0.0189   -36.5279    14.5192    13.5653
  389.0000     7.7416    90.2472     0.1406     2.4392     0.0194   -36.5177    14.4301    13.5080
  389.5000     7.7407    90.3866     0.1399     2.4429     0.0200   -36.5075    14.3416    13.4510
  390.0000     7.7399    89.9408     0.1383     2.4445     0.0205   -36.4972    14.2535    13.3942
  390.5000     7.7390    89.4251     0.1358     2.4461     0.0211   -36.4870    14.1660    13.3376
  391.0000     7.7382    89.6339     0.1334     2.4492     0.0216   -36.4768    14.0791    13.2813
  391.5000     7.7373    89.8834     0.1312     2.4539     0.0222   -36.4666    13.9927    13.2252
  392.0000     7.7365    90.9009     0.1306     2.4586     0.0227   -36.4564    13.9068    13.1693
  392.5000     7.7356    92.9919     0.1304     2.4620     0.0233   -36.4462    13.8214    13.1137
  393.0000     7.7348    94.7703     0.1335     2.4627     0.0238   -36.4359    13.7366    13.0873
  393.5000     7.7340    93.8012     0.1365     2.4592     0.0213   -36.4257    13.6523    13.0807
  394.0000     7.7331    92.0666     0.1380     2.4546     0.0186   -36.4152    13.5758    13.0739
