~VERSION INFORMATION
 VERS.                2.0:   CWLS LOG ASCII STANDARD - VERSION 2.0
 WRAP.                 NO:   ONE LINE PER DEPTH STEP
~WELL INFORMATION
#MNEM.UNIT      DATA TYPE    INFORMATION
#----------   ------------   ------------------------------
 STRT.F            0.0000:   START DEPTH
 STOP.F          890.0000:   STOP DEPTH
 STEP.F            0.1000:   STEP LENGTH
 NULL.          -999.2500:   NO VALUE
 COMP.   FLUOR DANIEL INC:   COMPANY
 WELL.   35-1 X 14 #35-14:   WELL
 FLD .             TEAPOT:   FIELD
 LOC .      S14 T38N R78W:   LOCATION
 CNTY.            NATRONA:   COUNTY
 STAT.            WYOMING:   STATE
 CTRY. UNITED STATES OF AMERICA:   COUNTRY
 SRVC.      Western Atlas:   SERVICE COMPANY
 DATE.        23-JUL-1995:   LOGDATE
 API .       490252273300:   API NUMBER
~CURVE INFORMATION
#MNEM.UNIT       API CODE    CURVE DESCRIPTION
#----------   ------------   ------------------------------
 DEPT.F                  :   
 RILM.OHMM   07 120 44 00:   RESITIVITY LONG MEDIUM
 RILD.OHMM   07 120 46 00:   INDUCTION LOG DEEP RESISTIVITY
 GRR .GAPI   07 310 01 00:   GAMMA RAY
~PARAMETER INFORMATION
#MNEM.UNIT          VALUE    DESCRIPTION
#----------   ------------   ------------------------------
 PD  .                 GL:   PERMANENT DATUM
 EPD .F              5238:   ELEVATION PERMANENT DATUM
 LMF .                 KB:   LOG MEASURED FROM
 DAPD.F                10:   FEET ABOVE PERMANENT DATUM
 DMF .                 KB:   DRILLING MEASURED FROM
 EKB .F              5248:   KELLING BUSHING
 EDF .F              5247:   DRILLING FLOOR
 EGL .F              5238:   GROUND LEVEL
 DATE.        23-JUL-1995:   RUN DATE
 RUN .                  1:   RUN NUMBER
 DD  .F               898:   DEPTH DRILLER
 DL  .F               898:   DEPTH LOGGER
 BLI .F               890:   BOTTOM LOG INTERVAL
 CS  .IN            9.625:   CASING SIZE
 CBD .F                78:   CASING BOTTOM DRILLER
 CBL .F                80:   CASING BOTTOM LOGGER
 BS  .IN             8.75:   BIT SIZE
 BSD .F               898:   BIT SIZE AT DEPTH
 DFT .                AIR:   DRILLING FLUID TYPE
 MRT .F                94:   MAXIMUM RECORDED TEMPERATURE
 LUN .            HL 6530:   LOGGING UNIT NUMBER
 LUL .             CASPER:   LOGGING UNIT LOCATION
 ENGI.       VERRN RAUTIO:   RECORDING ENGINEER
 WITN.        GARY STRONG:   WITNESSED BY
 CLNT.            A2DTECH:   CLIENT CODE
 ORIG.           5" PRINT:   ORIGIN OF DATA
 UWI .       490252273300:   UNIQUE WELL ID
 DICO. A2D Technologies, Inc.:   DIGITIZING COMPANY
~OTHER INFORMATION
~A    DEPT    RILM       RILD         GRR  
# ...
   72.8000  -999.2500  -999.2500    76.2634
   72.9000  -999.2500  -999.2500    75.7843
   73.0000  -999.2500  -999.2500    75.5047
   73.1000  -999.2500  -999.2500    75.5057
   73.2000  -999.2500  -999.2500    75.5070
   73.3000  -999.2500  -999.2500    75.5082
   73.4000  -999.2500  -999.2500    75.5094
   73.5000  -999.2500  -999.2500    75.5106
   73.6000  -999.2500  -999.2500    75.5120
   73.7000  -999.2500  -999.2500    75.5130
   73.8000  -999.2500  -999.2500    75.5142
   73.9000  -999.2500  -999.2500    75.5154
   74.0000  -999.2500  -999.2500    75.5166
   74.1000  -999.2500  -999.2500    75.4906
   74.2000  -999.2500  -999.2500    74.6129
   74.3000  -999.2500  -999.2500    74.1970
   74.4000  -999.2500  -999.2500    73.5396
   74.5000  -999.2500  -999.2500    73.0000
   74.6000  -999.2500  -999.2500    72.7504
   74.7000  -999.2500  -999.2500    72.5009
   74.8000  -999.2500  -999.2500    72.2033
   74.9000  -999.2500  -999.2500    72.0018
   75.0000  -999.2500  -999.2500    71.9033
   75.1000  -999.2500  -999.2500    71.9045
   75.2000  -999.2500  -999.2500    71.9541
   75.3000  -999.2500  -999.2500    72.2091
   75.4000  -999.2500  -999.2500    72.4580
   75.5000  -999.2500  -999.2500    73.2991
   75.6000  -999.2500  -999.2500    74.4483
   75.7000  -999.2500  -999.2500    75.7033
   75.8000  -999.2500  -999.2500    76.8737
   75.9000  -999.2500  -999.2500    77.6544
   76.0000  -999.2500  -999.2500    77.8973
   76.1000  -999.2500  -999.2500    78.3396
   76.2000  -999.2500  -999.2500    78.7033
   76.3000  -999.2500  -999.2500    78.8677
   76.4000  -999.2500  -999.2500    78.8689
   76.5000  -999.2500  -999.2500    78.8702
   76.6000  -999.2500  -999.2500    78.8713
   76.7000  -999.2500  -999.2500    78.6882
   76.8000  -999.2500  -999.2500    78.5716
   76.9000  -999.2500  -999.2500    78.5728
   77.0000  -999.2500  -999.2500    78.5740
   77.1000  -999.2500  -999.2500    78.5753
   77.2000  -999.2500  -999.2500    78.5764
   77.3000  -999.2500  -999.2500    78.7559
   77.4000  -999.2500  -999.2500    79.0079
   77.5000  -999.2500  -999.2500    79.4864
   77.6000  -999.2500  -999.2500    80.5873
   77.7000  -999.2500  -999.2500    82.8122
   77.8000  -999.2500  -999.2500    84.6018
   77.9000  -999.2500  -999.2500    86.7813
   78.0000  -999.2500  -999.2500    89.4019
   78.1000  -999.2500  -999.2500    92.3427
   78.2000  -999.2500  -999.2500    95.1567
   78.3000  -999.2500  -999.2500    99.1337
   78.4000  -999.2500  -999.2500   101.7450
   78.5000  -999.2500  -999.2500   104.4347
   78.6000  -999.2500  -999.2500   106.9614
   78.7000  -999.2500  -999.2500   109.4881
   78.8000  -999.2500  -999.2500   112.0148
   78.9000  -999.2500  -999.2500   114.5414
   79.0000  -999.2500  -999.2500   117.0272
   79.1000  -999.2500  -999.2500   118.7809
   79.2000  -999.2500  -999.2500   119.6198
   79.3000  -999.2500  -999.2500   120.7821
   79.4000  -999.2500  -999.2500   121.9303
   79.5000  -999.2500  -999.2500   122.7684
   79.6000  -999.2500  -999.2500   123.0163
   79.7000  -999.2500  -999.2500   122.7156
   79.8000  -999.2500  -999.2500   122.5132
   79.9000  -999.2500  -999.2500   121.9595
   80.0000     3.0361     2.9448   121.3092
   80.1000     2.9192     2.9640   120.8088
   80.2000     2.8509     3.2291   120.3045
   80.3000     2.8244     4.0657   120.0570
   80.4000     2.8117     4.6076   119.8075
   80.5000     2.8120     5.2543   119.7039
   80.6000     2.8123     6.1099   119.7998
   80.7000     2.8698     7.7743   120.0518
   80.8000     2.9861     9.7076   120.3118
   80.9000     3.1302    12.2947   120.7984
   81.0000     3.2811    21.8018   121.3011
   81.1000     3.4310    46.6454   121.6638
   81.2000     3.5394    71.4889   122.0044
   81.3000     3.6397    96.3325   122.4699
   81.4000     3.7488   123.2197   122.7360
   81.5000     3.8881   271.3323   122.7372
   81.6000     4.0420  1750.2074   122.9237
   81.7000     4.1873  8651.2168   123.0417
   81.8000     4.3350 10007.4668   123.0429
   81.9000     4.4242 10008.3008   123.0129
   82.0000     4.5144 10009.1475   122.7433
   82.1000     4.6041 10009.9688   122.5138
   82.2000     4.6865  8975.0371   121.9058
   82.3000     4.7703  6353.4233   121.4105
   82.4000     4.8520  2380.5762   121.0079
   82.5000     4.9133   963.7704   120.3072
   82.6000     4.9685   293.3116   120.0315
   82.7000     5.0278    53.7696   119.3589
   82.8000     5.0705    41.1848   118.9543
   82.9000     5.1009    28.6000   118.5829
   83.0000     5.1314    16.0152   118.1531
   83.1000     5.1622     6.9680   117.9226
   83.2000     5.1978     6.1039   117.9240
   83.3000     5.1983     5.7972   117.9251
   83.4000     5.1988     5.4897   117.9263
   83.5000     5.1993     5.1625   117.9275
   83.6000     5.1906     4.8050   117.9287
   83.7000     5.1606     4.5932   117.9299
   83.8000     5.1290     4.4798   117.9313
   83.9000     5.0733     4.4222   117.9323
   84.0000     5.0367     4.3968   118.0947
   84.1000     5.0077     4.3710   118.3466
   84.2000     4.9788     4.3120   118.5402
   84.3000     4.9501     4.2914   118.5414
   84.4000     4.9207     4.2667   118.5428
   84.5000     4.8549     4.2422   118.5438
   84.6000     4.8313     4.2178   118.7001
   84.7000     4.8034     4.1935   118.8483
   84.8000     4.7757     4.1669   118.8495
   84.9000     4.7482     4.1454   118.8518
   85.0000     4.7208     4.1215   119.1037
   85.1000     4.6918     4.0978   119.1553
   85.2000     4.6665     4.0742   119.1565
   85.3000     4.6396     4.0508   119.2554
   85.4000     4.5974     4.0267   119.5073
   85.5000     4.5545     4.0270   119.7644
   85.6000     4.5227     3.9909   119.7656
   85.7000     4.4702     3.9721   119.7668
   85.8000     4.4103     3.9631   119.6250
   85.9000     4.3672     3.9402   119.1005
   86.0000     4.3166     3.9176   118.0181
   86.1000     4.2428     3.8915   116.4484
   86.2000     4.1516     3.8536   115.2511
   86.3000     4.0793     3.8237   113.9986
   86.4000     4.0036     3.7913   112.6090
   86.5000     3.9603     3.7537   111.1057
   86.6000     3.9144     3.7299   109.5795
   86.7000     3.8690     3.6830   107.9090
   86.8000     3.8242     3.6443   106.2385
   86.9000     3.7745     3.6174   104.5680
   87.0000     3.7049     3.5854   103.6395
   87.1000     3.6353     3.5439   103.3104
   87.2000     3.5656     3.4996   102.8101
   87.3000     3.4871     3.4376   102.2636
   87.4000     3.4343     3.3794   102.2647
   87.5000     3.3746     3.3057   102.2659
   87.6000     3.3159     3.2295   102.2671
   87.7000     3.2582     3.1475   102.3418
   87.8000     3.2041     3.0568   102.6159
   87.9000     3.1655     2.9694   103.1772
   88.0000     3.1127     2.8913   103.8429
   88.1000     3.0586     2.8202   104.7666
   88.2000     2.9950     2.7605   105.8896
   88.3000     2.9327     2.7127   107.2796
   88.4000     2.8816     2.6656   109.0200
   88.5000     2.8314     2.6194   110.7373
   88.6000     2.7758     2.5706   112.4625
   88.7000     2.7339     2.5295   114.4697
   88.8000     2.6864     2.4857   116.4769
   88.9000     2.6319     2.4504   118.4227
   89.0000     2.5710     2.4221   120.1591
   89.1000     2.5113     2.3941   121.6207
   89.2000     2.4507     2.3662   123.1299
   89.3000     2.4099     2.3500   125.2486
   89.4000     2.3681     2.3282   126.0794
   89.5000     2.3269     2.3096   127.3958
   89.6000     2.2864     2.2906   128.7968
   89.7000     2.2496     2.2641   129.9450
   89.8000     2.2229     2.2386   130.6985
   89.9000     2.1791     2.2241   131.6002
   90.0000     2.1572     2.2017   132.4068
   90.1000     2.1322     2.1937   133.2610
   90.2000     2.1075     2.1813   133.8171
   90.3000     2.0869     2.1638   134.0691
   90.4000     2.0732     2.1625   134.3251
   90.5000     2.0481     2.1492   133.8329
   90.6000     2.0368     2.1494   133.5279
   90.7000     2.0251     2.1496   133.1343
   90.8000     2.0204     2.1427   132.7267
   90.9000     2.0206     2.1351   132.4772
