~VERSION INFORMATION
 VERS.                2.0:   CWLS LOG ASCII STANDARD - VERSION 2.0
 WRAP.                 NO:   ONE LINE PER DEPTH STEP
~WELL INFORMATION
#MNEM.UNIT      DATA TYPE    INFORMATION
#----------   ------------   ------------------------------
 STRT.F            3.0000:   START DEPTH
 STOP.F         3449.0000:   STOP DEPTH
 STEP.F            0.5000:   STEP LENGTH
 NULL.          -999.2500:   NO VALUE
 COMP. LAWRENCE/ALLISON INC:   COMPANY
 WELL.       NPR 3 #24-10:   WELL
 FLD .             TEAPOT:   FIELD
 LOC .      S10 T38N R78W:   LOCATION
 CNTY.            NATRONA:   COUNTY
 STAT.            WYOMING:   STATE
 CTRY. UNITED STATES OF AMERICA:   COUNTRY
 SRVC.      Dresser Atlas:   SERVICE COMPANY
 DATE.        28-JUL-1985:   LOGDATE
 API .       490251104400:   API NUMBER
~CURVE INFORMATION
#MNEM.UNIT       API CODE    CURVE DESCRIPTION
#----------   ------------   ------------------------------
 DEPT.F                  :   
 PORD.DEC    45 890 12 00:   POROSITY DENSITY SANDSTONE
 CNC .DEC    42 890 03 00:   NEUTRON POROSITY SANDSTONE
 CORR.G/C3   45 356 01 00:   DENSITY CORRECTION
 DEN .G/C3   45 350 01 00:   COMPENSATED BULK DENSTIY
 AC  .US/F   60 520 00 00:   ACCOUSTIC
 CALR.IN     07 280 01 00:   CALIPER FROM RESISTIVITY
 GRR .GAPI   07 310 01 00:   GAMMA RAY
 RFOC.OHMM   07 220 04 00:   RESISTIVITY FOCUSED LOG
 RILD.OHMM   07 120 46 00:   INDUCTION LOG DEEP RESISTIVITY
 RILM.OHMM   07 120 44 00:   INDUCTION LOG MEDIUM RESISTIVITY
 SPR .MV     07 010 01 00:   SPONTANEOUS POTENTIAL
~PARAMETER INFORMATION
#MNEM.UNIT          VALUE    DESCRIPTION
#----------   ------------   ------------------------------
 PD  .                 GL:   PERMANENT DATUM
 EPD .F              5242:   ELEVATION PERMANENT DATUM
 LMF .                 KB:   LOG MEASURED FROM
 DAPD.F                13:   FEET ABOVE PERMANENT DATUM
 DMF .                 KB:   DRILLING MEASURED FROM
 EKB .F              5255:   KELLING BUSHING
 EGL .F              5242:   GROUND LEVEL
 DATE.        28-JUL-1985:   RUN DATE
 RUN .                  1:   RUN NUMBER
 DD  .F              3451:   DEPTH DRILLER
 DL  .F              3451:   DEPTH LOGGER
 BLI .F              3449:   BOTTOM LOG INTERVAL
 CS  .IN            8.625:   CASING SIZE
 CBD .F               688:   CASING BOTTOM DRILLER
 CBL .F               686:   CASING BOTTOM LOGGER
 BS  .IN            7.875:   BIT SIZE
 BSD .F              3451:   BIT SIZE AT DEPTH
 DFT .            KCL GEL:   DRILLING FLUID TYPE
 DFD .                8.9:   DRILLING FLUID DENSITY
 DFV .                 40:   DRILLING FLUID VISCOSITY
 DFPH.                8.0:   DRILLING FLUID PH
 DFL .                 10:   DRILLING FLUID LOSS
 MSS .           FLOWLINE:   MUD SAMPLE SOURCE
 RMS .OHMM           0.87:   RESISTIVITY MUD SAMPLE
 MST .F                92:   MUD SAMPLE TEMPERATURE
 RMF .OHMM             65:   RESISTIVITY MUD FILTRATE SAMPLE
 MFST.F                92:   MUD FILTRATE SAMPLE TEMPERATURE
 RMC .OHMM           1.09:   RESISTIVITY MUD CAKE
 MCST.F                92:   MUD CAKE SAMPLE TEMPERATURE
 MFSS.               CALC:   MUD FILTRATE SAMPLE SOURCE
 MCSS.               CALC:   MUD CAKE SAMPLE SOURCE
 RMB .OHMM            .66:   RESISTIVITY MUD AT BHT
 BHT .F               121:   BOTTOM HOLE TEMPERATURE
 TCS .HRS               4:   TIME CURCULATED STOPPED
 MRT .F               121:   MAXIMUM RECORDED TEMPERATURE
 LUN .               6264:   LOGGING UNIT NUMBER
 LUL .               GLTE:   LOGGING UNIT LOCATION
 ENGI.           FAHLSING:   RECORDING ENGINEER
 WITN.             STRONG:   WITNESSED BY
 CLNT.            A2DTECH:   CLIENT CODE
 ORIG.        2" 5" PRINT:   ORIGIN OF DATA
 UWI .       490251104400:   UNIQUE WELL ID
 DICO. A2D Technologies, Inc.:   DIGITIZING COMPANY
 R1  . POROSITY WITH SANDSTONE:   REMARKS 1
~OTHER INFORMATION
~A    DEPT    PORD        CNC       CORR        DEN         AC       CALR         GRR      RFOC       RILD       RILM        SPR   
# ...
 2504.0000     0.0691     0.2927     0.1015     2.5260    90.8469     8.8470   126.4525     3.7137     2.6132     2.9733   -43.5361
 2504.5000     0.0733     0.2988     0.1076     2.5276    91.8980     8.8617   131.4670     3.4405     2.5771     2.9119   -43.5376
 2505.0000     0.0712     0.2946     0.1093     2.5344    93.0245     8.8612   132.3304     3.0362     2.5771     2.8716   -43.3737
 2505.5000     0.0661     0.2820     0.1032     2.5458    93.6994     8.8607   125.4415     2.8921     2.5771     2.8517   -43.0888
 2506.0000     0.0616     0.2770     0.1108     2.5541    93.8483     8.8603   121.0131     2.9940     2.5771     2.8320   -42.9397
 2506.5000     0.0601     0.2836     0.1456     2.5572    93.6197     8.8598   121.4634     3.2089     2.5951     2.8517   -42.7906
 2507.0000     0.0589     0.2935     0.1486     2.5519    93.1660     8.8594   123.7236     3.2536     2.6320     2.8917   -42.7924
 2507.5000     0.0578     0.2938     0.1333     2.5528    92.5618     8.8589   123.2689     3.1643     2.7071     2.9534   -42.7939
 2508.0000     0.0554     0.2923     0.1171     2.5596    92.1834     8.8585   121.4567     3.1422     2.8037     3.0394   -42.7954
 2508.5000     0.0466     0.2909     0.1127     2.5694    92.0306     8.8581   119.6445     3.1859     2.9482     3.1931   -42.7969
 2509.0000     0.0364     0.2824     0.1388     2.5830    91.6522     8.8727   116.7011     3.2753     3.1742     3.4295   -42.6474
 2509.5000     0.0301     0.2608     0.1475     2.5974    90.9727     8.8722   108.5540     3.4621     3.3556     3.6889   -42.6493
 2510.0000     0.0262     0.2440     0.1416     2.6065    89.7666     8.8718   102.6695     3.7626     3.5228     3.9272   -42.3492
 2510.5000     0.0241     0.2395     0.1326     2.6095    88.5604     8.8713   101.5360     4.1830     3.6983     4.1232   -42.0499
 2511.0000     0.0238     0.2416     0.1222     2.6066    87.3543     8.8860   104.9274     4.6505     3.8025     4.2395   -41.9004
 2511.5000     0.0350     0.2547     0.1162     2.5931    85.6967     8.8855   110.3551     5.0349     3.8825     4.1809   -41.6010
 2512.0000     0.0479     0.2814     0.1268     2.5698    84.8667     8.8850   113.2940     4.7626     3.9368     4.1232   -41.4515
 2512.5000     0.0674     0.2942     0.1645     2.5442    86.4446     8.8845   113.5557     4.2030     3.9643     4.0380   -41.4534
 2513.0000     0.0715     0.2924     0.1872     2.5307    88.6510     8.8841   110.3484     3.6327     4.1330     4.0662   -42.0573
 2513.5000     0.0597     0.2765     0.1587     2.5443    91.1053     8.8836   106.2737     3.4843     4.2200     4.1519   -42.8118
 2514.0000     0.0387     0.2621     0.1166     2.5760    91.6298     8.8681   102.4253     3.7604     3.9643     4.2395   -43.4157
 2514.5000     0.0321     0.2567     0.0986     2.5926    90.3239     8.8375   101.9706     4.3502     3.9368     4.2989   -43.5678
 2515.0000     0.0312     0.2570     0.0926     2.5950    88.7213     8.8370   103.1148     4.9631     3.9643     4.2989   -43.4187
 2515.5000     0.0378     0.2624     0.1168     2.5861    86.7766     8.8366   104.2803     5.2099     4.0197     4.2989   -43.4202
 2516.0000     0.0411     0.2667     0.1304     2.5800    86.4290     8.8211   104.9051     4.5029     4.1330     4.2989   -43.2711
 2516.5000     0.0406     0.2682     0.1139     2.5770    87.5554     8.8206   103.7710     4.3793     4.2494     4.2691   -43.2726
 2517.0000     0.0385     0.2685     0.1050     2.5801    87.9664     8.8051   103.0901     4.5023     4.2190     4.2395   -43.2741
 2517.5000     0.0361     0.2697     0.1005     2.5862    88.3034     8.8046   102.8622     4.6934     4.1306     4.1809   -43.4262
 2518.0000     0.0364     0.2706     0.1172     2.5885    88.0845     8.8042   105.8005     4.8275     4.0440     4.1228   -43.4280
 2518.5000     0.0415     0.2718     0.1308     2.5855    87.6506     8.8038   109.1920     4.8923     3.9318     4.0084   -43.4295
 2519.0000     0.0445     0.2727     0.1384     2.5796    87.9111     8.7882   112.8096     4.7251     3.8290     3.9000   -43.1298
 2519.5000     0.0479     0.2727     0.1445     2.5727    88.6703     8.7727   116.4273     4.2872     3.7761     3.8461   -42.6795
 2520.0000     0.0500     0.2719     0.1491     2.5683    90.0977     8.7572   118.0093     3.7835     3.8025     3.9000   -42.3797
 2520.5000     0.0518     0.2689     0.1416     2.5631    91.4499     8.7416   112.8029     3.5541     3.8557     3.9822   -42.0797
 2521.0000     0.0524     0.2653     0.1101     2.5594    91.2219     8.7397   109.4070     3.8625     3.9643     4.1232   -41.7799
 2521.5000     0.0485     0.2731     0.0695     2.5605    90.1662     8.7257   108.2736     4.5623     4.1330     4.2691   -41.9324
 2522.0000     0.0416     0.2978     0.0410     2.5691    88.8096     8.7251   108.9501     5.1334     4.3089     4.4510   -42.2351
 2522.5000     0.0389     0.2996     0.0621     2.5807    87.0767     8.7398   109.6266     5.3886     4.4922     4.6732   -42.5378
 2523.0000     0.0392     0.2814     0.0983     2.5838    86.6983     8.7393   109.6243     5.2772     4.6510     4.8386   -42.8405
 2523.5000     0.0411     0.2657     0.1300     2.5808    86.9346     8.7540   108.2646     5.0616     4.8154     4.9406   -43.1432
 2524.0000     0.0471     0.2597     0.1467     2.5726    87.3710     8.7687   104.6425     5.0262     4.9168     4.9751   -43.2953
 2524.5000     0.0487     0.2512     0.1227     2.5681    87.2934     8.7833   101.2466     5.1673     4.9855     5.0448   -43.2968
 2525.0000     0.0502     0.2473     0.1077     2.5674    87.1282     8.7979   100.7919     5.3125     4.9510     5.1155   -43.1476
 2525.5000     0.0520     0.2446     0.1002     2.5659    86.6113     8.8276   102.3939     5.3491     4.9510     5.2233   -43.1491
 2526.0000     0.0538     0.2452     0.1003     2.5607    86.5344     8.8422   104.2239     5.2385     4.9510     5.2598   -43.1506
 2526.5000     0.0577     0.2512     0.0787     2.5578    86.9078     8.8417   103.3413     5.3113     4.9855     5.2598   -43.1521
 2527.0000     0.0553     0.2546     0.0658     2.5571    86.9814     8.8565    97.1347     5.3852     5.0214     5.2598   -43.3042
 2527.5000     0.0502     0.2561     0.0704     2.5594    86.6776     8.8559    92.8616     5.4981     5.0905     5.2598   -43.3057
 2528.0000     0.0460     0.2585     0.0800     2.5655    86.1486     8.8707    91.7287     5.5361     5.1260     5.2965   -43.3072
 2528.5000     0.0442     0.2609     0.0907     2.5723    85.3187     8.8550    96.2508     5.5743     5.1260     5.3707   -43.1376
 2529.0000     0.0449     0.2645     0.0947     2.5754    84.7145     8.8546   100.0947     5.5738     5.0905     5.4082   -42.8584
 2529.5000     0.0491     0.2808     0.0858     2.5724    84.5618     8.8541   103.2598     5.5734     5.0553     5.1840   -42.7093
 2530.0000     0.0539     0.2922     0.0843     2.5657    84.7100     8.8537   106.1988     5.4962     5.0203     5.0753   -42.5601
 2530.5000     0.0569     0.2934     0.0935     2.5604    85.0088     8.8532   108.4590     5.3826     5.0203     5.0098   -42.5620
 2531.0000     0.0588     0.2916     0.0920     2.5560    85.8342     8.8377   109.8142     5.1986     4.9855     5.0098   -42.7141
 2531.5000     0.0612     0.2829     0.0906     2.5508    86.5844     8.8222   110.4913     4.9862     4.9510     4.9751   -42.8662
 2532.0000     0.0621     0.2634     0.0922     2.5463    87.5604     8.8065   108.9048     4.9172     4.9168     4.9063   -43.0183
 2532.5000     0.0594     0.2465     0.0968     2.5486    88.4617     8.7910   107.9976     4.9856     4.8827     4.8386   -43.1704
 2533.0000     0.0558     0.2414     0.1059     2.5532    88.3084     8.7906   107.0904     5.2747     4.8154     4.7386   -43.3225
 2533.5000     0.0531     0.2406     0.1150     2.5578    87.5537     8.8053   108.4456     5.5756     4.6188     4.6732   -43.3240
 2534.0000     0.0516     0.2625     0.1226     2.5631    86.4520     8.8048   112.9682     5.7666     4.7489     4.5766   -43.4760
