~VERSION INFORMATION
 VERS.                2.0:   CWLS LOG ASCII STANDARD - VERSION 2.0
 WRAP.                 NO:   ONE LINE PER DEPTH STEP
~WELL INFORMATION
#MNEM.UNIT      DATA TYPE    INFORMATION
#----------   ------------   ------------------------------
 STRT.F           41.0000:   START DEPTH
 STOP.F          433.0000:   STOP DEPTH
 STEP.F            0.5000:   STEP LENGTH
 NULL.          -999.2500:   NO VALUE
 COMP. LAWRENCE ALLISON & ASSOC.:   COMPANY
 WELL.   STX 10 #61-42-10:   WELL
 FLD .             TEAPOT:   FIELD
 LOC .      S10 T38N R78W:   LOCATION
 CNTY.            NATRONA:   COUNTY
 STAT.            WYOMING:   STATE
 CTRY. UNITED STATES OF AMERICA:   COUNTRY
 SRVC.              Welex:   SERVICE COMPANY
 DATE.        10-SEP-1987:   LOGDATE
 API .       490251116900:   API NUMBER
~CURVE INFORMATION
#MNEM.UNIT       API CODE    CURVE DESCRIPTION
#----------   ------------   ------------------------------
 DEPT.F                  :   
 GRR .GAPI   07 310 01 00:   GAMMA RAY
 GURD.OHMM   07 220 05 00:   SHALLOW SHORT GUARD RESISTIVITY
 ILD .OHMM   07 120 46 00:   INDUCTION LOG DEEP
 ILM .OHMM   07 120 44 00:   INDUCTION LOG MEDIUM
~PARAMETER INFORMATION
#MNEM.UNIT          VALUE    DESCRIPTION
#----------   ------------   ------------------------------
 PD  .                 GL:   PERMANENT DATUM
 EPD .F              5158:   ELEVATION PERMANENT DATUM
 LMF .                 KB:   LOG MEASURED FROM
 DAPD.F                 8:   FEET ABOVE PERMANENT DATUM
 DMF .                 KB:   DRILLING MEASURED FROM
 EKB .F              5166:   KELLING BUSHING
 EDF .F              5165:   DRILLING FLOOR
 EGL .F              5158:   GROUND LEVEL
 DATE.        10-SEP-1987:   RUN DATE
 RUN .                  1:   RUN NUMBER
 DD  .F               435:   DEPTH DRILLER
 DL  .F               435:   DEPTH LOGGER
 BLI .F               433:   BOTTOM LOG INTERVAL
 TLI .F                41:   TOP LOG INTERVAL
 CS  .IN            9.625:   CASING SIZE
 CBD .F                50:   CASING BOTTOM DRILLER
 CBL .F                50:   CASING BOTTOM LOGGER
 BS  .IN             8.75:   BIT SIZE
 BSD .F               435:   BIT SIZE AT DEPTH
 DFT .            KCL-GEL:   DRILLING FLUID TYPE
 RMS .OHMM            0.5:   RESISTIVITY MUD SAMPLE
 MST .F                80:   MUD SAMPLE TEMPERATURE
 RMF .OHMM           0.43:   RESISTIVITY MUD FILTRATE SAMPLE
 MFST.F                80:   MUD FILTRATE SAMPLE TEMPERATURE
 RMC .OHMM           0.68:   RESISTIVITY MUD CAKE
 MCST.F                80:   MUD CAKE SAMPLE TEMPERATURE
 MFSS.               MEAS:   MUD FILTRATE SAMPLE SOURCE
 MCSS.               MEAS:   MUD CAKE SAMPLE SOURCE
 RMB .OHMM            0.5:   RESISTIVITY MUD AT BHT
 BHT .F                80:   BOTTOM HOLE TEMPERATURE
 TCS .HRS             2.5:   TIME CURCULATED STOPPED
 TLAB.HRS            0314:   TIME LOGGER AT BOTTOM
 MRT .F                80:   MAXIMUM RECORDED TEMPERATURE
 LUN .              51165:   LOGGING UNIT NUMBER
 LUL .              GILTE:   LOGGING UNIT LOCATION
 ENGI.         JD ADDISON:   RECORDING ENGINEER
 WITN.             STRONG:   WITNESSED BY
 CLNT.            A2DTECH:   CLIENT CODE
 ORIG.           5" PRINT:   ORIGIN OF DATA
 UWI .       490251116900:   UNIQUE WELL ID
 DICO. A2D Technologies, Inc.:   DIGITIZING COMPANY
~OTHER INFORMATION
~A   DEPT       GRR      GURD        ILD        ILM   
   41.0000    90.2019  -999.2500  -999.2500  -999.2500
   41.5000    92.0645  -999.2500  -999.2500  -999.2500
   42.0000    92.6799  -999.2500  -999.2500  -999.2500
   42.5000    91.1724  -999.2500  -999.2500  -999.2500
   43.0000    88.4627  -999.2500  -999.2500  -999.2500
   43.5000    86.0538  -999.2500  -999.2500  -999.2500
   44.0000    84.5471  -999.2500  -999.2500  -999.2500
   44.5000    88.7546  -999.2500  -999.2500  -999.2500
   45.0000    91.1585  -999.2500  -999.2500  -999.2500
   45.5000    89.0495  -999.2500  -999.2500  -999.2500
   46.0000    88.7458  -999.2500  -999.2500  -999.2500
   46.5000    85.4125  -999.2500  -999.2500  -999.2500
   47.0000    84.2287  -999.2500  -999.2500  -999.2500
   47.5000    92.0445  -999.2500  -999.2500  -999.2500
   48.0000   103.1694  -999.2500  -999.2500  -999.2500
   48.5000   118.5048  -999.2500  -999.2500  -999.2500
   49.0000   120.0064  -999.2500  -999.2500  -999.2500
   49.5000   117.2959  -999.2500  -999.2500  -999.2500
   50.0000   113.3832     6.4516     2.0035     1.8407
   50.5000   106.4630     6.6811     3.0562     2.6356
   51.0000    97.1367     6.7382     4.3214     3.5519
   51.5000    99.5398     6.9696     5.5071     4.3415
   52.0000    98.3339     7.1676     7.6258     4.8196
   52.5000   100.8421     7.4224     9.3878     5.4037
   53.0000   106.7483     7.5807     7.8986     6.6698
   53.5000   103.7378     7.7961     7.6850     7.2986
   54.0000   100.1259     7.9623     7.7942     7.6093
   54.5000   103.1304     8.1321     7.9679     7.8786
   55.0000   101.0222     8.3055     8.1860     8.1012
   55.5000   101.9216     8.4826     8.3024     8.1590
   56.0000   107.0314     8.6635     8.4203     8.1607
   56.5000   108.8331     8.8588     8.4811     8.1623
   57.0000   108.5073     9.1004     8.4834     8.1077
   57.5000   108.8271     9.2303     8.4272     8.1094
   58.0000   106.6867     9.4271     8.4295     8.0551
   58.5000   105.2114     9.3007     8.4317     8.0017
   59.0000   104.0055     9.1127     8.4340     8.0033
   59.5000   107.0101     8.9897     8.3781     7.8950
   60.0000   111.5184     8.9935     8.3150     7.8422
   60.5000   113.6207     8.9966     8.2675     7.8437
   61.0000   116.0238     8.9996     8.3277     7.8998
   61.5000   117.8254     9.0027     8.3299     7.9014
   62.0000   115.4164     9.0058     8.4483     7.9030
   62.5000   110.6014     9.1351     8.5093     7.8501
   63.0000   107.2822     9.2016     8.5707     7.9062
   63.5000   101.6411     9.2686     8.6925     7.9627
   64.0000    94.0505     9.2071     8.7552     8.0199
   64.5000    95.2506     9.1467     8.8796     8.1333
   65.0000    94.6461     9.2141     9.0058     8.2482
   65.5000    92.2372     9.4105     9.0786     8.4228
   66.0000    95.2418     9.8809     9.2642     8.6011
   66.5000    94.3366    10.2323     9.3959     8.9055
   67.0000    89.5216    10.4548     9.5955     9.1571
   67.5000    87.7149    10.6734     9.7319     9.3509
   68.0000    90.7187    10.9018     9.9387     9.4830
   68.5000    94.3248    10.9812    10.1500     9.6838
   69.0000    97.0807    11.1380    10.4377     9.8266
   69.5000    98.8302    11.2970    10.8080    10.1106
   70.0000   100.3303    11.6180    11.1916    10.7490
   70.5000   100.3273    12.3688    11.5887    12.2607
   71.0000    99.7236    13.2595    11.7535    15.0901
   71.5000   103.0282    13.8262    11.8390    16.8589
   72.0000   105.4313    13.9270    12.0072    17.6986
   72.5000    93.6990    13.5421    12.2624    15.3693
   73.0000    88.8841    12.7131    12.2657    13.1141
   73.5000    85.8736    12.9204    12.1836    12.2762
   74.0000    84.6677    13.1959    12.1878    11.9438
   74.5000    89.0367    13.2004    12.1062    11.7815
   75.0000    93.7844    13.0233    12.0268    11.7027
   75.5000    98.1919    12.8487    11.9470    11.5449
   76.0000   103.6025    12.7633    11.8679    11.4671
   76.5000   107.8101    12.5932    11.7079    11.3910
   77.0000   105.4012    12.5106    11.6303    11.2368
   77.5000   107.2027    12.4285    11.5533    11.0847
   78.0000   109.0050    12.3470    11.3983    10.9347
   78.5000    99.0765    12.3403    11.3228    11.0129
   79.0000    97.8706    12.1856    11.3259    10.5679
   79.5000    96.0631    12.0232    11.3289    10.3525
   80.0000    90.8271    12.0272    11.4107    10.4988
   80.5000    90.0422    12.1148    11.4138    10.0747
   81.0000    94.2491    12.1189    11.4961    10.0068
   81.5000    94.5476    12.1230    11.5791    10.2192
   82.0000    95.4462    12.0425    11.4230    10.2922
   82.5000    97.2485    12.0476    11.3473    10.3657
   83.0000    90.6283    12.2196    11.2721    10.4397
   83.5000    86.4148    12.5695    11.2760    10.3699
   84.0000    85.8111    12.9348    11.2005    10.2127
   84.5000    88.8149    13.2922    11.0503     9.7487
   85.0000    93.3233    12.8446    10.9013     9.5500
   85.5000    97.8657    12.1569    10.7537     9.4207
   86.0000   100.0220    11.6665    10.6095     9.4885
   86.5000   100.8333    11.1958    10.5391     9.4904
   87.0000    96.0175    10.8938    10.4693     9.6245
   87.5000    93.6086    10.8215    10.3282     9.6928
   88.0000    93.0042    11.0531    10.2598     9.3658
   88.5000    94.8057    11.4461    10.1918     8.9870
   89.0000    95.4050    11.6918    10.1242     8.9888
   89.5000    94.1983    11.6854    10.1277     8.9975
   90.0000    96.6014    11.0690    10.2007     9.0553
   90.5000    99.3052    10.7696    10.2744     9.1200
   91.0000    95.0777    10.8490    10.2056     9.0590
   91.5000    96.9754    11.0039    10.1379     8.9984
   92.0000    98.0934    10.9308    10.0714     8.9382
   92.5000    92.3754    10.7107    10.0047     8.9400
   93.0000    89.9672    10.4933    10.0074     8.8190
   93.5000    94.4748    10.2112     9.8725     8.8208
   94.0000    96.5771    10.0742     9.6730     8.7618
   94.5000    98.6795     9.9384     9.6082     8.7636
   95.0000   102.8870     9.8739     9.4787     8.7050
   95.5000   105.0326    10.0158     9.4159     8.7072
   96.0000   101.9789    10.1588     9.4191     8.7089
   96.5000   104.4040     9.9534     9.4216     8.7107
   97.0000   103.6250     9.8873     9.4242     8.7125
   97.5000    98.6611     9.8915     9.4267     8.7747
   98.0000    97.7559     9.8948     9.4293     8.7765
   98.5000    97.7529     9.9669     9.4319     8.7783
   99.0000    98.6523    10.0395     9.4345     8.8410
   99.5000    99.5523    10.1127     9.4376     8.7818
  100.0000   100.1509    10.2571     9.3744     8.5440
  100.5000    99.2449    10.0610     9.0905     8.4304
  101.0000    97.1367     9.5107     8.8304     8.2037
  101.5000    97.1148     8.9388     8.4359     7.8735
  102.0000    98.3499     8.4597     8.1520     7.4015
  102.5000    98.9324     7.9981     7.9323     7.1004
  103.0000    98.0265     7.7361     7.8254     6.9606
  103.5000    98.0235     7.9560     7.8830     6.9641
  104.0000    98.9236     8.3531     7.9404     7.0153
  104.5000    97.4162     8.6495     7.9982     7.0668
  105.0000    98.0147     8.7114     8.0009     7.1188
  105.5000    99.5155     8.5353     8.0036     7.1711
  106.0000   101.9186     8.3616     8.0063     7.3244
  106.5000   104.0209     8.3062     8.0693     7.4809
  107.0000   105.5218     8.5422     8.2461     7.5882
  107.5000   107.3283     8.7238     8.4710     7.7504
  108.0000   109.1890     8.7867     8.6515     7.8615
  108.5000   109.7744     8.8502     8.7749     7.8647
  109.0000   107.6692     8.9170     8.7779     7.8680
  109.5000   105.2632     9.1114     8.8418     7.9265
  110.0000   100.4511     9.4272     8.8448     7.9848
  110.5000    96.2406     9.6944     8.9092     8.0993
  111.0000    95.6391     9.8322     8.9265     8.1588
  111.5000    97.7444     9.8348     9.0003     8.3332
  112.0000    99.5489     9.7690     9.0725     8.4527
  112.5000   101.3534     9.7723     9.0769     8.4561
  113.0000   102.8571     9.6406     9.0184     8.4004
  113.5000   104.3820     9.5101     8.8999     8.3466
