~VERSION INFORMATION
 VERS.                2.0:   CWLS LOG ASCII STANDARD - VERSION 2.0
 WRAP.                 NO:   ONE LINE PER DEPTH STEP
~WELL INFORMATION
#MNEM.UNIT      DATA TYPE    INFORMATION
#----------   ------------   ------------------------------
 STRT.F          974.5000:   START DEPTH
 STOP.F         2805.0000:   STOP DEPTH
 STEP.F            0.5000:   STEP LENGTH
 NULL.          -999.2500:   NO VALUE
 COMP.   FLUOR DANIEL INC:   COMPANY
 WELL. NAVAL PETROLEUM RESERVE 3 SHX- #38-14:   WELL
 FLD .             TEAPOT:   FIELD
 LOC .      S14 T38N R78W:   LOCATION
 CNTY.            NATRONA:   COUNTY
 STAT.            WYOMING:   STATE
 CTRY. UNITED STATES OF AMERICA:   COUNTRY
 SRVC.            Unknown:   SERVICE COMPANY
 DATE.        20-AUG-1995:   LOGDATE
 API .       490252273400:   API NUMBER
~CURVE INFORMATION
#MNEM.UNIT       API CODE    CURVE DESCRIPTION
#----------   ------------   ------------------------------
 DEPT.F                  :   
 ROP .MIN/FT 91 810 01 00:   RAT OF DRILLING PENETRATION
 TGAS.UNITS  91 830 01 00:   TOTAL GAS FROM HOTWIRE
~PARAMETER INFORMATION
#MNEM.UNIT          VALUE    DESCRIPTION
#----------   ------------   ------------------------------
 EKB .F              5264:   KELLING BUSHING
 EGL .F              5254:   GROUND LEVEL
 DATE.            8-20-95:   RUN DATE
 DD  .F              2805:   DEPTH DRILLER
 CBD .F               980:   CASING BOTTOM DRILLER
 ENGI.              TOWER:   RECORDING ENGINEER
 WITN.               HUSK:   WITNESSED BY
 CLNT.            A2DTECH:   CLIENT CODE
 ORIG.           5" PRINT:   ORIGIN OF DATA
 UWI .       490252273400:   UNIQUE WELL ID
 DICO. A2D Technologies, Inc.:   DIGITIZING COMPANY
~OTHER INFORMATION
~A   DEPT      ROP         TGAS 
# ...
 2432.5000     0.6574    10.2731
 2433.0000     0.6669    10.2618
 2433.5000     0.6557    10.2505
 2434.0000     0.6554    10.2392
 2434.5000     0.6551    10.2280
 2435.0000     0.6549    10.2167
 2435.5000     0.6546    10.2054
 2436.0000     0.6543    10.1941
 2436.5000     0.6541    10.1828
 2437.0000     0.6538    10.1716
 2437.5000     0.6535    10.1603
 2438.0000     0.6532    10.1477
 2438.5000     0.6529    10.1191
 2439.0000     0.6419    10.0869
 2439.5000     0.6525    10.0547
 2440.0000     0.6413    10.0224
 2440.5000     0.6196     9.9902
 2441.0000     0.6087     9.9580
 2441.5000     0.6087     9.9258
 2442.0000     0.6087     9.8935
 2442.5000     0.6087     9.8613
 2443.0000     0.6087     9.8291
 2443.5000     0.6196     9.7968
 2444.0000     0.6196     9.7646
 2444.5000     0.6196     9.7324
 2445.0000     0.6304     9.7001
 2445.5000     0.6304     9.6679
 2446.0000     0.6304     9.6357
 2446.5000     0.6413     9.6034
 2447.0000     0.6413     9.5712
 2447.5000     0.6413     9.5390
 2448.0000     0.6413     9.5067
 2448.5000     0.6522     9.4745
 2449.0000     0.6413     9.4423
 2449.5000     0.6413     9.4100
 2450.0000     0.6413     9.3726
 2450.5000     0.6413     9.3556
 2451.0000     0.6304     9.3353
 2451.5000     0.6304     9.3151
 2452.0000     0.7717     9.2948
 2452.5000     0.7717     9.2746
 2453.0000     0.7717     9.2543
 2453.5000     0.7826     9.2340
 2454.0000     0.7935     9.2138
 2454.5000     0.8043     9.1935
 2455.0000     0.8043     9.1733
 2455.5000     0.8152     9.1530
 2456.0000     0.6196     9.1327
 2456.5000     0.6087     9.1125
 2457.0000     0.6087     9.0922
 2457.5000     0.6087     9.0720
 2458.0000     0.6087     9.0517
 2458.5000     0.6196     9.0315
 2459.0000     0.6196     9.0112
 2459.5000     0.6413     8.9909
 2460.0000     0.6413     9.1961
 2460.5000     0.6428     9.1874
 2461.0000     0.6522     9.1787
 2461.5000     0.6522     9.1700
 2462.0000     0.6522     9.1613
 2462.5000     0.6522     9.1525
 2463.0000     0.6522     9.1438
 2463.5000     0.6522     9.1351
 2464.0000     0.6522     9.1264
 2464.5000     0.6522     9.1177
 2465.0000     0.6522     9.1090
 2465.5000     0.6522     9.1002
 2466.0000     0.6522     9.0915
 2466.5000     0.6522     9.0828
 2467.0000     0.6522     9.0741
 2467.5000     0.6413     9.0654
 2468.0000     0.6413     9.0567
 2468.5000     0.6413     9.0479
 2469.0000     0.6522     9.0392
 2469.5000     0.6522     9.0305
 2470.0000     0.6522     8.8025
 2470.5000     0.6522     8.7939
 2471.0000     0.6522     8.5675
 2471.5000     0.6522     8.5589
 2472.0000     0.6522     8.1145
 2472.5000     0.6522     8.1060
 2473.0000     0.6522     8.0975
 2473.5000     0.6522     8.0875
 2474.0000     0.6522     8.0790
 2474.5000     0.6522     8.0704
 2475.0000     0.6522     8.0619
 2475.5000     0.6522     8.0533
 2476.0000     0.6522     8.0448
 2476.5000     0.6522     8.0363
 2477.0000     0.6413     8.0368
 2477.5000     0.6413     8.0373
 2478.0000     0.6413     8.0379
 2478.5000     0.8587     8.0384
 2479.0000     0.8478     8.0390
 2479.5000     0.8478     8.0396
 2480.0000     0.8587     8.0401
 2480.5000     0.8587     8.0407
 2481.0000     0.8478     8.0412
 2481.5000     0.8478     8.0418
 2482.0000     0.8370     8.0423
 2482.5000     0.8370     8.0429
 2483.0000     0.8493     8.0434
 2483.5000     0.8587     8.0440
 2484.0000     0.6488     8.0445
 2484.5000     0.6484     8.0451
 2485.0000     0.6480     8.0456
 2485.5000     0.6368     8.0462
 2486.0000     0.6364     8.0467
 2486.5000     0.6360     8.0473
 2487.0000     0.6356     8.0478
 2487.5000     0.6352     8.0484
 2488.0000     0.6348     8.0489
 2488.5000     0.6344     8.0495
 2489.0000     0.6340     8.0500
 2489.5000     0.6444     8.0506
 2490.0000     0.6440     8.0512
 2490.5000     0.6436     8.0517
 2491.0000     0.6431     8.0523
 2491.5000     0.6427     8.0528
 2492.0000     0.6423     8.0534
 2492.5000     0.6419     8.0539
 2493.0000     0.6415     8.0545
 2493.5000     0.6411     8.0550
 2494.0000     0.6626     8.0556
 2494.5000     0.5534     8.0561
 2495.0000     0.5530     8.0567
 2495.5000     0.5526     8.0572
 2496.0000     0.5522     8.0578
 2496.5000     0.5518     8.0583
 2497.0000     0.5514     8.0589
 2497.5000     0.5510     8.0594
 2498.0000     0.5505     8.0600
 2498.5000     0.5501     8.0605
 2499.0000     0.5497     8.0611
 2499.5000     0.5493     8.0616
 2500.0000     0.5489     8.0622
 2500.5000     0.5485     8.0821
 2501.0000     0.5481     8.1037
 2501.5000     0.5477     8.1254
 2502.0000     0.5473     8.1470
 2502.5000     0.5469     8.1686
 2503.0000     0.5465     8.1903
 2503.5000     0.5461     8.2119
 2504.0000     0.5457     8.2335
 2504.5000     0.5561     8.2552
 2505.0000     0.5556     8.2768
 2505.5000     0.5661     8.2984
 2506.0000     0.5657     8.3201
 2506.5000     0.5763     8.3417
 2507.0000     0.5758     8.3633
 2507.5000     0.5754     8.3850
 2508.0000     0.5750     8.4066
 2508.5000     0.5637     8.4282
 2509.0000     0.5633     8.4499
 2509.5000     0.5629     8.4715
 2510.0000     0.5516     8.4931
 2510.5000     0.5404     8.5052
 2511.0000     0.5399     8.5164
 2511.5000     0.5395     8.5275
 2512.0000     0.5282     8.5387
 2512.5000     0.5278     8.5498
 2513.0000     0.5274     8.5610
 2513.5000     0.5270     8.5722
 2514.0000     0.5266     8.5833
 2514.5000     0.5262     8.5945
 2515.0000     0.5258     8.6056
 2515.5000     0.5363     8.6168
 2516.0000     0.5358     8.6280
 2516.5000     0.5354     8.6391
 2517.0000     0.5350     8.6503
 2517.5000     0.5346     8.6615
 2518.0000     0.5234     8.6726
 2518.5000     0.6643     8.6838
 2519.0000     0.6529     8.6949
 2519.5000     0.6416     8.7061
 2520.0000     0.6304     8.7167
 2520.5000     0.6191     8.5091
 2521.0000     0.6187     8.5234
 2521.5000     0.6183     8.5376
 2522.0000     0.6179     8.5519
 2522.5000     0.6175     8.5661
 2523.0000     0.6281     8.5804
 2523.5000     0.6385     8.5947
 2524.0000     0.6489     8.6089
 2524.5000     0.4034     8.6232
 2525.0000     0.4144     8.6375
 2525.5000     0.4254     8.6517
 2526.0000     0.4256     8.6660
 2526.5000     0.4366     8.6803
 2527.0000     0.4258     8.6945
 2527.5000     0.4260     8.7088
 2528.0000     0.4261     8.7167
 2528.5000     0.4371     8.7167
 2529.0000     0.4372     8.4988
 2529.5000     0.4374     8.2809
 2530.0000     0.4266     8.2809
 2530.5000     0.4268     8.2809
 2531.0000     0.4269     8.2809
 2531.5000     0.4271     8.2809
 2532.0000     0.4272     8.2809
 2532.5000     0.4382     8.4988
 2533.0000     0.4274     8.4988
 2533.5000     0.4276     8.4988
 2534.0000     0.5690     8.2809
 2534.5000     0.5692     8.2809
 2535.0000     0.5802     8.2809
 2535.5000     0.5803     7.8450
 2536.0000     0.5804     7.8450
 2536.5000     0.5697     7.8450
 2537.0000     0.5699     7.8450
 2537.5000     0.5700     7.8450
 2538.0000     0.5701     7.8450
 2538.5000     0.5594     7.8450
 2539.0000     0.5595     8.0630
 2539.5000     0.5597     8.0630
 2540.0000     0.5489     8.0630
 2540.5000     0.5491     8.0630
 2541.0000     0.5492     8.2809
 2541.5000     0.5493     8.2809
 2542.0000     0.5495     8.2809
 2542.5000     0.5496     8.0630
 2543.0000     0.5389     8.0630
 2543.5000     0.5390     8.0630
 2544.0000     0.6479     7.8450
 2544.5000     0.6589     7.8450
 2545.0000     0.6699     7.8450
 2545.5000     0.6700     7.8450
 2546.0000     0.6592     7.8450
 2546.5000     0.6594     7.8450
 2547.0000     0.6595     7.8450
 2547.5000     0.6597     7.8450
 2548.0000     0.5837     8.0630
 2548.5000     0.5404     8.2809
 2549.0000     0.5514     8.2809
 2549.5000     0.5515     8.2809
 2550.0000     0.5625     8.4988
 2550.5000     0.5627     7.8101
 2551.0000     0.5628     7.7582
 2551.5000     0.5629     7.7063
 2552.0000     0.5631     7.6545
 2552.5000     0.5632     7.6026
 2553.0000     0.5633     7.5507
 2553.5000     0.5743     7.4988
