~VERSION INFORMATION
 VERS.                2.0:   CWLS LOG ASCII STANDARD - VERSION 2.0
 WRAP.                 NO:   ONE LINE PER DEPTH STEP
~WELL INFORMATION
#MNEM.UNIT      DATA TYPE    INFORMATION
#----------   ------------   ------------------------------
 STRT.F           14.0000:   START DEPTH
 STOP.F          513.0000:   STOP DEPTH
 STEP.F            0.1000:   STEP LENGTH
 NULL.          -999.2500:   NO VALUE
 COMP.       F D SERV INC:   COMPANY
 WELL.    52-1 SX-3 #52-3:   WELL
 FLD .             TEAPOT:   FIELD
 LOC .       S3 T38N R78W:   LOCATION
 CNTY.            NATRONA:   COUNTY
 STAT.            WYOMING:   STATE
 CTRY. UNITED STATES OF AMERICA:   COUNTRY
 SRVC.     Atlas Wireline:   SERVICE COMPANY
 DATE.        21-APR-1992:   LOGDATE
 API .       490252251400:   API NUMBER
~CURVE INFORMATION
#MNEM.UNIT       API CODE    CURVE DESCRIPTION
#----------   ------------   ------------------------------
 DEPT.F                  :   
 GRR .GAPI   07 310 01 00:   GAMMA RAY
 RILD.OHMM   07 120 46 00:   INDUCTION LOG DEEP RESISTIVITY
 RILM.OHMM   07 120 44 00:   INDUCTION LOG MEDIUM RESISTIVITY
~PARAMETER INFORMATION
#MNEM.UNIT          VALUE    DESCRIPTION
#----------   ------------   ------------------------------
 PD  .                 GL:   PERMANENT DATUM
 EPD .F              5115:   ELEVATION PERMANENT DATUM
 LMF .                 KB:   LOG MEASURED FROM
 DAPD.F                 5:   FEET ABOVE PERMANENT DATUM
 DMF .                 KB:   DRILLING MEASURED FROM
 EKB .F              5120:   KELLING BUSHING
 EDF .F              5119:   DRILLING FLOOR
 EGL .F              5115:   GROUND LEVEL
 DATE.        21-APR-1992:   RUN DATE
 RUN .                  1:   RUN NUMBER
 DD  .F               515:   DEPTH DRILLER
 DL  .F               520:   DEPTH LOGGER
 BLI .F               517:   BOTTOM LOG INTERVAL
 TLI .F                50:   TOP LOG INTERVAL
 CS  .IN            9.625:   CASING SIZE
 CBD .F                45:   CASING BOTTOM DRILLER
 CBL .F                50:   CASING BOTTOM LOGGER
 BS  .IN            7.875:   BIT SIZE
 BSD .F               515:   BIT SIZE AT DEPTH
 DFT .                AIR:   DRILLING FLUID TYPE
 LUN .            HL-6272:   LOGGING UNIT NUMBER
 LUL .             CASPER:   LOGGING UNIT LOCATION
 ENGI.       P. RASMUSSEN:   RECORDING ENGINEER
 WITN.          G. STRONG:   WITNESSED BY
 CLNT.            A2DTECH:   CLIENT CODE
 ORIG.           5" PRINT:   ORIGIN OF DATA
 UWI .       490252251400:   UNIQUE WELL ID
 DICO. A2D Technologies, Inc.:   DIGITIZING COMPANY
~OTHER INFORMATION
~A   DEPT      GRR       RILD       RILM   
# ...
  378.0000    92.3746    12.5386    12.4130
  378.1000    92.3720    12.5363    12.4126
  378.2000    92.3698    12.4510    12.4123
  378.3000    92.5432    12.4507    12.3619
  378.4000    92.6671    12.4503    12.3256
  378.5000    92.7321    12.4500    12.3253
  378.6000    92.9645    12.4376    12.3212
  378.7000    92.9615    12.3630    12.2391
  378.8000    93.1666    12.3626    12.1808
  378.9000    93.4121    12.3623    12.1537
  379.0000    93.6576    12.3248    12.1534
  379.1000    93.9921    12.2759    12.1407
  379.2000    94.7624    12.2756    12.0685
  379.3000    95.9516    12.2752    12.0682
  379.4000    97.0047    12.2131    12.0679
  379.5000    97.8641    12.1895    12.0675
  379.6000    98.6811    12.1891    12.0672
  379.7000    99.6489    12.1888    12.0669
  379.8000   100.4879    12.1884    12.0665
  379.9000   100.9165    12.1880    12.0662
  380.0000   101.5711    12.1878    12.0659
  380.1000   102.2055    12.1874    12.0655
  380.2000   102.6989    12.1871    12.0652
  380.3000   103.1952    12.1868    12.0649
  380.4000   103.1927    12.1864    12.0645
  380.5000   103.5750    12.1861    12.0642
  380.6000   103.9303    12.1857    12.0638
  380.7000   104.2598    12.1854    12.0635
  380.8000   104.7532    12.2066    12.0632
  380.9000   105.2952    12.2698    12.0628
  381.0000   106.1873    12.2694    12.0625
  381.1000   107.3460    12.2691    12.0622
  381.2000   108.5833    12.2688    12.0618
  381.3000   109.6985    12.3001    12.0615
  381.4000   110.4194    12.3537    12.0612
  381.5000   110.4165    12.3534    12.0608
  381.6000   110.6151    12.3530    12.0605
  381.7000   110.5677    12.3527    12.1009
  381.8000   110.0406    12.3523    12.1439
  381.9000   109.0465    12.3520    12.1436
  382.0000   107.9878    12.3631    12.1432
  382.1000   106.8264    12.4375    12.2079
  382.2000   105.7620    12.4372    12.2774
  382.3000   104.8912    12.4368    12.3122
  382.4000   104.2835    12.4365    12.3119
  382.5000   104.0332    12.4361    12.3158
  382.6000   103.7434    12.4422    12.3970
  382.7000   103.7414    12.5222    12.3967
  382.8000   103.7390    12.5219    12.4407
  382.9000   103.6361    12.5690    12.5407
  383.0000   103.4320    12.6409    12.6705
  383.1000   103.4295    12.6963    12.7448
  383.2000   103.1871    12.6971    12.7445
  383.3000   102.9368    12.7841    12.8539
  383.4000   102.6865    12.7838    12.9615
  383.5000   102.3586    12.8266    13.0353
  383.6000   101.8836    12.8724    13.1024
  383.7000   101.6021    12.8837    13.1020
  383.8000   101.1656    12.9615    13.1016
  383.9000   100.8304    13.0314    13.1013
  384.0000   100.4712    13.1059    13.1009
  384.1000    99.9729    13.1420    13.1006
  384.2000    99.4755    13.1643    13.1002
  384.3000    99.4731    13.2330    13.0998
  384.4000    99.2765    13.2326    13.0411
  384.5000    99.1662    13.2323    13.0084
  384.6000    99.2495    13.2319    13.0080
  384.7000    99.4950    13.2651    12.9982
  384.8000    99.7629    13.3063    12.9171
  384.9000    99.9861    13.2308    12.8501
  385.0000   100.2316    13.2304    12.8270
  385.1000   100.4771    13.2301    12.8266
  385.2000   100.7227    13.2297    12.8078
  385.3000   100.9768    13.2293    12.7371
  385.4000   101.5609    13.2290    12.7366
  385.5000   101.7613    13.2286    12.7364
  385.6000   102.3032    13.2282    12.7360
  385.7000   102.8566    13.1731    12.7356
  385.8000   103.1021    13.1358    12.7237
  385.9000   103.3618    13.1354    12.6467
  386.0000   103.5931    13.1351    12.6464
  386.1000   103.4797    13.1346    12.6460
  386.2000   103.1040    13.0694    12.6093
  386.3000   102.5346    13.0429    12.5372
  386.4000   101.8054    13.0100    12.4704
  386.5000   101.2323    12.9353    12.4700
  386.6000   100.8088    12.8616    12.4095
  386.7000   100.4671    12.8613    12.3830
  386.8000   100.2167    12.8027    12.3826
  386.9000   100.0145    12.7714    12.3686
  387.0000   100.0120    12.7710    12.2962
  387.1000   100.0097    12.7598    12.2958
  387.2000   100.0072    12.6818    12.2426
  387.3000    99.8713    12.6815    12.1726
  387.4000    99.6210    12.6289    12.1030
  387.5000    99.3706    12.5565    12.0407
  387.6000    99.0910    12.5052    12.0404
  387.7000    98.8699    12.5048    12.0401
  387.8000    98.6195    12.5044    11.9942
  387.9000    98.4798    12.4426    11.9560
  388.0000    98.4773    12.4171    11.9402
  388.1000    98.4749    12.3861    11.8719
  388.2000    98.7227    12.3150    11.8041
  388.3000    98.7722    12.2443    11.7896
  388.4000    98.9116    12.1740    11.7510
  388.5000    99.1571    12.1042    11.7073
  388.6000    99.3695    12.0744    11.7070
  388.7000    99.3666    12.0740    11.7066
  388.8000    99.8188    12.0636    11.6453
  388.9000   100.4853    11.9896    11.6249
  389.0000   101.2267    11.9893    11.5929
  389.1000   101.9680    11.9890    11.5437
  389.2000   102.7199    11.9543    11.5406
  389.3000   103.8836    11.8857    11.4631
  389.4000   104.2900    11.8223    11.4628
  389.5000   104.7835    11.8220    11.4231
  389.6000   105.1810    11.7638    11.3828
  389.7000   105.3853    11.7394    11.3825
  389.8000   104.7781    11.7391    11.3821
  389.9000   104.3050    11.7244    11.3204
  390.0000   103.9879    11.6571    11.3027
  390.1000   103.6105    11.6567    11.2694
  390.2000   103.1851    11.6564    11.2050
  390.3000   102.9535    11.6181    11.1457
  390.4000   102.9507    11.5514    11.1453
  390.5000   102.7361    11.4944    11.0908
  390.6000   102.8024    11.4941    11.0676
  390.7000   102.9438    11.4329    11.0673
  390.8000   103.0413    11.4138    11.0669
  390.9000   103.5432    11.4134    11.0666
  391.0000   103.7845    11.3947    11.0663
  391.1000   104.0300    11.3337    11.0179
  391.2000   104.2755    11.3333    10.9891
  391.3000   104.6022    11.3331    10.9683
  391.4000   105.0687    11.3327    10.9056
  391.5000   105.3411    11.3049    10.8364
  391.6000   105.5597    11.2536    10.8361
  391.7000   105.9718    11.2532    10.7945
  391.8000   106.3529    11.2529    10.7605
  391.9000   106.7148    11.2024    10.7602
  392.0000   107.4561    11.1743    10.7599
  392.1000   108.1975    11.1740    10.7596
  392.2000   109.5321    11.1737    10.7593
  392.3000   110.7301    11.1733    10.7236
  392.4000   111.7194    11.1731    10.6842
  392.5000   112.6384    11.1727    10.6839
  392.6000   113.1696    11.1724    10.6835
  392.7000   113.6254    11.1901    10.6833
  392.8000   113.9440    11.2498    10.6830
  392.9000   114.0689    11.2494    10.6827
  393.0000   114.0000    11.2492    10.6988
  393.1000   113.7496    11.2489    10.7566
  393.2000   113.4570    11.2485    10.7562
  393.3000   112.6308    11.2482    10.7560
  393.4000   111.6366    11.2479    10.7557
  393.5000   110.6425    11.3117    10.7796
  393.6000   109.5614    11.3258    10.8410
  393.7000   108.0071    11.3255    10.9053
  393.8000   106.8187    11.3479    10.9648
  393.9000   105.5764    11.4040    11.0272
  394.0000   104.2053    11.4036    11.0900
  394.1000   102.7901    11.4635    11.1725
  394.2000   101.5275    11.5291    11.2948
  394.3000    99.8353    11.5950    11.3679
  394.4000    98.5475    11.6798    11.4238
  394.5000    97.6979    11.8180    11.5744
  394.6000    97.1997    12.0542    11.7161
  394.7000    96.8048    12.2310    11.8112
  394.8000    96.8024    12.3974    12.0163
  394.9000    97.0455    12.5702    12.2217
  395.0000    97.2910    12.8026    12.4326
  395.1000    97.6738    13.1018    12.6874
  395.2000    98.0843    13.4021    12.9796
  395.3000    98.3875    13.7743    13.2782
  395.4000    99.2046    14.1282    13.6156
  395.5000   100.0928    14.5135    13.8980
  395.6000   101.0821    15.0076    14.2187
  395.7000   101.7287    15.4798    14.5465
  395.8000   101.7941    15.8921    14.8814
  395.9000   101.2900    16.2876    15.2236
  396.0000   100.3983    16.7119    15.6437
  396.1000    99.5981    17.1689    15.8612
