~VERSION INFORMATION
 VERS.                2.0:   CWLS LOG ASCII STANDARD - VERSION 2.0
 WRAP.                 NO:   ONE LINE PER DEPTH STEP
~WELL INFORMATION
#MNEM.UNIT      DATA TYPE    INFORMATION
#----------   ------------   ------------------------------
 STRT.F           12.0000:   START DEPTH
 STOP.F          563.5000:   STOP DEPTH
 STEP.F            0.5000:   STEP LENGTH
 NULL.          -999.2500:   NO VALUE
 COMP.       F D SERV INC:   COMPANY
 WELL. N P R 3 SX-3 #52-3:   WELL
 FLD .             TEAPOT:   FIELD
 LOC .       S3 T38N R78W:   LOCATION
 CNTY.            NATRONA:   COUNTY
 STAT.            WYOMING:   STATE
 CTRY. UNITED STATES OF AMERICA:   COUNTRY
 SRVC.     Atlas Wireline:   SERVICE COMPANY
 DATE.        27-APR-1992:   LOGDATE
 API .       490252252000:   API NUMBER
~CURVE INFORMATION
#MNEM.UNIT       API CODE    CURVE DESCRIPTION
#----------   ------------   ------------------------------
 DEPT.F                  :   
 PORZ.DEC    45 890 12 00:   DENSITY POROSITY
 CNC .DEC    42 890 03 00:   NEUTRON POROSITY SANDSTONE
 CALD.IN     45 280 60 00:   CALIPER FROM DENSITY
 GRD .GAPI   45 310 01 00:   GAMMA RAY FROM DENSITY LOG
 ZCOR.G/C3   45 356 01 00:   DENSITY CORRECTION
 ZDEN.G/C3   45 350 01 00:   BULK DENSITY
 RILD.OHMM   07 120 46 00:   INDUCTION LOG DEEP RESISTIVITY
 RILM.OHMM   07 120 44 00:   INDUCTION LOG MEDIUM RESISTIVITY
 RFOC.OHMM   07 220 04 00:   RESISTIVITY FOCUSED LOG
~PARAMETER INFORMATION
#MNEM.UNIT          VALUE    DESCRIPTION
#----------   ------------   ------------------------------
 PD  .                 GL:   PERMANENT DATUM
 EPD .F              5145:   ELEVATION PERMANENT DATUM
 LMF .                 KB:   LOG MEASURED FROM
 DAPD.F                 5:   FEET ABOVE PERMANENT DATUM
 DMF .                 KB:   DRILLING MEASURED FROM
 EKB .F              5150:   KELLING BUSHING
 EDF .F              5149:   DRILLING FLOOR
 EGL .F              5145:   GROUND LEVEL
 DATE.        27-APR-1992:   RUN DATE
 RUN .                  1:   RUN NUMBER
 DD  .F               565:   DEPTH DRILLER
 DL  .F               565:   DEPTH LOGGER
 BLI .F               563:   BOTTOM LOG INTERVAL
 CS  .IN            8.625:   CASING SIZE
 CBD .F                48:   CASING BOTTOM DRILLER
 CBL .F                51:   CASING BOTTOM LOGGER
 BS  .IN            7.875:   BIT SIZE
 BSD .F               565:   BIT SIZE AT DEPTH
 DFT .              WATER:   DRILLING FLUID TYPE
 TCS .HRS            0200:   TIME CURCULATED STOPPED
 MRT .F                88:   MAXIMUM RECORDED TEMPERATURE
 LUN .           HL- 6274:   LOGGING UNIT NUMBER
 LUL .             CASPER:   LOGGING UNIT LOCATION
 ENGI.             RAUTIO:   RECORDING ENGINEER
 WITN.        GARY STRONG:   WITNESSED BY
 CLNT.            A2DTECH:   CLIENT CODE
 ORIG.           5" PRINT:   ORIGIN OF DATA
 UWI .       490252252000:   UNIQUE WELL ID
 DICO. A2D Technologies, Inc.:   DIGITIZING COMPANY
~OTHER INFORMATION
~A   DEPT     PORZ        CNC       CALD        GRD       ZCOR       ZDEN       RILD       RILM       RFOC   
# ...
  267.5000     0.1682     0.5212     8.2014   116.6777     0.0314     2.3916     4.5332     4.6076     5.4602
  268.0000     0.1417     0.5052     8.2002   111.5936     0.0345     2.4255     4.7473     4.7701     5.4917
  268.5000     0.1333     0.4805     8.1989   106.5095     0.0405     2.4353     4.9831     5.0074     5.5292
  269.0000     0.1272     0.4673     8.1826   104.7186     0.0466     2.4444     5.2671     5.2932     5.9256
  269.5000     0.1188     0.4376     8.1811   106.2935     0.0466     2.4595     5.5672     5.5976     6.0497
  270.0000     0.1083     0.4092     8.1648   113.1148     0.0466     2.4783     5.8033     5.9613     6.0908
  270.5000     0.0989     0.3883     8.1635   116.1145     0.0451     2.4942     6.1340     6.3394     6.3489
  271.0000     0.0920     0.3781     8.1620   116.4196     0.0420     2.5047     6.5741     6.7950     6.6180
  271.5000     0.0845     0.3682     8.1607   115.5271     0.0346     2.5100     6.9007     7.2328     6.9465
  272.0000     0.0858     0.3579     8.1594   115.2334     0.0286     2.5033     7.2468     7.5926     7.1908
  272.5000     0.0959     0.3552     8.1582   116.7375     0.0271     2.4935     7.5072     7.9152     7.6057
  273.0000     0.0977     0.3580     8.1566   117.6414     0.0256     2.4897     7.7626     8.1377     8.0332
  273.5000     0.0989     0.3625     8.1553   116.4495     0.0286     2.4882     7.9251     8.1938     8.1441
  274.0000     0.0998     0.3668     8.1541   116.4552     0.0316     2.4853     7.9799     8.1933     8.0308
  274.5000     0.1005     0.3773     8.1528   117.0978     0.0377     2.4830     8.0349     8.0203     7.9742
  275.0000     0.1014     0.3791     8.1512   117.6656     0.0422     2.4816     7.9235     7.8487     7.9179
  275.5000     0.1032     0.3785     8.1499   117.6713     0.0391     2.4801     7.7599     7.6951     7.7537
  276.0000     0.1047     0.3722     8.1637   117.3776     0.0242     2.4786     7.5996     7.5884     7.5929
  276.5000     0.1050     0.3728     8.1624   116.7845     0.0121     2.4779     7.4426     7.4832     7.4872
  277.0000     0.1053     0.3747     8.1761   114.3964     0.0136     2.4771     7.3395     7.4309     7.2812
  277.5000     0.1074     0.3771     8.1746   112.9037     0.0242     2.4749     7.2799     7.3790     7.1799
  278.0000     0.1086     0.3799     8.1733   113.5096     0.0272     2.4727     7.1376     7.3274     6.9823
  278.5000     0.1083     0.3842     8.1867   114.1141     0.0182     2.4719     7.0388     7.2258     6.8789
  279.0000     0.1083     0.3877     8.1854   115.3174     0.0077     2.4719     6.9414     7.1753     6.7891
  279.5000     0.1083     0.3910     8.1842   120.7137     0.0122     2.4712     6.6120     6.9115     6.7412
  280.0000     0.1092     0.3953     8.1829   122.8152     0.0214     2.4705     5.9998     5.6259     6.6937
  280.5000     0.1136     0.3992     8.1813   123.1189     0.0258     2.4667     5.4442     4.8959     6.6005
  281.0000     0.1218     0.4022     8.1954   122.5272     0.0228     2.4462     4.9745     4.7947     6.3745
  281.5000     0.1305     0.4086     8.1938   122.2275     0.0243     2.4209     4.9046     4.8953     5.9462
  282.0000     0.1531     0.4210     8.2075   120.7436     0.0334     2.3990     4.9395     4.6626     4.8953
  282.5000     0.1685     0.4591     8.2059   118.0547     0.0485     2.3720     4.8040     4.7275     4.6626
  283.0000     0.1661     0.4583     8.2200   113.8688     0.0530     2.3803     4.8370     4.8943     4.6297
  283.5000     0.1555     0.4448     8.2184   113.8745     0.0380     2.4029     5.0422     5.1736     4.9659
  284.0000     0.1315     0.4120     8.2171   114.4950     0.0289     2.4421     5.3295     5.4330     5.4858
  284.5000     0.1113     0.3815     8.2156   115.6837     0.0289     2.4760     5.7917     5.7566     6.9213
  285.0000     0.1013     0.3665     8.2143   117.1864     0.0305     2.4843     6.2072     6.4599     7.5215
  285.5000     0.0983     0.3644     8.2130   118.6891     0.0305     2.4888     6.5609     7.3197     7.6258
  286.0000     0.0974     0.3680     8.1964   119.8924     0.0290     2.4888     6.9347     7.5254     7.6779
  286.5000     0.0974     0.3799     8.1952   121.1218     0.0260     2.4866     7.2289     7.6303     7.6235
  287.0000     0.0983     0.3846     8.1939   122.5998     0.0215     2.4859     7.4351     7.7905     7.5700
  287.5000     0.0998     0.3858     8.1927   123.8031     0.0200     2.4851     7.5963     7.8989     7.6745
  288.0000     0.1008     0.3819     8.1911   124.4076     0.0200     2.4836     7.7465     8.0087     7.7807
  288.5000     0.1011     0.3723     8.1898   124.1138     0.0200     2.4814     7.8541     8.0640     7.8884
  289.0000     0.1017     0.3666     8.1885   122.8862     0.0230     2.4807     7.9633     8.0634     7.8873
  289.5000     0.1023     0.3660     8.1873   121.4307     0.0261     2.4807     8.0182     8.0629     7.8863
  290.0000     0.1017     0.3751     8.1857   120.2388     0.0291     2.4845     8.0734     8.0622     7.8849
  290.5000     0.0989     0.3760     8.1844   119.6457     0.0306     2.4883     8.0728     8.1180     7.9390
  291.0000     0.0986     0.3727     8.1832   119.3533     0.0291     2.4875     8.0722     8.0611     7.8828
  291.5000     0.1008     0.3676     8.1819   119.3593     0.0171     2.4831     7.9605     7.8944     7.8817
  292.0000     0.1029     0.3682     8.1803   119.3662     0.0096     2.4801     7.9049     7.8393     7.8807
  292.5000     0.1032     0.3766     8.1791   119.9707     0.0051     2.4801     7.9044     7.8386     7.8796
  293.0000     0.1026     0.3833     8.1778   120.5752     0.0066     2.4801     7.9037     7.8381     7.8240
  293.5000     0.1017     0.3866     8.1915   122.0779     0.0144     2.4809     7.9582     7.8922     7.7689
  294.0000     0.1014     0.3875     8.1899   124.4802     0.0368     2.4817     8.0130     8.0021     7.7678
  294.5000     0.1020     0.3918     8.1887   126.8811     0.0398     2.4824     8.0684     8.0573     7.8213
  295.0000     0.1026     0.4043     8.1874   127.4842     0.0308     2.4817     8.1240     8.0566     7.9291
  295.5000     0.1035     0.4072     8.1858   126.2937     0.0217     2.4809     8.1233     8.0561     7.9277
  296.0000     0.1035     0.4009     8.1846   124.1956     0.0187     2.4780     8.1228     7.9998     7.8718
  296.5000     0.1032     0.3870     8.1833   120.9173     0.0203     2.4780     8.0661     7.9992     7.8163
  297.0000     0.1026     0.3828     8.1970   122.7194     0.0233     2.4788     7.9544     7.8337     7.8153
  297.5000     0.1007     0.3864     8.1954   123.3225     0.0263     2.4803     7.7811     7.5658     7.8689
  298.0000     0.0947     0.3868     8.2095   121.2338     0.0278     2.4894     7.4203     7.2565     7.8676
  298.5000     0.0935     0.3835     8.2229   120.3413     0.0263     2.4984     7.0193     6.8131     7.9213
  299.0000     0.0965     0.3823     8.2216   120.9472     0.0218     2.4954     6.6863     6.4028     7.8654
  299.5000     0.1086     0.3877     8.2354   122.7493     0.0203     2.4879     6.5481     6.3579     7.3370
  300.0000     0.1263     0.4269     8.2314   126.3478     0.0249     2.4413     6.5476     6.4466     6.1248
  300.5000     0.1275     0.4281     8.2141   126.9611     0.0295     2.4390     6.5463     6.6276     6.3845
  301.0000     0.1226     0.4131     8.2036   126.0805     0.0311     2.4444     6.5450     6.6272     6.7041
  301.5000     0.1104     0.3959     8.2185   121.9034     0.0328     2.4534     6.4981     6.5353     7.0844
  302.0000     0.1025     0.3875     8.2333   120.7166     0.0313     2.4753     6.4074     6.3523     7.1332
  302.5000     0.1019     0.3881     8.2331   121.3335     0.0299     2.4791     6.2742     6.1384     7.2323
  303.0000     0.1055     0.3887     8.2480   122.8450     0.0240     2.4790     6.0172     5.9698     7.4354
  303.5000     0.1133     0.3904     8.2478   124.9553     0.0075     2.4701     5.8514     5.6467     7.6975
