~VERSION INFORMATION
 VERS.                2.0:   CWLS LOG ASCII STANDARD - VERSION 2.0
 WRAP.                 NO:   ONE LINE PER DEPTH STEP
~WELL INFORMATION
#MNEM.UNIT      DATA TYPE    INFORMATION
#----------   ------------   ------------------------------
 STRT.F           30.0000:   START DEPTH
 STOP.F          733.0000:   STOP DEPTH
 STEP.F            0.5000:   STEP LENGTH
 NULL.          -999.2500:   NO VALUE
 COMP. FENIX & SCISSON INC:   COMPANY
 WELL.    NPR-3 #51 S -34:   WELL
 FLD .             TEAPOT:   FIELD
 LOC .      S34 T39N R78W:   LOCATION
 CNTY.            NATRONA:   COUNTY
 STAT.            WYOMING:   STATE
 CTRY. UNITED STATES OF AMERICA:   COUNTRY
 SRVC.      Dresser Atlas:   SERVICE COMPANY
 DATE.        20-MAR-1977:   LOGDATE
 API .       490251031600:   API NUMBER
~CURVE INFORMATION
#MNEM.UNIT       API CODE    CURVE DESCRIPTION
#----------   ------------   ------------------------------
 DEPT.F                  :   
 CALD.IN     45 280 60 00:   CALIPER FROM DENSITY LOG
 GRD .GAPI   45 310 01 00:   GAMMA RAY FROM DENSITY LOG
 CORR.G/C3   45 356 01 00:   DENSITY CORRECTION
 DPHI.DEC    45 890 12 00:   DENSITY POROSITY SANDSTONE
 RHOB.G/C3   45 350 01 00:   BULK DENSITY
 SPR .MV     07 010 01 00:   SPONTANEOUS POTENTIAL
 ILD .OHMM   07 120 46 00:   INDUCTION LOG DEEP
 ILM .OHMM   07 120 44 00:   INDUCTION LOG MEDIUM
 SFL .OHMM   07 220 01 00:   SHALLOW FOCUSED LOG RESISTIVITY
~PARAMETER INFORMATION
#MNEM.UNIT          VALUE    DESCRIPTION
#----------   ------------   ------------------------------
 PD  .                 GL:   PERMANENT DATUM
 EPD .F              5065:   ELEVATION PERMANENT DATUM
 LMF .                 KB:   LOG MEASURED FROM
 DAPD.F                 4:   FEET ABOVE PERMANENT DATUM
 DMF .                 KB:   DRILLING MEASURED FROM
 EKB .F              5069:   KELLING BUSHING
 EGL .F              5065:   GROUND LEVEL
 DATE.        20-MAR-1977:   RUN DATE
 RUN .                  1:   RUN NUMBER
 DD  .F               735:   DEPTH DRILLER
 DL  .F               731:   DEPTH LOGGER
 BLI .F               729:   BOTTOM LOG INTERVAL
 TLI .F                42:   TOP LOG INTERVAL
 CS  .IN            8.625:   CASING SIZE
 CBD .F                40:   CASING BOTTOM DRILLER
 CBL .F                42:   CASING BOTTOM LOGGER
 BS  .IN            7.875:   BIT SIZE
 BSD .F               735:   BIT SIZE AT DEPTH
 DFT .           CHEM GEL:   DRILLING FLUID TYPE
 DFD .                9.0:   DRILLING FLUID DENSITY
 DFV .                 38:   DRILLING FLUID VISCOSITY
 DFPH.                8.5:   DRILLING FLUID PH
 DFL .                 72:   DRILLING FLUID LOSS
 MSS .           FLOWLINE:   MUD SAMPLE SOURCE
 RMS .OHMM             .4:   RESISTIVITY MUD SAMPLE
 MST .F                51:   MUD SAMPLE TEMPERATURE
 RMF .OHMM            .72:   RESISTIVITY MUD FILTRATE SAMPLE
 MFST.F                48:   MUD FILTRATE SAMPLE TEMPERATURE
 RMC .OHMM           1.16:   RESISTIVITY MUD CAKE
 MCST.F                48:   MUD CAKE SAMPLE TEMPERATURE
 MFSS.               MEAS:   MUD FILTRATE SAMPLE SOURCE
 MCSS.               MEAS:   MUD CAKE SAMPLE SOURCE
 RMB .OHMM            .31:   RESISTIVITY MUD AT BHT
 BHT .F                66:   BOTTOM HOLE TEMPERATURE
 TCS .HRS            0300:   TIME CURCULATED STOPPED
 MRT .F                66:   MAXIMUM RECORDED TEMPERATURE
 LUN .               6145:   LOGGING UNIT NUMBER
 LUL .              GLTTE:   LOGGING UNIT LOCATION
 ENGI.              RANCK:   RECORDING ENGINEER
 WITN.              BURKE:   WITNESSED BY
 CLNT.            A2DTECH:   CLIENT CODE
 ORIG.           5" PRINT:   ORIGIN OF DATA
 UWI .       490251031600:   UNIQUE WELL ID
 DICO. A2D Technologies, Inc.:   DIGITIZING COMPANY
~OTHER INFORMATION
~A   DEPT     CALD        GRD       CORR       DPHI       RHOB        SPR        ILD        ILM        SFL   
# ...
  395.0000     8.1960   102.3452     0.0300     0.1023     2.4774   -52.5223     7.3225     8.6095     9.8833
  395.5000     8.1977   102.5091     0.0271     0.1062     2.4677   -52.5089     7.2756     8.5552     9.8888
  396.0000     8.1993   101.9317     0.0273     0.1088     2.4662   -52.7939     7.2791     8.5594     9.7582
  396.5000     8.2010   100.9113     0.0305     0.1080     2.4858   -53.0790     7.2324     8.5034     9.6948
  397.0000     8.2026    98.6920     0.0306     0.1029     2.4911   -53.2149     7.1860     8.4488     9.6333
  397.5000     8.2043    98.2638     0.0278     0.1031     2.4859   -53.3507     7.1896     8.3946     9.5074
  398.0000     8.2059    97.8307     0.0280     0.1033     2.4702   -53.4866     7.1930     8.3997     9.5127
  398.5000     8.2225    97.2581     0.0296     0.0996     2.4912   -53.6224     7.1469     8.4038     9.5179
  399.0000     8.2242    96.3821     0.0313     0.1011     2.4973   -53.7582     7.1010     8.4079     9.5232
  399.5000     8.2258    94.3121     0.0315     0.1065     2.4763   -53.8940     7.0555     8.4704     9.5947
  400.0000     8.2271    93.8247     0.0286     0.1119     2.4712   -54.0299     7.0589     8.5928    10.0764
  400.5000     8.2173    94.1222     0.0182     0.1085     2.4761   -53.7119     7.0641     8.6579     8.8390
  401.0000     8.2082    93.3135     0.0229     0.1037     2.4810   -53.8418     7.0685     8.9067     8.6609
  401.5000     8.1992    92.2836     0.0261     0.0995     2.4886   -53.8224     7.0230     8.9122     8.9722
  402.0000     8.1901    95.7315     0.0262     0.0964     2.4939   -53.8030     7.0285     8.9797     9.4231
  402.5000     8.1811    96.6420     0.0264     0.0937     2.4970   -53.7836     6.9833     8.9853     9.7605
  403.0000     8.1788    95.1645     0.0280     0.0925     2.4986   -53.7642     6.9887     8.9910    10.2510
  403.5000     8.1812    91.5974     0.0282     0.0916     2.5009   -53.7448     6.9437     8.9331    10.6181
  404.0000     8.1832    94.2989     0.0298     0.0898     2.5025   -53.8746     6.8526     8.9401     9.7768
  404.5000     8.1702    96.7019     0.0300     0.0882     2.5041   -54.0045     6.7636     8.8825     8.5762
  405.0000     8.1722    99.5527     0.0301     0.0918     2.5056   -54.4328     6.7679     8.8267     8.0057
  405.5000     8.1741   103.8299     0.0303     0.1020     2.5072   -54.5627     6.7721     8.7713     8.3511
  406.0000     8.1606   107.9462     0.0259     0.1059     2.4960   -54.8418     6.7763     8.7781     8.7708
  406.5000     8.1631   110.2657     0.0245     0.1052     2.4841   -54.8224     6.8276     8.8446     9.2756
  407.0000     8.1496   111.8945     0.0247     0.0950     2.4811   -54.9522     6.8319     8.9116     9.6745
  407.5000     8.1520   112.7811     0.0279     0.0893     2.4985   -55.0821     6.8361     8.9792     9.6130
  408.0000     8.1385   113.2234     0.0310     0.0869     2.5061   -55.2119     6.8879     8.9848     9.3556
  408.5000     8.1410   108.2180     0.0312     0.0856     2.5099   -55.3418     6.9400     8.9904     8.8563
  409.0000     8.1429   106.1170     0.0298     0.0844     2.5107   -55.3224     6.9926     8.9960     8.3258
  409.5000     8.1449   104.6104     0.0300     0.0832     2.5108   -55.3030     6.9969     8.7557     8.1017
  410.0000     8.1468   105.3716     0.0301     0.0823     2.5124   -55.1343     7.0499     8.5797     8.3930
  410.5000     8.1637   100.6142     0.0287     0.0810     2.5147   -55.1149     7.1033     8.6460     9.1253
  411.0000     8.1657    99.8829     0.0289     0.0801     2.5170   -55.2448     7.1570     8.8330    10.0599
  411.5000     8.1677    99.0024     0.0291     0.0792     2.5186   -55.2254     7.1615     9.0241    10.1354
  412.0000     8.1692    98.4166     0.0307     0.0786     2.5202   -55.2060     7.1660     9.0297     9.8640
  412.5000     8.1712    97.9838     0.0324     0.0779     2.5218   -55.3358     7.1199     9.0354     9.4678
  413.0000     8.1581   102.1816     0.0326     0.0779     2.5241   -55.3164     7.1254     9.0410     9.1506
  413.5000     8.1601   103.8384     0.0327     0.0776     2.5249   -55.2970     7.1299     8.8606     9.0913
  414.0000     8.1620   103.1071     0.0329     0.0755     2.5250   -55.4269     7.1343     8.7428     8.9105
  414.5000     8.1640   101.9281     0.0345     0.0736     2.5266   -55.5567     7.1387     8.5106     8.7928
  415.0000     8.1659   101.7900     0.0362     0.0727     2.5281   -55.5373     7.1432     8.2833     8.6168
  415.5000     8.1526   101.9580     0.0378     0.0721     2.5297   -55.5179     7.0972     8.1732     8.6216
  416.0000     8.1549   102.2715     0.0365     0.0718     2.5298   -55.6478     7.1028     8.1218     8.6864
  416.5000     8.1415   101.6895     0.0366     0.0717     2.5291   -55.6284     7.1072     8.1282     9.0599
  417.0000     8.1438   101.2529     0.0337     0.0723     2.5284   -55.7582     7.1116     8.1332     9.5152
  417.5000     8.1459   104.4925     0.0324     0.0726     2.5285   -56.0373     7.1161     8.1949     9.7203
  418.0000     8.1477   107.5801     0.0295     0.0732     2.5293   -56.3164     7.1205     8.2000     9.6586
  418.5000     8.1497   107.8657     0.0282     0.0735     2.5294   -56.8940     7.1249     8.2051     9.6640
  419.0000     8.1516   105.5760     0.0253     0.0743     2.5295   -57.1731     7.1294     8.3247     9.6013
  419.5000     8.1536   103.5666     0.0255     0.0833     2.5191   -57.4522     7.0835     8.3299     9.3454
  420.0000     8.1555   104.7960     0.0271     0.0896     2.5079   -57.7313     7.0890     8.3930     9.2207
  420.5000     8.1575   105.3881     0.0288     0.0893     2.5005   -58.0104     7.0934     8.3983     9.1622
  421.0000     8.1594   103.4149     0.0305     0.0874     2.4998   -58.1403     7.0979     8.4035     9.1685
  421.5000     8.1614   101.9847     0.0321     0.0841     2.5074   -58.1209     7.1023     8.3494     9.1736
  422.0000     8.1633   103.2060     0.0353     0.0790     2.5157   -58.4000     7.0566     8.3559     9.1154
  422.5000     8.1654   102.4428     0.0384     0.0712     2.5263   -58.3806     7.0621     8.3021     8.9937
  423.0000     8.1672   102.0297     0.0401     0.0681     2.5323   -58.3612     7.0167     8.2500     8.8750
  423.5000     8.1694   103.4060     0.0417     0.0669     2.5369   -58.3418     6.9737     8.1995     8.7577
  424.0000     8.1713   104.9035     0.0434     0.0663     2.5385   -58.3224     6.8822     8.2046     8.7638
  424.5000     8.1731   105.8080     0.0435     0.0663     2.5386   -58.3030     6.7450     8.2097     8.7082
  425.0000     8.1751   106.4179     0.0437     0.0668     2.5371   -58.2836     6.6554     8.1581     8.7130
  425.5000     8.1770   105.9851     0.0438     0.0689     2.5350   -58.2642     6.5690     8.0509     8.7178
  426.0000     8.1790   105.5523     0.0440     0.0734     2.5268   -58.2448     6.4817     7.9451     8.7227
  426.5000     8.1959   105.1196     0.0426     0.0782     2.5209   -58.2254     6.3976     7.8395     8.6075
  427.0000     8.1978   105.1345     0.0411     0.0826     2.5142   -58.0567     6.2268     7.7915     8.4926
  427.5000     8.1998   104.7017     0.0369     0.0868     2.5083   -58.0373     6.1027     7.6891     8.3816
  428.0000     8.1868   103.5227     0.0325     0.0889     2.5023   -58.0179     5.9811     7.4321     8.2698
  428.5000     8.1887   104.4332     0.0297     0.0913     2.4949   -57.9985     5.8214     7.2335     8.0483
  429.0000     8.1907   105.7915     0.0283     0.0934     2.4927   -57.8298     5.6660     6.8480     7.6198
  429.5000     8.1926   106.7019     0.0301     0.0936     2.4913   -57.8104     5.4767     6.8039     7.0161
  430.0000     8.1796   105.9706     0.0316     0.0957     2.4899   -57.6418     5.3675     6.8092     6.5958
  430.5000     8.1816   105.6647     0.0302     0.0987     2.4870   -57.6224     5.2971     6.9085     6.5530
  431.0000     8.1835   107.4931     0.0274     0.0969     2.4863   -57.4537     5.3004     7.0092     6.6952
