~VERSION INFORMATION
 VERS.                2.0:   CWLS LOG ASCII STANDARD - VERSION 2.0
 WRAP.                 NO:   ONE LINE PER DEPTH STEP
~WELL INFORMATION
#MNEM.UNIT      DATA TYPE    INFORMATION
#----------   ------------   ------------------------------
 STRT.F            1.0000:   START DEPTH
 STOP.F          755.5000:   STOP DEPTH
 STEP.F            0.5000:   STEP LENGTH
 NULL.          -999.2500:   NO VALUE
 COMP. FENIX & SCISSON INC:   COMPANY
 WELL.       25-SX #25-14:   WELL
 FLD .        TEAPOT DOME:   FIELD
 LOC .      S14 T38N R78W:   LOCATION
 CNTY.            NATRONA:   COUNTY
 STAT.            WYOMING:   STATE
 CTRY. UNITED STATES OF AMERICA:   COUNTRY
 SRVC.           BIRDWELL:   SERVICE COMPANY
 DATE.        29-DEC-1978:   LOGDATE
 API .       490251076000:   API NUMBER
~CURVE INFORMATION
#MNEM.UNIT       API CODE    CURVE DESCRIPTION
#----------   ------------   ------------------------------
 DEPT.F                  :   
 SPR .MV     05 010 01 00:   SPONTANEOUS POTENTIAL FROM RES.
 SN  .OHMM   05 040 16 00:   SHORT NORMAL 16"
 IL  .OHMM   05 120 00 00:   INDUCTION LOG
 CALD.IN     45 280 60 00:   CALIPER
 GRD .GAPI   45 310 01 00:   GAMMA RAY FROM DENSITY LOG
 CORR.G/C3   45 356 01 00:   DENSITY CORRECTION
 DPHI.DEC    45 890 12 00:   DENSITY POROSITY SANDSTONE
 RHOB.G/C3   45 350 01 00:   BULK DENSITY
~PARAMETER INFORMATION
#MNEM.UNIT          VALUE    DESCRIPTION
#----------   ------------   ------------------------------
 PD  .                 GL:   PERMANENT DATUM
 EPD .F              5214:   ELEVATION PERMANENT DATUM
 LMF .                 KB:   LOG MEASURED FROM
 DAPD.F                 4:   FEET ABOVE PERMANENT DATUM
 DMF .                 KB:   DRILLING MEASURED FROM
 EKB .F              5218:   KELLING BUSHING
 EGL .F              5214:   GROUND LEVEL
 DATE.           12-29-79:   RUN DATE
 RUN .                  1:   RUN NUMBER
 DD  .F               765:   DEPTH DRILLER
 DL  .F               747:   DEPTH LOGGER
 BLI .F               740:   BOTTOM LOG INTERVAL
 TLI .F                40:   TOP LOG INTERVAL
 CS  .IN            8.625:   CASING SIZE
 CBD .F                40:   CASING BOTTOM DRILLER
 CBL .F                40:   CASING BOTTOM LOGGER
 BS  .IN            7.875:   BIT SIZE
 BSD .F               765:   BIT SIZE AT DEPTH
 DFT .                KCL:   DRILLING FLUID TYPE
 DFD .                8.8:   DRILLING FLUID DENSITY
 DFV .                 48:   DRILLING FLUID VISCOSITY
 DFPH.                9.2:   DRILLING FLUID PH
 MSS .           FLOWLINE:   MUD SAMPLE SOURCE
 RMS .OHMM            .17:   RESISTIVITY MUD SAMPLE
 MST .F                56:   MUD SAMPLE TEMPERATURE
 RMF .OHMM            .15:   RESISTIVITY MUD FILTRATE SAMPLE
 MFST.F                56:   MUD FILTRATE SAMPLE TEMPERATURE
 RMC .OHMM            .23:   RESISTIVITY MUD CAKE
 MCST.F                64:   MUD CAKE SAMPLE TEMPERATURE
 MFSS.           MEASURED:   MUD FILTRATE SAMPLE SOURCE
 MCSS.           MEASURED:   MUD CAKE SAMPLE SOURCE
 RMB .OHMM            .16:   RESISTIVITY MUD AT BHT
 BHT .F                59:   BOTTOM HOLE TEMPERATURE
 TCS .HRS              12:   TIME CURCULATED STOPPED
 MRT .F                59:   MAXIMUM RECORDED TEMPERATURE
 LUN .               2958:   LOGGING UNIT NUMBER
 LUL .             CASPER:   LOGGING UNIT LOCATION
 ENGI.            ROLLINS:   RECORDING ENGINEER
 WITN.         RICHARDSON:   WITNESSED BY
 CLNT.            A2DTECH:   CLIENT CODE
 ORIG.           5" PRINT:   ORIGIN OF DATA
 UWI .       490251076000:   UNIQUE WELL ID
 DICO. A2D Technologies, Inc.:   DIGITIZING COMPANY
~OTHER INFORMATION
~A    DEPT     SPR         SN         IL       CALD         GRD      CORR       DPHI       RHOB   
# ...
  649.0000   -63.7150     8.4040     9.0170     7.0560    87.5120     0.0660     0.1780     2.3750
  649.5000   -62.4830     8.5430     9.2890     7.0560    85.6040     0.0350     0.1880     2.3660
  650.0000   -61.8610     8.6850     9.5600     7.0550    82.7780     0.0140     0.1970     2.3530
  650.5000   -61.4160     8.8300     9.8310     7.0500    79.9610     0.0040     0.2090     2.3410
  651.0000   -61.4390     8.9920    10.1030     7.0340    77.1500    -0.0020     0.2250     2.3230
  651.5000   -61.4500     9.2860    10.3320     7.0180    74.6810     0.0030     0.2360     2.3060
  652.0000   -61.4600     9.4370    10.5450     7.0020    74.3880     0.0070     0.2400     2.2890
  652.5000   -61.4710     9.7560    10.7570     6.9870    74.0830     0.0060     0.2330     2.2760
  653.0000   -61.4820     9.9240    10.9010     6.9730    72.7760     0.0040     0.2150     2.2850
  653.5000   -61.4930     9.9240    10.6310     6.9720    70.8430     0.0030     0.1920     2.3230
  654.0000   -61.5040     9.9010    10.3430     6.9710    69.8650     0.0050     0.1690     2.3650
  654.5000   -61.5150     9.8310     9.9810     6.9700    68.8450     0.0070     0.1430     2.4100
  655.0000   -61.5270     9.7560     9.6190     6.9690    67.8370     0.0090     0.1030     2.4680
  655.5000   -61.5380     9.3340     9.2570     6.9680    66.8230     0.0080     0.0640     2.6120
  656.0000   -61.5490     9.0580     8.8950     6.9660    65.9930     0.0080     0.0570     2.6260
  656.5000   -61.5600     8.7810     8.5330     6.9650    68.7030     0.0070     0.0700     2.5850
  657.0000   -61.5710     8.5410     8.1560     6.9640    72.6510     0.0120     0.0840     2.5380
  657.5000   -61.5820     8.3310     8.0770     6.9630    74.6500     0.0180     0.0930     2.4880
  658.0000   -61.5940     8.1380     7.9740     6.9620    77.3880     0.0210     0.1050     2.4380
  658.5000   -61.6050     8.0300     7.8360     6.9610    80.1390     0.0250     0.1330     2.4070
  659.0000   -61.6180     7.9220     7.6830     6.9590    81.3380     0.0280     0.1490     2.4120
  659.5000   -61.6650     7.8140     7.6080     6.9580    81.4420     0.0290     0.1510     2.4160
  660.0000   -61.8090     7.7060     7.5310     6.9570    81.5100     0.0290     0.1540     2.4200
  660.5000   -61.9480     7.5980     7.4530     6.9560    82.4290     0.0290     0.1600     2.4220
  661.0000   -62.0870     7.4910     7.3760     6.9550    85.8550     0.0290     0.1630     2.4210
  661.5000   -62.2280     7.4180     7.2990     6.9530    87.2320     0.0290     0.1650     2.4180
  662.0000   -62.3660     7.4000     7.2330     6.9520    87.3640     0.0290     0.1680     2.4120
  662.5000   -62.8480     7.3830     7.2140     6.9510    87.4890     0.0290     0.1690     2.4050
  663.0000   -63.6070     7.3620     7.1940     6.9500    87.5560     0.0290     0.1680     2.3970
  663.5000   -63.9640     7.3770     7.1750     6.9490    87.4250     0.0290     0.1650     2.3900
  664.0000   -64.3120     7.3950     7.1550     6.9470    87.2960     0.0290     0.1630     2.3910
  664.5000   -64.6610     7.4130     7.1360     6.9460    87.1670     0.0300     0.1630     2.3950
  665.0000   -65.0110     7.4320     7.1160     6.9450    87.0240     0.0310     0.1640     2.4000
  665.5000   -65.3620     7.4500     7.0960     6.9440    86.5650     0.0350     0.1670     2.3970
  666.0000   -65.7120     7.4690     7.0770     6.9430    85.0940     0.0390     0.1720     2.3930
  666.5000   -66.0610     7.4870     7.0570     6.9410    84.8190     0.0350     0.1700     2.3890
  667.0000   -66.4100     7.5060     7.0540     6.9400    83.5170     0.0310     0.1670     2.3880
  667.5000   -66.6580     7.5240     7.0540     6.9390    82.1790     0.0290     0.1640     2.3950
  668.0000   -66.7190     7.5420     7.0540     6.9380    83.4840     0.0290     0.1610     2.4030
  668.5000   -66.7820     7.5520     7.0540     6.9370    85.0270     0.0290     0.1580     2.4100
  669.0000   -66.8820     7.5470     7.0540     6.9350    84.9760     0.0290     0.1510     2.4130
  669.5000   -67.1490     7.5430     7.0540     6.9340    84.9660     0.0300     0.1430     2.4160
  670.0000   -67.4170     7.5390     7.0540     6.9270    84.9690     0.0320     0.1400     2.4190
  670.5000   -67.7360     7.5350     7.0540     6.9120    84.9730     0.0330     0.1370     2.4300
  671.0000   -68.2570     7.5310     7.0540     6.8970    85.0320     0.0350     0.1350     2.4450
  671.5000   -68.7830     7.5270     7.0540     6.8960    85.2790     0.0340     0.1360     2.4540
  672.0000   -69.3100     7.5230     7.0540     6.9010    85.5230     0.0330     0.1370     2.4550
  672.5000   -69.8260     7.5190     7.0540     6.9050    85.7840     0.0310     0.1380     2.4530
  673.0000   -70.0160     7.5150     7.0540     6.9100    86.1590     0.0270     0.1380     2.4490
  673.5000   -70.1920     7.5120     7.0540     6.9150    87.2930     0.0230     0.1380     2.4470
  674.0000   -70.3700     7.5080     7.0540     6.9190    89.0520     0.0240     0.1380     2.4480
  674.5000   -70.4580     7.5040     7.0540     6.9240    89.5560     0.0260     0.1380     2.4490
  675.0000   -70.4890     7.5000     7.0540     6.9290    89.7950     0.0270     0.1390     2.4490
  675.5000   -70.5200     7.4960     7.0540     6.9340    90.0500     0.0250     0.1410     2.4450
  676.0000   -70.5500     7.4920     7.0540     6.9380    90.3050     0.0240     0.1440     2.4400
  676.5000   -70.5810     7.4870     7.0540     6.9430    90.5550     0.0240     0.1480     2.4360
  677.0000   -70.6110     7.4710     7.0540     6.9480    90.7730     0.0270     0.1520     2.4330
  677.5000   -70.6420     7.4560     7.0540     6.9530    89.5320     0.0290     0.1530     2.4310
  678.0000   -70.6720     7.4400     7.0540     6.9570    87.2210     0.0310     0.1520     2.4280
  678.5000   -70.7020     7.4250     7.0540     6.9620    85.4880     0.0330     0.1520     2.4240
  679.0000   -70.7330     7.4090     7.0340     6.9670    85.1600     0.0340     0.1510     2.4220
  679.5000   -70.7630     7.3940     7.0060     6.9710    83.3760     0.0310     0.1500     2.4230
  680.0000   -70.7940     7.3780     6.9790     6.9690    82.0470     0.0290     0.1490     2.4250
  680.5000   -70.8240     7.3620     6.9510     6.9530    81.7670     0.0300     0.1480     2.4250
  681.0000   -70.8780     7.3650     6.9240     6.9370    81.8220     0.0310     0.1480     2.4240
  681.5000   -70.9660     7.3690     6.8960     6.9210    81.8900     0.0290     0.1470     2.4240
  682.0000   -71.0540     7.3730     6.8680     6.9060    81.8930     0.0270     0.1470     2.4270
  682.5000   -71.1400     7.3770     6.8410     6.8900    81.5690     0.0250     0.1450     2.4290
  683.0000   -71.2220     7.3810     6.8130     6.8750    81.2480     0.0270     0.1420     2.4290
  683.5000   -71.4300     7.3850     6.7850     6.8580    80.9260     0.0280     0.1400     2.4280
  684.0000   -71.6530     7.3890     6.7580     6.8630    80.7490     0.0290     0.1380     2.4280
  684.5000   -72.0330     7.3930     6.7300     6.8840    81.4240     0.0290     0.1360     2.4290
  685.0000   -72.4090     7.3970     6.7020     6.9060    83.4190     0.0280     0.1340     2.4320
  685.5000   -72.7700     7.4010     6.7020     6.9280    85.4170     0.0280     0.1320     2.4380
  686.0000   -73.3580     7.4050     6.7020     6.9300    87.0270     0.0280     0.1310     2.4410
  686.5000   -73.9440     7.4090     6.7020     6.9260    88.0140     0.0280     0.1310     2.4440
  687.0000   -74.3680     7.4130     6.7020     6.9210    88.4920     0.0270     0.1300     2.4470
  687.5000   -74.7430     7.4170     6.7020     6.9170    87.9000     0.0270     0.1290     2.4520
  688.0000   -75.1190     7.4210     6.7020     6.9120    87.0420     0.0270     0.1280     2.4580
  688.5000   -75.4960     7.4250     6.7020     6.9080    87.9000     0.0240     0.1280     2.4640
  689.0000   -75.8710     7.4290     6.7020     6.9030    88.8610     0.0210     0.1270     2.4680
