~VERSION INFORMATION
 VERS.                2.0:   CWLS LOG ASCII STANDARD - VERSION 2.0
 WRAP.                 NO:   ONE LINE PER DEPTH STEP
~WELL INFORMATION
#MNEM.UNIT      DATA TYPE    INFORMATION
#----------   ------------   ------------------------------
 STRT.F            0.0000:   START DEPTH
 STOP.F          545.0000:   STOP DEPTH
 STEP.F            0.1000:   STEP LENGTH
 NULL.          -999.2500:   NO VALUE
 COMP.       F D SERV INC:   COMPANY
 WELL. NAVAL PETROLEUM RESERVE 3 SX-3 #88-5-3:   WELL
 FLD .             TEAPOT:   FIELD
 LOC .       S3 T38N R78W:   LOCATION
 CNTY.            NATRONA:   COUNTY
 STAT.            WYOMING:   STATE
 CTRY. UNITED STATES OF AMERICA:   COUNTRY
 SRVC.     Atlas Wireline:   SERVICE COMPANY
 DATE.        14-OCT-1992:   LOGDATE
 API .       490252255700:   API NUMBER
~CURVE INFORMATION
#MNEM.UNIT       API CODE    CURVE DESCRIPTION
#----------   ------------   ------------------------------
 DEPT.F                  :   
 GRR .GAPI   07 310 01 00:   GAMMA RAY
 RILD.OHMM   07 120 46 00:   INDUCTION LOG DEEP RESISTIVITY
 RILM.OHMM   07 120 44 00:   INDUCTION LOG MEDIUM RESISTIVITY
~PARAMETER INFORMATION
#MNEM.UNIT          VALUE    DESCRIPTION
#----------   ------------   ------------------------------
 PD  .                 GL:   PERMANENT DATUM
 EPD .F              5152:   ELEVATION PERMANENT DATUM
 LMF .                 KB:   LOG MEASURED FROM
 DAPD.F                10:   FEET ABOVE PERMANENT DATUM
 DMF .                 KB:   DRILLING MEASURED FROM
 EKB .F              5162:   KELLING BUSHING
 EDF .F              5161:   DRILLING FLOOR
 EGL .F              5152:   GROUND LEVEL
 DATE.        14-OCT-1992:   RUN DATE
 RUN .                  1:   RUN NUMBER
 DD  .F               555:   DEPTH DRILLER
 DL  .F               552:   DEPTH LOGGER
 BLI .F               546:   BOTTOM LOG INTERVAL
 CS  .IN            8.625:   CASING SIZE
 CBD .F                85:   CASING BOTTOM DRILLER
 CBL .F                96:   CASING BOTTOM LOGGER
 BS  .IN            7.875:   BIT SIZE
 BSD .F               555:   BIT SIZE AT DEPTH
 DFT .           AIR FOAM:   DRILLING FLUID TYPE
 BHT .F                72:   BOTTOM HOLE TEMPERATURE
 TCS .HRS               2:   TIME CURCULATED STOPPED
 MRT .F                72:   MAXIMUM RECORDED TEMPERATURE
 LUN .            HL-6274:   LOGGING UNIT NUMBER
 LUL .             CASPER:   LOGGING UNIT LOCATION
 ENGI.             RAUTIO:   RECORDING ENGINEER
 WITN.        GARY STRONG:   WITNESSED BY
 CLNT.            A2DTECH:   CLIENT CODE
 ORIG.           5" PRINT:   ORIGIN OF DATA
 UWI .       490252255700:   UNIQUE WELL ID
 DICO. A2D Technologies, Inc.:   DIGITIZING COMPANY
~OTHER INFORMATION
~A    DEPT      GRR      RILD       RILM   
# ...
  200.2000   126.9057     8.5678     8.5816
  200.3000   124.9230     8.5675     8.5649
  200.4000   124.5157     8.5672     8.5482
  200.5000   124.1672     8.5670     8.5315
  200.6000   123.9155     8.5667     8.5149
  200.7000   123.7195     8.5544     8.5090
  200.8000   123.7125     8.5072     8.5090
  200.9000   123.4179     8.5069     8.5090
  201.0000   123.2092     8.5067     8.5090
  201.1000   123.1165     8.4737     8.5090
  201.2000   123.1159     8.4476     8.4652
  201.3000   123.0548     8.4336     8.4504
  201.4000   122.8144     8.3888     8.4255
  201.5000   122.8137     8.3886     8.3921
  201.6000   122.8132     8.3449     8.3921
  201.7000   122.8126     8.2964     8.3921
  201.8000   122.8120     8.2726     8.3466
  201.9000   122.8114     8.2724     8.3342
  202.0000   122.8108     8.2722     8.3074
  202.1000   122.8101     8.2719     8.2767
  202.2000   122.8096     8.2717     8.2767
  202.3000   122.8090     8.2715     8.2767
  202.4000   122.8084     8.2712     8.2767
  202.5000   122.8779     8.2710     8.2387
  202.6000   123.1492     8.2708     8.2197
  202.7000   123.7074     8.2706     8.2197
  202.8000   125.0425     8.2703     8.2091
  202.9000   127.2420     8.2701     8.1630
  203.0000   129.3795     8.2417     8.1630
  203.1000   130.8366     8.2126     8.1630
  203.2000   131.5636     8.2027     8.1280
  203.3000   132.1122     8.1550     8.0742
  203.4000   132.7939     8.0990     8.0203
  203.5000   133.7248     8.0605     7.9665
  203.6000   134.5995     8.0136     7.9127
  203.7000   135.2723     7.9670     7.8629
  203.8000   135.7130     7.9097     7.8173
  203.9000   135.7123     7.8203     7.7720
  204.0000   134.7828     7.7684     7.7234
  204.1000   133.0462     7.7297     7.6007
  204.2000   131.1709     7.6553     7.5327
  204.3000   129.4972     7.5667     7.4657
  204.4000   128.0255     7.4912     7.3794
  204.5000   126.6997     7.4439     7.2940
  204.6000   125.7510     7.3488     7.2070
  204.7000   124.9340     7.2353     7.1264
  204.8000   124.1802     7.1391     7.0125
  204.9000   123.5157     7.0566     6.9382
  205.0000   123.0931     6.9877     6.8822
  205.1000   123.0925     6.9470     6.8026
  205.2000   123.3337     6.9039     6.7239
  205.3000   123.5842     6.8295     6.6327
  205.4000   123.9780     6.7505     6.6010
  205.5000   124.6676     6.6725     6.5627
  205.6000   125.6713     6.5953     6.5415
  205.7000   126.6925     6.5251     6.5415
  205.8000   127.4319     6.4860     6.5391
  205.9000   127.7896     6.4494     6.4964
  206.0000   128.1882     6.4119     6.4636
  206.1000   128.4919     6.3963     6.4516
  206.2000   128.4913     6.3962     6.4516
  206.3000   128.4907     6.3960     6.4516
  206.4000   128.4900     6.3958     6.4558
  206.5000   128.4895     6.3956     6.4964
  206.6000   128.6418     6.3955     6.4964
  206.7000   128.7886     6.3953     6.5241
  206.8000   128.8425     6.3951     6.5415
  206.9000   129.0877     6.3949     6.5549
  207.0000   129.0870     6.3947     6.5870
  207.1000   128.8795     6.3945     6.5870
  207.2000   128.6278     6.4262     6.6242
  207.3000   128.3762     6.4386     6.6327
  207.4000   128.1245     6.4384     6.6783
  207.5000   127.8829     6.4487     6.7251
  207.6000   127.8822     6.4860     6.7332
  207.7000   127.8817     6.5276     6.7718
  207.8000   127.8811     6.5274     6.7718
  207.9000   127.9938     6.5273     6.8044
  208.0000   128.2442     6.5464     6.8189
  208.1000   128.4799     6.5843     6.8543
  208.2000   128.4792     6.6177     6.9139
  208.3000   128.4787     6.6175     6.9165
  208.4000   128.4781     6.6532     6.9619
  208.5000   128.5956     6.6918     6.9974
  208.6000   128.7772     6.7092     7.0382
  208.7000   128.7766     6.7228     7.0792
  208.8000   128.7759     6.7617     7.1204
  208.9000   128.9968     6.8021     7.1619
  209.0000   129.0751     6.8403     7.2070
  209.1000   129.1974     6.8799     7.2070
  209.2000   129.4478     6.9198     7.2686
  209.3000   129.6739     6.9599     7.3074
  209.4000   129.6732     7.0084     7.3373
  209.5000   129.8989     7.0896     7.4093
  209.6000   130.1494     7.1383     7.4093
  209.7000   130.2721     7.1720     7.4933
  209.8000   130.3500     7.2136     7.5125
  209.9000   130.5712     7.2553     7.5383
  210.0000   130.5705     7.3075     7.5822
  210.1000   130.3389     7.3906     7.6172
  210.2000   130.2691     7.4397     7.6179
  210.3000   130.1359     7.4765     7.6701
  210.4000   129.8843     7.5488     7.6701
  210.5000   129.5646     7.6159     7.6985
  210.6000   128.7651     7.6600     7.7234
  210.7000   128.0571     7.7081     7.7348
  210.8000   127.6765     7.8076     7.7770
  210.9000   127.4248     7.8074     7.7770
  211.0000   127.2613     7.8072     7.7770
  211.1000   127.2218     7.8300     7.8080
  211.2000   126.9597     7.8754     7.8310
  211.3000   126.9592     7.9154     7.8310
  211.4000   126.9586     7.9151     7.8310
  211.5000   126.9580     7.9149     7.8310
  211.6000   126.9574     7.9147     7.8310
  211.7000   126.9131     7.9145     7.8310
  211.8000   126.6558     7.9142     7.8310
  211.9000   126.6553     7.9140     7.8310
  212.0000   126.4585     7.9138     7.8310
  212.1000   126.3538     7.9582     7.8310
  212.2000   126.3532     7.9683     7.8310
  212.3000   126.3526     7.9952     7.8310
  212.4000   126.3520     8.0232     7.8578
  212.5000   126.6515     8.0230     7.8854
  212.6000   126.6511     8.0228     7.8854
  212.7000   126.6505     8.0782     7.8854
  212.8000   126.7524     8.0780     7.8854
  212.9000   127.0028     8.0488     7.8854
  213.0000   127.2493     8.0219     7.8854
  213.1000   127.2485     8.0216     7.8854
  213.2000   127.2480     8.0214     7.8854
  213.3000   127.2474     8.0212     7.8854
  213.4000   127.2468     8.0210     7.8854
  213.5000   127.1882     7.9902     7.8455
  213.6000   126.9365     7.9652     7.8310
  213.7000   126.6443     7.9523     7.8310
  213.8000   126.4333     7.9099     7.8310
  213.9000   126.0202     7.9096     7.8310
  214.0000   125.4054     7.9094     7.8310
  214.1000   124.5887     7.8773     7.7892
  214.2000   123.6112     7.8315     7.7441
  214.3000   123.0372     7.8001     7.7234
  214.4000   122.8212     7.7999     7.7234
  214.5000   122.5696     7.7996     7.7163
  214.6000   122.4348     7.7575     7.6701
  214.7000   122.4342     7.7454     7.6271
  214.8000   122.4336     7.7452     7.6172
  214.9000   122.4330     7.7293     7.5913
  215.0000   122.4324     7.6914     7.5647
  215.1000   122.6028     7.6911     7.5556
  215.2000   122.8532     7.6909     7.5125
  215.3000   123.1762     7.6563     7.5125
  215.4000   123.7009     7.6118     7.5125
  215.5000   124.5315     7.5846     7.5125
  215.6000   126.1061     7.5844     7.5125
  215.7000   127.6870     7.5840     7.5015
  215.8000   128.9397     7.5316     7.4580
  215.9000   129.7888     7.5315     7.4093
  216.0000   130.2903     7.5043     7.4093
  216.1000   130.8342     7.4791     7.4093
  216.2000   130.8336     7.4687     7.4093
  216.3000   130.8330     7.4253     7.3963
  216.4000   130.7011     7.3757     7.3534
  216.5000   130.4494     7.3392     7.3074
  216.6000   130.1649     7.2966     7.3074
  216.7000   129.6294     7.2347     7.2765
  216.8000   129.1596     7.1622     7.2344
  216.9000   128.6569     7.1206     7.1924
  217.0000   128.1542     7.0746     7.1507
  217.1000   127.6515     7.0019     7.1079
  217.2000   127.1110     6.9209     7.0285
  217.3000   126.3225     6.8409     6.9787
  217.4000   126.0825     6.7617     6.8913
  217.5000   125.6407     6.6880     6.7722
  217.6000   125.4198     6.6463     6.6550
  217.7000   125.4192     6.6105     6.5398
  217.8000   125.4186     6.5442     6.4071
  217.9000   125.4180     6.4685     6.3159
  218.0000   125.4174     6.3937     6.2295
  218.1000   125.2218     6.3197     6.1418
  218.2000   125.1159     6.2440     6.0443
  218.3000   125.1153     6.1059     5.9722
