~VERSION INFORMATION
 VERS.                2.0:   CWLS LOG ASCII STANDARD - VERSION 2.0
 WRAP.                 NO:   ONE LINE PER DEPTH STEP
~WELL INFORMATION
#MNEM.UNIT      DATA TYPE    INFORMATION
#----------   ------------   ------------------------------
 STRT.F            0.0000:   START DEPTH
 STOP.F         4535.0000:   STOP DEPTH
 STEP.F            0.5000:   STEP LENGTH
 NULL.          -999.2500:   NO VALUE
 COMP. LAWRENCE - ALLISON & ASSOCIATES:   COMPANY
 WELL.    NPR ##3 56-X-15:   WELL
 FLD .   TEAPOT NAVAL RES:   FIELD
 LOC .      S15 T38N R78W:   LOCATION
 CNTY.            NATRONA:   COUNTY
 STAT.            WYOMING:   STATE
 CTRY. UNITED STATES OF AMERICA:   COUNTRY
 SRVC.      Dresser Atlas:   SERVICE COMPANY
 DATE.        03-MAY-1984:   LOGDATE
 API .       490251095900:   API NUMBER
~CURVE INFORMATION
#MNEM.UNIT       API CODE    CURVE DESCRIPTION
#----------   ------------   ------------------------------
 DEPT.F                  :   
 CORR.G/C3   45 356 01 00:   DENSITY CORRECTION
 DEN .G/C3   45 350 01 00:   COMPENSATED BULK DENSTIY
 PORD.DEC    45 890 12 00:   POROSITY DENSITY SANDSTONE
 CNC .DEC    42 890 03 00:   NEUTRON POROSITY SANDSTONE
 GRR .GAPI   07 310 01 00:   GAMMA RAY
 CALR.IN     07 280 01 00:   CALIPER FROM RESISTIVITY
 SPR .MV     07 010 01 00:   SPONTANEOUS POTENTIAL
 RILD.OHMM   07 120 46 00:   INDUCTION LOG DEEP RESISTIVITY
 RILM.OHMM   07 120 44 00:   INDUCTION LOG MEDIUM RESISTIVITY
 RFOC.OHMM   07 220 04 00:   RESISTIVITY FOCUSED LOG
 AC  .US/F   60 520 00 00:   ACCOUSTIC
~PARAMETER INFORMATION
#MNEM.UNIT          VALUE    DESCRIPTION
#----------   ------------   ------------------------------
 PD  .                 GL:   PERMANENT DATUM
 EPD .F              5326:   ELEVATION PERMANENT DATUM
 LMF .                 KB:   LOG MEASURED FROM
 DAPD.F                12:   FEET ABOVE PERMANENT DATUM
 DMF .                 KB:   DRILLING MEASURED FROM
 EKB .F              5338:   KELLING BUSHING
 EDF .F              5337:   DRILLING FLOOR
 EGL .F              5326:   GROUND LEVEL
 DATE.        03-MAY-1984:   RUN DATE
 RUN .                  1:   RUN NUMBER
 DD  .F              4547:   DEPTH DRILLER
 DL  .F              4539:   DEPTH LOGGER
 BLI .F              4536:   BOTTOM LOG INTERVAL
 CS  .IN            8.625:   CASING SIZE
 CBD .F              1027:   CASING BOTTOM DRILLER
 CBL .F              1021:   CASING BOTTOM LOGGER
 BS  .IN            7.875:   BIT SIZE
 BSD .F              4547:   BIT SIZE AT DEPTH
 DFT .            KCL GEL:   DRILLING FLUID TYPE
 DFD .                9.1:   DRILLING FLUID DENSITY
 DFV .                 44:   DRILLING FLUID VISCOSITY
 DFPH.                  8:   DRILLING FLUID PH
 DFL .               14.5:   DRILLING FLUID LOSS
 MSS .           MUD TANK:   MUD SAMPLE SOURCE
 RMS .OHMM           0.56:   RESISTIVITY MUD SAMPLE
 MST .F                73:   MUD SAMPLE TEMPERATURE
 RMF .OHMM           0.42:   RESISTIVITY MUD FILTRATE SAMPLE
 MFST.F                73:   MUD FILTRATE SAMPLE TEMPERATURE
 RMC .OHMM           0.71:   RESISTIVITY MUD CAKE
 MCST.F                73:   MUD CAKE SAMPLE TEMPERATURE
 MFSS.               MEAS:   MUD FILTRATE SAMPLE SOURCE
 MCSS.               CALC:   MUD CAKE SAMPLE SOURCE
 RMB .OHMM           0.29:   RESISTIVITY MUD AT BHT
 BHT .F               141:   BOTTOM HOLE TEMPERATURE
 TCS .HRS             3.5:   TIME CURCULATED STOPPED
 MRT .F               125:   MAXIMUM RECORDED TEMPERATURE
 LUN .               6302:   LOGGING UNIT NUMBER
 LUL .               CODY:   LOGGING UNIT LOCATION
 ENGI.              GETTY:   RECORDING ENGINEER
 WITN.           JENNINGS:   WITNESSED BY
 CLNT.            A2DTECH:   CLIENT CODE
 ORIG.           5" PRINT:   ORIGIN OF DATA
 UWI .       490251095900:   UNIQUE WELL ID
 DICO. A2D Technologies, Inc.:   DIGITIZING COMPANY
~OTHER INFORMATION
~A    DEPT    CORR        DEN       PORD        CNC        GRR       CALR        SPR       RILD       RILM       RFOC         AC   
# ...
 4514.0000     0.0747     2.5706     0.0431     0.1724  -999.2500     7.9330   -35.8775     7.3760     7.4093     7.7972    69.4123
 4514.5000     0.0928     2.5721     0.0478     0.1583  -999.2500     7.9332   -36.1737     7.3760     7.4605     6.8769    69.0367
 4515.0000     0.0747     2.5773     0.0454     0.1377  -999.2500     7.9334   -36.3183     7.4362     7.7235     6.0231    66.1886
 4515.5000     0.0264     2.5855     0.0388     0.1248  -999.2500     7.9185   -36.3113     7.5411     8.1645     5.7360  -999.2500
 4516.0000     0.0309     2.5923     0.0367     0.1230  -999.2500     7.9187   -36.0055     8.0736     8.7515     6.8769  -999.2500
 4516.5000     0.0324     2.5717     0.0430     0.1257  -999.2500     7.9189   -35.5494     8.8372     9.2511     9.2186  -999.2500
 4517.0000     0.0279     2.5524     0.0548     0.1321  -999.2500     7.9191   -35.2436     9.5394     9.8475    11.4447  -999.2500
 4517.5000     0.0324     2.5351     0.0687     0.1417  -999.2500     7.9193   -34.7876    10.1552    10.2661    12.0176  -999.2500
 4518.0000     0.0566     2.5161     0.0783     0.1439  -999.2500     7.9194   -34.6319    10.6616    10.7024     9.6801  -999.2500
 4518.5000     0.0643     2.4975     0.0895     0.1400  -999.2500     7.9196   -34.4761    11.1932    11.2350     9.0277  -999.2500
 4519.0000     0.0490     2.4818     0.1010     0.1397  -999.2500     7.9198   -34.7709    11.7513    11.7125     9.1545  -999.2500
 4519.5000     0.0414     2.4802     0.1058     0.1409  -999.2500     7.9200   -34.9155    12.2518    12.2955    10.3074  -999.2500
 4520.0000     0.0324     2.4771     0.1077     0.1430  -999.2500     7.9202   -35.9610    12.6851    12.6411    12.0176  -999.2500
 4520.5000     0.0435     2.4650     0.1110     0.1439  -999.2500     7.9204   -37.4723    12.9524    12.9064    13.0672  -999.2500
 4521.0000     0.0613     2.4498     0.1158     0.1449  -999.2500     7.9206   -38.6985    13.0428    12.9953    13.3436  -999.2500
 4521.5000     0.0581     2.4468     0.1234     0.1471  -999.2500     7.9207   -39.8931    12.8627    12.9041    12.4443  -999.2500
 4522.0000     0.0551     2.4505     0.1219     0.1512  -999.2500     7.9209   -41.0424    12.6851    12.6353    11.0523  -999.2500
 4522.5000     0.0505     2.4647     0.1158     0.1518  -999.2500     7.9211   -41.7876    12.2518    11.6042    11.6868  -999.2500
 4523.0000     0.0430     2.4896     0.1038     0.1458  -999.2500     7.9213   -42.3827    11.8333    11.6495    12.7965  -999.2500
 4523.5000     0.0505     2.5121     0.0878     0.1401  -999.2500     7.9064   -43.1278    11.2713    12.1174    12.7075  -999.2500
 4524.0000     0.0083     2.5189     0.0833     0.1386  -999.2500     7.9067   -44.0232    11.2713    11.2242    10.1646  -999.2500
 4524.5000     0.0083     2.4999     0.0875     0.1395  -999.2500     7.9068   -45.0687    11.1932    11.4597     8.2999  -999.2500
 4525.0000     0.0128     2.4825     0.0984     0.1353  -999.2500     7.9221   -46.2643    11.2713    12.3693     8.0740  -999.2500
 4525.5000     0.0204     2.4711     0.1059     0.1323  -999.2500     7.9223   -47.0095    11.5088    13.4441     8.4419  -999.2500
 4526.0000     0.0264     2.4719     0.1096     0.1320  -999.2500     7.9225   -47.4544    11.8388    14.9203    11.5271  -999.2500
 4526.5000     0.0430     2.4771     0.1057     0.1339  -999.2500     7.9377   -47.5990  -999.2500    16.2170    14.1735  -999.2500
 4527.0000     0.0626     2.5207     0.0903     0.1360  -999.2500     7.9379   -47.7450  -999.2500    18.3770    16.5239  -999.2500
 4527.5000     0.0566     2.5335     0.0755     0.1387  -999.2500     7.9381   -48.0397  -999.2500    20.2535    17.8873  -999.2500
 4528.0000     0.0566     2.6058     0.0245     0.0008  -999.2500     7.9232   -48.1829  -999.2500    22.0135    19.1375  -999.2500
 4528.5000     0.0686     2.6194     0.0194    -0.0037  -999.2500     7.9234   -48.1773  -999.2500    22.6323    21.3796  -999.2500
 4529.0000     0.0807     2.6080     0.0203     0.0071  -999.2500     7.9236   -48.1718  -999.2500    21.7059    22.6765  -999.2500
 4529.5000     0.0928     2.5747     0.0315     0.0527  -999.2500     7.9238   -48.1662  -999.2500    20.6630    22.3622  -999.2500
 4530.0000     0.1214     2.5422     0.0596     0.4045  -999.2500     7.9240   -48.0105  -999.2500    19.8270    18.6521  -999.2500
 4530.5000     0.1244     2.5422     0.0677     0.7000  -999.2500     7.9241   -48.0049  -999.2500    19.8253    15.2352  -999.2500
 4531.0000     0.1168     2.5444     0.0668     0.6997  -999.2500     7.9243   -48.1495  -999.2500    19.8235    11.5249  -999.2500
 4531.5000     0.0821     2.5518     0.0599     0.1669  -999.2500     7.9245   -48.3165  -999.2500    19.6842     8.0740  -999.2500
 4532.0000     0.0807     2.5752     0.0503     0.1669  -999.2500     7.9247   -48.5875  -999.2500    19.6825     6.7816  -999.2500
 4532.5000     0.0807     2.5977     0.0351     0.1672  -999.2500     7.9249   -48.5819  -999.2500    19.6808     6.1935  -999.2500
 4533.0000     0.0973     2.6075     0.0268     0.1673  -999.2500     7.9251   -48.7279  -999.2500    19.6791     6.9736  -999.2500
 4533.5000     0.1094     2.6036  -999.2500  -999.2500  -999.2500     7.9253   -48.7209  -999.2500    19.6774     7.5826  -999.2500
 4534.0000     0.1109     2.5945  -999.2500  -999.2500  -999.2500     7.9255   -48.7154  -999.2500    19.6757     7.9621  -999.2500
 4534.5000     0.1124     2.5937  -999.2500  -999.2500  -999.2500     7.9256   -48.7098  -999.2500    19.6740     8.0740  -999.2500
 4535.0000     0.1154     2.5921  -999.2500  -999.2500  -999.2500     7.9227   -48.8558  -999.2500    19.6725     8.2138  -999.2500
