~VERSION INFORMATION
 VERS.                2.0:   CWLS LOG ASCII STANDARD - VERSION 2.0
 WRAP.                 NO:   ONE LINE PER DEPTH STEP
~WELL INFORMATION
#MNEM.UNIT      DATA TYPE    INFORMATION
#----------   ------------   ------------------------------
 STRT.F           29.0000:   START DEPTH
 STOP.F          435.0000:   STOP DEPTH
 STEP.F            0.5000:   STEP LENGTH
 NULL.          -999.2500:   NO VALUE
 COMP. FENIX & SCISSON INC:   COMPANY
 WELL.    525 X 10 #52-10:   WELL
 FLD .             TEAPOT:   FIELD
 LOC .      S10 T38N R78W:   LOCATION
 CNTY.            NATRONA:   COUNTY
 STAT.            WYOMING:   STATE
 CTRY. UNITED STATES OF AMERICA:   COUNTRY
 SRVC.       Schlumberger:   SERVICE COMPANY
 DATE.        18-NOV-1978:   LOGDATE
 API .       490251077700:   API NUMBER
~CURVE INFORMATION
#MNEM.UNIT       API CODE    CURVE DESCRIPTION
#----------   ------------   ------------------------------
 DEPT.F                  :   
 NEUT.NAPI   35 330 01 00:   NEUTRON
 SPR .MV     07 010 01 00:   SPONTANEOUS POTENTIAL
 SFL .OHMM   07 220 01 00:   SHALLOW FOCUSED LOG RESISTIVITY
 ILD .OHMM   07 120 46 00:   INDUCTION LOG DEEP RESISTIVITY
 ILM .OHMM   07 120 44 00:   INDUCTION LOG MEDIUM
 CORR.G/C3   45 356 01 00:   DENSITY CORRECTION
 RHOB.G/C3   45 350 01 00:   BULK DENSITY
 DPHI.DEC    45 890 12 00:   DENSITY POROSITY SANDSTONE
 CALD.IN     45 280 60 00:   CALIPER
 GRD .GAPI   45 310 01 00:   GAMMA RAY FROM DENSITY LOG
~PARAMETER INFORMATION
#MNEM.UNIT          VALUE    DESCRIPTION
#----------   ------------   ------------------------------
 PD  .                 GL:   PERMANENT DATUM
 EPD .F              5176:   ELEVATION PERMANENT DATUM
 LMF .                 KB:   LOG MEASURED FROM
 DAPD.F                 4:   FEET ABOVE PERMANENT DATUM
 DMF .                 KB:   DRILLING MEASURED FROM
 EKB .F              5180:   KELLING BUSHING
 EGL .F              5176:   GROUND LEVEL
 DATE.           11-18-78:   RUN DATE
 RUN .                  1:   RUN NUMBER
 DD  .F               433:   DEPTH DRILLER
 DL  .F               435:   DEPTH LOGGER
 BLI .F               429:   BOTTOM LOG INTERVAL
 TLI .F                48:   TOP LOG INTERVAL
 CS  .IN            8.625:   CASING SIZE
 CBD .F                40:   CASING BOTTOM DRILLER
 CBL .F                48:   CASING BOTTOM LOGGER
 BS  .IN            7.875:   BIT SIZE
 BSD .F               433:   BIT SIZE AT DEPTH
 DFT .            KCL MUD:   DRILLING FLUID TYPE
 DFD .                8.5:   DRILLING FLUID DENSITY
 DFV .                 30:   DRILLING FLUID VISCOSITY
 DFPH.                9.6:   DRILLING FLUID PH
 DFL .                 16:   DRILLING FLUID LOSS
 MSS .             MUDPIT:   MUD SAMPLE SOURCE
 RMS .OHMM            .45:   RESISTIVITY MUD SAMPLE
 MST .F                50:   MUD SAMPLE TEMPERATURE
 RMF .OHMM            .37:   RESISTIVITY MUD FILTRATE SAMPLE
 MFST.F                50:   MUD FILTRATE SAMPLE TEMPERATURE
 RMC .OHMM            .43:   RESISTIVITY MUD CAKE
 MCST.F                50:   MUD CAKE SAMPLE TEMPERATURE
 MFSS.                  M:   MUD FILTRATE SAMPLE SOURCE
 MCSS.                  C:   MUD CAKE SAMPLE SOURCE
 RMB .OHMM            .42:   RESISTIVITY MUD AT BHT
 BHT .F                63:   BOTTOM HOLE TEMPERATURE
 TCS .HRS            2400:   TIME CURCULATED STOPPED
 TLAB.HRS            1300:   TIME LOGGER AT BOTTOM
 MRT .F                63:   MAXIMUM RECORDED TEMPERATURE
 LUN .               7663:   LOGGING UNIT NUMBER
 LUL .                GLT:   LOGGING UNIT LOCATION
 ENGI.        SATTERFIELD:   RECORDING ENGINEER
 WITN.              AMEND:   WITNESSED BY
 CLNT.            A2DTECH:   CLIENT CODE
 ORIG.     1", 2.5" PRINT:   ORIGIN OF DATA
 UWI .       490251077700:   UNIQUE WELL ID
 DICO. A2D Technologies, Inc.:   DIGITIZING COMPANY
~OTHER INFORMATION
~A   DEPT     NEUT        SPR        SFL        ILD        ILM       CORR       RHOB       DPHI       CALD         GRD  
# ...
   62.5000  -999.2500   -92.9722     9.7744     8.3759     8.6396     0.0045     2.4294     0.1499     8.3983   116.8338
   63.0000  -999.2500   -93.6831     9.8971     8.5479     8.7723     0.0037     2.4375     0.1452     8.3938   114.5259
   63.5000  -999.2500   -93.9825    10.0254     8.7219     8.9071     0.0030     2.4461     0.1404     8.3893   110.9376
   64.0000  -999.2500   -94.3048    10.3522     8.9369     9.0827     0.0021     2.4538     0.1357     8.3848   108.1106
   64.5000  -999.2500   -94.5779    11.0023     9.1861     9.2929     0.0012     2.4629     0.1310     8.3800   107.2231
   65.0000  -999.2500   -94.9128    11.1603     9.4425     9.5079     0.0001     2.4676     0.1279     8.3779   108.3145
   65.5000  -999.2500   -94.8312    11.3241     9.7059     9.7279    -0.0009     2.4599     0.1340     8.3781   110.4553
   66.0000  -999.2500   -94.7166    11.4871     9.9312     9.9530    -0.0018     2.4464     0.1448     8.3780   112.2306
   66.5000  -999.2500   -94.5814    11.6525    10.1147    10.1833    -0.0031     2.4372     0.1498     8.3780   113.3499
   67.0000  -999.2500   -94.5186    11.8203    10.3014    10.4189    -0.0016     2.4449     0.1390     8.3781   114.0247
   67.5000  -999.2500   -94.7026    11.9905    10.4908    10.6545     0.0049     2.4618     0.1294     8.3780   112.9280
   68.0000  -999.2500   -95.1676    12.1631    10.6845    10.8784     0.0111     2.4788     0.1190     8.3780   111.2025
   68.5000  -999.2500   -95.6192    12.3607    10.8819    11.1070     0.0164     2.4810     0.1211     8.3780   109.6489
   69.0000  -999.2500   -96.0747    12.6467    11.0828    11.3404     0.0161     2.4822     0.1214     8.3780   107.9623
   69.5000  -999.2500   -96.5250    12.9393    11.2875    11.5786     0.0150     2.4835     0.1186     8.3780   107.4778
   70.0000  -999.2500   -96.5015    13.2387    11.4930    11.8219     0.0247     2.4836     0.1124     8.3780   108.0902
   70.5000  -999.2500   -95.8446    13.5450    11.6970    12.0703     0.0207     2.4841     0.0988     8.3780   107.3528
   71.0000  -999.2500   -95.2150    13.8593    11.9046    12.3239     0.0111     2.4812     0.1103     8.3780   105.5910
   71.5000  -999.2500   -94.5534    14.1803    12.1159    12.5829     0.0059     2.4766     0.1210     8.3780   103.9569
   72.0000  -999.2500   -94.0144    14.5087    12.3310    12.7923     0.0084     2.4724     0.1252     8.3781   102.3337
   72.5000  -999.2500   -92.9241    14.8447    12.5319    12.8762     0.0116     2.4682     0.1272     8.3782   100.8741
   73.0000  -999.2500   -91.6028    15.0582    12.5941    12.9606     0.0123     2.4638     0.1292     8.3779   100.8346
   73.5000  -999.2500   -90.1689    14.9206    12.6518    13.0456     0.0110     2.4601     0.1312     8.3785   100.7967
   74.0000  -999.2500   -89.7826    14.8161    12.7099    13.1311     0.0136     2.4610     0.1328     8.3779   100.8269
   74.5000  -999.2500   -89.2885    14.8160    12.7672    13.2510     0.0282     2.4637     0.1307     8.3773   100.8096
   75.0000  -999.2500   -89.3702    14.7693    12.8416    13.1772     0.0401     2.4671     0.1281     8.3822   100.8281
   75.5000  -999.2500   -89.4708    14.5422    12.9152    13.0572     0.0581     2.4689     0.1231     8.3270   101.7496
   76.0000  -999.2500   -89.5819    14.3257    12.9893    13.0068     0.0766     2.4690     0.1309     8.1855   104.3663
   76.5000  -999.2500   -89.6329    14.1089    12.9313    12.8862     0.0691     2.4291     0.1440     8.0493   107.1423
   77.0000  -999.2500   -89.0739    14.0112    12.8330    12.7841     0.0446     2.4163     0.1603     7.9265   107.1556
   77.5000  -999.2500   -88.6041    14.0112    12.7356    12.6828     0.0388     2.4155     0.1572     7.8626   107.0242
   78.0000  -999.2500   -87.8207    14.0112    12.6388    12.5823     0.0447     2.4376     0.1486     7.8539   106.7844
   78.5000  -999.2500   -86.9388    13.3202    12.5319    12.4826     0.0510     2.4525     0.1400     7.9167   106.6608
   79.0000  -999.2500   -86.0808    12.7672    12.3167    12.3837     0.0507     2.4633     0.1295     7.9753   105.9498
   79.5000  -999.2500   -85.0461    12.5319    12.0180    12.2856     0.0370     2.4632     0.1352     8.0376   104.5383
   80.0000  -999.2500   -83.8113    12.7257    11.4104    12.1882     0.0260     2.4620     0.1336     8.0856   103.0654
   80.5000  -999.2500   -82.7051    13.1699    11.4679    12.0744     0.0136     2.4623     0.1306     8.1409   101.0249
   81.0000  -999.2500   -81.7302    13.6296    11.6572    12.2047     0.0163     2.4626     0.1336     8.2311   101.2379
   81.5000  -999.2500   -80.7412    14.1054    11.8510    12.3653     0.0203     2.4693     0.1308     8.2943   102.2151
   82.0000  -999.2500   -79.9795    14.8151    12.0495    12.5319     0.0243     2.4795     0.1212     8.2242   103.2559
   82.5000  -999.2500   -79.3421    14.5422    12.3011    12.3878     0.0280     2.4839     0.1182     8.1357   104.2261
   83.0000  -999.2500   -78.6834    13.8905    12.2402    12.1384     0.0211     2.4731     0.1182     8.0433   105.7342
   83.5000  -999.2500   -78.2043    13.3451    12.0676    11.8941     0.0117     2.4582     0.1368     7.9458   108.2478
   84.0000  -999.2500   -77.9638    12.7744    11.8975    11.6336     0.0184     2.4517     0.1376     7.8850   111.6918
   84.5000  -999.2500   -77.6826    12.6972    11.7298    11.2255     0.0229     2.4545     0.1361     7.8899   114.4388
   85.0000  -999.2500   -77.4126    12.6128    11.5644    10.7939     0.0166     2.4570     0.1346     7.9186   112.6556
   85.5000  -999.2500   -77.1373    12.5342    11.4014    10.4053     0.0205     2.4577     0.1328     8.0197   111.0342
   86.0000  -999.2500   -76.9845    12.4892    11.2407    10.4088     0.0258     2.4711     0.1281     8.1174   109.0691
   86.5000  -999.2500   -76.8311    12.4477    11.0822    10.4229     0.0373     2.4773     0.1215     8.2201   107.6786
   87.0000  -999.2500   -76.6845    12.4071    10.9260    10.4369     0.0322     2.4742     0.1231     8.2632   106.6250
   87.5000  -999.2500   -76.5333    12.3666    10.7719    10.4509     0.0177     2.4694     0.1283     8.2779   104.8789
   88.0000  -999.2500   -76.3841    12.3262    10.6201    10.4650     0.0073     2.4539     0.1346     8.2963   103.7693
   88.5000  -999.2500   -76.2333    12.2411    10.4704    10.4791    -0.0048     2.4323     0.1563     8.3148   103.3521
   89.0000  -999.2500   -76.0846    12.0821    10.3920    10.4932    -0.0073     2.4187     0.1578     8.3326   104.5488
   89.5000  -999.2500   -75.9168    11.9252    10.3682    10.5073    -0.0008     2.4180     0.1587     8.3378   103.9780
   90.0000  -999.2500   -75.6263    11.8519    10.3445    10.5215     0.0059     2.4174     0.1556     8.3374   102.7392
   90.5000  -999.2500   -75.3034    11.8572    10.3203    10.5356     0.0130     2.4312     0.1516     8.3373   101.3329
   91.0000  -999.2500   -74.7755    11.8589    10.2968    10.5499     0.0131     2.4370     0.1476     8.3375   101.6414
   91.5000  -999.2500   -73.9259    11.6256    10.2733    10.5640     0.0078     2.4397     0.1425     8.3374   103.9857
   92.0000  -999.2500   -73.2678    11.6401    10.2498    10.5781     0.0047     2.4406     0.1443     8.3374   104.9627
   92.5000  -999.2500   -72.8500    11.6272    10.2139    10.5933     0.0049     2.4375     0.1490     8.3374   105.4619
   93.0000  -999.2500   -72.3623    11.6298    10.2214    10.6013     0.0088     2.4406     0.1434     8.3374   104.4479
   93.5000  -999.2500   -71.9297    11.6335    10.2410    10.6005     0.0129     2.4542     0.1367     8.3374   103.4629
   94.0000  -999.2500   -71.4495    11.6846    10.2607    10.6006     0.0168     2.4617     0.1320     8.3374   102.4500
   94.5000  -999.2500   -70.9095    11.8177    10.2809    10.6008     0.0178     2.4587     0.1319     8.3374   101.6958
   95.0000  -999.2500   -69.9772    11.9532    10.3012    10.6008     0.0077     2.4528     0.1417     8.3374   102.2062
   95.5000  -999.2500   -69.8188    12.0713    10.3211    10.6006     0.0062     2.4479     0.1404     8.3374   102.6099
