~VERSION INFORMATION
 VERS.                2.0:   CWLS LOG ASCII STANDARD - VERSION 2.0
 WRAP.                 NO:   ONE LINE PER DEPTH STEP
~WELL INFORMATION
#MNEM.UNIT      DATA TYPE    INFORMATION
#----------   ------------   ------------------------------
 STRT.F           24.0000:   START DEPTH
 STOP.F          690.0000:   STOP DEPTH
 STEP.F            0.5000:   STEP LENGTH
 NULL.          -999.2500:   NO VALUE
 COMP. DEPARTMENT OF ENERGY:   COMPANY
 WELL.     STX 2 #24-15-2:   WELL
 FLD .             TEAPOT:   FIELD
 LOC .       S2 T38N R78W:   LOCATION
 CNTY.            NATRONA:   COUNTY
 STAT.            WYOMING:   STATE
 CTRY. UNITED STATES OF AMERICA:   COUNTRY
 SRVC.           Gearhart:   SERVICE COMPANY
 DATE.        23-DEC-1987:   LOGDATE
 API .       490251116800:   API NUMBER
~CURVE INFORMATION
#MNEM.UNIT       API CODE    CURVE DESCRIPTION
#----------   ------------   ------------------------------
 DEPT.F                  :   
 GRR .GAPI   07 310 01 00:   GAMMA RAY
 RILD.OHMM   07 120 46 00:   INDUCTION LOG DEEP
 RILM.OHMM   07 120 44 00:   INDUCTION LOG MEDIUM
 RLL .OHMM   07 220 01 00:   LATEROLOG-1 RES.
~PARAMETER INFORMATION
#MNEM.UNIT          VALUE    DESCRIPTION
#----------   ------------   ------------------------------
 PD  .                 GL:   PERMANENT DATUM
 LMF .                 KB:   LOG MEASURED FROM
 DMF .                 KB:   DRILLING MEASURED FROM
 DATE.        03-SEP-1987:   RUN DATE
 RUN .                  1:   RUN NUMBER
 DL  .F               692:   DEPTH LOGGER
 BLI .F               690:   BOTTOM LOG INTERVAL
 CS  .IN            8.625:   CASING SIZE
 CBD .F                48:   CASING BOTTOM DRILLER
 CBL .F                48:   CASING BOTTOM LOGGER
 BS  .IN            7.875:   BIT SIZE
 DFT .                MUD:   DRILLING FLUID TYPE
 TCS .HRS            0600:   TIME CURCULATED STOPPED
 TLAB.HRS            0751:   TIME LOGGER AT BOTTOM
 MRT .F                80:   MAXIMUM RECORDED TEMPERATURE
 LUN .               7597:   LOGGING UNIT NUMBER
 LUL .           GILLETTE:   LOGGING UNIT LOCATION
 ENGI.         WEATHERMON:   RECORDING ENGINEER
 WITN.             STRONG:   WITNESSED BY
 CLNT.            A2DTECH:   CLIENT CODE
 ORIG.           5" PRINT:   ORIGIN OF DATA
 UWI .       490251116800:   UNIQUE WELL ID
 DICO. A2D Technologies, Inc.:   DIGITIZING COMPANY
~OTHER INFORMATION
~A   DEPT       GRR      RILD       RILM        RLL   
# ...
  462.0000    89.9043     7.9865     8.7276     8.6524
  462.5000    89.9251     7.7584     8.7306     8.9196
  463.0000    90.5520     7.3075     8.5534     9.6091
  463.5000    90.2697     7.0600     7.4977     9.8143
  464.0000    90.6101     6.6801     6.0044     7.8591
  464.5000    92.8514     6.6352     5.1907     6.9367
  465.0000    97.9133     6.5911     5.0500     6.7483
  465.5000   113.9947     6.5933     5.0168     6.7501
  466.0000   116.4346     6.6874     5.2500     6.9424
  466.5000   108.8848     6.8301     6.1419     8.2050
  467.0000   101.6329     7.6451     6.8192    10.0403
  467.5000    96.8053     8.6827     7.8937    10.3262
  468.0000    93.7958     9.8101     9.0113    10.4010
  468.5000    94.4227    10.3735     9.7985    10.3285
  469.0000    96.8678    10.5948    10.0084    10.2630
  469.5000    98.7068    10.5977    10.0817    10.1947
  470.0000    99.6367    10.6914    10.0144    10.2693
  470.5000    99.9606    10.7606    10.0187    10.2721
  471.0000    94.9878    10.9052    10.0221    10.2749
  471.5000    91.4252    11.2155    10.0255    10.2774
  472.0000    90.3261    11.6150    10.1017    10.3520
  472.5000    91.5643    12.2820    10.2439    10.4273
  473.0000    90.6760    13.1691    10.4641    11.0266
  473.5000    87.3635    14.1202    11.1434    12.9418
  474.0000    83.4449    15.0408    12.4586    13.9740
  474.5000    74.3748    15.9203    14.3217    15.1938
  475.0000    66.2139    17.0868    15.7909    16.5200
  475.5000    60.1741    18.5349    17.4108    17.8653
  476.0000    58.9828    19.8735    17.1763    18.8823
  476.5000    58.3976    21.3088    16.9435    19.1334
  477.0000    56.9032    22.3766    16.8319    19.4066
  477.5000    56.0150    23.1737    17.9262    19.8209
  478.0000    57.0101    23.8331    20.0418    19.6890
  478.5000    60.0758    24.5113    20.4765    19.2866
  479.0000    65.7796    24.6889    20.9264    19.0255
  479.5000    64.2853    24.6956    21.5084    19.5686
  480.0000    62.1849    24.7024    21.8169    20.9830
  480.5000    60.3876    24.8813    22.3366    21.8826
  481.0000    59.1963    25.9485    22.9204    22.8208
  481.5000    58.9089    27.0735    23.4113    23.1466
  482.0000    59.2380    27.4452    23.7472    23.3145
  482.5000    60.1679    27.4543    23.9210    23.7382
  483.0000    61.4008    27.4618    23.5988    23.9852
  483.5000    62.6338    27.6607    23.1196    23.4979
  484.0000    62.9576    27.6683    22.6502    22.8598
  484.5000    62.9788    27.6749    22.3450    22.5488
  485.0000    61.4444    27.6826    22.1979    22.3987
  485.5000    60.2981    27.6910    22.5512    23.0381
  486.0000    60.6219    28.9824    23.9802    24.1935
  486.5000    61.2488    29.3400    24.6647    24.8824
  487.0000    60.6636    29.7306    24.8452    24.8892
  487.5000    60.0784    30.0366    24.5106    24.5520
  488.0000    58.8871    30.2368    24.5189    24.5588
  488.5000    57.3927    30.4424    24.5273    24.7370
  489.0000    57.1053    30.0563    24.7068    24.9165
  489.5000    58.9496    29.6593    24.3740    24.7505
  490.0000    61.3946    29.3641    23.8791    24.5858
  490.5000    63.8397    29.1704    23.5572    24.7658
  491.0000    64.4667    28.9824    23.5655    24.9453
  491.5000    63.2753    28.9824    23.7430    24.9521
  492.0000    63.2970    28.9824    24.6045    24.7860
  492.5000    64.8373    28.7716    25.2881    24.1130
  493.0000    65.7672    28.3936    25.2985    22.8149
  493.5000    63.9699    27.4304    24.4427    21.4371
  494.0000    62.1725    26.8717    23.4522    20.4246
  494.5000    62.1934    26.1427    22.5019    20.0085
  495.0000    63.7294    25.4334    21.5900    19.8753
  495.5000    65.8714    24.9095    20.2877    19.8808
  496.0000    66.8013    24.2219    18.9318    19.8119
  496.5000    66.5182    23.5533    18.4189    19.5964
  497.0000    65.9333    22.7847    18.0449    19.3515
  497.5000    66.5608    21.7093    17.9260    19.3581
  498.0000    66.8969    21.1202    17.9322    19.4984
  498.5000    67.8495    20.6889    18.4575    19.6398
  499.0000    69.6588    20.4091    19.1271    19.6452
  499.5000    70.2857    20.5583    19.2427    19.2450
  500.0000    69.7564    20.9969    18.5933    18.7211
  500.5000    68.4972    21.2965    18.3413    18.3397
  501.0000    67.9097    21.3023    18.4771    18.7326
  501.5000    67.6212    21.3081    18.6123    19.2660
  502.0000    67.3253    21.4625    18.4881    19.4057
  502.5000    67.0450    21.9204    17.8642    19.4156
  503.0000    67.3666    21.9276    17.5000    19.8424
  503.5000    67.6844    21.7803    17.2656    19.5764
  504.0000    68.3053    21.3383    17.7586    19.1732
  504.5000    68.9262    20.9039    18.3960    18.7737
  505.0000    69.5471    20.6211    18.5276    18.5402
  505.5000    70.1679    20.3422    18.2559    18.4193
  506.0000    71.0918    20.2067    17.7844    18.4881
  506.5000    72.6218    20.2123    18.0395    18.5964
  507.0000    74.1518    20.2179    18.2983    18.7019
  507.5000    73.5506    20.2235    18.4609    18.7095
  508.0000    71.7252    20.2291    18.4691    18.6666
  508.5000    71.1659    20.2356    18.3493    18.5209
  509.0000    71.1845    20.1003    18.2303    18.2188
  509.5000    71.1993    19.9659    18.1120    17.9298
  510.0000    71.2141    19.9262    18.1202    17.7982
  510.5000    70.3198    19.8385    18.1283    17.7409
  511.0000    69.4219    19.7076    18.2631    17.6252
  511.5000    69.1336    19.6613    18.4003    17.5120
  512.0000    70.3643    19.5820    18.2789    17.3960
  512.5000    73.7124    19.4295    18.0366    17.2836
  513.0000    76.1554    19.0558    17.7955    17.1698
  513.5000    77.9848    18.6691    17.4360    17.0579
  514.0000    76.4879    18.4153    17.0837    16.9483
  514.5000    74.3815    18.0404    16.8535    16.8378
  515.0000    74.0895    17.5521    16.5148    16.6083
  515.5000    74.7141    17.4341    16.2941    16.2128
  516.0000    75.9411    17.3191    16.0762    15.9481
  516.5000    76.2589    17.3240    15.7515    15.8319
  517.0000    75.3647    17.4577    15.6493    15.6302
  517.5000    73.5613    17.7191    15.5416    15.6381
  518.0000    71.1519    17.9678    15.5549    15.6445
  518.5000    69.3485    18.0821    15.7812    15.9807
  519.0000    67.4928    18.2130    16.2334    16.4380
  519.5000    65.7418    18.2174    16.5828    16.7912
  520.0000    64.5445    18.2229    16.8224    16.8604
  520.5000    64.2563    18.2278    16.7115    16.5703
  521.0000    64.5778    18.2328    16.3757    16.1250
  521.5000    65.1987    18.2377    16.1568    15.8003
  522.0000    66.7287    18.3699    15.9408    15.6956
  522.5000    69.1677    18.3964    15.7277    15.5933
  523.0000    72.5159    18.5091    15.5174    15.7101
  523.5000    72.8645    18.7732    15.7417    16.6152
  524.0000    71.3334    19.0409    17.0001    18.4487
  524.5000    70.1131    19.4471    18.7519    19.7848
  525.0000    69.5448    20.0005    19.7011    20.4929
  525.5000    69.5634    20.4271    19.9740    20.5120
  526.0000    69.5782    19.5986    19.0359    19.6664
  526.5000    68.9869    18.5443    17.8894    18.1925
  527.0000    68.3957    17.5307    16.8120    16.6644
  527.5000    69.0166    16.6612    15.7995    15.8794
  528.0000    72.0617    15.4939    14.7451    15.0266
  528.5000    75.1068    14.8655    13.9537    14.0233
  529.0000    76.3338    14.5619    13.3896    13.5498
  529.5000    76.3486    14.3659    13.1177    13.3379
  530.0000    76.9697    14.3698    13.0326    13.0963
  530.5000    78.1970    14.3737    13.0398    12.9218
  531.0000    79.7301    14.3774    13.0456    12.8378
  531.5000    80.3509    14.3815    13.1425    12.8431
  532.0000    79.1536    14.3854    13.1484    12.9380
  532.5000    76.4412    14.3978    13.1541    12.9445
  533.0000    73.4257    14.4945    13.0688    12.9498
  533.5000    72.2247    14.4984    13.0750    12.9542
  534.0000    71.9365    14.4010    13.0819    12.9733
  534.5000    72.2580    14.3052    13.0868    13.0561
