~VERSION INFORMATION
 VERS.                2.0:   CWLS LOG ASCII STANDARD - VERSION 2.0
 WRAP.                 NO:   ONE LINE PER DEPTH STEP
~WELL INFORMATION
#MNEM.UNIT      DATA TYPE    INFORMATION
#----------   ------------   ------------------------------
 STRT.F            9.0000:   START DEPTH
 STOP.F          512.0000:   STOP DEPTH
 STEP.F            0.5000:   STEP LENGTH
 NULL.          -999.2500:   NO VALUE
 COMP. LAWRENCE-ALLISON &AS:   COMPANY
 WELL. NPR 3 #61-21SX10UP2:   WELL
 FLD .             TEAPOT:   FIELD
 LOC .      S10 T38N R78W:   LOCATION
 CNTY.            NATRONA:   COUNTY
 STAT.            WYOMING:   STATE
 CTRY. UNITED STATES OF AMERICA:   COUNTRY
 SRVC.      Dresser Atlas:   SERVICE COMPANY
 DATE.        13-DEC-1984:   LOGDATE
 API .       490251100500:   API NUMBER
~CURVE INFORMATION
#MNEM.UNIT       API CODE    CURVE DESCRIPTION
#----------   ------------   ------------------------------
 DEPT.F                  :   
 PORD.DEC    45 890 12 00:   POROSITY DENSITY SANDSTONE
 CNCF.DEC    42 890 03 00:   NEUTRON POROSITY SANDSTONE
 GRD .GAPI   45 310 01 00:   GAMMA RAY FROM DENSITY LOG
 CALD.IN     45 280 60 00:   CALIPER FROM DENSITY LOG
 CORR.G/C3   45 356 01 00:   DENSITY CORRECTION
 DEN .G/C3   45 350 01 00:   COMPENSATED BULK DENSTIY
 AC  .US/F   60 520 00 00:   ACCOUSTIC
 RILD.OHMM   07 120 46 00:   INDUCTION LOG DEEP RESISTIVITY
 RILM.OHMM   07 120 44 00:   INDUCTION LOG MEDIUM RESISTIVITY
 RFOC.OHMM   07 220 04 00:   RESISTIVITY FOCUSED LOG
 SPR .MV     11 010 01 00:   SPONTANEOUS POTENTIAL FROM RES.
 RS  .OHMM   11 220 09 00:   RESISTIVITY SHALLOW
 RD  .OHMM   11 220 10 00:   RESISTIVITY DEEP
~PARAMETER INFORMATION
#MNEM.UNIT          VALUE    DESCRIPTION
#----------   ------------   ------------------------------
 PD  .                 GL:   PERMANENT DATUM
 EPD .F              5157:   ELEVATION PERMANENT DATUM
 LMF .                 GL:   LOG MEASURED FROM
 DMF .                 GL:   DRILLING MEASURED FROM
 EGL .F              5157:   GROUND LEVEL
 DATE.         12-13-1984:   RUN DATE
 RUN .                  1:   RUN NUMBER
 DD  .F               514:   DEPTH DRILLER
 DL  .F               513:   DEPTH LOGGER
 BLI .F               512:   BOTTOM LOG INTERVAL
 TLI .F                20:   TOP LOG INTERVAL
 CS  .IN            8.625:   CASING SIZE
 CBD .F                20:   CASING BOTTOM DRILLER
 CBL .F                20:   CASING BOTTOM LOGGER
 BS  .IN            7.875:   BIT SIZE
 BSD .F               514:   BIT SIZE AT DEPTH
 DFT .          KCL WATER:   DRILLING FLUID TYPE
 MSS .           FLOWLINE:   MUD SAMPLE SOURCE
 RMS .OHMM            .17:   RESISTIVITY MUD SAMPLE
 MST .F                95:   MUD SAMPLE TEMPERATURE
 RMF .OHMM            .08:   RESISTIVITY MUD FILTRATE SAMPLE
 MFST.F                95:   MUD FILTRATE SAMPLE TEMPERATURE
 RMC .OHMM            .14:   RESISTIVITY MUD CAKE
 MCST.F                95:   MUD CAKE SAMPLE TEMPERATURE
 MFSS.               CALC:   MUD FILTRATE SAMPLE SOURCE
 MCSS.               CALC:   MUD CAKE SAMPLE SOURCE
 TCS .HRS              10:   TIME CURCULATED STOPPED
 MRT .F               100:   MAXIMUM RECORDED TEMPERATURE
 LUN .               6270:   LOGGING UNIT NUMBER
 LUL .                 FM:   LOGGING UNIT LOCATION
 ENGI.            LEBSOCK:   RECORDING ENGINEER
 WITN.        GREG GROOMS:   WITNESSED BY
 CLNT.            A2DTECH:   CLIENT CODE
 ORIG.           5" PRINT:   ORIGIN OF DATA
 UWI .       490251100500:   UNIQUE WELL ID
 DICO. A2D Technologies, Inc.:   DIGITIZING COMPANY
~OTHER INFORMATION
~A    DEPT    PORD       CNCF        GRD       CALD       CORR        DEN          AC      RILD       RILM       RFOC        SPR         RS         RD   
# ...
  269.0000     0.1945     0.2619    78.4759     7.8266     0.0219     2.3553   101.9768    43.5790    23.3214    32.4350   -52.4027    37.2102    37.2973
  269.5000     0.1987     0.2734    77.7168     7.8258     0.0237     2.3530   102.8907    45.4313    21.1427    30.0275   -52.5586    34.9377    35.2553
  270.0000     0.2024     0.2707    76.3554     7.8250     0.0248     2.3484   103.0478    46.6674    19.9851    28.9843   -52.5645    33.0325    33.0853
  270.5000     0.2045     0.2490    73.4804     7.8243     0.0339     2.3423   102.6053    45.3557    19.5600    27.2091   -52.7203    31.2312    31.2889
  271.0000     0.2048     0.2421    72.7290     7.8261     0.0444     2.3378   101.7078    42.8771    19.6850    25.7210   -52.7263    30.3593    30.1992
  271.5000     0.2006     0.2452    73.4834     7.8228     0.0519     2.3423   100.5840    38.3398    19.4005    25.1756   -52.7322    29.5118    29.3882
  272.0000     0.1901     0.2467    74.7048     7.8219     0.0438     2.3611    99.8375    35.4960    18.7253    25.5146   -52.5882    28.6880    29.3761
  272.5000     0.1855     0.2477    76.6642     7.8211     0.0152     2.3693    99.2419    33.3236    18.0629    25.5005   -52.5941    28.8759    29.1608
  273.0000     0.1847     0.2509    78.7892     7.8204     0.0078     2.3708    99.2501    31.5025    17.5661    24.9433   -52.6000    28.6565    28.5476
  273.5000     0.1853     0.2607    80.0785     7.8196    -0.0056     2.3708    99.3338    29.9888    17.7991    24.4300   -52.6059    27.8565    27.9474
  274.0000     0.1847     0.2610    79.7309     7.8189    -0.0282     2.3707    99.3420    28.9478    18.2905    23.7433   -52.6119    27.0789    27.3598
  274.5000     0.1835     0.2628    77.7169     7.8181    -0.0102     2.3722    99.3503    28.1380    19.3262    23.0786   -52.7677    26.3229    26.7845
  275.0000     0.1832     0.2647    76.8976     7.8174     0.0140     2.3722    99.0566    27.5418    20.1382    22.5892   -52.9235    25.7663    26.4041
  275.5000     0.1851     0.2629    77.5492     7.8166     0.0260     2.3691    98.6060    27.1465    20.6973    22.2646   -53.0795    25.2214    26.2105
  276.0000     0.1915     0.2590    78.8422     7.8159     0.0199     2.3585    98.0105    26.9435    20.9746    22.4109   -53.1014    25.0330    26.1997
  276.5000     0.1951     0.2602    79.4386     7.8151     0.0139     2.3494    97.7228    26.9286    20.8131    22.7096   -53.3913    24.8461    26.3742
  277.0000     0.1948     0.2606    79.2820     7.8296     0.0108     2.3509    97.9819    26.9137    20.6561    22.8557   -53.5484    24.6605    26.5471
  277.5000     0.1958     0.2503    78.5230     7.8287     0.0048     2.3516    99.0243    27.0871    20.3580    23.3252   -53.4044    24.8158    26.7211
  278.0000     0.2024     0.2416    77.4628     7.8280    -0.0028     2.3478    99.7118    27.0686    20.2043    23.3124   -53.4103    24.6306    26.3389
  278.5000     0.2124     0.2426    77.1555     7.8272    -0.0134     2.3304   100.0973    27.2464    20.0515    21.8846   -53.4162    24.1098    26.1458
  279.0000     0.2181     0.2432    76.3965     7.8114    -0.0240     2.3183   100.2565    27.6092    20.2024    20.5442   -53.4221    23.7643    25.9541
  279.5000     0.2206     0.2411    75.7881     7.8106    -0.0316     2.3100   100.1872    28.1761    20.8783    20.6764   -53.4281    23.5870    25.9434
  280.0000     0.2155     0.2384    77.2882     7.8099    -0.0362     2.3130   100.2729    28.7585    22.3253    21.3970   -53.5839    24.0700    26.1136
  280.5000     0.2128     0.2375    79.5427     7.7940    -0.0392     2.3197   100.6585    28.7388    23.1055    22.2975   -53.7397    24.5630    26.8381
  281.0000     0.2122     0.2415    79.3846     7.7782    -0.0377     2.3242   101.1196    28.1299    23.4211    22.9229   -53.7457    24.8960    27.5866
  281.5000     0.2107     0.2488    77.2702     7.7927    -0.0257     2.3249   101.4297    28.1145    23.5734    23.2412   -53.7516    25.2302    28.3482
  282.0000     0.2068     0.2515    76.6618     7.7767    -0.0136     2.3273   101.2869    27.9043    23.5591    23.8657   -53.9074    25.3919    28.5341
  282.5000     0.2032     0.2531    77.8606     7.7759    -0.0061     2.3370   100.9933    27.5037    23.5476    24.0193   -54.2132    25.1990    28.2950
  283.0000     0.2020     0.2497    81.1678     7.7905     0.0044     2.3422   100.8506    26.9210    23.5362    23.3436   -54.3690    24.6661    27.5345
  283.5000     0.2035     0.2458    84.1739     7.8046     0.0135     2.3399   100.7058    26.9061    24.1895    22.5327   -54.5249    24.1446    26.9556
  284.0000     0.2048     0.2424    84.7718     7.8039     0.0071     2.3383   100.6406    26.8912    25.2099    22.0549   -54.5308    23.7986    26.7580
  284.5000     0.2048     0.2381    82.5052     7.7880    -0.0110     2.3407   100.5733    26.6596    26.2732    22.0428   -54.3868    23.6210    26.7469
  285.0000     0.2027     0.2339    82.1980     7.7873    -0.0185     2.3428   100.5061    26.3038    27.5729    21.8778   -54.3928    23.6081    26.7359
  285.5000     0.2018     0.2345    82.0414     7.7865    -0.0199     2.3420   100.4385    26.2894    28.3383    21.4139   -54.3988    23.7599    26.7249
  286.0000     0.2012     0.2412    81.5836     7.7858    -0.0139     2.3412   100.2961    25.9120    28.7254    20.9598   -54.4048    23.7464    26.7139
  286.5000     0.1988     0.2548    80.3728     7.7850    -0.0003     2.3457   100.0779    25.7183    28.1142    21.2449   -54.7118    23.7333    26.5180
  287.0000     0.1880     0.2567    79.9150     7.7843     0.0132     2.3607    99.8597    25.5260    26.3926    21.3816   -55.0176    23.5562    26.3236
  287.5000     0.1826     0.2540    81.7162     7.7684     0.0238     2.3697    99.6415    25.6937    24.4337    21.5167   -55.4732    23.2187    26.1306
  288.0000     0.1808     0.2431    83.6681     7.7677     0.0222     2.3750    99.4204    25.8589    22.7782    21.5044   -55.6291    23.1994    25.9391
  288.5000     0.1796     0.2368    82.9091     7.7820     0.0177     2.3779    99.2051    26.2032    21.8351    21.1954   -55.9349    22.8605    25.5707
  289.0000     0.1790     0.2350    81.6982     7.7813     0.0207     2.3794    98.9781    25.8271    20.9310    20.8909   -56.2406    22.5454    25.2075
  289.5000     0.1784     0.2363    81.9935     7.7956     0.0191     2.3809    98.6815    25.6340    20.2045    20.7344   -56.6963    22.5079    25.0227
  290.0000     0.1772     0.2372    82.4393     7.7949     0.0131     2.3816    98.2507    25.4424    19.6397    20.4363   -57.0021    22.2074    24.6673
  290.5000     0.1760     0.2357    82.7345     7.7941     0.0070     2.3831    98.1059    25.4285    19.3585    20.1403   -57.4578    22.3529    24.4865
  291.0000     0.1761     0.2339    83.3309     7.7934     0.0085     2.3830    98.5690    25.5920    19.0814    20.1292   -57.6136    22.4931    24.6473
  291.5000     0.1773     0.2316    84.2285     7.7926     0.0175     2.3847    99.1810    25.4002    18.8082    20.1182   -58.0693    22.6373    24.9817
  292.0000     0.1804     0.2289    85.5779     7.7919     0.0220     2.3814   100.2458    25.2073    18.5389    20.2504   -58.0752    22.9411    25.3205
  292.5000     0.1875     0.2295    84.5177     7.7911     0.0159     2.3688   100.4784    25.3694    18.2735    20.3807   -58.0812    23.0914    25.6641
  293.0000     0.1900     0.2380    81.9515     7.7903     0.0008     2.3620   100.1113    25.5360    18.0119    20.5118   -58.0871    23.0755    25.8323
  293.5000     0.1889     0.2551    81.1924     7.7896    -0.0053     2.3605    99.4403    26.0567    17.6307    20.6438   -58.0930    23.0629    25.8214
  294.0000     0.1868     0.2613    82.3913     7.7888     0.0053     2.3650    98.7693    26.5917    17.4998    20.4865   -58.0989    22.7324    25.6320
  294.5000     0.1913     0.2582    84.3431     7.7881     0.0203     2.3619    98.0228    27.5178    17.3699    20.1922   -58.1049    22.4067    25.4440
