~VERSION INFORMATION
 VERS.                2.0:   CWLS LOG ASCII STANDARD - VERSION 2.0
 WRAP.                 NO:   ONE LINE PER DEPTH STEP
~WELL INFORMATION
#MNEM.UNIT      DATA TYPE    INFORMATION
#----------   ------------   ------------------------------
 STRT.F           30.0000:   START DEPTH
 STOP.F          597.0000:   STOP DEPTH
 STEP.F            0.5000:   STEP LENGTH
 NULL.          -999.2500:   NO VALUE
 COMP. FENIX & SCISSON-U.S. NAVY:   COMPANY
 WELL.    NPR #3 #15-S-11:   WELL
 FLD .             TEAPOT:   FIELD
 LOC .      S11 T38N R78W:   LOCATION
 CNTY.            NATRONA:   COUNTY
 STAT.            WYOMING:   STATE
 CTRY. UNITED STATES OF AMERICA:   COUNTRY
 SRVC.       Schlumberger:   SERVICE COMPANY
 DATE.        22-FEB-1977:   LOGDATE
 API .       490251028000:   API NUMBER
~CURVE INFORMATION
#MNEM.UNIT       API CODE    CURVE DESCRIPTION
#----------   ------------   ------------------------------
 DEPT.F                  :   
 SPR .MV     07 010 01 00:   SPONTANEOUS POTENTIAL
 ILD .OHMM   07 120 46 00:   INDUCTION LOG DEEP RES
 ILM .OHMM   07 120 44 00:   INDUCTION LOG MEDIUM RES
 LL8 .OHMM   07 220 08 00:   LATEROLOG-8 RES
 CALD.IN     45 280 60 00:   CALIPER FROM DENSITY LOG
 GRD .GAPI   45 310 01 00:   GAMMA RAY FROM DENSITY LOG
 CORR.G/C3   45 356 01 00:   DENSITY CORRECTION
 RHOB.G/C3   45 350 01 00:   BULK DENSITY
 DPHI.DEC    45 890 12 00:   DENSITY POROSITY SANDSTONE
~PARAMETER INFORMATION
#MNEM.UNIT          VALUE    DESCRIPTION
#----------   ------------   ------------------------------
 PD  .                 GL:   PERMANENT DATUM
 EPD .F              5188:   ELEVATION PERMANENT DATUM
 LMF .                 KB:   LOG MEASURED FROM
 DAPD.F                 5:   FEET ABOVE PERMANENT DATUM
 DMF .                 KB:   DRILLING MEASURED FROM
 EKB .F              5193:   KELLING BUSHING
 EGL .F              5188:   GROUND LEVEL
 DATE.         22FEB-1977:   RUN DATE
 RUN .                  1:   RUN NUMBER
 DD  .F               598:   DEPTH DRILLER
 DL  .F               598:   DEPTH LOGGER
 BLI .F               597:   BOTTOM LOG INTERVAL
 TLI .F                35:   TOP LOG INTERVAL
 CS  .IN            8.625:   CASING SIZE
 CBD .F                42:   CASING BOTTOM DRILLER
 CBL .F                45:   CASING BOTTOM LOGGER
 BS  .IN            7.875:   BIT SIZE
 BSD .F               598:   BIT SIZE AT DEPTH
 DFT .                KCL:   DRILLING FLUID TYPE
 DFD .                8.7:   DRILLING FLUID DENSITY
 DFV .                 31:   DRILLING FLUID VISCOSITY
 DFPH.                  8:   DRILLING FLUID PH
 DFL .                7.2:   DRILLING FLUID LOSS
 MSS .           MUD TANK:   MUD SAMPLE SOURCE
 RMS .OHMM           .526:   RESISTIVITY MUD SAMPLE
 MST .F                70:   MUD SAMPLE TEMPERATURE
 RMF .OHMM           .515:   RESISTIVITY MUD FILTRATE SAMPLE
 MFST.F                71:   MUD FILTRATE SAMPLE TEMPERATURE
 RMC .OHMM            .77:   RESISTIVITY MUD CAKE
 MCST.F                70:   MUD CAKE SAMPLE TEMPERATURE
 MFSS.               MEAS:   MUD FILTRATE SAMPLE SOURCE
 MCSS.               CALC:   MUD CAKE SAMPLE SOURCE
 RMB .OHMM            .67:   RESISTIVITY MUD AT BHT
 BHT .F                55:   BOTTOM HOLE TEMPERATURE
 TCS .HRS            0600:   TIME CURCULATED STOPPED
 MRT .F                55:   MAXIMUM RECORDED TEMPERATURE
 LUN .               5642:   LOGGING UNIT NUMBER
 LUL .               CSPR:   LOGGING UNIT LOCATION
 ENGI.                FIX:   RECORDING ENGINEER
 WITN.         STUEBINGER:   WITNESSED BY
 CLNT.            A2DTECH:   CLIENT CODE
 ORIG.           5" PRINT:   ORIGIN OF DATA
 UWI .       490251028000:   UNIQUE WELL ID
 DICO. A2D Technologies, Inc.:   DIGITIZING COMPANY
~OTHER INFORMATION
~A   DEPT      SPR        ILD        ILM        LL8       CALD         GRD      CORR       RHOB       DPHI   
# ...
  577.5000   -37.1547     5.8895     6.0461     8.2168     8.0514   124.3018     0.0053     2.4414     0.1186
  578.0000   -37.0031     5.5346     5.8000     5.6214     8.0525   124.3123     0.0121     2.4287     0.1310
  578.5000   -37.1517     5.4590     5.9623     5.3941     8.0537   123.8584     0.0204     2.4183     0.1427
  579.0000   -37.4505     5.8910     6.3887     6.0250     8.0548   122.0730     0.0219     2.4208     0.1348
  579.5000   -37.7490     6.2698     6.8932     8.2862     8.0559   121.7911     0.0099     2.4752     0.1198
  580.0000   -38.1979     6.7193     7.4375     9.2552     8.0571   123.3235     0.0227     2.5280     0.0872
  580.5000   -38.1964     7.2010     7.8601     9.5871     8.0582   123.9255    -0.0013     2.4625     0.1125
  581.0000   -37.8946     7.5587     8.3065     9.9996     8.0533   124.5616     0.0002     2.4528     0.1173
  581.5000   -37.5928     7.8796     8.7179    10.4299     8.0462   129.4984     0.0017     2.4539     0.1149
  582.0000   -37.5914     8.1575     9.2132    10.8447     8.0391   140.7540    -0.0035     2.4628     0.1125
  582.5000   -37.2896     8.3292     9.6694    11.0733     8.0320   151.1342    -0.0065     2.4720     0.1092
  583.0000   -36.9878     8.5045    10.0784    11.1516     8.0249   150.6943    -0.0058     2.4819     0.0986
  583.5000   -36.9863     8.6237    10.2183    11.3083     8.0349   150.2543    -0.0057     2.4932     0.0932
  584.0000   -36.9848     8.6244    10.2885    11.3099     8.0360   149.8118    -0.0005     2.4997     0.0977
  584.5000   -37.1338     8.6252    10.3591    11.3116     8.0372   150.4255     0.0070     2.4783     0.1046
  585.0000   -37.4323     8.5665    10.3584    11.2350     8.0383   150.7336     0.0123     2.4757     0.1085
  585.5000   -37.5813     8.5082    10.3577    11.1593     8.0394   149.3954     0.0138     2.4852     0.1072
  586.0000   -37.8797     8.4503    10.3571    11.0841     8.0405   150.7572     0.0184     2.4960     0.1011
  586.5000   -38.3287     8.4510    10.3564    11.0094     8.0416   150.7943     0.0191     2.4817     0.1040
  587.0000   -38.7776     8.4490    10.3558    11.0113     8.0429   150.1776     0.0064     2.4772     0.1075
  587.5000   -38.9263     8.3942    10.3551    10.9371     8.0440   149.7372     0.0191     2.4920     0.1041
  588.0000   -39.3756     8.3951    10.3544    10.8634     8.0452   150.4989     0.0289     2.5028     0.0984
  588.5000  -999.2500  -999.2500  -999.2500  -999.2500     8.0463   149.1581     0.0154     2.4765     0.0992
  589.0000  -999.2500  -999.2500  -999.2500  -999.2500     8.0324   149.9193     0.0184     2.4872     0.1081
  589.5000  -999.2500  -999.2500  -999.2500  -999.2500     8.0336   150.9809     0.0245     2.5043     0.1000
  590.0000  -999.2500  -999.2500  -999.2500  -999.2500     8.0197   150.8412     0.0140     2.4962     0.0957
  590.5000  -999.2500  -999.2500  -999.2500  -999.2500     8.0359   150.5511     0.0050     2.4722     0.1066
  591.0000  -999.2500  -999.2500  -999.2500  -999.2500     8.0217   150.4114     0.0012     2.4594     0.1136
  591.5000  -999.2500  -999.2500  -999.2500  -999.2500     8.0229   150.8727     0.0043     2.4557     0.1168
  592.0000  -999.2500  -999.2500  -999.2500  -999.2500     8.0240   151.4838     0.0118     2.4610     0.1158
  592.5000  -999.2500  -999.2500  -999.2500  -999.2500     8.0251   151.1937     0.0163     2.4595     0.1136
  593.0000  -999.2500  -999.2500  -999.2500  -999.2500     8.0113   150.7540     0.0148     2.4467     0.1170
  593.5000  -999.2500  -999.2500  -999.2500  -999.2500     8.0124   150.7645     0.0133     2.4543     0.1200
  594.0000  -999.2500  -999.2500  -999.2500  -999.2500     7.9985   150.7750     0.0103     2.4490     0.1170
  594.5000  -999.2500  -999.2500  -999.2500  -999.2500     7.9696   150.7855     0.0095     2.4318     0.1242
  595.0000  -999.2500  -999.2500  -999.2500  -999.2500     7.9708   150.6458     0.0164     2.4295     0.1302
  595.5000  -999.2500  -999.2500  -999.2500  -999.2500     7.9719   150.2059     0.0276     2.4348     0.1344
  596.0000  -999.2500  -999.2500  -999.2500  -999.2500     7.8679   148.7140     0.0397     2.4423     0.1278
  596.5000  -999.2500  -999.2500  -999.2500  -999.2500     7.7790   148.2767     0.0727     2.4461     0.1206
  597.0000  -999.2500  -999.2500  -999.2500  -999.2500     7.6000   142.1310     0.1043     2.4311     0.1239
