~VERSION INFORMATION
 VERS.                2.0:   CWLS LOG ASCII STANDARD - VERSION 2.0
 WRAP.                 NO:   ONE LINE PER DEPTH STEP
~WELL INFORMATION
#MNEM.UNIT      DATA TYPE    INFORMATION
#----------   ------------   ------------------------------
 STRT.F            0.0000:   START DEPTH
 STOP.F          533.0000:   STOP DEPTH
 STEP.F            0.1000:   STEP LENGTH
 NULL.          -999.2500:   NO VALUE
 COMP.   FLUOR DANIEL INC:   COMPANY
 WELL.   84-4 X 10 #81-10:   WELL
 FLD .             TEAPOT:   FIELD
 LOC .      S10 T38N R78W:   LOCATION
 CNTY.            NATRONA:   COUNTY
 STAT.            WYOMING:   STATE
 CTRY. UNITED STATES OF AMERICA:   COUNTRY
 SRVC.     Atlas Wireline:   SERVICE COMPANY
 DATE.        25-SEP-1994:   LOGDATE
 API .       490252264000:   API NUMBER
~CURVE INFORMATION
#MNEM.UNIT       API CODE    CURVE DESCRIPTION
#----------   ------------   ------------------------------
 DEPT.F                  :   
 GRR .GAPI   07 310 01 00:   GAMMA RAY
 RILD.OHMM   07 120 46 00:   INDUCTION LOG DEEP RESISTIVITY
 RILM.OHMM   07 120 44 00:   INDUCTION LOG MEDIUM RESISTIVITY
~PARAMETER INFORMATION
#MNEM.UNIT          VALUE    DESCRIPTION
#----------   ------------   ------------------------------
 PD  .                 GL:   PERMANENT DATUM
 EPD .F              5150:   ELEVATION PERMANENT DATUM
 LMF .                 KB:   LOG MEASURED FROM
 DAPD.F                10:   FEET ABOVE PERMANENT DATUM
 DMF .                 KB:   DRILLING MEASURED FROM
 EKB .F              5160:   KELLING BUSHING
 EDF .F              5159:   DRILLING FLOOR
 EGL .F              5150:   GROUND LEVEL
 DATE.        25-SEP-1994:   RUN DATE
 RUN .                  1:   RUN NUMBER
 DD  .F               545:   DEPTH DRILLER
 DL  .F               541:   DEPTH LOGGER
 BLI .F               533:   BOTTOM LOG INTERVAL
 CS  .IN            9.625:   CASING SIZE
 CBD .F                76:   CASING BOTTOM DRILLER
 CBL .F                76:   CASING BOTTOM LOGGER
 BS  .IN             8.75:   BIT SIZE
 BSD .F               545:   BIT SIZE AT DEPTH
 DFT .                AIR:   DRILLING FLUID TYPE
 MRT .F                85:   MAXIMUM RECORDED TEMPERATURE
 LUN .            HL 6401:   LOGGING UNIT NUMBER
 LUL .         FT. MORGAN:   LOGGING UNIT LOCATION
 ENGI.    DAVE FREDERICKS:   RECORDING ENGINEER
 WITN.        GARY STRONG:   WITNESSED BY
 CLNT.            A2DTECH:   CLIENT CODE
 ORIG.           5' PRINT:   ORIGIN OF DATA
 UWI .       490252264000:   UNIQUE WELL ID
 DICO. A2D Technologies, Inc.:   DIGITIZING COMPANY
~OTHER INFORMATION
~A    DEPT      GRR      RILD       RILM   
# ...
  254.8000   152.3971     5.5701     6.1279
  254.9000   153.4091     5.6353     6.1749
  255.0000   154.4210     5.7013     6.2455
  255.1000   155.4328     5.7680     6.3339
  255.2000   156.4133     5.8429     6.3737
  255.3000   157.2280     5.9041     6.4564
  255.4000   158.1664     5.9490     6.5229
  255.5000   158.9940     6.0193     6.5988
  255.6000   159.6189     6.1029     6.6567
  255.7000   159.9565     6.1429     6.6953
  255.8000   159.9239     6.2202     6.7415
  255.9000   159.6594     6.2877     6.8718
  256.0000   158.7110     6.3615     6.9075
  256.1000   157.7040     6.4360     6.9758
  256.2000   156.4206     6.5114     7.0569
  256.3000   154.9086     6.5876     7.1390
  256.4000   153.3582     6.6679     7.2219
  256.5000   151.5167     6.7429     7.3140
  256.6000   149.8301     6.7916     7.3524
  256.7000   148.4492     6.8772     7.4255
  256.8000   147.6150     6.9673     7.4897
  256.9000   147.2046     7.0157     7.5468
  257.0000   146.9547     7.0985     7.6345
  257.1000   146.6974     7.1811     7.7310
  257.2000   146.9446     7.2316     7.7720
  257.3000   147.5897     7.2997     7.8172
  257.4000   148.3492     7.3674     7.8625
  257.5000   149.0131     7.4201     7.9082
  257.6000   149.5661     7.5058     7.9485
  257.7000   150.3372     7.5572     7.9486
  257.8000   151.0852     7.5941     7.9912
  257.9000   151.4471     7.6386     8.0377
  258.0000   151.7019     7.6834     8.0597
  258.1000   151.8574     7.7284     8.0752
  258.2000   151.8103     7.7710     8.1159
  258.3000   151.5601     7.7714     8.1160
  258.4000   150.9588     7.7717     8.1161
  258.5000   150.5558     7.8024     8.1162
  258.6000   149.9009     7.8264     8.1163
  258.7000   149.2492     7.8267     8.1165
  258.8000   148.8532     7.8270     8.1166
  258.9000   148.8590     7.8274     8.1167
  259.0000   149.1606     7.8277     8.1168
  259.1000   149.3686     7.8280     8.1169
  259.2000   149.9360     7.8283     8.1170
  259.3000   150.6954     7.8286     8.1009
  259.4000   151.5117     7.8290     8.0613
  259.5000   152.5165     7.8293     8.0614
  259.6000   153.4046     7.8296     8.0615
  259.7000   154.0357     7.7965     8.0266
  259.8000   154.7952     7.7517     8.0061
  259.9000   155.4445     7.7071     7.9897
  260.0000   155.8912     7.6628     7.9511
  260.1000   156.1352     7.6173     7.9512
  260.2000   155.5339     7.6176     7.9073
  260.3000   155.1094     7.5839     7.8619
  260.4000   154.2799     7.5657     7.8423
  260.5000   153.3866     7.5491     7.8258
  260.6000   152.5039     7.4974     7.7884
  260.7000   151.2588     7.4110     7.7885
  260.8000   150.1103     7.4114     7.7886
  260.9000   149.2449     7.3771     7.7541
  261.0000   148.9064     7.3347     7.7351
  261.1000   149.0262     7.2750     7.7352
  261.2000   149.2810     7.2100     7.7274
  261.3000   149.5717     7.2090     7.6821
  261.4000   150.4269     7.1609     7.6388
  261.5000   151.3112     7.1264     7.5608
  261.6000   152.1523     7.1121     7.5246
  261.7000   152.6697     7.0937     7.5080
  261.8000   152.9245     7.0530     7.4648
  261.9000   153.1577     7.0151     7.4215
  262.0000   153.1604     7.0154     7.3373
  262.1000   152.9384     7.0157     7.3197
  262.2000   152.6884     6.9884     7.2948
  262.3000   152.3138     6.9679     7.2528
  262.4000   151.8864     6.9681     7.2111
  262.5000   151.6364     6.9644     7.1697
  262.6000   151.3622     6.9207     7.1204
  262.7000   150.9088     6.9209     7.1204
  262.8000   150.7625     6.8927     7.0958
  262.9000   150.7650     6.8737     7.0715
  263.0000   150.9245     6.8610     7.0716
  263.1000   151.4316     6.8268     7.0717
  263.2000   151.9809     6.8272     7.0718
  263.3000   152.6774     6.7903     7.0389
  263.4000   153.4369     6.7223     7.0233
  263.5000   154.1964     6.6662     7.0234
  263.6000   154.9558     6.6279     7.0235
  263.7000   155.7153     6.5772     7.0228
  263.8000   156.5271     6.4608     6.9752
  263.9000   156.9994     6.4247     6.9753
  264.0000   157.5066     6.3306     6.9504
  264.1000   157.8782     6.2007     6.9274
  264.2000   158.0471     6.0859     6.9184
  264.3000   158.0496     6.0090     6.8764
  264.4000   158.0521     5.9052     6.7386
  264.5000   158.0544     5.7450     6.6427
  264.6000   158.0568     5.6913     6.4355
  264.7000   157.9200     5.6259     6.1505
  264.8000   157.7595     5.5612     5.8690
  264.9000   157.7619     5.4972     5.7029
  265.0000   157.7645     5.4340     5.5521
  265.1000   157.7668     5.3619     5.4459
  265.2000   157.9618     5.3359     5.3412
  265.3000   158.3593     5.3052     5.2628
  265.4000   158.7734     5.2469     5.2024
  265.5000   159.1147     5.1723     5.1441
  265.6000   159.8937     5.1383     5.1101
  265.7000   160.1420     5.0392     5.0852
  265.8000   160.3968     4.9883     5.0560
  265.9000   160.5051     4.9309     5.0269
  266.0000   160.5076     4.8742     4.9980
  266.1000   160.5100     4.8182     4.9709
  266.2000   160.5124     4.7656     4.9710
  266.3000   160.2653     4.7359     4.9711
  266.4000   160.0153     4.7111     4.9711
  266.5000   159.7654     4.6840     4.9712
  266.6000   159.5154     4.6713     4.9713
  266.7000   159.2148     4.6806     4.9733
  266.8000   158.7124     4.7042     5.0059
  266.9000   158.1129     4.7044     5.0060
  267.0000   157.7080     4.7305     5.0255
  267.1000   157.2057     4.7582     5.0547
  267.2000   156.7033     4.7706     5.0841
  267.3000   156.1468     4.7912     5.1136
  267.4000   155.3965     4.8424     5.1469
  267.5000   154.8041     4.8713     5.1995
  267.6000   154.3919     4.8993     5.2601
  267.7000   153.8896     4.9056     5.3362
  267.8000   153.4949     4.9398     5.4386
  267.9000   153.2449     4.9860     5.5655
  268.0000   152.9949     5.0152     5.7103
  268.1000   152.7037     5.0454     5.8292
  268.2000   152.7057     5.1503     5.9416
  268.3000   152.8691     5.1751     6.0110
  268.4000   153.2350     5.2437     6.0563
  268.5000   153.6808     5.3090     6.1267
  268.6000   153.9355     5.3552     6.2052
  268.7000   154.2288     5.4478     6.2701
  268.8000   154.4451     5.5210     6.3950
  268.9000   154.6999     5.5763     6.5446
  269.0000   154.9547     5.6635     6.6737
  269.1000   155.2095     5.7474     6.7512
  269.2000   155.4642     5.8241     6.8370
  269.3000   155.7538     5.9265     6.9093
  269.4000   155.7559     6.0426     6.9610
  269.5000   155.7583     6.1371     7.0014
  269.6000   155.7607     6.2963     7.0549
  269.7000   155.7631     6.4628     7.1273
  269.8000   155.7655     6.6028     7.1275
  269.9000   155.7683     6.7188     7.2036
  270.0000   155.7704     6.8465     7.2571
  270.1000   155.7728     6.9576     7.2992
  270.2000   155.7752     7.0204     7.3279
  270.3000   155.8500     7.0615     7.3333
  270.4000   156.1272     7.1170     7.3790
  270.5000   156.6891     7.1942     7.4187
  270.6000   157.1416     7.2383     7.4304
  270.7000   157.9997     7.3193     7.4534
  270.8000   159.1373     7.3723     7.4822
  270.9000   160.4015     7.3911     7.4823
  271.0000   161.6657     7.4075     7.4824
  271.1000   163.0480     7.4588     7.4825
  271.2000   164.4228     7.5472     7.4826
  271.3000   165.9396     7.5909     7.5062
  271.4000   166.9390     7.6355     7.5348
  271.5000   167.2074     7.6802     7.5349
  271.6000   166.9575     7.7252     7.5350
  271.7000   166.6878     7.7705     7.5764
  271.8000   166.2252     7.8151     7.6204
  271.9000   165.7229     7.8155     7.6403
  272.0000   165.0876     7.8157     7.6404
  272.1000   164.4161     7.8161     7.6473
  272.2000   163.9137     7.8164     7.6937
  272.3000   163.3790     7.8167     7.6938
  272.4000   163.1452     7.8195     7.7277
  272.5000   163.0816     7.8717     7.7475
  272.6000   163.2206     7.8720     7.7638
  272.7000   163.4754     7.8723     7.8015
  272.8000   163.6931     7.8727     7.8016
  272.9000   163.6956     7.8730     7.8453
