~VERSION INFORMATION
 VERS.                2.0:   CWLS LOG ASCII STANDARD - VERSION 2.0
 WRAP.                 NO:   ONE LINE PER DEPTH STEP
~WELL INFORMATION
#MNEM.UNIT      DATA TYPE    INFORMATION
#----------   ------------   ------------------------------
 STRT.F           10.0000:   START DEPTH
 STOP.F          833.5000:   STOP DEPTH
 STEP.F            0.5000:   STEP LENGTH
 NULL.          -999.2500:   NO VALUE
 COMP. FENIX & SCISSON INC:   COMPANY
 WELL.       NPR 3 #46-11:   WELL
 FLD .             TEAPOT:   FIELD
 LOC .      S11 T38N R78W:   LOCATION
 CNTY.            NATRONA:   COUNTY
 STAT.            WYOMING:   STATE
 CTRY. UNITED STATES OF AMERICA:   COUNTRY
 SRVC.           BIRDWELL:   SERVICE COMPANY
 DATE.        17-DEC-1978:   LOGDATE
 API .       490251075600:   API NUMBER
~CURVE INFORMATION
#MNEM.UNIT       API CODE    CURVE DESCRIPTION
#----------   ------------   ------------------------------
 DEPT.F                  :   
 GRD .GAPI   45 310 01 00:   GAMMA RAY FROM DENSITY LOG
 CALD.IN     45 280 60 00:   CALIPER
 CORR.G/C3   45 356 01 00:   DENSITY CORRECTION
 DPHI.DEC    45 890 12 00:   DENSITY POROSITY SANDSTONE
 RHOB.G/C3   45 350 01 00:   BULK DENSITY
 SPR .MV     05 010 01 00:   SPONTANEOUS POTENTIAL FROM RES.
 SN  .OHMM   05 040 16 00:   SHORT NORMAL 16"
 IL  .OHMM   05 120 00 00:   INDUCTION LOG
~PARAMETER INFORMATION
#MNEM.UNIT          VALUE    DESCRIPTION
#----------   ------------   ------------------------------
 PD  .                 GL:   PERMANENT DATUM
 EPD .F              5193:   ELEVATION PERMANENT DATUM
 LMF .                 KB:   LOG MEASURED FROM
 DAPD.F                 4:   FEET ABOVE PERMANENT DATUM
 DMF .                 KB:   DRILLING MEASURED FROM
 EKB .F              5197:   KELLING BUSHING
 EGL .F              5193:   GROUND LEVEL
 DATE.           12-17-78:   RUN DATE
 RUN .                  1:   RUN NUMBER
 DD  .F               845:   DEPTH DRILLER
 DL  .F               834:   DEPTH LOGGER
 BLI .F               827:   BOTTOM LOG INTERVAL
 TLI .F                60:   TOP LOG INTERVAL
 CS  .IN            8.625:   CASING SIZE
 CBD .F                40:   CASING BOTTOM DRILLER
 CBL .F                42:   CASING BOTTOM LOGGER
 BS  .IN            7.875:   BIT SIZE
 BSD .F               845:   BIT SIZE AT DEPTH
 DFT .                KCL:   DRILLING FLUID TYPE
 DFD .                8.8:   DRILLING FLUID DENSITY
 DFV .                 36:   DRILLING FLUID VISCOSITY
 DFPH.               10.5:   DRILLING FLUID PH
 MSS .          FLOW LINE:   MUD SAMPLE SOURCE
 RMS .OHMM            .34:   RESISTIVITY MUD SAMPLE
 MST .F                62:   MUD SAMPLE TEMPERATURE
 RMF .OHMM            .26:   RESISTIVITY MUD FILTRATE SAMPLE
 MFST.F                66:   MUD FILTRATE SAMPLE TEMPERATURE
 RMC .OHMM            .42:   RESISTIVITY MUD CAKE
 MCST.F                68:   MUD CAKE SAMPLE TEMPERATURE
 MFSS.           MEASURED:   MUD FILTRATE SAMPLE SOURCE
 MCSS.           MEASURED:   MUD CAKE SAMPLE SOURCE
 RMB .OHMM           .288:   RESISTIVITY MUD AT BHT
 BHT .F                73:   BOTTOM HOLE TEMPERATURE
 TCS .HRS               4:   TIME CURCULATED STOPPED
 MRT .F                73:   MAXIMUM RECORDED TEMPERATURE
 LUN .               3006:   LOGGING UNIT NUMBER
 LUL .             CASPER:   LOGGING UNIT LOCATION
 ENGI.         B. ROLLINS:   RECORDING ENGINEER
 WITN.         RICHARDSON:   WITNESSED BY
 CLNT.            A2DTECH:   CLIENT CODE
 ORIG.           5" PRINT:   ORIGIN OF DATA
 UWI .       490251075600:   UNIQUE WELL ID
 DICO. A2D Technologies, Inc.:   DIGITIZING COMPANY
~OTHER INFORMATION
~A   DEPT      GRD       CALD       CORR       DPHI       RHOB        SPR         SN         IL   
# ...
  496.0000   102.5270     8.0770     0.0080     0.1210     2.4690   -25.9040     8.1810     7.8550
  496.5000   103.9690     8.0990     0.0090     0.1200     2.4690   -25.9040     8.2520     7.8380
  497.0000   105.4320     8.0850     0.0100     0.1200     2.4690   -25.9040     8.3190     7.8210
  497.5000   105.3700     8.0390     0.0110     0.1200     2.4690   -25.9040     8.3950     7.8040
  498.0000   105.1860     7.9930     0.0110     0.1200     2.4690   -25.9040     8.3910     7.7860
  498.5000   104.8990     7.9470     0.0120     0.1200     2.4690   -25.9040     8.3920     7.7690
  499.0000   104.5180     7.9010     0.0130     0.1210     2.4690   -25.9040     8.3920     7.7520
  499.5000   104.0960     7.8530     0.0140     0.1200     2.4690   -25.9030     8.3920     7.7350
  500.0000   102.5480     7.8960     0.0130     0.1180     2.4700   -25.9030     8.3920     7.7170
  500.5000   100.8450     7.9850     0.0110     0.1170     2.4700   -25.9040     8.3920     7.7000
  501.0000    99.1300     8.0320     0.0090     0.1170     2.4710   -25.9020     8.3920     7.6830
  501.5000    97.3490     7.9550     0.0070     0.1190     2.4710   -25.9050     8.3920     7.6660
  502.0000    97.6200     7.8810     0.0060     0.1210     2.4690   -25.9130     8.3920     7.6480
  502.5000    98.6610     7.8360     0.0040     0.1210     2.4680   -26.0390     8.3920     7.6310
  503.0000   101.8360     7.9720     0.0020     0.1210     2.4670   -26.1500     8.3920     7.6140
  503.5000   104.8940     8.0880     0.0000     0.1190     2.4660   -26.2690     8.3920     7.5970
  504.0000   107.9060     8.1040     0.0010     0.1190     2.4660   -26.3840     8.3920     7.5790
  504.5000   109.9250     8.1290     0.0020     0.1190     2.4650   -26.5000     8.3920     7.5620
  505.0000   107.1400     8.1560     0.0030     0.1200     2.4650   -26.6170     8.3920     7.5450
  505.5000   104.8540     8.1830     0.0050     0.1210     2.4640   -26.7330     8.3920     7.5270
  506.0000   102.5190     8.1730     0.0060     0.1230     2.4610   -26.8490     8.3920     7.5100
  506.5000   102.2550     8.1420     0.0060     0.1270     2.4580   -26.9650     8.3920     7.4930
  507.0000   102.8740     8.1100     0.0060     0.1310     2.4550   -27.0820     8.3920     7.4760
  507.5000   103.5130     8.0780     0.0060     0.1300     2.4530   -27.1980     8.3920     7.4580
  508.0000   104.4550     8.0460     0.0060     0.1260     2.4540   -27.3140     8.3920     7.4410
  508.5000   105.5300     8.0500     0.0070     0.1250     2.4580   -27.4340     8.3920     7.4240
  509.0000   106.4730     8.0900     0.0070     0.1240     2.4630   -27.5830     8.3920     7.4060
  509.5000   106.2490     8.1300     0.0070     0.1240     2.4650   -27.7930     8.3930     7.3890
  510.0000   106.0140     8.1410     0.0070     0.1190     2.4670   -28.0070     8.3910     7.3720
  510.5000   105.7830     8.1240     0.0070     0.1160     2.4700   -28.2230     8.3920     7.3210
  511.0000   105.5530     8.1070     0.0070     0.1180     2.4720   -28.4370     8.3950     7.2500
  511.5000   105.3000     8.0900     0.0070     0.1190     2.4720   -28.6520     8.3560     7.1800
  512.0000   104.6020     8.0720     0.0070     0.1170     2.4730   -28.8660     8.2900     7.1090
  512.5000   103.5130     8.0540     0.0070     0.1150     2.4740   -29.0850     8.2260     7.0380
  513.0000   101.3410     8.0700     0.0080     0.1120     2.4780   -29.2940     8.1640     6.9680
  513.5000    99.2190     8.0970     0.0080     0.1100     2.4820   -29.5070     8.1010     6.8970
  514.0000    97.2200     8.1240     0.0080     0.1090     2.4860   -29.5370     8.0380     6.8260
  514.5000    97.0280     8.1520     0.0080     0.1120     2.4870   -29.5620     7.9750     6.7560
  515.0000   100.6090     8.1800     0.0080     0.1160     2.4800   -29.5800     7.9120     6.7120
  515.5000   103.5460     8.2080     0.0080     0.1200     2.4730   -29.6020     7.8490     6.7160
  516.0000   103.2050     8.1890     0.0080     0.1190     2.4720   -29.6230     7.7860     6.7200
  516.5000   102.6330     8.1650     0.0080     0.1180     2.4730   -29.6440     7.7230     6.7240
  517.0000   102.0470     8.1420     0.0080     0.1160     2.4740   -29.6650     7.6600     6.7280
  517.5000   101.9580     8.1300     0.0090     0.1140     2.4750   -29.6860     7.5970     6.7320
  518.0000   102.9010     8.1300     0.0090     0.1140     2.4760   -29.7070     7.5340     6.7360
  518.5000   103.8470     8.1300     0.0090     0.1170     2.4760   -29.7280     7.4710     6.7400
  519.0000   103.7100     8.1300     0.0090     0.1220     2.4730   -29.7490     7.4080     6.7440
  519.5000   103.4930     8.1330     0.0090     0.1270     2.4700   -29.7700     7.3450     6.7480
  520.0000   103.3140     8.1380     0.0090     0.1320     2.4580   -29.7910     7.2820     6.7520
  520.5000   103.5720     8.1420     0.0090     0.1370     2.4470   -29.8120     7.2190     6.7560
  521.0000   103.8310     8.1460     0.0090     0.1390     2.4380   -29.8330     7.1560     6.7600
  521.5000   104.0700     8.1510     0.0090     0.1330     2.4370   -29.8540     7.0960     6.7640
  522.0000   102.4620     8.1550     0.0100     0.1270     2.4440   -29.8760     7.0960     6.7680
  522.5000   100.5790     8.1600     0.0100     0.1220     2.4540   -29.8960     7.0960     6.7720
  523.0000   100.9140     8.1640     0.0100     0.1170     2.4640   -29.9210     7.0960     6.7760
  523.5000   102.0040     8.1690     0.0100     0.1130     2.4740   -29.9240     7.0960     6.7800
  524.0000   103.1060     8.1570     0.0100     0.1160     2.4760   -29.9170     7.1240     6.7840
  524.5000   103.8590     8.1390     0.0110     0.1200     2.4720   -29.9340     7.2500     6.7880
  525.0000   103.6290     8.0760     0.0150     0.1190     2.4690   -29.9140     7.3770     6.7920
  525.5000   103.4170     7.9710     0.0190     0.1180     2.4680   -29.8620     7.5080     6.7960
  526.0000   103.8740     7.8670     0.0400     0.1190     2.4680   -28.9430     7.5020     6.8000
  526.5000   105.4270     7.8300     0.0670     0.1200     2.4680   -27.3080     7.5050     6.8040
  527.0000   107.0910     7.9910     0.0950     0.1290     2.4660   -25.5090     7.5050     6.8080
  527.5000   108.7520     8.1290     0.1230     0.1380     2.4620   -23.6150     7.5050     6.8120
  528.0000   111.1460     8.1290     0.1440     0.1480     2.4430   -23.4840     7.5050     6.8160
  528.5000   109.8590     8.1240     0.1400     0.1550     2.4260   -23.4000     7.5050     6.8200
  529.0000   107.0240     8.1190     0.1220     0.1480     2.4130   -23.4050     7.5050     6.8240
  529.5000   104.1870     8.1140     0.0770     0.1420     2.4240   -23.3550     7.5040     6.8280
  530.0000   101.2310     8.1130     0.0250     0.1360     2.4360   -23.3220     7.5040     6.8310
  530.5000   102.3200     8.1650     0.0250     0.1300     2.4490   -23.2920     7.5040     6.8350
  531.0000   103.6810     8.2160     0.0290     0.1230     2.4610   -23.2570     7.5040     6.7700
  531.5000   105.0460     8.2230     0.0330     0.1170     2.4730   -23.2240     7.3460     6.6990
  532.0000   106.4070     8.2100     0.0360     0.1110     2.4850   -23.1900     7.2020     6.6270
  532.5000   107.7800     8.1970     0.0380     0.1160     2.4970   -23.1560     7.0590     6.5560
  533.0000   106.7850     8.1830     0.0350     0.1220     2.4860   -23.1220     6.9160     6.4840
  533.5000   102.4390     8.1700     0.0320     0.1290     2.4720   -23.0940     6.7720     6.4120
  534.0000   100.4410     8.1570     0.0280     0.1350     2.4590   -23.1100     6.6290     6.3400
  534.5000    99.4860     8.1370     0.0290     0.1410     2.4480   -23.1230     6.4850     6.2680
  535.0000    99.5030     8.1120     0.0330     0.1470     2.4370   -23.1390     6.3420     6.2280
  535.5000    99.5040     8.0880     0.0380     0.1530     2.4250   -23.1530     6.1980     6.2280
  536.0000    99.5020     8.0630     0.0420     0.1560     2.4110   -23.1680     6.0550     6.2280
