~VERSION INFORMATION
 VERS.                2.0:   CWLS LOG ASCII STANDARD - VERSION 2.0
 WRAP.                 NO:   ONE LINE PER DEPTH STEP
~WELL INFORMATION
#MNEM.UNIT      DATA TYPE    INFORMATION
#----------   ------------   ------------------------------
 STRT.F            0.0000:   START DEPTH
 STOP.F          555.0000:   STOP DEPTH
 STEP.F            0.5000:   STEP LENGTH
 NULL.          -999.2500:   NO VALUE
 COMP.       F D SERV INC:   COMPANY
 WELL. NAVAL PETROLEUM RESERVE 3 SX-3 #77-3:   WELL
 FLD .        N. P. R NO3:   FIELD
 LOC .       S3 T38N R78W:   LOCATION
 CNTY.            NATRONA:   COUNTY
 STAT.            WYOMING:   STATE
 CTRY. UNITED STATES OF AMERICA:   COUNTRY
 SRVC.     Atlas Wireline:   SERVICE COMPANY
 DATE.        26-OCT-1992:   LOGDATE
 API .       490252255200:   API NUMBER
~CURVE INFORMATION
#MNEM.UNIT       API CODE    CURVE DESCRIPTION
#----------   ------------   ------------------------------
 DEPT.F                  :   
 GRR .GAPI   07 310 01 00:   GAMMA RAY
 RILD.OHMM   07 120 46 00:   INDUCTION LOG DEEP RESISTIVITY
 RILM.OHMM   07 120 44 00:   INDUCTION LOG MEDIUM RESISTIVITY
~PARAMETER INFORMATION
#MNEM.UNIT          VALUE    DESCRIPTION
#----------   ------------   ------------------------------
 PD  .                 GL:   PERMANENT DATUM
 EPD .F              5161:   ELEVATION PERMANENT DATUM
 LMF .                 KB:   LOG MEASURED FROM
 DAPD.F                10:   FEET ABOVE PERMANENT DATUM
 DMF .                 KB:   DRILLING MEASURED FROM
 EKB .F              5171:   KELLING BUSHING
 EDF .F              5170:   DRILLING FLOOR
 EGL .F              5161:   GROUND LEVEL
 DATE.        26-OCT-1992:   RUN DATE
 RUN .                  1:   RUN NUMBER
 DD  .F               562:   DEPTH DRILLER
 DL  .F               563:   DEPTH LOGGER
 BLI .F               555:   BOTTOM LOG INTERVAL
 CS  .IN            8.625:   CASING SIZE
 CBD .F                85:   CASING BOTTOM DRILLER
 CBL .F                56:   CASING BOTTOM LOGGER
 BS  .IN            7.875:   BIT SIZE
 BSD .F               562:   BIT SIZE AT DEPTH
 DFT .           AIR FOAM:   DRILLING FLUID TYPE
 TCS .HRS               1:   TIME CURCULATED STOPPED
 MRT .F                67:   MAXIMUM RECORDED TEMPERATURE
 LUN .            HL-6274:   LOGGING UNIT NUMBER
 LUL .             CASPER:   LOGGING UNIT LOCATION
 ENGI.             RAUTIO:   RECORDING ENGINEER
 WITN.        GARY STRONG:   WITNESSED BY
 CLNT.            A2DTECH:   CLIENT CODE
 ORIG.           5" PRINT:   ORIGIN OF DATA
 UWI .       490252255200:   UNIQUE WELL ID
 DICO. A2D Technologies, Inc.:   DIGITIZING COMPANY
~OTHER INFORMATION
~A    DEPT      GRR      RILD       RILM   
# ...
  455.0000    97.2355    12.9909    13.0496
  455.5000    97.8248    13.0377    13.0487
  456.0000    99.9316    13.1309    13.0478
  456.5000   101.4359    13.1326    13.0467
  457.0000    99.5929    13.0430    13.0458
  457.5000    97.4507    13.0448    13.0449
  458.0000    97.4289    13.1380    13.0441
  458.5000    98.0227    13.2322    13.1346
  459.0000    98.6120    13.2340    13.2259
  459.5000    99.5005    13.6107    13.2250
  460.0000   101.0003    13.4233    13.3168
  460.5000   101.5903    13.0553    13.4093
  461.0000   100.3541    13.1490    13.2220
  461.5000    97.3050    12.9579    13.0377
  462.0000    99.4081    12.7012    12.8558
  462.5000   102.1219    12.5272    12.5006
  463.0000   104.2331    12.3547    12.2404
  463.5000   105.4250    12.3568    11.9857
  464.0000   106.0188    12.1871    11.8185
  464.5000   104.7828    12.0183    11.7352
  465.0000   106.3126    11.9376    11.8169
  465.5000   108.9921    11.9396    11.8159
  466.0000   109.2824    11.9413    11.8151
  466.5000   108.3499    12.0265    11.8974
  467.0000   108.6402    11.9445    11.9798
  467.5000   110.4391    12.0298    12.1476
  468.0000   111.0288    12.1157    12.1467
  468.5000   111.3144    12.2027    12.1457
  469.0000   110.9889    12.1190    12.1449
  469.5000   110.6678    12.0363    12.0595
  470.0000   105.4908    12.1226    12.0587
  470.5000   103.0453    11.9557    11.9740
  471.0000   103.6347    11.9577    11.8897
  471.5000   108.7764    12.0432    11.8061
  472.0000   112.7042    11.7951    11.7155
  472.5000   112.3369    11.5521    11.4791
  473.0000   109.0227    11.3938    11.3715
  473.5000   107.4876    11.2369    11.1610
  474.0000   108.0770    11.1606    11.0053
  474.5000   108.6707    11.0832    10.8519
  475.0000   108.9530    10.9322    10.7756
  475.5000   108.6311    10.9340    10.6998
  476.0000   108.0065    10.7839    10.6186
  476.5000   109.8055    10.7099    10.4762
  477.0000   112.8272    10.4896    10.3301
  477.5000   116.1435    10.2735    10.1861
  478.0000   120.6783    10.1278     9.9046
  478.5000   122.4860     9.8550     9.6309
  479.0000   120.6431     9.7193     9.4305
  479.5000   119.7147     9.5194     9.2342
  480.0000   121.2104     9.1301     9.0336
  480.5000   124.5312     8.6352     8.6700
  481.0000   123.6031     8.1103     8.1410
  481.5000   120.5506     7.2813     7.2793
  482.0000   120.8365     6.0930     6.3738
  482.5000   122.3364     5.8438     5.2774
  483.0000   125.9787     5.6048     4.9554
  483.5000   130.7323     5.5276     4.8863
  484.0000   142.3095     5.6063     5.1668
  484.5000   147.0424     5.6859     6.0251
  485.0000   145.3092     5.8138     6.9770
  485.5000   136.7938     6.1417     7.6936
  486.0000   127.6715     6.7262     8.3077
  486.5000   114.3004     7.5750     8.8468
  487.0000   111.5513     8.5309     9.2975
  487.5000   113.9572     9.1491     9.5518
  488.0000   115.1580     9.4799     9.6857
  488.5000   114.8369     9.8138     9.8214
  489.0000   116.9393     9.9532     9.8896
  489.5000   117.5331    10.2365     9.9582
  490.0000   116.2971    10.4546    10.0975
  490.5000   117.5144    10.5292    10.2390
  491.0000   121.1133    10.6045    10.3824
  491.5000   122.3097    10.7639    10.5276
  492.0000   120.1677    10.9081    10.5269
  492.5000   118.9361    11.2186    10.6925
  493.0000   118.9185    11.3780    10.8240
  493.5000   117.9904    11.5396    11.1299
  494.0000   117.0460    11.7855    11.2858
  494.5000   114.8700    12.0366    11.4438
  495.0000   115.8088    12.1226    11.7674
  495.5000   118.5226    12.1242    12.0159
  496.0000   120.3259    12.4810    12.2694
  496.5000   118.7908    13.0050    12.4415
  497.0000   116.9523    12.9158    12.7042
  497.5000   114.8102    13.0997    12.8821
  498.0000   112.9348    13.2857    12.9714
  498.5000   109.9148    13.1950    13.0615
  499.0000   108.6677    13.0108    12.9696
  499.5000   108.0616    13.0324    12.9685
  500.0000   108.9554    13.2933    12.9452
  500.5000   107.4194    13.1107    12.8757
  501.0000   108.6185    12.9302    12.7842
  501.5000   111.9420    12.8424    12.6931
  502.0000   114.9621    12.6660    12.5152
  502.5000   113.4294    12.5795    12.4263
  503.0000   110.8852    12.5816    12.3381
  503.5000   110.3614    12.7603    12.2505
  504.0000   112.7745    12.4975    12.1635
  504.5000   113.9735    12.5867    12.0772
  505.0000   113.6552    12.5884    12.0755
  505.5000   112.4264    12.5901    12.0739
  506.0000   111.8082    12.4057    11.9881
  506.5000   113.3071    12.4193    11.9865
  507.0000   115.7202    12.1634    11.9014
  507.5000   120.5611    11.8958    11.8127
  508.0000   124.1882    11.4829    11.5508
  508.5000   124.4768    11.2402    11.0159
  509.0000   124.0567    11.1574    10.7859
  509.5000   119.5875    10.9170    10.6347
  510.0000   118.0552    10.7657    10.4857
  510.5000   118.9508    10.7602    10.4112
  511.0000   119.8501    10.4595    10.3373
  511.5000   118.3141    10.4552    10.2639
  512.0000   119.2097    10.5252    10.1910
  512.5000   123.7472    10.3739    10.0482
  513.0000   126.7672    10.2258     9.9074
  513.5000   126.1454     9.8709     9.6330
  514.0000   126.7375     9.6623     9.4980
  514.5000   128.8720     9.6583     9.4305
  515.0000   128.1233     9.6544     9.4954
  515.5000   124.5647     9.6504     9.4940
  516.0000   125.4604     9.6464     9.4924
  516.5000   125.1420     9.6424     9.4911
  517.0000   123.0064     9.6383     9.4237
  517.5000   120.2564     9.7020     9.3568
  518.0000   115.3857     9.6296     9.3555
  518.5000   109.6045     9.4921     9.3542
  519.0000   106.2513     9.2915     9.2231
  519.5000   105.6294     9.2231     9.2219
  520.0000   106.2215     9.0914     9.0926
  520.5000   109.0640     8.8993     8.9652
  521.0000   112.4126     8.7723     8.8396
  521.5000   115.2779     8.5271     8.5947
  522.0000   116.4770     8.3469     8.4695
  522.5000   117.3726     8.3435     8.3467
  523.0000   120.0892     8.3400     8.2381
  523.5000   121.5918     8.2785     8.1796
  524.0000   120.0595     8.2743     8.1216
  524.5000   116.7062     8.1562     7.9520
  525.0000   114.2634     7.9944     7.7859
  525.5000   115.1590     7.7608     7.4652
  526.0000   116.0546     7.6500     7.2584
  526.5000   115.7107     7.4883     7.2069
  527.0000   115.1138     7.3814     7.2059
  527.5000   113.8819     7.3784     7.2555
  528.0000   113.5635     7.3753     7.4081
  528.5000   113.2452     7.4240     7.4591
  529.0000   113.2303     7.5780     7.4612
  529.5000   113.8261     7.8990     7.6219
  530.0000   115.0215     8.2374     7.8847
  530.5000   115.6136     8.5309     8.2209
  531.0000   113.7778     8.9450     8.5717
  531.5000   111.9420     9.3892     9.0633
  532.0000   110.1062     9.7869     9.5164
  532.5000   111.0269     9.9205     9.7848
  533.0000   110.6829    10.0558     9.8524
  533.5000   110.0579    10.1232     9.9897
  534.0000   108.5256    10.1180    10.0584
  534.5000   107.2968    10.1138    10.0567
  535.0000   104.0971    10.1815    10.0553
  535.5000   103.4901    10.1763     9.9144
  536.0000   105.9181    10.1013     9.8437
  536.5000   108.3460    10.0255     9.7739
  537.0000   110.3975     9.9530     9.7045
  537.5000  -999.2500     9.8796     9.7031
  538.0000  -999.2500     9.8746     9.7018
  538.5000  -999.2500     9.8706     9.6329
  539.0000  -999.2500     9.7979     9.6316
  539.5000  -999.2500     9.8635     9.5632
  540.0000  -999.2500     9.9285     9.4953
  540.5000  -999.2500    10.0640     9.3620
  541.0000  -999.2500     9.9888     9.2263
  541.5000  -999.2500     9.8462     9.0292
  542.0000  -999.2500     9.6382     8.7264
  542.5000  -999.2500     9.3688     8.4256
  543.0000  -999.2500     8.9901     8.0223
  543.5000  -999.2500     8.6142     7.5851
  544.0000  -999.2500     8.1534     7.2726
  544.5000  -999.2500     7.7105     7.1208
  545.0000  -999.2500     7.3426     6.8753
  545.5000  -999.2500     6.7998     6.5921
