~VERSION INFORMATION
 VERS.                2.0:   CWLS LOG ASCII STANDARD - VERSION 2.0
 WRAP.                 NO:   ONE LINE PER DEPTH STEP
~WELL INFORMATION
#MNEM.UNIT      DATA TYPE    INFORMATION
#----------   ------------   ------------------------------
 STRT.F           30.0000:   START DEPTH
 STOP.F          733.0000:   STOP DEPTH
 STEP.F            0.5000:   STEP LENGTH
 NULL.          -999.2500:   NO VALUE
 COMP. FENIX & SCISSON INC:   COMPANY
 WELL.    NPR-3 #51 S -34:   WELL
 FLD .             TEAPOT:   FIELD
 LOC .      S34 T39N R78W:   LOCATION
 CNTY.            NATRONA:   COUNTY
 STAT.            WYOMING:   STATE
 CTRY. UNITED STATES OF AMERICA:   COUNTRY
 SRVC.      Dresser Atlas:   SERVICE COMPANY
 DATE.        20-MAR-1977:   LOGDATE
 API .       490251031600:   API NUMBER
~CURVE INFORMATION
#MNEM.UNIT       API CODE    CURVE DESCRIPTION
#----------   ------------   ------------------------------
 DEPT.F                  :   
 CALD.IN     45 280 60 00:   CALIPER FROM DENSITY LOG
 GRD .GAPI   45 310 01 00:   GAMMA RAY FROM DENSITY LOG
 CORR.G/C3   45 356 01 00:   DENSITY CORRECTION
 DPHI.DEC    45 890 12 00:   DENSITY POROSITY SANDSTONE
 RHOB.G/C3   45 350 01 00:   BULK DENSITY
 SPR .MV     07 010 01 00:   SPONTANEOUS POTENTIAL
 ILD .OHMM   07 120 46 00:   INDUCTION LOG DEEP
 ILM .OHMM   07 120 44 00:   INDUCTION LOG MEDIUM
 SFL .OHMM   07 220 01 00:   SHALLOW FOCUSED LOG RESISTIVITY
~PARAMETER INFORMATION
#MNEM.UNIT          VALUE    DESCRIPTION
#----------   ------------   ------------------------------
 PD  .                 GL:   PERMANENT DATUM
 EPD .F              5065:   ELEVATION PERMANENT DATUM
 LMF .                 KB:   LOG MEASURED FROM
 DAPD.F                 4:   FEET ABOVE PERMANENT DATUM
 DMF .                 KB:   DRILLING MEASURED FROM
 EKB .F              5069:   KELLING BUSHING
 EGL .F              5065:   GROUND LEVEL
 DATE.        20-MAR-1977:   RUN DATE
 RUN .                  1:   RUN NUMBER
 DD  .F               735:   DEPTH DRILLER
 DL  .F               731:   DEPTH LOGGER
 BLI .F               729:   BOTTOM LOG INTERVAL
 TLI .F                42:   TOP LOG INTERVAL
 CS  .IN            8.625:   CASING SIZE
 CBD .F                40:   CASING BOTTOM DRILLER
 CBL .F                42:   CASING BOTTOM LOGGER
 BS  .IN            7.875:   BIT SIZE
 BSD .F               735:   BIT SIZE AT DEPTH
 DFT .           CHEM GEL:   DRILLING FLUID TYPE
 DFD .                9.0:   DRILLING FLUID DENSITY
 DFV .                 38:   DRILLING FLUID VISCOSITY
 DFPH.                8.5:   DRILLING FLUID PH
 DFL .                 72:   DRILLING FLUID LOSS
 MSS .           FLOWLINE:   MUD SAMPLE SOURCE
 RMS .OHMM             .4:   RESISTIVITY MUD SAMPLE
 MST .F                51:   MUD SAMPLE TEMPERATURE
 RMF .OHMM            .72:   RESISTIVITY MUD FILTRATE SAMPLE
 MFST.F                48:   MUD FILTRATE SAMPLE TEMPERATURE
 RMC .OHMM           1.16:   RESISTIVITY MUD CAKE
 MCST.F                48:   MUD CAKE SAMPLE TEMPERATURE
 MFSS.               MEAS:   MUD FILTRATE SAMPLE SOURCE
 MCSS.               MEAS:   MUD CAKE SAMPLE SOURCE
 RMB .OHMM            .31:   RESISTIVITY MUD AT BHT
 BHT .F                66:   BOTTOM HOLE TEMPERATURE
 TCS .HRS            0300:   TIME CURCULATED STOPPED
 MRT .F                66:   MAXIMUM RECORDED TEMPERATURE
 LUN .               6145:   LOGGING UNIT NUMBER
 LUL .              GLTTE:   LOGGING UNIT LOCATION
 ENGI.              RANCK:   RECORDING ENGINEER
 WITN.              BURKE:   WITNESSED BY
 CLNT.            A2DTECH:   CLIENT CODE
 ORIG.           5" PRINT:   ORIGIN OF DATA
 UWI .       490251031600:   UNIQUE WELL ID
 DICO. A2D Technologies, Inc.:   DIGITIZING COMPANY
~OTHER INFORMATION
~A   DEPT     CALD        GRD       CORR       DPHI       RHOB        SPR        ILD        ILM        SFL   
# ...
  212.5000     8.2425   105.4072     0.0350     0.1022     2.4934   -49.1045     5.8156     7.0779     7.8637
  213.0000     8.2442   104.3868     0.0306     0.1037     2.4860   -48.9373     5.8592     7.0329     7.9182
  213.5000     8.2306   102.0182     0.0263     0.1106     2.4725   -48.7666     5.9442     7.0368     8.0363
  214.0000     8.2175   100.6944     0.0204     0.1145     2.4598   -48.9025     5.9887     6.9921     8.2029
  214.5000     8.2043   100.2661     0.0160     0.1173     2.4539   -48.8802     6.0755     6.9959     8.4311
  215.0000     8.1912    99.5393     0.0131     0.1194     2.4502   -49.0161     6.1211     6.9515     8.6033
  215.5000     8.1785    98.9617     0.0132     0.1203     2.4510   -48.9938     6.1245     6.8597     8.7231
  216.0000     8.1803    99.1304     0.0134     0.1179     2.4608   -48.9760     6.1279     6.8161     8.7231
  216.5000     8.1667   101.3887     0.0165     0.1128     2.4729   -48.9582     6.1313     6.7679     8.3686
  217.0000     8.1689   101.1097     0.0257     0.1079     2.4812   -48.9404     6.0085     6.6833     8.0285
  217.5000     8.1707   102.0247     0.0334     0.1055     2.4880   -48.9226     5.9643     6.6409     7.7022
  218.0000     8.1725   105.1785     0.0365     0.1052     2.4873   -48.9047     5.8038     6.5531     7.5964
  218.5000     8.1593   105.7949     0.0366     0.1085     2.4798   -48.8869     5.6551     6.5115     7.5441
  219.0000     8.1611   106.1129     0.0383     0.1111     2.4716   -49.0228     5.5045     6.4701     7.4921
  219.5000     8.1629   106.2768     0.0381     0.1132     2.4664   -49.0005     5.3944     6.4209     7.4405
  220.0000     8.1498   102.7190     0.0386     0.1141     2.4656   -49.2812     5.2864     6.3003     7.3383
  220.5000     8.1516   101.0967     0.0387     0.1140     2.4635   -49.5663     5.2159     6.2603     7.2877
  221.0000     8.1534    99.6236     0.0388     0.1140     2.4645   -49.5441     5.1828     6.1776     7.2803
  221.5000     8.1398    98.1506     0.0420     0.1134     2.4692   -49.6800     5.1864     6.1384     7.2362
  222.0000     8.1420    97.2745     0.0451     0.1107     2.4763   -49.6577     5.1534     6.1426     7.1876
  222.5000     8.1438    98.9358     0.0483     0.1052     2.4867   -49.6399     5.1563     6.1460     7.1711
  223.0000     8.1456   102.9851     0.0529     0.0971     2.5001   -49.4728     5.1591     6.1494     7.1526
  223.5000     8.1474   105.6911     0.0561     0.0920     2.5067   -49.3057     5.1620     6.1528     7.0658
  224.0000     8.1338   107.0539     0.0607     0.0877     2.5112   -49.1386     5.2007     6.1990     6.9735
  224.5000     8.1360   107.6703     0.0669     0.0835     2.5143   -49.1208     5.2397     6.2889     6.9773
  225.0000     8.1224   107.2421     0.0731     0.0820     2.5173   -49.1030     5.2425     6.3361     6.9812
  225.5000     8.1247   106.8089     0.0777     0.0829     2.5164   -48.9359     5.2819     6.4727     6.9850
  226.0000     8.1265   106.5347     0.0824     0.0864     2.5089   -48.7688     5.3956     6.5666     7.1356
  226.5000     8.1283   106.1064     0.0855     0.0888     2.5038   -48.6018     5.4738     6.7081     7.2391
  227.0000     8.1300   104.6334     0.0872     0.0897     2.5016   -48.4347     5.5917     6.9004     7.2934
  227.5000     8.1318   103.3095     0.0888     0.0897     2.5025   -48.4169     5.7122     7.0981     7.3481
  228.0000     8.1182   100.7917     0.0889     0.0896     2.5049   -48.5483     5.8757     7.3015     7.5065
  228.5000     8.1205   100.0600     0.0875     0.0902     2.5071   -48.5305     6.0439     7.4589     7.7216
  229.0000     8.1223   102.4724     0.0892     0.0911     2.5054   -48.6627     6.1741     7.6726     7.9429
  229.5000     8.1241   102.7904     0.0878     0.0926     2.4987   -48.7940     6.2636     7.8925     8.2272
  230.0000     8.1259   102.8060     0.0865     0.0961     2.4929   -49.0746     6.3544     8.0070     8.5218
  230.5000     8.1127   102.2383     0.0866     0.1003     2.4899   -49.2060     6.4020     8.1796     9.0748
  231.0000     8.1145   100.1574     0.0837     0.1036     2.4847   -49.3369     6.4056     8.1841     9.6638
  231.5000     8.1013   101.5448     0.0763     0.1056     2.4781   -49.4683     6.4091     7.9649    10.2909
  232.0000     8.1028   101.6888     0.0674     0.1011     2.4917   -49.6000     6.3684     7.7516    10.4387
  232.5000     8.1049    99.2015     0.0630     0.0843     2.5102   -49.7312     6.2409     7.3888     9.8829
  233.0000     8.0918    97.1970     0.0647     0.0819     2.5152   -49.7134     6.0740     7.0920     8.4910
  233.5000     8.0936    95.7771     0.0633     0.0860     2.5149   -49.6955     5.9938     6.9021     7.8726
  234.0000     8.0954    97.5084     0.0574     0.0995     2.5066   -49.8270     5.9146     6.7630     7.6089
  234.5000     8.0972   100.9627     0.0410     0.1040     2.4930   -49.8090     5.7563     6.6736     7.5595
  235.0000     8.1139   103.3184     0.0321     0.1064     2.4791   -49.7913     5.6412     6.6313     7.5125
  235.5000     8.1456   103.9149     0.0247     0.1069     2.4747   -49.9228     5.5667     6.6358     7.5166
  236.0000     8.1623   103.4627     0.0218     0.1069     2.4734   -49.9050     5.5698     6.6856     7.5208
  236.5000     8.1641   101.8522     0.0190     0.1066     2.4750   -50.0364     5.5729     6.7358     7.5772
  237.0000     8.1809   100.2358     0.0175     0.1054     2.4690   -50.0179     5.5783     6.7864     7.6341
  237.5000     8.1827    99.2164     0.0162     0.1029     2.4798   -50.0000     5.6568     6.7901     7.6383
  238.0000     8.1845    98.7881     0.0179     0.1014     2.4918   -49.9821     5.7787     6.8411     7.8029
  238.5000     8.1862    99.5539     0.0195     0.1008     2.5008   -49.9606     5.9441     6.9403     7.9161
  239.0000     8.1880   100.3196     0.0211     0.1013     2.5030   -49.9428     6.0786     6.9924     8.0309
  239.5000     8.1898   100.3391     0.0198     0.1034     2.4878   -49.9250     6.2537     7.1431     8.1474
  240.0000     8.1916    98.7167     0.0169     0.1070     2.4775   -49.9072     6.3813     7.1967     8.3230
  240.5000     8.1934    97.5299     0.0155     0.1082     2.4738   -49.7401     6.4738     7.3011     8.3855
  241.0000     8.1952    98.1587     0.0157     0.1081     2.4709   -49.7223     6.4774     7.3559     8.5071
  241.5000     8.2120    98.7751     0.0173     0.1057     2.4741   -49.7045     6.4362     7.3600     8.6305
  242.0000     8.2138    99.2424     0.0189     0.1039     2.4816   -49.8359     6.3513     7.2628     8.7557
  242.5000     8.2155   100.9036     0.0221     0.1027     2.4861   -49.8181     6.3101     7.2156     8.8215
  243.0000     8.2173   102.4156     0.0237     0.1014     2.4869   -49.9540     6.1420     7.1706     8.8264
  243.5000     8.2191   102.2859     0.0253     0.1002     2.4869   -50.0854     5.9768     7.0761     8.6496
  244.0000     8.2209   101.1113     0.0285     0.0984     2.4892   -50.3661     5.8581     7.0310     8.4126
  244.5000     8.2227   100.0860     0.0289     0.0950     2.4924   -50.4975     5.6620     6.8904     8.0116
  245.0000     8.2245   101.0010     0.0320     0.0920     2.4961   -50.6289     5.5104     6.7058     7.5296
  245.5000     8.2263   101.9160     0.0364     0.0917     2.4992   -50.6067     5.5134     6.6632     7.2831
  246.0000     8.2281   103.8757     0.0396     0.0914     2.5007   -50.4396     5.5165     6.6669     7.2443
  246.5000     8.2448   105.5370     0.0397     0.0910     2.5015   -50.4218     5.5578     6.6706     7.2485
  247.0000     8.2463   106.1535     0.0414     0.0898     2.5038   -50.5577     5.5995     6.6743     7.3037
  247.5000     8.2484   106.1729     0.0415     0.0886     2.5061   -50.5354     5.6807     6.7244     7.3077
  248.0000     8.2502   106.1924     0.0416     0.0877     2.5077   -50.3683     5.7233     6.7281     7.3118
  248.5000     8.2520   108.0029     0.0418     0.0867     2.5085   -50.3505     5.7662     6.8731     7.3666
