~VERSION INFORMATION
 VERS.                2.0:   CWLS LOG ASCII STANDARD - VERSION 2.0
 WRAP.                 NO:   ONE LINE PER DEPTH STEP
~WELL INFORMATION
#MNEM.UNIT      DATA TYPE    INFORMATION
#----------   ------------   ------------------------------
 STRT.F           12.0000:   START DEPTH
 STOP.F          549.0000:   STOP DEPTH
 STEP.F            0.5000:   STEP LENGTH
 NULL.          -999.2500:   NO VALUE
 COMP. LAWRENCE/ALLISON INC:   COMPANY
 WELL.  58-64-1 SX 3 #3-3:   WELL
 FLD .             TEAPOT:   FIELD
 LOC .       S3 T38N R78W:   LOCATION
 CNTY.            NATRONA:   COUNTY
 STAT.            WYOMING:   STATE
 CTRY. UNITED STATES OF AMERICA:   COUNTRY
 SRVC.      Dresser Atlas:   SERVICE COMPANY
 DATE.        05-DEC-1984:   LOGDATE
 API .       490251117800:   API NUMBER
~CURVE INFORMATION
#MNEM.UNIT       API CODE    CURVE DESCRIPTION
#----------   ------------   ------------------------------
 DEPT.F                  :   
 RFOC.OHMM   07 220 04 00:   RESISTIVITY FOCUSED LOG
 RILD.OHMM   07 120 46 00:   INDUCTION LOG DEEP RESISTIVITY
 RILM.OHMM   07 120 44 00:   INDUCTION LOG MEDIUM RESISTIVITY
 SPR .MV     07 010 01 00:   SPONTANEOUS POTENTIAL
 CALD.IN     45 280 60 00:   CALIPER FROM DENSITY LOG
 CNC .DEC    42 890 03 00:   NEUTRON POROSITY SANDSTONE
 CORR.G/C3   45 356 01 00:   DENSITY CORRECTION
 DEN .G/C3   45 350 01 00:   COMPENSATED BULK DENSTIY
 GRD .GAPI   45 310 01 00:   GAMMA RAY FROM DENSITY LOG
 PORD.DEC    45 890 12 00:   POROSITY DENSITY SANDSTONE
 DT  .US/F   60 520 00 00:   INTERVAL TRANSIT TIME
~PARAMETER INFORMATION
#MNEM.UNIT          VALUE    DESCRIPTION
#----------   ------------   ------------------------------
 PD  .                 GL:   PERMANENT DATUM
 EPD .F              5188:   ELEVATION PERMANENT DATUM
 LMF .                 KB:   LOG MEASURED FROM
 DMF .                 KB:   DRILLING MEASURED FROM
 EGL .F              5188:   GROUND LEVEL
 DATE.         5-DEC-1984:   RUN DATE
 RUN .                  1:   RUN NUMBER
 DD  .F               556:   DEPTH DRILLER
 DL  .F               551:   DEPTH LOGGER
 BLI .F               549:   BOTTOM LOG INTERVAL
 CS  .IN            8.625:   CASING SIZE
 CBD .F                20:   CASING BOTTOM DRILLER
 CBL .F                20:   CASING BOTTOM LOGGER
 BS  .IN            7.875:   BIT SIZE
 BSD .F               556:   BIT SIZE AT DEPTH
 DFT .          KCL WATER:   DRILLING FLUID TYPE
 MSS .           FLOWLINE:   MUD SAMPLE SOURCE
 RMS .OHMM            .36:   RESISTIVITY MUD SAMPLE
 MST .F                70:   MUD SAMPLE TEMPERATURE
 RMF .OHMM            .26:   RESISTIVITY MUD FILTRATE SAMPLE
 MFST.F                70:   MUD FILTRATE SAMPLE TEMPERATURE
 RMC .OHMM            .46:   RESISTIVITY MUD CAKE
 MCST.F                70:   MUD CAKE SAMPLE TEMPERATURE
 MFSS.               CALC:   MUD FILTRATE SAMPLE SOURCE
 MCSS.               CALC:   MUD CAKE SAMPLE SOURCE
 RMB .OHMM            .29:   RESISTIVITY MUD AT BHT
 BHT .F                85:   BOTTOM HOLE TEMPERATURE
 TCS .HRS               3:   TIME CURCULATED STOPPED
 MRT .F               100:   MAXIMUM RECORDED TEMPERATURE
 LUN .               6274:   LOGGING UNIT NUMBER
 LUL .               GLTE:   LOGGING UNIT LOCATION
 ENGI.             RAUTIO:   RECORDING ENGINEER
 WITN.       GROOMS/LUERS:   WITNESSED BY
 CLNT.            A2DTECH:   CLIENT CODE
 ORIG.         2.5" PRINT:   ORIGIN OF DATA
 UWI .       490251117800:   UNIQUE WELL ID
 DICO. A2D Technologies, Inc.:   DIGITIZING COMPANY
~OTHER INFORMATION
~A   DEPT     RFOC       RILD       RILM        SPR       CALD        CNC       CORR        DEN         GRD      PORD         DT   
# ...
  317.0000    16.9189    16.9593    17.3564   -53.6054     8.0389     0.2324     0.0019     2.3839    82.8693     0.1753    97.7647
  317.5000    16.6783    16.9535    16.9087   -53.6174     8.0687     0.2319     0.0055     2.3946    82.8571     0.1696    96.9985
  318.0000    16.2139    16.2549    16.1999   -53.6294     8.0682     0.2363     0.0326     2.4038    82.9463     0.1650    96.1659
  318.5000    15.3299    16.0248    15.6210   -53.6414     8.0678     0.2400     0.0484     2.4115    83.4420     0.1610    95.6395
  319.0000    15.2735    15.5796    15.3931   -53.9615     8.0371     0.2449     0.0561     2.4158    84.0380     0.1583    95.1176
  319.5000    15.3179    15.5743    15.2764   -54.5775     8.0367     0.2466     0.0464     2.4158    84.6340     0.1587    94.8137
  320.0000    15.5254    15.5689    15.1705   -54.8936     8.0362     0.2381     0.0273     2.4127    85.8379     0.1593    95.0528
  320.5000    15.5190    15.5636    15.2615   -54.9058     8.0358     0.2307     0.0152     2.4127    86.6595     0.1593    95.5053
  321.0000    15.5126    15.5582    15.2541   -54.9179     8.0353     0.2286     0.0091     2.4112    87.5339     0.1593    95.8069
  321.5000    15.2919    15.5529    15.4588   -54.9301     8.0349     0.2293     0.0273     2.4108    88.5096     0.1606    96.1086
  322.0000    15.4997    15.5475    15.4513   -54.9422     8.0338     0.2314     0.0371     2.4086    88.5228     0.1624    96.4103
  322.5000    15.4933    15.7599    15.6603   -54.9544     8.0038     0.2345     0.0242     2.4025    88.2067     0.1649    96.2594
  323.0000    15.4869    15.7545    15.6527   -54.9666     8.0033     0.2387     0.0061     2.3984    88.1945     0.1673    96.1086
  323.5000    15.4805    15.7491    15.6452   -54.9787     8.0331     0.2429    -0.0061     2.3976    89.3959     0.1674    95.8069
  324.0000    15.4741    15.9642    15.4216   -54.9909     8.0326     0.2442    -0.0030     2.3976    89.3840     0.1649    95.5053
  324.5000    15.4677    15.4943    14.9912   -54.6973     8.0386     0.2406     0.0030     2.4031    90.5897     0.1606    95.2036
  325.0000    14.6244    14.6418    14.3714   -54.7112     8.0620     0.2382     0.0091     2.4115    89.3602     0.1563    94.7511
  325.5000    13.6322    13.8560    13.7773   -54.7234     8.0615     0.2412     0.0183     2.4219    88.1325     0.1525    94.2986
  326.0000    13.4419    13.4907    13.5804   -54.8531     8.0610     0.2454     0.0212     2.4294    86.9048     0.1476    93.6953
  326.5000    13.4476    13.4860    13.5738   -55.0517     8.0606     0.2442     0.0152     2.4370    86.8929     0.1444    93.3937
  327.0000    13.6342    13.5134    13.5673   -55.1976     8.0601     0.2449     0.0156     2.4355    85.6652     0.1473    93.3937
  327.5000    13.9976    13.7021    13.7512   -55.3799     8.0597     0.2467     0.0188     2.4310    83.8295     0.1493    93.6953
  328.0000    14.2113    13.8934    14.1319   -55.3921     8.0592     0.2479     0.0250     2.4294    82.6018     0.1489    93.6953
  328.5000    14.5822    14.2385    14.3230   -55.4043     8.0588     0.2442     0.0312     2.4310    81.9818     0.1462    93.7172
  329.0000    14.1134    14.4330    13.7309   -55.5826     8.0583     0.2392     0.0413     2.4355    82.6787     0.1427    93.5445
  329.5000    13.4027    14.4274    13.1632   -55.7325     8.0579     0.2371     0.0455     2.4431    87.3525     0.1379    93.2428
  330.0000    13.2120    13.8814    13.1569   -55.7471     8.0574     0.2458     0.0224     2.4552    94.4074     0.1320    92.9412
  330.5000    13.2065    12.8987    13.1506   -55.7591     8.0569     0.2480     0.0064     2.4644    97.9919     0.1274    92.4887
  331.0000    13.2010    12.8942    13.1442   -55.4650     8.0565     0.2450     0.0059     2.4704    98.9437     0.1260    92.4887
  331.5000    13.2436    13.1372    13.3248   -55.4791     8.0560     0.2373     0.0275     2.4704    97.3597     0.1257    92.7903
  332.0000    13.4272    13.3206    13.5021   -55.1872     8.0556     0.2281     0.0475     2.4704    94.8652     0.1251    93.0920
  332.5000    13.6135    13.5066    13.6847   -55.1992     8.0551     0.2252     0.0636     2.4704    92.3707     0.1239    93.5445
  333.0000    13.7416    13.6952    13.6963   -55.2112     8.0547     0.2280     0.0697     2.4707    90.7376     0.1221    93.8462
  333.5000    13.8004    13.8864    13.8856   -55.2232     8.0542     0.2350     0.0758     2.4719    89.4843     0.1240    94.1486
  334.0000    13.9226    14.1836    14.0505   -54.9301     8.0538     0.2379     0.0879     2.4665    88.8389     0.1337    94.3017
  334.5000    13.9158    14.1786    14.0432   -54.9432     8.0533     0.2373     0.0576     2.4584    88.1935     0.1398    94.6003
  335.0000    13.9100    14.2763    14.0363   -54.6505     8.0529     0.2377     0.0333     2.4481    88.2574     0.1435    94.6003
  335.5000    13.9042    14.3673    14.0295   -54.9672     8.0524     0.2434     0.0303     2.4419    88.4985     0.1429    94.5905
  336.0000    13.8984    14.3623    14.0227   -54.9792     8.0520     0.2470     0.0394     2.4407    87.8764     0.1405    94.2986
  336.5000    13.8926    14.2419    14.0158   -54.9912     8.0515     0.2458     0.0485     2.4453    86.0408     0.1399    94.1335
  337.0000    13.8868    14.1530    13.9567   -55.0032     8.0511     0.2434     0.0394     2.4476    84.2052     0.1437    93.8296
  337.5000    13.8810    14.1482    13.7531   -54.7112     8.0506     0.2416     0.0273     2.4437    85.4091     0.1479    93.5256
  338.0000    13.7755    13.7552    13.3652   -54.7234     8.0502     0.2415     0.0152     2.4353    87.8288     0.1484    93.2217
  338.5000    13.3881    13.5605    12.9882   -54.7352     8.0497     0.2465     0.0152     2.4310    90.2485     0.1440    92.9178
  339.0000    13.1940    13.1838    12.7986   -54.4433     8.0492     0.2513     0.0185     2.4355    92.0603     0.1381    92.4887
  339.5000    12.9266    12.6405    12.4376   -54.4559     8.0488     0.2544     0.0217     2.4431    93.8721     0.1336    92.3100
  340.0000    12.5655    12.2894    12.2561   -54.4681     8.0483     0.2520     0.0279     2.4537    96.2918     0.1307    92.1870
  340.5000    12.2157    12.1154    11.9801   -54.4802     8.0479     0.2484     0.0348     2.4583    95.0131     0.1311    92.3703
  341.0000    11.8755    12.1112    11.9743   -54.4924     8.0474     0.2460     0.0394     2.4522    93.1773     0.1328    92.4887
  341.5000    11.8706    12.1071    11.9685   -54.5046     8.0470     0.2436     0.0202     2.4461    92.6086     0.1358    92.7903
  342.0000    11.8657    12.2725    12.1303   -54.5167     8.0465     0.2437     0.0182     2.4492    94.0141     0.1383    92.9412
  342.5000    12.1955    12.2682    12.2942   -54.6099     8.0461     0.2450     0.0236     2.4537    95.7498     0.1352    93.0920
  343.0000    12.3612    12.4358    12.4604   -54.9341     8.0456     0.2481     0.0316     2.4583    96.9788     0.1310    93.2866
  343.5000    12.5299    12.6060    12.7264   -54.7599     8.0452     0.2514     0.0362     2.4598    97.4242     0.1292    93.4397
  344.0000    13.0579    12.9570    13.0831   -54.1560     8.0447     0.2549     0.0410     2.4629    96.1945     0.1256    93.8401
  344.5000    13.4208    13.5046    13.6768   -53.2482     8.0443     0.2589     0.0390     2.4659    94.9666     0.1355    95.1041
  345.0000    13.9870    14.4725    15.3207   -52.2188     8.0438     0.2576     0.0182     2.4606    93.7386     0.1442    96.4254
  345.5000    15.4114    16.1708    17.1163   -50.6950     8.0434     0.2526     0.0061     2.4310    92.5613     0.1553    99.0623
  346.0000    19.7890    18.3216    19.9372   -49.4752     8.0429     0.2493     0.0212     2.3816    87.6353     0.1792   103.7126
  346.5000    22.7335    22.2778    23.8784   -48.8511     8.0122     0.2468     0.0424     2.3466    83.3171     0.2007   106.7224
  347.0000    25.7554    25.9794    27.8139   -48.8632     8.0117     0.2485     0.0462     2.3311    80.8226     0.2085   107.4208
