~VERSION INFORMATION
 VERS.                2.0:   CWLS LOG ASCII STANDARD - VERSION 2.0
 WRAP.                 NO:   ONE LINE PER DEPTH STEP
~WELL INFORMATION
#MNEM.UNIT      DATA TYPE    INFORMATION
#----------   ------------   ------------------------------
 STRT.F            2.0000:   START DEPTH
 STOP.F          602.0000:   STOP DEPTH
 STEP.F            0.1000:   STEP LENGTH
 NULL.          -999.2500:   NO VALUE
 COMP.       F D SERV INC:   COMPANY
 WELL.    63-1 SX-3 #63-3:   WELL
 FLD .             TEAPOT:   FIELD
 LOC .       S3 T38N R78W:   LOCATION
 CNTY.            NATRONA:   COUNTY
 STAT.            WYOMING:   STATE
 CTRY. UNITED STATES OF AMERICA:   COUNTRY
 SRVC.     Atlas Wireline:   SERVICE COMPANY
 DATE.        20-APR-1992:   LOGDATE
 API .       490252251300:   API NUMBER
~CURVE INFORMATION
#MNEM.UNIT       API CODE    CURVE DESCRIPTION
#----------   ------------   ------------------------------
 DEPT.F                  :   
 GRR .GAPI   07 310 01 00:   GAMMA RAY
 RILD.OHMM   07 120 46 00:   INDUCTION LOG DEEP RESISTIVITY
 RILM.OHMM   07 120 44 00:   INDUCTION LOG MEDIUM RESISTIVITY
~PARAMETER INFORMATION
#MNEM.UNIT          VALUE    DESCRIPTION
#----------   ------------   ------------------------------
 PD  .                 GL:   PERMANENT DATUM
 EPD .F              5176:   ELEVATION PERMANENT DATUM
 LMF .                 KB:   LOG MEASURED FROM
 DAPD.F                 5:   FEET ABOVE PERMANENT DATUM
 DMF .                 KB:   DRILLING MEASURED FROM
 EKB .F              5181:   KELLING BUSHING
 EDF .F              5180:   DRILLING FLOOR
 EGL .F              5176:   GROUND LEVEL
 DATE.        20-APR-1992:   RUN DATE
 RUN .                  1:   RUN NUMBER
 DD  .F               608:   DEPTH DRILLER
 DL  .F               608:   DEPTH LOGGER
 BLI .F               602:   BOTTOM LOG INTERVAL
 CS  .IN            8.625:   CASING SIZE
 CBD .F                48:   CASING BOTTOM DRILLER
 CBL .F                50:   CASING BOTTOM LOGGER
 BS  .IN            7.875:   BIT SIZE
 BSD .F               608:   BIT SIZE AT DEPTH
 DFT .                AIR:   DRILLING FLUID TYPE
 TCS .HRS               2:   TIME CURCULATED STOPPED
 MRT .F                85:   MAXIMUM RECORDED TEMPERATURE
 LUN .           HL- 6274:   LOGGING UNIT NUMBER
 LUL .             CASPER:   LOGGING UNIT LOCATION
 ENGI.             RAUTIO:   RECORDING ENGINEER
 WITN.        GARY STRONG:   WITNESSED BY
 CLNT.            A2DTECH:   CLIENT CODE
 ORIG.           5" PRINT:   ORIGIN OF DATA
 UWI .       490252251300:   UNIQUE WELL ID
 DICO. A2D Technologies, Inc.:   DIGITIZING COMPANY
~OTHER INFORMATION
~A    DEPT      GRR      RILD       RILM   
# ...
  402.4000    86.3904    21.7349    19.9866
  402.5000    86.3897    21.7495    19.9861
  402.6000    86.6192    21.8860    19.9855
  402.7000    86.8636    21.8855    19.9849
  402.8000    87.1082    21.8849    19.9843
  402.9000    87.4118    21.8842    19.9838
  403.0000    87.9012    21.8837    19.9832
  403.1000    88.3910    21.8830    19.9827
  403.2000    88.8806    21.8824    19.9822
  403.3000    89.5032    21.8818    19.9816
  403.4000    90.3139    21.8812    19.9810
  403.5000    91.2750    21.8806    19.9805
  403.6000    92.1232    21.8799    19.9799
  403.7000    92.5373    21.8793    19.9793
  403.8000    93.0269    21.8787    19.9788
  403.9000    93.5166    21.8781    19.9782
  404.0000    93.9336    21.8227    19.9777
  404.1000    93.9329    21.7246    19.9771
  404.2000    93.9323    21.7240    19.9219
  404.3000    93.9317    21.7234    19.9194
  404.4000    93.8208    21.6275    20.0000
  404.5000    93.5750    21.5709    20.0074
  404.6000    93.3257    21.5703    20.1403
  404.7000    93.0837    21.5696    20.1403
  404.8000    92.8380    21.5690    20.1403
  404.9000    92.5923    21.4610    20.1403
  405.0000    92.3466    21.4177    20.1403
  405.1000    92.1142    21.3647    20.1403
  405.2000    92.1135    21.2673    20.1403
  405.3000    91.9113    21.2667    20.0587
  405.4000    91.6657    21.2661    19.9447
  405.5000    91.4200    21.2656    19.8607
  405.6000    91.1742    21.2649    19.8607
  405.7000    90.9020    21.2643    19.8607
  405.8000    90.9015    21.2638    19.8607
  405.9000    90.9009    21.2631    19.7947
  406.0000    90.9003    21.2626    19.6822
  406.1000    90.8997    21.1844    19.5851
  406.2000    90.8991    21.1133    19.5851
  406.3000    90.8985    21.1127    19.5851
  406.4000    91.0768    21.1121    19.5851
  406.5000    91.1994    20.9949    19.5851
  406.6000    91.2638    20.9640    19.5593
  406.7000    91.5003    20.9634    19.4487
  406.8000    91.4997    20.9270    19.4487
  406.9000    91.6951    20.8071    19.3624
  407.0000    91.9395    20.6706    19.3133
  407.1000    92.1840    20.6701    19.3133
  407.2000    92.4287    20.5954    19.3133
  407.3000    92.7051    20.5250    19.3133
  407.4000    92.9177    20.5030    19.3133
  407.5000    93.1621    20.3809    19.3133
  407.6000    93.4066    20.2691    19.2663
  407.7000    93.6092    20.1532    19.1567
  407.8000    93.6084    20.0964    19.0452
  407.9000    93.8381    20.0628    19.0452
  408.0000    93.9093    19.9480    18.9639
  408.1000    94.0249    19.8157    18.8561
  408.2000    94.2695    19.8152    18.7809
  408.3000    94.5118    19.7450    18.7809
  408.4000    94.5111    19.6320    18.7809
  408.5000    94.8912    19.5386    18.6902
  408.6000    95.1142    19.5380    18.6501
  408.7000    95.2661    19.4321    18.6501
  408.8000    95.7366    19.4009    18.6318
  408.9000    96.0186    19.3451    18.5202
  409.0000    96.2256    19.2647    18.5202
  409.1000    96.6205    19.2583    18.5202
  409.2000    97.1102    19.1294    18.5202
  409.3000    97.6365    19.1290    18.5202
  409.4000    98.4326    19.0623    18.5202
  409.5000    98.8814    18.9947    18.5202
  409.6000    99.0357    18.9942    18.5202
  409.7000    98.9246    18.9936    18.5202
  409.8000    98.6254    18.8919    18.5202
  409.9000    98.1275    18.8603    18.5202
  410.0000    97.6436    18.8598    18.5202
  410.1000    97.1527    18.8307    18.5202
  410.2000    96.6616    18.7274    18.5202
  410.3000    96.1708    18.7268    18.5202
  410.4000    95.6802    18.7263    18.5202
  410.5000    95.1026    18.7258    18.5202
  410.6000    94.6984    18.7253    18.5202
  410.7000    94.4973    18.7248    18.5202
  410.8000    94.4089    18.7242    18.4017
  410.9000    94.1939    18.7237    18.2632
  411.0000    94.1933    18.7232    18.2396
  411.1000    94.1927    18.7227    18.0097
  411.2000    94.1921    18.7222    17.9188
  411.3000    94.1916    18.7217    17.8843
  411.4000    94.2388    18.7210    17.8398
  411.5000    94.4924    18.8072    17.7597
  411.6000    94.4919    18.8514    17.7597
  411.7000    94.6703    18.8508    17.7597
  411.8000    94.9149    18.8503    17.8371
  411.9000    95.2245    18.8497    17.8843
  412.0000    95.7140    18.8493    17.8843
  412.1000    96.3014    18.8487    17.8843
  412.2000    97.0857    18.8482    17.8843
  412.3000    97.5088    18.8477    17.8843
  412.4000    97.4260    18.8493    17.9492
  412.5000    97.1549    18.9568    18.0097
  412.6000    96.6005    18.9782    18.0097
  412.7000    95.9600    18.9777    18.0097
  412.8000    95.2241    18.9772    18.1084
  412.9000    94.4884    18.9766    18.2119
  413.0000    93.7104    18.9761    18.3694
  413.1000    92.6701    18.9756    18.5800
  413.2000    91.7474    19.0489    18.7869
  413.3000    90.7665    19.1076    18.9126
  413.4000    89.7858    19.1071    19.0024
  413.5000    88.9236    19.1065    19.1111
  413.6000    88.4326    19.2165    19.2204
  413.7000    87.9419    19.2395    19.3133
  413.8000    87.6414    19.3008    19.3133
  413.9000    87.3958    19.3733    19.4159
  414.0000    87.2266    19.3854    19.4487
  414.1000    87.2260    19.5080    19.5018
  414.2000    87.2253    19.5075    19.5851
  414.3000    87.2248    19.5069    19.5851
  414.4000    87.3748    19.5560    19.5851
  414.5000    87.5257    19.6427    19.5851
  414.6000    87.5616    19.6421    19.5851
  414.7000    87.8265    19.5301    19.5851
  414.8000    87.8260    19.5042    19.5851
  414.9000    87.8254    19.5037    19.5851
  415.0000    87.9355    19.5031    19.5851
  415.1000    88.1800    19.5026    19.5851
  415.2000    88.4278    19.5020    19.5353
  415.3000    88.4272    19.5015    19.4487
  415.4000    88.6115    19.5009    19.4487
  415.5000    88.8560    19.5004    19.3386
  415.6000    89.0296    19.4767    19.3133
  415.7000    89.0429    19.3635    19.1939
  415.8000    89.3304    19.3630    18.9762
  415.9000    89.5320    19.3625    18.7607
  416.0000    89.7765    19.3026    18.5202
  416.1000    90.0210    19.2265    18.5202
  416.2000    90.2656    19.2160    18.4524
  416.3000    90.5359    19.0915    18.3474
  416.4000    90.7544    18.9967    18.2036
  416.5000    91.1610    18.9576    17.8843
  416.6000    91.6507    18.9117    17.5914
  416.7000    92.1403    18.8034    17.3662
  416.8000    92.6477    18.6929    17.2702
  416.9000    93.1200    18.5888    17.2133
  417.0000    93.6095    18.4824    17.0305
  417.1000    93.8544    18.4319    17.0305
  417.2000    93.8537    18.3995    17.0305
  417.3000    93.8532    18.3026    16.9711
  417.4000    93.8524    18.3019    16.8745
  417.5000    93.4591    18.2123    16.7941
  417.6000    93.1077    18.1735    16.7941
  417.7000    92.8621    18.1730    16.7941
  417.8000    92.5912    18.1533    16.7261
  417.9000    92.0368    18.0455    16.6310
  418.0000    91.8228    18.0449    16.5610
  418.1000    91.5771    17.9685    16.5610
  418.2000    91.4308    17.9183    16.5610
  418.3000    91.3878    17.9178    16.5610
  418.4000    91.1275    17.9173    16.5610
  418.5000    90.8964    17.9167    16.5272
  418.6000    90.8242    17.9163    16.4457
  418.7000    90.8236    17.9158    16.4457
  418.8000    90.8230    17.9153    16.4457
  418.9000    90.8224    17.9148    16.4457
  419.0000    90.8217    17.9143    16.4457
  419.1000    91.0120    17.9138    16.4457
  419.2000    91.2565    17.9133    16.4457
  419.3000    91.5009    17.8614    16.4457
  419.4000    91.7845    17.7876    16.4457
  419.5000    92.6313    17.7871    16.4457
  419.6000    93.2542    17.7865    16.4457
  419.7000    94.5924    17.7861    16.4556
  419.8000    96.4024    17.7856    16.5610
  419.9000    98.2892    17.7851    16.5610
  420.0000    99.8791    17.7846    16.5610
  420.1000   101.2281    17.7841    16.5610
  420.2000   101.6906    17.7836    16.5610
  420.3000   101.6900    17.7830    16.5610
  420.4000   101.5815    17.7826    16.5610
  420.5000   101.0846    17.7821    16.5610
