~VERSION INFORMATION
 VERS.                2.0:   CWLS LOG ASCII STANDARD - VERSION 2.0
 WRAP.                 NO:   ONE LINE PER DEPTH STEP
~WELL INFORMATION
#MNEM.UNIT      DATA TYPE    INFORMATION
#----------   ------------   ------------------------------
 STRT.F          250.0000:   START DEPTH
 STOP.F         2527.0000:   STOP DEPTH
 STEP.F            0.5000:   STEP LENGTH
 NULL.          -999.2500:   NO VALUE
 COMP. FENIX & SCISSON INC:   COMPANY
 WELL.       NPR 3 #18-28:   WELL
 FLD .            WILDCAT:   FIELD
 LOC .      S28 T39N R78W:   LOCATION
 CNTY.            NATRONA:   COUNTY
 STAT.            WYOMING:   STATE
 CTRY. UNITED STATES OF AMERICA:   COUNTRY
 SRVC.            Unknown:   SERVICE COMPANY
 DATE.        01-MAY-1979:   LOGDATE
 API .       490251078000:   API NUMBER
~CURVE INFORMATION
#MNEM.UNIT       API CODE    CURVE DESCRIPTION
#----------   ------------   ------------------------------
 DEPT.F                  :   
 CORR.G/C3   45 356 01 00:   DENSITY CORRECTION
 DPHI.DEC    45 890 12 00:   DENSITY POROSITY SANDSTONE
 RHOB.G/C3   45 350 01 00:   BULK DENSITY
 CALD.IN     45 280 60 00:   CALIPER FROM DENSITY LOG
 GRD .GAPI   45 310 01 00:   GAMMA RAY FROM DENSITY LOG
~PARAMETER INFORMATION
#MNEM.UNIT          VALUE    DESCRIPTION
#----------   ------------   ------------------------------
 PD  .                 GL:   PERMANENT DATUM
 EPD .F              5079:   ELEVATION PERMANENT DATUM
 LMF .                 KB:   LOG MEASURED FROM
 DAPD.F                10:   FEET ABOVE PERMANENT DATUM
 DMF .                 KB:   DRILLING MEASURED FROM
 EKB .F              5089:   KELLING BUSHING
 EGL .F              5079:   GROUND LEVEL
 DATE.             5-1-79:   RUN DATE
 RUN .                  1:   RUN NUMBER
 DL  .F              2527:   DEPTH LOGGER
 BLI .F              2527:   BOTTOM LOG INTERVAL
 TLI .F               250:   TOP LOG INTERVAL
 CS  .IN            9.625:   CASING SIZE
 CBD .F               500:   CASING BOTTOM DRILLER
 CBL .F               495:   CASING BOTTOM LOGGER
 BS  .IN             8.75:   BIT SIZE
 DFT .                AIR:   DRILLING FLUID TYPE
 TCS .HRS              12:   TIME CURCULATED STOPPED
 LUL .             CASPER:   LOGGING UNIT LOCATION
 ENGI.         B. ROLLINS:   RECORDING ENGINEER
 WITN.           DINSMORE:   WITNESSED BY
 CLNT.            A2DTECH:   CLIENT CODE
 ORIG.           5" PRINT:   ORIGIN OF DATA
 UWI .       490251078000:   UNIQUE WELL ID
 DICO. A2D Technologies, Inc.:   DIGITIZING COMPANY
~OTHER INFORMATION
~A   DEPT     CORR       DPHI       RHOB       CALD         GRD  
# ...
 2324.0000     0.0122     0.0573     2.4597     9.0585   131.0403
 2324.5000     0.0102     0.0598     2.4556     9.0679   130.5873
 2325.0000     0.0091     0.0611     2.4566     9.0775   127.9019
 2325.5000     0.0104     0.0623     2.4527     9.0870   126.6525
 2326.0000     0.0146     0.0628     2.4460     9.0850   127.9227
 2326.5000     0.0192     0.0534     2.4666     9.0689   132.2550
 2327.0000     0.0190     0.0473     2.4733     9.0530   136.5413
 2327.5000     0.0190     0.0481     2.4778     9.0371   138.4852
 2328.0000     0.0208     0.0411     2.4908     9.0285   136.8449
 2328.5000     0.0270     0.0476     2.4855     9.0274   133.6943
 2329.0000     0.0310     0.0602     2.4652     9.0262   134.8202
 2329.5000     0.0308     0.0724     2.4451     9.0250   136.3295
 2330.0000     0.0419     0.0736     2.4344     9.0238   137.1707
 2330.5000     0.0564     0.0582     2.4446     9.0226   131.7652
 2331.0000     0.0234     0.0587     2.4536     9.0214   128.6161
 2331.5000     0.0132     0.0638     2.4465     9.0203   125.4735
 2332.0000     0.0151     0.0668     2.4436     9.0191   129.8812
 2332.5000     0.0179     0.0644     2.4500     9.0179   137.5475
 2333.0000     0.0206     0.0619     2.4578     9.0167   142.7919
 2333.5000     0.0230     0.0593     2.4541     9.0155   140.4268
 2334.0000     0.0202     0.0597     2.4490     9.0143   136.9972
 2334.5000     0.0118     0.0629     2.4437     9.0132   140.4510
 2335.0000     0.0050     0.0660     2.4427     9.0120   144.1421
 2335.5000     0.0084     0.0684     2.4437     9.0112   143.7415
 2336.0000     0.0130     0.0659     2.4448     9.0050   137.8453
 2336.5000     0.0115     0.0622     2.4487     8.9919   133.3335
 2337.0000     0.0075     0.0610     2.4513     9.0006   128.8550
 2337.5000     0.0092     0.0601     2.4581     9.0100   125.6362
 2338.0000     0.0216     0.0545     2.4714     9.0194   125.3453
 2338.5000     0.0327     0.0476     2.4846     9.0287   127.0963
 2339.0000     0.0308     0.0454     2.4900     9.0380   128.8722
 2339.5000     0.0232     0.0489     2.4764     9.0473   130.6189
 2340.0000     0.0167     0.0521     2.4650     9.0566   131.8236
 2340.5000     0.0262     0.0454     2.4699     9.0660   128.8403
 2341.0000     0.0327     0.0426     2.4789     9.0753   125.1085
 2341.5000     0.0292     0.0459     2.4806     9.0850   124.0710
 2342.0000     0.0246     0.0422     2.4838     9.0717   126.9003
 2342.5000     0.0353     0.0340     2.4946     9.0494   129.6990
 2343.0000     0.0471     0.0341     2.5015     9.0270   130.4018
 2343.5000     0.0341     0.0378     2.4964     9.0099   132.5718
 2344.0000     0.0136     0.0430     2.4816     9.0137   139.6649
 2344.5000    -0.0077     0.0492     2.4671     9.0170   143.1397
 2345.0000    -0.0092     0.0554     2.4535     9.0203   127.7730
 2345.5000     0.0060     0.0577     2.4563     9.0236   126.2872
 2346.0000     0.0257     0.0573     2.4641     9.0269   124.4233
 2346.5000     0.0392     0.0478     2.4719     9.0302   123.5082
 2347.0000     0.0371     0.0476     2.4748     9.0335   124.4032
 2347.5000     0.0304     0.0474     2.4755     9.0368   125.4603
 2348.0000     0.0233     0.0526     2.4718     9.0401   124.4394
 2348.5000     0.0229     0.0583     2.4634     9.0435   122.9786
 2349.0000     0.0230     0.0640     2.4549     9.0465   121.5741
 2349.5000     0.0227     0.0664     2.4464     9.0381   121.7729
 2350.0000     0.0149     0.0664     2.4428     9.0145   126.5723
 2350.5000     0.0132     0.0626     2.4488     8.9911   131.3439
 2351.0000     0.0209     0.0553     2.4591     8.9676   135.3334
 2351.5000     0.0294     0.0480     2.4692     8.9441   131.5293
 2352.0000     0.0300     0.0420     2.4794     8.9205   127.1203
 2352.5000     0.0289     0.0378     2.4895     8.9148   126.4248
 2353.0000     0.0295     0.0336     2.4998     8.9192   126.2831
 2353.5000     0.0325     0.0294     2.5098     8.9237   125.9294
 2354.0000     0.0277     0.0273     2.5114     8.9283   124.9139
 2354.5000     0.0209     0.0302     2.5087     8.9328   121.9726
 2355.0000     0.0171     0.0331     2.5024     8.9373   120.5385
 2355.5000     0.0198     0.0361     2.4983     8.9418   122.6086
 2356.0000     0.0257     0.0390     2.4983     8.9464   125.8134
 2356.5000     0.0317     0.0419     2.4955     8.9509   123.3987
 2357.0000     0.0331     0.0443     2.4872     8.9554   121.0201
 2357.5000     0.0219     0.0446     2.4794     8.9599   124.7766
 2358.0000     0.0140     0.0434     2.4845     8.9644   125.7437
 2358.5000     0.0337     0.0279     2.5115     8.9690   120.1204
 2359.0000     0.4741     0.0186     2.5308     8.9735   118.2266
 2359.5000     0.4646     0.0203     2.5313     8.9780   119.4436
 2360.0000     0.0683     0.0314     2.5083     8.9826   121.1085
 2360.5000     0.0038     0.0381     2.4869     8.9870   119.3271
 2361.0000     0.0033     0.0395     2.4894     8.9884   114.9799
 2361.5000     0.0035     0.0400     2.4918     8.9798   113.5646
 2362.0000     0.0042     0.0403     2.4933     8.9717   115.4950
 2362.5000     0.0049     0.0407     2.4873     8.9635   120.0228
 2363.0000     0.0145     0.0427     2.4806     8.9554   124.5679
 2363.5000     0.0262     0.0448     2.4746     8.9472   126.2602
 2364.0000     0.0379     0.0412     2.4814     8.9390   122.0139
 2364.5000     0.0496     0.0271     2.5062     8.9313   122.4602
 2365.0000     0.0505     0.0212     2.5187     8.9279   125.0277
 2365.5000     0.0245     0.0240     2.5201     8.9244   126.3186
 2366.0000     0.0179     0.0240     2.5213     8.9208   127.0027
 2366.5000     0.0241     0.0186     2.5305     8.9172   129.8485
 2367.0000     0.0306     0.0104     2.5427     8.9136   130.1603
 2367.5000     0.0369     0.0061     2.5534     8.9100   125.9955
 2368.0000     0.0359     0.0122     2.5501     8.9064   119.5553
 2368.5000     0.0216     0.0186     2.5286     8.9028   114.3790
 2369.0000     0.0173     0.0224     2.5241     8.8992   114.0126
 2369.5000     0.0191     0.0214     2.5249     8.8956   116.6936
 2370.0000     0.0210     0.0203     2.5252     8.8920   121.0937
 2370.5000     0.0212     0.0206     2.5238     8.8884   124.7858
 2371.0000     0.0137     0.0222     2.5197     8.8848   124.6170
 2371.5000     0.0044     0.0238     2.5173     8.8812   119.7523
 2372.0000    -0.0009     0.0252     2.5162     8.8776   116.1792
 2372.5000     0.0043     0.0248     2.5164     8.8740   115.8146
 2373.0000     0.0113     0.0212     2.5202     8.8810   117.9406
 2373.5000     0.0171     0.0176     2.5261     8.8889   120.1086
 2374.0000     0.0146     0.0141     2.5320     8.8968   121.3907
 2374.5000     0.0087     0.0105     2.5381     8.9047   120.2408
 2375.0000     0.0052     0.0069     2.5461     8.9126   116.9009
 2375.5000     0.0296     0.0033     2.5571     8.9205   113.6724
 2376.0000     0.0568    -0.0003     2.5713     8.9284   113.1292
 2376.5000     0.0790    -0.0039     2.5858     8.9363   115.6365
 2377.0000     0.0726    -0.0046     2.5983     8.9442   118.1020
 2377.5000     0.0433     0.0117     2.5438     8.9515   118.5838
 2378.0000     0.0328     0.0153     2.5318     8.9496   119.7892
 2378.5000     0.0329     0.0181     2.5274     8.9474   123.1277
 2379.0000     0.0326     0.0208     2.5220     8.9453   127.5220
 2379.5000     0.0213     0.0275     2.5101     8.9431   131.0454
 2380.0000     0.0150     0.0342     2.4982     8.9410   130.9774
 2380.5000     0.0150     0.0351     2.5016     8.9389   130.7632
 2381.0000     0.0151     0.0304     2.5103     8.9367   128.8966
 2381.5000     0.0145     0.0299     2.5115     8.9346   127.1809
 2382.0000     0.0109     0.0320     2.5038     8.9325   119.1560
 2382.5000     0.0072     0.0331     2.4965     8.9276   115.8358
 2383.0000     0.0036     0.0335     2.4962     8.9204   113.7940
 2383.5000     0.0016     0.0314     2.5010     8.9132   112.5114
 2384.0000     0.0012     0.0283     2.5064     8.9060   113.9743
 2384.5000     0.0073     0.0253     2.5118     8.8989   116.4221
