~VERSION INFORMATION
 VERS.                2.0:   CWLS LOG ASCII STANDARD - VERSION 2.0
 WRAP.                 NO:   ONE LINE PER DEPTH STEP
~WELL INFORMATION
#MNEM.UNIT      DATA TYPE    INFORMATION
#----------   ------------   ------------------------------
 STRT.F            0.1000:   START DEPTH
 STOP.F          550.8000:   STOP DEPTH
 STEP.F            0.1000:   STEP LENGTH
 NULL.          -999.2500:   NO VALUE
 COMP.       F D SERV INC:   COMPANY
 WELL.  82-1 SX 10 #82-10:   WELL
 FLD .             TEAPOT:   FIELD
 LOC .      S10 T38N R78W:   LOCATION
 CNTY.            NATRONA:   COUNTY
 STAT.            WYOMING:   STATE
 CTRY. UNITED STATES OF AMERICA:   COUNTRY
 SRVC.     Atlas Wireline:   SERVICE COMPANY
 DATE.        11-DEC-1992:   LOGDATE
 API .       490252257600:   API NUMBER
~CURVE INFORMATION
#MNEM.UNIT       API CODE    CURVE DESCRIPTION
#----------   ------------   ------------------------------
 DEPT.F                  :   
 GRR .GAPI   07 310 01 00:   GAMMA RAY
 RILD.OHMM   07 120 46 00:   INDUCTION LOG DEEP RESISTIVITY
 RILM.OHMM   07 120 44 00:   INDUCTION LOG MEDIUM RESISTIVITY
~PARAMETER INFORMATION
#MNEM.UNIT          VALUE    DESCRIPTION
#----------   ------------   ------------------------------
 PD  .                 GL:   PERMANENT DATUM
 EPD .F              5136:   ELEVATION PERMANENT DATUM
 LMF .                 KB:   LOG MEASURED FROM
 DAPD.F                10:   FEET ABOVE PERMANENT DATUM
 DMF .                 KB:   DRILLING MEASURED FROM
 EKB .F              5146:   KELLING BUSHING
 EDF .F              5145:   DRILLING FLOOR
 EGL .F              5136:   GROUND LEVEL
 DATE.        11-DEC-1992:   RUN DATE
 RUN .                  1:   RUN NUMBER
 DD  .F               560:   DEPTH DRILLER
 DL  .F               560:   DEPTH LOGGER
 BLI .F               551:   BOTTOM LOG INTERVAL
 CS  .IN            8.625:   CASING SIZE
 CBD .F                53:   CASING BOTTOM DRILLER
 CBL .F                54:   CASING BOTTOM LOGGER
 BS  .IN            7.875:   BIT SIZE
 BSD .F               560:   BIT SIZE AT DEPTH
 DFT .           AIR FOAM:   DRILLING FLUID TYPE
 BHT .F                60:   BOTTOM HOLE TEMPERATURE
 MRT .F                60:   MAXIMUM RECORDED TEMPERATURE
 LUN .           HL- 6274:   LOGGING UNIT NUMBER
 LUL .             CASPER:   LOGGING UNIT LOCATION
 ENGI.       P. RASMUSSEN:   RECORDING ENGINEER
 WITN.          G. STRONG:   WITNESSED BY
 CLNT.            A2DTECH:   CLIENT CODE
 ORIG.           5" PRINT:   ORIGIN OF DATA
 UWI .       490252257600:   UNIQUE WELL ID
 DICO. A2D Technologies, Inc.:   DIGITIZING COMPANY
~OTHER INFORMATION
~A    DEPT      GRR      RILD       RILM   
# ...
  145.7000   117.6456    10.4371    10.4473
  145.8000   116.9745    10.4370    10.4472
  145.9000   116.3813    10.4368    10.4471
  146.0000   115.8656    10.4367    10.4469
  146.1000   115.4428    10.4366    10.4468
  146.2000   115.1844    10.4364    10.4466
  146.3000   114.9317    10.4363    10.4465
  146.4000   114.9304    10.4361    10.4463
  146.5000   114.9293    10.4360    10.4462
  146.6000   114.7521    10.4358    10.4460
  146.7000   114.6262    10.4357    10.4459
  146.8000   114.6250    10.4356    10.4458
  146.9000   114.6238    10.4354    10.4456
  147.0000   114.6226    10.4353    10.4455
  147.1000   114.6212    10.4351    10.4453
  147.2000   114.6202    10.4350    10.4452
  147.3000   114.4467    10.4348    10.4450
  147.4000   114.3170    10.4347    10.4449
  147.5000   114.3158    10.4345    10.4447
  147.6000   114.3146    10.4344    10.4446
  147.7000   114.3134    10.4343    10.4445
  147.8000   113.7105    10.4341    10.4443
  147.9000   113.4976    10.4340    10.4442
  148.0000   113.2391    10.4338    10.4440
  148.1000   113.1056    10.4337    10.4439
  148.2000   113.1044    10.4335    10.4437
  148.3000   113.1032    10.4334    10.4436
  148.4000   113.1019    10.4332    10.4434
  148.5000   113.1005    10.4331    10.4433
  148.6000   113.3077    10.4330    10.4432
  148.7000   113.5637    10.4328    10.4430
  148.8000   113.9408    10.4849    10.4429
  148.9000   114.4541    10.5050    10.4427
  149.0000   115.0015    10.5049    10.4426
  149.1000   115.8003    10.5047    10.4424
  149.2000   116.5425    10.4939    10.4070
  149.3000   117.1087    10.4319    10.3702
  149.4000   117.6220    10.4318    10.3700
  149.5000   118.1354    10.4317    10.3699
  149.6000   118.6487    10.4315    10.3697
  149.7000   119.1165    10.4314    10.3696
  149.8000   119.2439    10.4312    10.3695
  149.9000   119.3713    10.4311    10.3693
  150.0000   119.3985    10.4309    10.3692
  150.1000   119.0613    10.4308    10.3690
  150.2000   118.5095    10.4306    10.3689
  150.3000   117.8929    10.4305    10.3687
  150.4000   117.4384    10.4304    10.3686
  150.5000   116.5564    10.4302    10.3685
  150.6000   115.6668    10.4301    10.3683
  150.7000   114.9909    10.4299    10.3453
  150.8000   114.5816    10.4298    10.2966
  150.9000   114.5716    10.4296    10.2942
  151.0000   114.2796    10.4048    10.2253
  151.1000   114.2791    10.3605    10.2252
  151.2000   114.2785    10.3395    10.1830
  151.3000   114.2779    10.2893    10.1545
  151.4000   114.2773    10.2886    10.1543
  151.5000   114.2767    10.2186    10.1542
  151.6000   114.2761    10.2187    10.1528
  151.7000   114.2754    10.1775    10.0839
  151.8000   114.2749    10.1485    10.0838
  151.9000   114.2743    10.1275    10.0837
  152.0000   114.2737    10.0787    10.0835
  152.1000   114.2731    10.0789    10.0834
  152.2000   114.3178    10.0790    10.0728
  152.3000   114.5744    10.0792    10.0136
  152.4000   114.8727    10.0381    10.0135
  152.5000   115.0877    10.0099     9.9639
  152.6000   115.5164    10.0100     9.9442
  152.7000   116.0303    10.0101     9.9441
  152.8000   116.5442    10.0103     9.9439
  152.9000   117.0165    10.0104     9.9438
  153.0000   117.2752    10.0106     9.9437
  153.1000   117.8760     9.9694     9.9435
  153.2000   117.8755     9.9418     9.9434
  153.3000   117.8749     9.9419     9.9478
  153.4000   117.9990     9.9420     9.8934
  153.5000   118.1744     9.9401     9.8792
  153.6000   118.1738     9.8737     9.8105
  153.7000   118.1732     9.8738     9.7436
  153.8000   118.1725     9.8740     9.7288
  153.9000   118.3800     9.8426     9.6713
  154.0000   118.4722     9.8061     9.6097
  154.1000   118.4716     9.7942     9.6097
  154.2000   118.5484     9.7339     9.5669
  154.3000   118.8050     9.6049     9.5104
  154.4000   119.0713     9.6050     9.4778
  154.5000   119.3183     9.5647     9.4636
  154.6000   119.7790     9.5390     9.4124
  154.7000   120.2929     9.5177     9.4124
  154.8000   120.6897     9.4614     9.4124
  154.9000   120.8728     9.4054     9.3707
  155.0000   120.8722     9.3434     9.3476
  155.1000   120.8715     9.3435     9.3476
  155.2000   120.6272     9.3436     9.3476
  155.3000   120.3693     9.3132     9.3476
  155.4000   120.2683     9.2794     9.3476
  155.5000   120.0411     9.2795     9.3476
  155.6000   119.5958     9.2797     9.3476
  155.7000   119.2854     9.2798     9.3476
  155.8000   118.4613     9.2799     9.3476
  155.9000   117.2607     9.2801     9.3476
  156.0000   116.1704     9.2802     9.3476
  156.1000   115.2938     9.2803     9.3476
  156.2000   114.7404     9.2804     9.3476
  156.3000   114.5486     9.2806     9.3476
  156.4000   114.5480     9.2807     9.3158
  156.5000   114.5473     9.2808     9.2832
  156.6000   114.5468     9.2809     9.2832
  156.7000   114.7389     9.2811     9.2791
  156.8000   114.8463     9.2812     9.2192
  156.9000   114.8457     9.2813     9.2192
  157.0000   114.8451     9.2815     9.2192
  157.1000   114.8445     9.2816     9.1881
  157.2000   114.8438     9.2817     9.1557
  157.3000   114.6109     9.2818     9.1557
  157.4000   114.5420     9.2505     9.1519
  157.5000   114.3960     9.2181     9.0926
  157.6000   114.0363     9.2182     9.0926
  157.7000   113.5212     9.2183     9.0926
  157.8000   112.9765     9.2184     9.0926
  157.9000   111.8321     9.2186     9.0926
  158.0000   112.2887     9.2187     9.0801
  158.1000   112.6176     9.2188     9.0299
  158.2000   112.8742     9.1963     9.0299
  158.3000   113.2289     9.1554     9.0060
  158.4000   113.7973     9.1556     8.9793
  158.5000   114.5905     9.1557     8.9677
  158.6000   116.0384     9.1060     8.9677
  158.7000   116.9369     9.0928     8.9677
  158.8000   117.7841     9.0929     8.9677
  158.9000   118.6930     9.0930     8.9677
  159.0000   119.5328     9.0931     8.9677
  159.1000   119.9960     9.0933     8.9677
  159.2000   120.2454     9.0934     8.9677
  159.3000   120.2447     9.0935     8.9677
  159.4000   120.4652     9.0937     8.9677
  159.5000   120.5444     9.0618     8.9677
  159.6000   120.4098     9.0311     8.9677
  159.7000   120.2424     9.0313     8.9677
  159.8000   120.1949     9.0314     8.9677
  159.9000   119.9370     9.0315     8.9677
  160.0000   119.6390     9.0316     8.9677
  160.1000   119.4214     9.0318     8.9677
  160.2000   119.1635     9.0319     8.9677
  160.3000   118.7755     9.0320     8.9677
  160.4000   118.2605     9.0467     8.9677
  160.5000   117.7023     9.0950     8.9296
  160.6000   116.9287     9.0952     8.9059
  160.7000   116.6273     9.0953     8.9059
  160.8000   116.6268     9.0954     8.9059
  160.9000   116.6262     9.0955     8.9059
  161.0000   116.7519     9.0957     8.9059
  161.1000   117.0085     9.0958     8.9059
  161.2000   117.2260     9.0959     8.9059
  161.3000   117.2253     9.0961     8.9059
  161.4000   117.2246     9.0962     8.9059
  161.5000   117.4336     9.0963     8.9059
  161.6000   117.5242     9.0964     8.9059
  161.7000   117.6461     9.0965     8.9059
  161.8000   117.9027     9.0967     8.9059
  161.9000   118.1240     9.0968     8.9059
  162.0000   118.1233     9.0969     8.9059
  162.1000   118.3719     9.0971     8.9059
  162.2000   118.2172     9.0972     8.9059
  162.3000   118.1215     9.0973     8.9059
  162.4000   118.0022     9.0974     8.9059
  162.5000   117.8195     9.0976     8.9059
  162.6000   117.8189     9.0909     8.9059
  162.7000   117.8183     9.0350     8.9059
  162.8000   117.5723     9.0351     8.9059
  162.9000   117.5164     9.0353     8.9059
  163.0000   117.3574     9.0017     8.9059
  163.1000   117.2144     8.9732     8.9059
  163.2000   117.1425     8.9733     8.9059
  163.3000   116.9125     8.9734     8.9059
  163.4000   116.9118     8.9735     8.9059
  163.5000   116.6697     8.9737     8.9059
  163.6000   116.6099     8.9738     8.9059
  163.7000   116.4547     8.9739     8.9059
  163.8000   116.1969     8.9490     8.9059
