~VERSION INFORMATION
 VERS.                2.0:   CWLS LOG ASCII STANDARD - VERSION 2.0
 WRAP.                 NO:   ONE LINE PER DEPTH STEP
~WELL INFORMATION
#MNEM.UNIT      DATA TYPE    INFORMATION
#----------   ------------   ------------------------------
 STRT.F          372.0000:   START DEPTH
 STOP.F         1845.0000:   STOP DEPTH
 STEP.F            0.5000:   STEP LENGTH
 NULL.          -999.2500:   NO VALUE
 COMP.             T.H.E.:   COMPANY
 WELL. 63-1-STX-29 #63-29:   WELL
 FLD .             TEAPOT:   FIELD
 LOC .      S29 T39N R78W:   LOCATION
 CNTY.            NATRONA:   COUNTY
 STAT.            WYOMING:   STATE
 CTRY. UNITED STATES OF AMERICA:   COUNTRY
 SRVC.            Unknown:   SERVICE COMPANY
 DATE.        20-MAY-1996:   LOGDATE
 API .       490252279200:   API NUMBER
~CURVE INFORMATION
#MNEM.UNIT       API CODE    CURVE DESCRIPTION
#----------   ------------   ------------------------------
 DEPT.F                  :   
 ROP .MIN/FT 91 810 01 00:   RATE OF DRILLING PENETRATION
 TGAS.UNITS  91 830 01 00:   TOTAL GAS FROM HOTWIRE
~PARAMETER INFORMATION
#MNEM.UNIT          VALUE    DESCRIPTION
#----------   ------------   ------------------------------
 EKB .F              4983:   KELLING BUSHING
 EGL .F              4973:   GROUND LEVEL
 DATE.          5-20-1996:   RUN DATE
 RUN .                  1:   RUN NUMBER
 BLI .F              1845:   BOTTOM LOG INTERVAL
 TLI .F               372:   TOP LOG INTERVAL
 CS  .IN                7:   CASING SIZE
 CBD .F               354:   CASING BOTTOM DRILLER
 ENGI.   C. TOWER/R. HUSK:   RECORDING ENGINEER
 CLNT.            A2DTECH:   CLIENT CODE
 ORIG.           5" PRINT:   ORIGIN OF DATA
 UWI .       490252279200:   UNIQUE WELL ID
 DICO. A2D Technologies, Inc.:   DIGITIZING COMPANY
~OTHER INFORMATION
~A   DEPT        ROP     TGAS   
  372.0000     1.3393  -999.2500
  372.5000     1.3389  -999.2500
  373.0000     1.3385  -999.2500
  373.5000     1.3487  -999.2500
  374.0000     1.3482  -999.2500
  374.5000     2.0531  -999.2500
  375.0000     2.0526  -999.2500
  375.5000     2.0522  -999.2500
  376.0000     2.0096  -999.2500
  376.5000     1.8197  -999.2500
  377.0000     1.8088  -999.2500
  377.5000     1.8084  -999.2500
  378.0000     1.8080  -999.2500
  378.5000     1.8075  -999.2500
  379.0000     1.8071  -999.2500
  379.5000     1.8067  -999.2500
  380.0000     2.0589  -999.2500
  380.5000     2.0585  -999.2500
  381.0000     2.0580  -999.2500
  381.5000     2.0576  -999.2500
  382.0000     1.3730  -999.2500
  382.5000     1.3200  -999.2500
  383.0000     1.3301  -999.2500
  383.5000     1.3297  -999.2500
  384.0000     1.3399  -999.2500
  384.5000     1.3393  -999.2500
  385.0000     1.3495  -999.2500
  385.5000     1.3490  -999.2500
  386.0000     1.3381  -999.2500
  386.5000     1.0429  -999.2500
  387.0000     1.0425  -999.2500
  387.5000     1.0421  -999.2500
  388.0000     1.0416  -999.2500
  388.5000     0.8097  -999.2500
  389.0000     0.8198  -999.2500
  389.5000     0.8193  -999.2500
  390.0000     0.8189  -999.2500
  390.5000     0.8185  -999.2500
  391.0000     0.8181  -999.2500
  391.5000     0.8176  -999.2500
  392.0000     0.8172  -999.2500
  392.5000     0.8168  -999.2500
  393.0000     0.8164  -999.2500
  393.5000     0.8160  -999.2500
  394.0000     0.8156  -999.2500
  394.5000     0.8151  -999.2500
  395.0000     0.8147  -999.2500
  395.5000     0.8037  -999.2500
  396.0000     0.7507  -999.2500
  396.5000     0.6766  -999.2500
  397.0000     0.6867  -999.2500
  397.5000     0.6863  -999.2500
  398.0000     0.6858  -999.2500
  398.5000     0.6854  -999.2500
  399.0000     0.6745  -999.2500
  399.5000     0.6740  -999.2500
  400.0000     0.6736  -999.2500
  400.5000     0.6732  -999.2500
  401.0000     0.6728  -999.2500
  401.5000     0.6724  -999.2500
  402.0000     0.6930  -999.2500
  402.5000     0.8189  -999.2500
  403.0000     0.8185  -999.2500
  403.5000     0.8181  -999.2500
  404.0000     0.8177  -999.2500
  404.5000     0.8172  -999.2500
  405.0000     0.8006  -999.2500
  405.5000     0.8005  -999.2500
  406.0000     0.8004  -999.2500
  406.5000     0.8003  -999.2500
  407.0000     0.8108  -999.2500
  407.5000     0.8107  -999.2500
  408.0000     0.8105  -999.2500
  408.5000     0.7999  -999.2500
  409.0000     0.7998  -999.2500
  409.5000     0.7997  -999.2500
  410.0000     0.7996  -999.2500
  410.5000     0.7995  -999.2500
  411.0000     0.7994  -999.2500
  411.5000     0.7993  -999.2500
  412.0000     0.7992  -999.2500
  412.5000     0.7991  -999.2500
  413.0000     0.4930  -999.2500
  413.5000     0.5035  -999.2500
  414.0000     0.5034  -999.2500
  414.5000     0.5033  -999.2500
  415.0000     0.5032  -999.2500
  415.5000     0.5096  -999.2500
  416.0000     0.5135  -999.2500
  416.5000     0.5134  -999.2500
  417.0000     0.5238  -999.2500
  417.5000     0.5237  -999.2500
  418.0000     0.5236  -999.2500
  418.5000     0.5235  -999.2500
  419.0000     0.5234  -999.2500
  419.5000     0.5127  -999.2500
  420.0000     0.5940  -999.2500
  420.5000     0.9873  -999.2500
  421.0000     0.9766  -999.2500
  421.5000     0.9765  -999.2500
  422.0000     0.9764  -999.2500
  422.5000     0.9763  -999.2500
  423.0000     0.9762  -999.2500
  423.5000     0.9760  -999.2500
  424.0000     0.9759  -999.2500
  424.5000     0.9864  -999.2500
  425.0000     0.6593  -999.2500
  425.5000     0.6697  -999.2500
  426.0000     0.6485  -999.2500
  426.5000     0.6484  -999.2500
  427.0000     0.6378  -999.2500
  427.5000     0.6377  -999.2500
  428.0000     0.6375  -999.2500
  428.5000     0.6374  -999.2500
  429.0000     0.6373  -999.2500
  429.5000     0.6372  -999.2500
  430.0000     0.6371  -999.2500
  430.5000     0.6370  -999.2500
  431.0000     0.6369  -999.2500
  431.5000     0.6368  -999.2500
  432.0000     0.6367  -999.2500
  432.5000     0.6366  -999.2500
  433.0000     0.6470  -999.2500
  433.5000     0.6469  -999.2500
  434.0000     0.6468  -999.2500
  434.5000     0.6678  -999.2500
  435.0000     0.6677  -999.2500
  435.5000     0.6676  -999.2500
  436.0000     0.6675  -999.2500
  436.5000     0.6674  -999.2500
  437.0000     0.6673  -999.2500
  437.5000     0.6672  -999.2500
  438.0000     0.6671  -999.2500
  438.5000     0.6670  -999.2500
  439.0000     0.6669  -999.2500
  439.5000     0.6668  -999.2500
  440.0000     0.7336  -999.2500
  440.5000     1.0569  -999.2500
  441.0000     1.0567  -999.2500
  441.5000     1.0566  -999.2500
  442.0000     1.0565  -999.2500
  442.5000     1.0564  -999.2500
  443.0000     1.0458    -0.1923
  443.5000     1.0457     0.2812
  444.0000     1.0424     0.2770
  444.5000     0.9296     0.2727
  445.0000     0.5074     0.2685
  445.5000     0.5073     0.2643
  446.0000     0.5072     0.2600
  446.5000     0.5071     0.2558
  447.0000     0.5070     0.2516
  447.5000     0.5068     0.2473
  448.0000     0.5068     0.2431
  448.5000     0.5066     0.2389
  449.0000     0.5065     0.2346
  449.5000     0.5064     0.2304
  450.0000     0.5063     0.2262
  450.5000     0.5168     0.2219
  451.0000     0.5167     0.2177
  451.5000     0.5271     0.2135
  452.0000     0.5330     0.2092
  452.5000     0.5410     0.2050
  453.0000     0.5489     0.2008
  453.5000     0.5583     0.1965
  454.0000     0.5582     0.1923
  454.5000     0.5581     0.1881
  455.0000     0.5580     0.1839
  455.5000     0.5579     0.1796
  456.0000     0.5578     0.1754
  456.5000     0.5682     0.1712
  457.0000     0.5787     0.1669
  457.5000     0.5680     0.1627
  458.0000     0.5468     0.1585
  458.5000     0.5306     0.1542
  459.0000     0.5255     0.1500
  459.5000     0.5254     0.1458
  460.0000     0.5359     0.1415
  460.5000     0.5358     0.1373
  461.0000     0.5357     0.1331
  461.5000     0.5369     0.1288
  462.0000     0.5460     0.1246
  462.5000     0.5459     0.1204
  463.0000     0.5458     0.1161
  463.5000     0.5457     0.1119
  464.0000     0.5456     0.1077
  464.5000     0.5560     0.1034
  465.0000     0.5454     0.0992
  465.5000     0.5453     0.0950
  466.0000     0.5449     0.0907
  466.5000     0.5239     0.0865
  467.0000     0.5179     0.0823
  467.5000     0.5132     0.0780
  468.0000     0.5131     0.0738
  468.5000     0.5130     0.0696
  469.0000     0.5023     0.0653
  469.5000     0.5022     0.0611
  470.0000     0.4916     0.0569
  470.5000     0.4915     0.0526
  471.0000     0.5019     0.0484
  471.5000     0.5018     0.0442
  472.0000     0.5017     0.0399
  472.5000     0.5016     0.0357
  473.0000     0.5015     0.0315
  473.5000     0.5014     0.0315
  474.0000     0.5013     0.0315
  474.5000     0.5012     0.0315
  475.0000     0.5010     0.0315
  475.5000     0.5009     0.0315
  476.0000     0.5046     0.0315
  476.5000     0.5113     0.0315
  477.0000     0.5112     0.0315
  477.5000     0.5216     0.0315
  478.0000     0.5259     0.0315
  478.5000     0.5320     0.0315
  479.0000     0.5319     0.0315
  479.5000     0.5317     0.0315
  480.0000     0.5368     0.0315
  480.5000     0.5421     0.0315
  481.0000     0.5420     0.0315
  481.5000     0.5419     0.0315
  482.0000     0.5418     0.0315
  482.5000     0.5417     0.0315
  483.0000     0.5521     0.0315
  483.5000     0.5520     0.0315
  484.0000     0.5519     0.0315
  484.5000     0.5518     0.0315
  485.0000     0.5517     0.0315
  485.5000     0.5516     0.0315
  486.0000     0.5515     0.0315
  486.5000     0.5514     0.0315
  487.0000     0.5513     0.0315
  487.5000     0.5512     0.0315
  488.0000     0.5510     0.0315
  488.5000     0.5509     0.0315
  489.0000     0.5508     0.0315
  489.5000     0.5507     0.0315
  490.0000     0.5506     0.0315
  490.5000     0.5505     0.0315
  491.0000     0.5504     0.0315
  491.5000     0.5491     0.0315
  492.0000     0.5502     0.0315
  492.5000     0.5501     0.0315
  493.0000     0.5395     0.0315
