~VERSION INFORMATION
 VERS.                2.0:   CWLS LOG ASCII STANDARD - VERSION 2.0
 WRAP.                 NO:   ONE LINE PER DEPTH STEP
~WELL INFORMATION
#MNEM.UNIT      DATA TYPE    INFORMATION
#----------   ------------   ------------------------------
 STRT.F           19.0000:   START DEPTH
 STOP.F          600.0000:   STOP DEPTH
 STEP.F            0.5000:   STEP LENGTH
 NULL.          -999.2500:   NO VALUE
 COMP. FENIX & SCISSON INC:   COMPANY
 WELL.       NPR-3 #18-34:   WELL
 FLD .             TEAPOT:   FIELD
 LOC .      S34 T39N R78W:   LOCATION
 CNTY.            NATRONA:   COUNTY
 STAT.            WYOMING:   STATE
 CTRY. UNITED STATES OF AMERICA:   COUNTRY
 SRVC.           BIRDWELL:   SERVICE COMPANY
 DATE.        10-AUG-1978:   LOGDATE
 API .       490251068100:   API NUMBER
~CURVE INFORMATION
#MNEM.UNIT       API CODE    CURVE DESCRIPTION
#----------   ------------   ------------------------------
 DEPT.F                  :   
 SPR .MV     05 010 01 00:   SPONTANEOUS POTENTIAL FROM RES.
 SN  .OHMM   05 040 16 00:   SHORT NORMAL 16"
 ILD .OHMM   05 120 46 00:   INDUCTION LOG DEEP
 GRD .GAPI   45 310 01 00:   GAMMA RAY FROM DENSITY LOG
 CALD.IN     45 280 60 00:   CALIPER
 CORR.G/C3   45 356 01 00:   DENSITY CORRECTION
 DPHI.DEC    45 890 12 00:   DENSITY POROSITY SANDSTONE
 DEN .G/C3   45 350 01 00:   COMPENSATED BULK DENSTIY
~PARAMETER INFORMATION
#MNEM.UNIT          VALUE    DESCRIPTION
#----------   ------------   ------------------------------
 PD  .                 GL:   PERMANENT DATUM
 EPD .F              5159:   ELEVATION PERMANENT DATUM
 LMF .                 KB:   LOG MEASURED FROM
 DAPD.F                 4:   FEET ABOVE PERMANENT DATUM
 DMF .                 KB:   DRILLING MEASURED FROM
 EKB .F              5163:   KELLING BUSHING
 EGL .F              5159:   GROUND LEVEL
 DATE.            8-10-78:   RUN DATE
 RUN .                  1:   RUN NUMBER
 DD  .F               605:   DEPTH DRILLER
 DL  .F               606:   DEPTH LOGGER
 BLI .F               600:   BOTTOM LOG INTERVAL
 TLI .F                35:   TOP LOG INTERVAL
 CS  .IN            8.625:   CASING SIZE
 CBD .F                40:   CASING BOTTOM DRILLER
 BS  .IN            7.875:   BIT SIZE
 BSD .F               605:   BIT SIZE AT DEPTH
 DFT .                KCL:   DRILLING FLUID TYPE
 DFD .                8.7:   DRILLING FLUID DENSITY
 DFV .                 33:   DRILLING FLUID VISCOSITY
 DFPH.                  9:   DRILLING FLUID PH
 MSS .          FLOW LINE:   MUD SAMPLE SOURCE
 RMS .OHMM            .14:   RESISTIVITY MUD SAMPLE
 MST .F                88:   MUD SAMPLE TEMPERATURE
 MFSS.               MEAS:   MUD FILTRATE SAMPLE SOURCE
 MCSS.               MEAS:   MUD CAKE SAMPLE SOURCE
 TCS .HRS               1:   TIME CURCULATED STOPPED
 LUN .               3006:   LOGGING UNIT NUMBER
 LUL .               CASP:   LOGGING UNIT LOCATION
 ENGI.             MILLER:   RECORDING ENGINEER
 WITN.           MCGINLEY:   WITNESSED BY
 CLNT.            A2DTECH:   CLIENT CODE
 ORIG.           5" PRINT:   ORIGIN OF DATA
 UWI .       490251068100:   UNIQUE WELL ID
 DICO. A2D Technologies, Inc.:   DIGITIZING COMPANY
~OTHER INFORMATION
~A   DEPT      SPR         SN        ILD         GRD      CALD       CORR       DPHI        DEN   
# ...
  262.0000   -39.1089     6.4683     6.2463    96.1160     8.1216     0.0183     0.1349     2.4527
  262.5000   -39.1342     6.4210     6.1609    93.4314     8.1274     0.0169     0.1394     2.4473
  263.0000   -39.1594     6.3740     6.0766    93.3969     8.1516     0.0158     0.1448     2.4384
  263.5000   -39.1847     6.3274     6.0271    93.4793     8.1757     0.0154     0.1493     2.4328
  264.0000   -39.2100     6.2815     5.9965    93.4840     8.1760     0.0179     0.1510     2.4327
  264.5000   -39.2353     6.2100     5.9660    93.4643     8.1661     0.0202     0.1512     2.4328
  265.0000   -39.2605     6.1356     5.9357    94.7796     8.1615     0.0209     0.1506     2.4345
  265.5000   -39.2854     6.0619     5.9054    96.3176     8.1614     0.0210     0.1460     2.4381
  266.0000   -39.2825     5.9917     5.8825    95.0965     8.1614     0.0185     0.1396     2.4457
  266.5000   -39.2414     6.0307     5.8825    93.6547     8.1621     0.0157     0.1372     2.4526
  267.0000   -39.2008     6.0686     5.8825    96.0886     8.1292     0.0145     0.1368     2.4530
  267.5000   -39.1600     6.1067     5.8987    96.5929     8.0877     0.0139     0.1365     2.4532
  268.0000   -39.1193     6.1451     5.9364    95.8659     8.0621     0.0132     0.1349     2.4535
  268.5000   -39.0785     6.1861     5.9744    93.8945     8.0850     0.0123     0.1345     2.4506
  269.0000   -39.0378     6.2289     6.0126    91.9567     8.1086     0.0110     0.1384     2.4448
  269.5000   -38.9970     6.2719     6.0511    91.4790     8.1327     0.0098     0.1468     2.4396
  270.0000   -38.9564     6.3152     6.0898    91.3784     8.1288     0.0093     0.1457     2.4408
  270.5000   -38.9151     6.3576     6.1287    92.2507     8.1090     0.0121     0.1437     2.4436
  271.0000   -38.9088     6.3994     6.1597    94.0656     8.0890     0.0148     0.1357     2.4492
  271.5000   -38.9221     6.4494     6.1595    95.0733     8.0686     0.0164     0.1333     2.4516
  272.0000   -38.9357     6.4044     6.1594    94.2804     8.0614     0.0179     0.1366     2.4517
  272.5000   -38.9495     6.3495     6.1456    92.4758     8.0780     0.0196     0.1392     2.4517
  273.0000   -38.9631     6.2951     6.1231    90.6855     8.0971     0.0239     0.1328     2.4520
  273.5000   -38.9768     6.2592     6.1006    90.2710     8.1163     0.0282     0.1332     2.4523
  274.0000   -38.9905     6.2353     6.0783    94.1551     8.1357     0.0316     0.1330     2.4526
  274.5000   -39.0041     6.2023     6.0557    95.0236     8.1414     0.0334     0.1329     2.4521
  275.0000   -39.0178     6.1312     5.9611    88.3392     8.1415     0.0349     0.1362     2.4511
  275.5000   -39.0315     6.0612     5.8187    91.9727     8.1414     0.0349     0.1374     2.4501
  276.0000   -39.0452     5.9920     5.6804    97.0724     8.1414     0.0348     0.1400     2.4491
  276.5000   -39.0588     5.9236     5.5454   100.7111     8.1414     0.0363     0.1396     2.4492
  277.0000   -39.0728     5.8560     5.4650   100.5720     8.1414     0.0386     0.1392     2.4507
  277.5000   -39.0879     5.7747     5.5531    94.6824     8.1414     0.0406     0.1281     2.4558
  278.0000   -39.0923     5.7753     5.6180    87.7669     8.1414     0.0347     0.1310     2.4598
  278.5000   -38.8325     5.7747     5.6180    88.6316     8.1414     0.0286     0.1337     2.4600
  279.0000   -38.5560     5.8094     5.6180    91.9916     8.1414     0.0230     0.1324     2.4603
  279.5000   -38.3691     5.8694     5.7204    92.1004     8.1414     0.0221     0.1304     2.4605
  280.0000   -38.2642     5.9980     5.8286    92.1222     8.1414     0.0213     0.1304     2.4608
  280.5000   -38.2012     6.1490     5.9376    93.1617     8.1414     0.0206     0.1329     2.4611
  281.0000   -38.1395     6.3039     6.0509    94.2821     8.1414     0.0198     0.1313     2.4613
  281.5000   -38.1084     6.4634     6.1664    94.4860     8.1430     0.0190     0.1329     2.4617
  282.0000   -38.1336     6.6314     6.2218    94.4067     8.1519     0.0213     0.1294     2.4636
  282.5000   -38.1578     6.6294     6.2537    94.3011     8.1607     0.0240     0.1257     2.4676
  283.0000   -38.1822     6.6299     6.2856    91.2961     8.1694     0.0268     0.1285     2.4696
  283.5000   -38.2065     6.6299     6.3178    88.6201     8.1781     0.0295     0.1247     2.4698
  284.0000   -38.2308     6.6299     6.3421    89.3969     8.1755     0.0311     0.1164     2.4780
  284.5000   -38.2552     6.6299     6.3603    96.9843     8.1624     0.0320     0.1194     2.4771
  285.0000   -38.2795     6.6299     6.3788   101.2946     8.1493     0.0328     0.1231     2.4721
  285.5000   -38.3001     6.6300     6.3929    98.4639     8.1362     0.0336     0.1267     2.4686
  286.0000   -38.2998     6.6370     6.4104    95.4549     8.1230     0.0345     0.1266     2.4688
  286.5000   -38.3290     6.6575     6.4277    95.4768     8.1247     0.0389     0.1246     2.4693
  287.0000   -38.5297     6.6779     6.4451    95.5502     8.1285     0.0464     0.1098     2.4763
  287.5000   -38.7300     6.6984     6.5010    98.2995     8.1322     0.0530     0.1130     2.4889
  288.0000   -38.9302     6.7190     6.5702   101.2865     8.1359     0.0458     0.1191     2.4892
  288.5000   -39.1296     6.7398     6.6299   101.1225     8.1397     0.0333     0.1229     2.4743
  289.0000   -39.3013     6.7527     6.6108   100.0435     8.1414     0.0316     0.1196     2.4763
  289.5000   -39.2723     6.7278     6.5906    99.9070     8.1415     0.0314     0.1193     2.4814
  290.0000   -39.2465     6.7092     6.5704    99.5415     8.1411     0.0329     0.1114     2.4882
  290.5000   -39.2215     6.6905     6.5503    97.1503     8.1226     0.0344     0.1074     2.5010
  291.0000   -39.1966     6.6719     6.5303    94.7389     8.1022     0.0359     0.1043     2.5054
  291.5000   -39.1716     6.6535     6.5090    94.6346     8.0831     0.0360     0.0998     2.5089
  292.0000   -39.1457     6.6349     6.4397    97.0189     8.1107     0.0339     0.1019     2.5095
  292.5000   -39.1206     6.5857     6.3661    97.3929     8.1409     0.0317     0.1046     2.5095
  293.0000   -39.1569     6.5254     6.2935    94.5118     8.1173     0.0325     0.1030     2.5095
  293.5000   -39.6138     6.4657     6.2217    93.1208     8.0865     0.0348     0.0986     2.5101
  294.0000   -40.0776     6.4066     6.1501    95.2956     8.0664     0.0325     0.1088     2.5109
  294.5000   -40.1032     6.3481     6.0981    97.6103     8.0961     0.0269     0.1189     2.4923
  295.0000   -40.1005     6.2756     6.0583    95.9185     8.1247     0.0245     0.1309     2.4734
  295.5000   -40.1127     6.1985     6.0187    94.0612     8.1381     0.0237     0.1357     2.4646
  296.0000   -40.2191     6.1224     5.9656    95.0471     8.1297     0.0230     0.1293     2.4578
  296.5000   -40.3264     6.0472     5.7457    96.0338     8.1200     0.0236     0.1388     2.4530
  297.0000   -40.4331     5.9729     5.5156    95.8519     8.0780     0.0243     0.1492     2.4367
  297.5000   -40.5402     5.8240     5.4155    93.4372     8.0352     0.0251     0.1524     2.4237
  298.0000   -40.6471     5.6093     5.3078    92.3696     8.0243     0.0259     0.1533     2.4207
  298.5000   -41.0513     5.4065     5.2022    91.8833     8.0716     0.0267     0.1560     2.4188
  299.0000   -41.7533     5.2200     5.0202    90.2705     8.1189     0.0264     0.1690     2.4035
  299.5000   -42.1246     5.0399     4.8133    90.5706     8.1604     0.0232     0.1836     2.3866
  300.0000   -42.1933     4.8660     4.5777    92.5281     8.1238     0.0185     0.1991     2.3616
  300.5000   -42.2580     4.5659     4.2391    93.9128     8.0443     0.0145     0.2146     2.3268
  301.0000   -42.4182     4.2706     3.6655    93.7500     7.9918     0.0109     0.2421     2.2910
  301.5000   -42.8158     3.9945     3.1695    91.9008     8.5079     0.0110     0.2654     2.2508
  302.0000   -42.9919     3.7133     2.8746    89.0222     8.3041     0.0278     0.2756     2.2246
