~VERSION INFORMATION
 VERS.                2.0:   CWLS LOG ASCII STANDARD - VERSION 2.0
 WRAP.                 NO:   ONE LINE PER DEPTH STEP
~WELL INFORMATION
#MNEM.UNIT      DATA TYPE    INFORMATION
#----------   ------------   ------------------------------
 STRT.F           38.0000:   START DEPTH
 STOP.F          483.5000:   STOP DEPTH
 STEP.F            0.5000:   STEP LENGTH
 NULL.          -999.2500:   NO VALUE
 COMP. FENIX & SCISSON INC:   COMPANY
 WELL.    43 SX 10 #43-10:   WELL
 FLD .             TEAPOT:   FIELD
 LOC .      S10 T38N R78W:   LOCATION
 CNTY.            NATRONA:   COUNTY
 STAT.            WYOMING:   STATE
 CTRY. UNITED STATES OF AMERICA:   COUNTRY
 SRVC.            Unknown:   SERVICE COMPANY
 DATE.        12-NOV-1978:   LOGDATE
 API .       490251072700:   API NUMBER
~CURVE INFORMATION
#MNEM.UNIT       API CODE    CURVE DESCRIPTION
#----------   ------------   ------------------------------
 DEPT.F                  :   
 SPR .MV     05 010 01 00:   SPONTANEOUS POTENTIAL FROM RES.
 SN  .OHMM   05 040 16 00:   SHORT NORMAL 16"
 IL  .OHMM   05 120 00 00:   INDUCTION LOG
 GRD .GAPI   45 310 01 00:   GAMMA RAY FROM DENSITY LOG
 CALD.IN     45 280 60 00:   CALIPER
 DEN .G/C3   45 350 01 00:   COMPENSATED BULK DENSTIY
 DPHI.DEC    45 890 12 00:   DENSITY POROSITY SANDSTONE
 CORR.G/C3   45 356 01 00:   DENSITY CORRECTION
~PARAMETER INFORMATION
#MNEM.UNIT          VALUE    DESCRIPTION
#----------   ------------   ------------------------------
 PD  .                 GL:   PERMANENT DATUM
 EPD .F              5193:   ELEVATION PERMANENT DATUM
 LMF .                 KB:   LOG MEASURED FROM
 DAPD.F                 4:   FEET ABOVE PERMANENT DATUM
 DMF .                 KB:   DRILLING MEASURED FROM
 EKB .F              5197:   KELLING BUSHING
 EGL .F              5193:   GROUND LEVEL
 DATE.           11-12-78:   RUN DATE
 RUN .                  1:   RUN NUMBER
 DD  .F               480:   DEPTH DRILLER
 DL  .F               485:   DEPTH LOGGER
 BLI .F               479:   BOTTOM LOG INTERVAL
 TLI .F                50:   TOP LOG INTERVAL
 CS  .IN            8.625:   CASING SIZE
 CBD .F                40:   CASING BOTTOM DRILLER
 CBL .F                45:   CASING BOTTOM LOGGER
 BS  .IN            7.875:   BIT SIZE
 BSD .F               480:   BIT SIZE AT DEPTH
 DFT .            SEA MUD:   DRILLING FLUID TYPE
 DFD .                8.7:   DRILLING FLUID DENSITY
 DFV .                 36:   DRILLING FLUID VISCOSITY
 DFPH.               10.5:   DRILLING FLUID PH
 MSS .            MUD PIT:   MUD SAMPLE SOURCE
 RMS .OHMM            .42:   RESISTIVITY MUD SAMPLE
 MST .F                52:   MUD SAMPLE TEMPERATURE
 RMF .OHMM            .42:   RESISTIVITY MUD FILTRATE SAMPLE
 MFST.F                52:   MUD FILTRATE SAMPLE TEMPERATURE
 RMC .OHMM            .48:   RESISTIVITY MUD CAKE
 MCST.F                54:   MUD CAKE SAMPLE TEMPERATURE
 MFSS.               MEAS:   MUD FILTRATE SAMPLE SOURCE
 MCSS.               MEAS:   MUD CAKE SAMPLE SOURCE
 RMB .OHMM            .34:   RESISTIVITY MUD AT BHT
 BHT .F                71:   BOTTOM HOLE TEMPERATURE
 TCS .HRS               3:   TIME CURCULATED STOPPED
 MRT .F                71:   MAXIMUM RECORDED TEMPERATURE
 LUN .               3006:   LOGGING UNIT NUMBER
 LUL .               CASP:   LOGGING UNIT LOCATION
 ENGI.             MILLER:   RECORDING ENGINEER
 WITN.           DINSMORE:   WITNESSED BY
 CLNT.            A2DTECH:   CLIENT CODE
 ORIG.       2", 5" PRINT:   ORIGIN OF DATA
 UWI .       490251072700:   UNIQUE WELL ID
 DICO. A2D Technologies, Inc.:   DIGITIZING COMPANY
~OTHER INFORMATION
~A   DEPT      SPR         SN         IL         GRD      CALD        DEN       DPHI       CORR   
# ...
  443.0000   -27.7208    12.9295    13.0990    97.2739     8.4263     2.5087     0.0986     0.0160
  443.5000   -27.7939    12.9794    13.3610    97.3657     8.4249     2.5069     0.0991     0.0165
  444.0000   -27.8671    13.0296    13.4686    97.0875     8.4234     2.5048     0.0995     0.0169
  444.5000   -27.9402    13.0871    13.4909    96.7851     8.4219     2.4959     0.1073     0.0174
  445.0000   -28.0136    13.0683    13.5133    96.4821     8.4204     2.4866     0.1156     0.0178
  445.5000   -28.0861    13.0463    13.5356    96.1999     8.4190     2.4808     0.1176     0.0182
  446.0000   -28.1626    13.0244    13.5580    96.3318     8.4175     2.4885     0.1107     0.0182
  446.5000   -27.9451    13.0025    13.5772    96.5706     8.4160     2.4999     0.1063     0.0175
  447.0000   -27.6066    12.9806    13.5266    96.8045     8.4145     2.5008     0.1058     0.0168
  447.5000   -27.8322    12.9588    13.4788    97.0132     8.4130     2.4979     0.1064     0.0160
  448.0000   -28.0718    12.9370    13.4309    97.1428     8.4116     2.4949     0.1076     0.0153
  448.5000   -28.3120    12.9153    13.3830    97.7520     8.4101     2.4941     0.1088     0.0146
  449.0000   -28.3856    12.8936    13.3354    98.4229     8.4086     2.4950     0.1085     0.0139
  449.5000   -28.3868    12.8720    13.2879    99.0819     8.4071     2.4958     0.1082     0.0132
  450.0000   -28.3866    12.8504    13.2406    99.2346     8.4057     2.4973     0.1079     0.0124
  450.5000   -28.3864    12.7810    13.1935    97.8084     8.4042     2.4981     0.1076     0.0117
  451.0000   -28.3864    12.7068    13.1465    96.9186     8.4027     2.4988     0.1073     0.0110
  451.5000   -28.3864    12.6329    13.0997    96.4903     8.4012     2.4995     0.1070     0.0122
  452.0000   -28.3863    12.5599    12.9928    96.4274     8.3997     2.5010     0.1054     0.0177
  452.5000   -28.3859    12.4932    12.8652    97.5345     8.3983     2.5039     0.1014     0.0230
  453.0000   -28.3876    12.4686    12.7387    98.6397     8.3968     2.5068     0.0990     0.0266
  453.5000   -28.4897    12.4433    12.6135    99.7448     8.3953     2.5096     0.0979     0.0265
  454.0000   -28.8267    12.4181    12.4896   100.8402     8.3938     2.5121     0.0973     0.0265
  454.5000   -29.1603    12.3923    12.3667   101.5129     8.3924     2.5122     0.0967     0.0265
  455.0000   -29.5049    12.2957    12.2307   100.7497     8.3909     2.5128     0.0965     0.0265
  455.5000   -29.6057    12.1504    12.0346   101.2941     8.3894     2.5128     0.0970     0.0266
  456.0000   -29.6404    12.0069    11.8422   101.8359     8.3879     2.5125     0.0976     0.0290
  456.5000   -29.6729    11.8650    11.6529   101.6835     8.3864     2.5122     0.0980     0.0313
  457.0000   -29.7061    11.7248    11.4666   101.1517     8.3850     2.5110     0.0995     0.0281
  457.5000   -29.7394    11.5862    11.2833   100.7382     8.3835     2.5085     0.1010     0.0250
  458.0000   -29.7727    11.4493    11.1029   100.9718     8.3820     2.5061     0.1025     0.0241
  458.5000   -29.8060    11.3140    10.9254   101.4895     8.3805     2.5037     0.1038     0.0236
  459.0000   -29.8393    11.1803    10.7507   100.9467     8.3790     2.5013     0.1044     0.0231
  459.5000   -29.8726    11.0643    10.5788   100.8476     8.3774     2.5010     0.1050     0.0225
  460.0000   -29.9059    10.9894    10.3931   100.9865     8.3772     2.5014     0.1056     0.0248
  460.5000   -29.9392    10.9149    10.3429   101.1242     8.3955     2.5057     0.1031     0.0273
  461.0000   -29.9725    10.8409    10.2894   100.4832     8.4133     2.5110     0.0981     0.0299
  461.5000   -30.0059    10.7674    10.2354    99.8097     8.4318     2.5163     0.0931     0.0310
  462.0000   -30.0392    10.6944    10.1816    99.6241     8.4262     2.5216     0.0909     0.0316
  462.5000   -30.0725    10.6220    10.1281    99.3837     8.4135     2.5243     0.0910     0.0322
  463.0000   -30.1057    10.5500    10.0748    98.9973     8.4006     2.5252     0.0911     0.0335
  463.5000   -30.1383    10.4785    10.0219    98.8328     8.3878     2.5326     0.0900     0.0353
  464.0000   -30.1655    10.4074     9.9692    98.8186     8.3750     2.5381     0.0880     0.0371
  464.5000   -30.4847    10.3369     9.9168    99.1610     8.3621     2.5308     0.0904     0.0386
  465.0000   -30.8681    10.2669     9.8646    99.5012     8.3492     2.5237     0.0929     0.0386
  465.5000   -31.2282    10.1973     9.7989    99.8408     8.3366     2.5227     0.0939     0.0385
  466.0000   -31.4776    10.1281     9.7133   100.1801     8.3520     2.5254     0.0926     0.0349
  466.5000   -31.6046    10.0595     9.6285   100.5208     8.3711     2.5232     0.0951     0.0260
  467.0000   -31.6584     9.9913     9.5443   100.7575     8.3902     2.5140     0.0984     0.0194
  467.5000   -31.7101     9.9236     9.4610   100.9378     8.4096     2.5048     0.1017     0.0175
  468.0000   -31.7565     9.8563     9.3784   101.1177     8.4063     2.4965     0.1050     0.0166
  468.5000   -32.0622     9.7732     9.2965   101.2980     8.3923     2.4908     0.1084     0.0184
  469.0000   -32.4144     9.6827     9.2153   101.4776     8.3780     2.4870     0.1117     0.0202
  469.5000   -32.7669     9.5929     9.1348   101.6664     8.3636     2.4870     0.1138     0.0247
  470.0000   -33.0099     9.5040     9.0550   101.8550     8.3493     2.4870     0.1132     0.0294
  470.5000   -33.1022     9.4159     8.9759   102.0453     8.3369     2.4894     0.1118     0.0343
  471.0000   -33.1961     9.3287     8.8975   102.2356     8.3431     2.4942     0.1086     0.0366
  471.5000   -33.2897     9.2422     8.8198   102.5611     8.3490     2.4990     0.1054     0.0388
  472.0000   -33.3835     9.1565     8.7428   103.0128     8.3549     2.5029     0.1020     0.0410
  472.5000   -33.4788     9.0717     8.5992   103.4466     8.3608     2.4917     0.1081     0.0432
  473.0000   -33.5703     8.9876     8.4351   103.8746     8.3667     2.4794     0.1164     0.0454
  473.5000   -33.5314     8.9043     8.2741   104.2989     8.3725     2.4674     0.1224     0.0476
  474.0000   -32.7177     8.8217     8.1163   104.7268     8.3745     2.4702     0.1240     0.0515
  474.5000   -31.9024     8.7399     7.9614  -999.2500     8.3697     2.4796     0.1167     0.0565
  475.0000   -31.0904     8.6590     7.8095  -999.2500     8.3650     2.4887     0.1105     0.0612
  475.5000   -30.2852     8.5787     7.8730  -999.2500     8.3602     2.4979     0.1047     0.0643
  476.0000   -30.0533     8.5637     7.9366  -999.2500     8.3488     2.5071     0.1003     0.0674
  476.5000   -29.9110     8.7343     8.0013  -999.2500     8.3077     2.5162     0.0960     0.0685
  477.0000   -29.7694     9.0205     8.0624  -999.2500     8.2388     2.5250     0.0916     0.0686
  477.5000   -29.6267     9.3113     8.3647  -999.2500     7.5028     2.5279     0.0872     0.0686
  478.0000   -29.4839     9.6930     8.9837  -999.2500     6.9259     2.5305     0.0829     0.0686
  478.5000   -29.3406    10.1828     9.6485  -999.2500     7.2707     2.5389     0.0788     0.0685
  479.0000   -29.1988    10.6973    10.0174  -999.2500  -999.2500     2.5404     0.0785     0.0687
  479.5000  -999.2500  -999.2500  -999.2500  -999.2500  -999.2500     2.5408     0.0782     0.0621
  480.0000  -999.2500  -999.2500  -999.2500  -999.2500  -999.2500     2.5398     0.0780     0.0528
  480.5000  -999.2500  -999.2500  -999.2500  -999.2500  -999.2500     2.5345     0.0836  -999.2500
  481.0000  -999.2500  -999.2500  -999.2500  -999.2500  -999.2500     2.5293     0.0887  -999.2500
  481.5000  -999.2500  -999.2500  -999.2500  -999.2500  -999.2500     2.5256     0.0918  -999.2500
  482.0000  -999.2500  -999.2500  -999.2500  -999.2500  -999.2500     2.5222     0.0936  -999.2500
  482.5000  -999.2500  -999.2500  -999.2500  -999.2500  -999.2500     2.5220     0.0934  -999.2500
  483.0000  -999.2500  -999.2500  -999.2500  -999.2500  -999.2500     2.5220     0.0932  -999.2500
