~VERSION INFORMATION
 VERS.                2.0:   CWLS LOG ASCII STANDARD - VERSION 2.0
 WRAP.                 NO:   ONE LINE PER DEPTH STEP
~WELL INFORMATION
#MNEM.UNIT      DATA TYPE    INFORMATION
#----------   ------------   ------------------------------
 STRT.F           28.0000:   START DEPTH
 STOP.F          546.5000:   STOP DEPTH
 STEP.F            0.5000:   STEP LENGTH
 NULL.          -999.2500:   NO VALUE
 COMP. LAWRENCE/ALLISON INC:   COMPANY
 WELL.    55-66 SX #10-10:   WELL
 FLD .            WILDCAT:   FIELD
 LOC .      S10 T38N R78W:   LOCATION
 CNTY.            NATRONA:   COUNTY
 STAT.            WYOMING:   STATE
 CTRY. UNITED STATES OF AMERICA:   COUNTRY
 SRVC.            Unknown:   SERVICE COMPANY
 DATE.        20-AUG-1984:   LOGDATE
 API .       490251098000:   API NUMBER
~CURVE INFORMATION
#MNEM.UNIT       API CODE    CURVE DESCRIPTION
#----------   ------------   ------------------------------
 DEPT.F                  :   
 CNC .DEC    42 890 03 00:   NEUTRON POROSITY SANDSTONE
 CALD.IN     45 280 60 00:   CALIPER FROM DENSITY LOG
 DEN .G/C3   45 350 01 00:   COMPENSATED BULK DENSTIY
 PORD.DEC    45 890 12 00:   POROSITY DENSITY STONESTONE
 CORR.G/C3   45 356 01 00:   DENSITY CORRECTION
 SPR .MV     07 010 01 00:   SPONTANEOUS POTENTIAL
 RFOC.OHMM   07 220 04 00:   RESISTIVITY FOCUSED LOG
 RILD.OHMM   07 120 46 00:   INDUCTION LOG DEEP RESISTIVITY
 RILM.OHMM   07 120 44 00:   INDUCTION LOG MEDIUM RESISTIVITY
 AC  .US/F   60 520 00 00:   ACCOUSTIC
 GRD .GAPI   45 310 01 00:   GAMMA RAY FROM DENSITY LOG
~PARAMETER INFORMATION
#MNEM.UNIT          VALUE    DESCRIPTION
#----------   ------------   ------------------------------
 PD  .                 GL:   PERMANENT DATUM
 EPD .F              5200:   ELEVATION PERMANENT DATUM
 LMF .                 GL:   LOG MEASURED FROM
 DMF .                 GL:   DRILLING MEASURED FROM
 EGL .F              5200:   GROUND LEVEL
 DATE.        20-AUG-1984:   RUN DATE
 RUN .                  1:   RUN NUMBER
 DD  .F               554:   DEPTH DRILLER
 DL  .F               548:   DEPTH LOGGER
 BLI .F               546:   BOTTOM LOG INTERVAL
 TLI .F                30:   TOP LOG INTERVAL
 CS  .IN            9.625:   CASING SIZE
 CBD .F                46:   CASING BOTTOM DRILLER
 CBL .F                41:   CASING BOTTOM LOGGER
 BS  .IN            7.875:   BIT SIZE
 BSD .F               554:   BIT SIZE AT DEPTH
 DFT .          KCL WATER:   DRILLING FLUID TYPE
 MSS .           FLOWLINE:   MUD SAMPLE SOURCE
 RMS .OHMM           .691:   RESISTIVITY MUD SAMPLE
 MST .F                82:   MUD SAMPLE TEMPERATURE
 MRT .F               100:   MAXIMUM RECORDED TEMPERATURE
 LUN .               6307:   LOGGING UNIT NUMBER
 LUL .               GLTE:   LOGGING UNIT LOCATION
 ENGI.           FAHLSING:   RECORDING ENGINEER
 WITN.           JENNINGS:   WITNESSED BY
 CLNT.            A2DTECH:   CLIENT CODE
 ORIG.       2", 5" PRINT:   ORIGIN OF DATA
 UWI .       490251098000:   UNIQUE WELL ID
 DICO. A2D Technologies, Inc.:   DIGITIZING COMPANY
~OTHER INFORMATION
~A   DEPT      CNC       CALD        DEN       PORD       CORR        SPR       RFOC       RILD       RILM         AC        GRD   
# ...
  302.5000     0.3299     7.8690     2.3650     0.1850     0.0360   -24.8420    21.0370    29.5590    25.9900   113.5550    74.7570
  303.0000     0.3162     7.8680     2.3850     0.1750     0.0350   -24.6580    22.4450    29.8320    26.4720   111.5920    75.0320
  303.5000     0.3099     7.8660     2.3730     0.1820     0.0330   -25.2040    23.9920    30.7160    26.8050   109.6300    74.1130
  304.0000     0.3040     7.8650     2.3630     0.1930     0.0310   -25.7330    25.5390    31.9570    27.8660   108.3830    73.2070
  304.5000     0.3015     7.8640     2.3560     0.1900     0.0290   -26.2640    27.2120    33.1970    28.9280   107.4660    72.3010
  305.0000     0.2977     7.8620     2.3660     0.1850     0.0430   -26.2910    26.6740    34.4380    29.9890   106.5480    71.4070
  305.5000     0.2874     7.8610     2.3760     0.1800     0.0630   -26.2900    25.5160    35.6790    31.0510   105.6310    68.9700
  306.0000     0.2932     7.8600     2.3860     0.1760     0.0730   -26.2840    26.5870    36.5550    32.1130   104.4230    65.9360
  306.5000     0.2928     7.8590     2.3920     0.1720     0.0590   -26.5170    28.6330    36.8530    32.4050   102.2650    62.9110
  307.0000     0.2869     7.8570     2.3900     0.1740     0.0450   -26.8130    31.2350    37.1510    32.4050   100.3430    61.6190
  307.5000     0.2757     7.8560     2.3850     0.1760     0.0350   -27.1120    30.4650    37.4490    32.4050    99.1320    63.7510
  308.0000     0.2679     7.8550     2.3800     0.1780     0.0450   -27.4150    29.4080    37.7470    32.4050    99.4310    66.5360
  308.5000     0.2669     7.8530     2.3770     0.1800     0.0550   -27.4830    28.4920    38.2360    32.7300   100.4540    67.0690
  309.0000     0.2715     7.8520     2.3860     0.1760     0.0590   -27.2680    29.3140    38.4730    33.3410   101.4120    65.3410
  309.5000     0.2730     7.8510     2.3930     0.1740     0.0490   -26.9980    29.8320    39.1830    33.9520   102.8980    63.5410
  310.0000     0.2804     7.8490     2.3770     0.1820     0.0390   -26.8880    27.8410    39.8920    34.5630   104.9960    65.7270
  310.5000     0.2998     7.8480     2.3610     0.1910     0.0450   -26.9660    25.9900    40.6010    35.1730   107.0950    69.3110
  311.0000     0.3001     7.8470     2.3510     0.1970     0.0490   -27.0490    27.0270    41.3110    35.7840   107.8140    71.4170
  311.5000     0.3002     7.8450     2.3550     0.1930     0.0370   -27.0900    28.1280    41.9170    36.1840   107.1250    69.9700
  312.0000     0.2956     7.8440     2.3590     0.1910     0.0260   -26.8480    29.2290    42.3040    34.6960   104.8090    68.5580
  312.5000     0.2841     7.8430     2.3620     0.1910     0.0180   -26.3310    30.3860    41.2590    33.5910   102.4940    67.0960
  313.0000     0.2750     7.8410     2.3700     0.1870     0.0100   -25.7850    29.9400    39.3750    32.4850   100.1780    67.5660
  313.5000     0.2675     7.8400     2.3790     0.1800     0.0170   -25.2360    29.3450    37.4910    31.3790    98.4330    71.3470
  314.0000     0.2650     7.8390     2.3850     0.1750     0.0320   -25.0570    28.7510    35.5250    30.6660    98.5180    75.6740
  314.5000     0.2736     7.8380     2.3760     0.1810     0.0280   -25.4470    28.1570    36.0530    30.1290    99.1590    75.6880
  315.0000     0.2872     7.8360     2.3670     0.1860     0.0250   -25.8300    27.5630    36.5180    29.6680    99.7990    75.9090
  315.5000     0.2871     7.8350     2.3540     0.1910     0.0540   -26.2140    26.9690    36.1840    29.2070   100.0940    77.4510
  316.0000     0.2815     7.8340     2.3610     0.1960     0.0850   -26.5980    26.4720    34.8200    28.7460    99.7310    78.9850
  316.5000     0.2749     7.8320     2.3740     0.1870     0.0520   -26.9820    26.7710    33.0320    28.2850    97.0360    78.1890
  317.0000     0.2748     7.8310     2.3880     0.1790     0.0050   -27.3670    27.2120    31.2430    27.8240    94.7180    77.7040
  317.5000     0.2738     7.8300     2.4020     0.1690     0.0300   -27.7520    26.0090    29.4550    26.8850    93.3350    81.9940
  318.0000     0.2657     7.8280     2.4160     0.1610     0.0600   -28.1530    24.7660    27.9730    25.8020    92.4450    86.1640
  318.5000     0.2558     7.8270     2.4230     0.1540     0.0490   -28.1810    23.4900    27.9730    24.7180    92.9530    87.6520
  319.0000     0.2548     7.8260     2.4160     0.1570     0.0360   -27.9890    23.4900    27.9730    23.6350    93.7620    84.9190
  319.5000     0.2606     7.8240     2.4090     0.1610     0.0390   -27.7950    23.4900    27.3450    22.5520    94.5710    81.2960
  320.0000     0.2726     7.8230     2.4110     0.1630     0.0420   -27.5990    23.3870    26.3590    21.2310    95.0400    78.8790
  320.5000     0.2766     7.8240     2.4180     0.1590     0.0450   -27.4040    23.2080    25.3720    21.3240    94.9130    79.8910
  321.0000     0.2740     7.8270     2.4240     0.1550     0.0450   -27.2080    23.0620    24.3700    21.4830    94.8400    80.8300
  321.5000     0.2693     7.8290     2.4310     0.1510     0.0380   -27.0130    23.0620    24.3700    21.6430    94.9170    81.7540
  322.0000     0.2629     7.8320     2.4260     0.1500     0.0260   -26.8170    23.4000    24.8030    21.8020    95.2760    82.6760
  322.5000     0.2568     7.8350     2.4170     0.1570     0.0150   -26.6220    23.6120    25.5400    21.9610    95.6340    83.5900
  323.0000     0.2608     7.8380     2.4090     0.1640     0.0240   -26.4270    23.8240    26.2780    22.0270    95.9930    83.9280
  323.5000     0.2654     7.8400     2.4010     0.1680     0.0350   -26.2340    24.0350    27.0150    21.9470    96.3510    82.5440
  324.0000     0.2703     7.8430     2.4030     0.1670     0.0470   -26.1360    24.2470    27.7530    21.8470    96.6370    82.4310
  324.5000     0.2798     7.8430     2.4020     0.1650     0.0580   -26.3260    24.4590    28.4920    21.7470    96.5860    83.5810
  325.0000     0.2859     7.8430     2.3960     0.1680     0.0510   -26.5100    24.6710    27.4030    21.6470    96.3370    83.0130
  325.5000     0.2890     7.8430     2.3910     0.1730     0.0400   -26.6920    24.8830    27.0100    21.5470    96.0880    81.4310
  326.0000     0.2873     7.8430     2.3840     0.1760     0.0280   -26.8740    25.0910    26.6160    21.4470    96.0600    80.7460
  326.5000     0.2845     7.8430     2.3840     0.1770     0.0160   -27.0560    25.2830    26.2230    21.4270    96.1700    82.6470
  327.0000     0.2829     7.8430     2.3860     0.1760     0.0040   -27.2390    24.8560    25.9900    21.5090    96.2380    84.4780
  327.5000     0.2796     7.8430     2.3860     0.1760    -0.0060   -27.4210    24.3270    26.4100    21.7100    96.2380    86.2950
  328.0000     0.2747     7.8430     2.3890     0.1760     0.0030   -27.6030    23.7980    26.7590    21.9110    96.2740    88.1220
  328.5000     0.2722     7.8430     2.3950     0.1730     0.0250   -27.7860    23.2690    26.9630    22.1120    96.4680    88.6870
  329.0000     0.2786     7.8430     2.4010     0.1680     0.0470   -27.9680    22.7400    25.8630    22.2300    96.6610    87.9890
  329.5000     0.2872     7.8430     2.3960     0.1690     0.0490   -28.1500    22.5430    24.9570    22.0410    96.8550    87.3020
  330.0000     0.2884     7.8430     2.3900     0.1740     0.0420   -28.3330    22.3060    24.0510    21.7360    97.0180    86.6050
  330.5000     0.2883     7.8430     2.3840     0.1780     0.0360   -28.5130    22.0270    23.7070    21.4300    96.8710    86.6100
  331.0000     0.2852     7.8430     2.3850     0.1750     0.0290   -28.6880    22.0760    23.7070    21.1240    96.5050    87.3310
  331.5000     0.2758     7.8430     2.3940     0.1710     0.0220   -28.7670    22.1360    23.7070    20.8190    96.1380    88.1130
  332.0000     0.2705     7.8430     2.4040     0.1670     0.0160   -28.8490    22.1960    23.5810    20.5130    95.7720    85.6070
  332.5000     0.2752     7.8430     2.4060     0.1640     0.0090   -28.9310    22.2300    23.2840    20.2730    95.4060    81.9170
