~VERSION INFORMATION
 VERS.                2.0:   CWLS LOG ASCII STANDARD - VERSION 2.0
 WRAP.                 NO:   ONE LINE PER DEPTH STEP
~WELL INFORMATION
#MNEM.UNIT      DATA TYPE    INFORMATION
#----------   ------------   ------------------------------
 STRT.F            0.0000:   START DEPTH
 STOP.F         2758.0000:   STOP DEPTH
 STEP.F            0.5000:   STEP LENGTH
 NULL.          -999.2500:   NO VALUE
 COMP. FENIX & SCISSON INC:   COMPANY
 WELL.       402A #402-20:   WELL
 FLD .             TEAPOT:   FIELD
 LOC .      S20 T39N R78W:   LOCATION
 CNTY.            NATRONA:   COUNTY
 STAT.            WYOMING:   STATE
 CTRY. UNITED STATES OF AMERICA:   COUNTRY
 SRVC.      NL McCullough:   SERVICE COMPANY
 DATE.        15-JUL-1965:   LOGDATE
 API .       490251021100:   API NUMBER
~CURVE INFORMATION
#MNEM.UNIT       API CODE    CURVE DESCRIPTION
#----------   ------------   ------------------------------
 DEPT.F                  :   
 GR  .GAPI   30 310 01 00:   GAMMA RAY
 CALI.IN     70 280 01 00:   CALIPER
~PARAMETER INFORMATION
#MNEM.UNIT          VALUE    DESCRIPTION
#----------   ------------   ------------------------------
 PD  .                 GL:   PERMANENT DATUM
 LMF .                 GL:   LOG MEASURED FROM
 DMF .                 GL:   DRILLING MEASURED FROM
 DATE.            7-15-65:   RUN DATE
 RUN .                  1:   RUN NUMBER
 DL  .F              2759:   DEPTH LOGGER
 BLI .F              2758:   BOTTOM LOG INTERVAL
 TLI .F              2100:   TOP LOG INTERVAL
 CS  .IN                7:   CASING SIZE
 ENGI. FITZSIMMONS/COWLTHORPE:   RECORDING ENGINEER
 WITN.             HUDSON:   WITNESSED BY
 CLNT.            A2DTECH:   CLIENT CODE
 ORIG.           5" PRINT:   ORIGIN OF DATA
 UWI .       490251021100:   UNIQUE WELL ID
 DICO. A2D Technologies, Inc.:   DIGITIZING COMPANY
~OTHER INFORMATION
~A    DEPT      GR         CALI 
# ...
 2308.5000    55.5548     5.5519
 2309.0000    51.2402     5.5519
 2309.5000    50.2450     5.5519
 2310.0000    53.1121     5.5519
 2310.5000    55.9856     5.5519
 2311.0000    55.8976     5.5519
 2311.5000    49.8987     5.5519
 2312.0000    49.8262     5.5519
 2312.5000    54.2272     5.5519
 2313.0000    52.8039     5.5519
 2313.5000    51.1658     5.5519
 2314.0000    49.4964     5.5527
 2314.5000    50.9695     5.5568
 2315.0000    51.9696     5.5609
 2315.5000    51.0753     5.5650
 2316.0000    52.2627     5.5691
 2316.5000    55.8706     5.5729
 2317.0000    58.8165     5.5415
 2317.5000    61.1651     5.5117
 2318.0000    58.5997     5.5172
 2318.5000    54.1807     5.5222
 2319.0000    53.8001     5.5271
 2319.5000    54.4492     5.5317
 2320.0000    54.8490     5.5345
 2320.5000    54.5234     5.5387
 2321.0000    54.3179     5.5430
 2321.5000    54.6228     5.5472
 2322.0000    55.5109     5.5515
 2322.5000    56.3641     5.5510
 2323.0000    55.1969     5.5500
 2323.5000    51.4558     5.5489
 2324.0000    49.1030     5.5478
 2324.5000    50.5168     5.5468
 2325.0000    50.6887     5.5457
 2325.5000    50.5379     5.5447
 2326.0000    50.3789     5.5436
 2326.5000    50.2179     5.5426
 2327.0000    50.1008     5.5415
 2327.5000    52.0913     5.5405
 2328.0000    54.3842     5.5394
 2328.5000    56.1683     5.5384
 2329.0000    55.4656     5.5373
 2329.5000    52.3618     5.5363
 2330.0000    49.4051     5.5352
 2330.5000    49.9160     5.5342
 2331.0000    50.8844     5.5331
 2331.5000    49.5571     5.5321
 2332.0000    50.7436     5.5309
 2332.5000    48.3704     5.5297
 2333.0000    50.3476     5.5286
 2333.5000    52.7613     5.5274
 2334.0000    53.2872     5.5262
 2334.5000    58.5107     5.5251
 2335.0000    60.8739     5.5239
 2335.5000    58.8301     5.5227
 2336.0000    54.7229     5.5215
 2336.5000    42.7281     5.5204
 2337.0000    35.7613     5.5192
 2337.5000    28.5125     5.5180
 2338.0000    21.3040     5.5168
 2338.5000    14.0772     5.5157
 2339.0000    10.1352     5.5145
 2339.5000     8.2241     5.5133
 2340.0000     9.6209     5.5119
 2340.5000    11.8225     5.5233
 2341.0000    10.7616     5.5385
 2341.5000    10.7888     5.5539
 2342.0000    11.9759     5.5696
 2342.5000    15.4850     5.5648
 2343.0000    21.1044     5.5559
 2343.5000    23.5521     5.5470
 2344.0000    23.8451     5.5381
 2344.5000    28.7066     5.5329
 2345.0000    30.2716     5.5443
 2345.5000    34.1424     5.5557
 2346.0000    36.8891     5.5671
 2346.5000    35.2508     5.5622
 2347.0000    33.6744     5.5454
 2347.5000    35.1845     5.5283
 2348.0000    37.2633     5.5117
 2348.5000    31.3073     5.5286
 2349.0000    26.4662     5.5491
 2349.5000    25.6747     5.5697
 2350.0000    33.1033     5.5899
 2350.5000    35.3421     5.5811
 2351.0000    35.2530     5.5688
 2351.5000    35.1155     5.5564
 2352.0000    33.2448     5.5513
 2352.5000    30.4827     5.5496
 2353.0000    27.7267     5.5481
 2353.5000    27.6503     5.5465
 2354.0000    30.9224     5.5449
 2354.5000    31.0809     5.5434
 2355.0000    24.2520     5.5418
 2355.5000    25.0007     5.5402
 2356.0000    28.0602     5.5386
 2356.5000    27.5506     5.5371
 2357.0000    26.9981     5.5355
 2357.5000    30.8266     5.5339
 2358.0000    31.5739     5.5322
 2358.5000    32.4943     5.5342
 2359.0000    34.3968     5.5375
 2359.5000    34.9106     5.5407
 2360.0000    32.7803     5.5440
 2360.5000    31.7901     5.5472
 2361.0000    34.1899     5.5505
 2361.5000    36.7624     5.5519
 2362.0000    35.1087     5.5519
 2362.5000    33.1970     5.5519
 2363.0000    34.0280     5.5519
 2363.5000    38.3133     5.5519
 2364.0000    37.4944     5.5519
 2364.5000    39.2953     5.5519
 2365.0000    37.4376     5.5519
 2365.5000    34.0946     5.5519
 2366.0000    32.7075     5.5519
 2366.5000    38.9361     5.5519
 2367.0000    42.2891     5.5519
 2367.5000    40.0049     5.5519
 2368.0000    37.1123     5.5519
 2368.5000    34.2398     5.5519
 2369.0000    33.9263     5.5519
 2369.5000    37.1561     5.5519
 2370.0000    37.1483     5.5519
 2370.5000    36.3900     5.5519
 2371.0000    35.6801     5.5519
 2371.5000    35.4084     5.5519
 2372.0000    35.5487     5.5519
 2372.5000    37.7939     5.5519
 2373.0000    38.5279     5.5523
 2373.5000    33.6270     5.5540
 2374.0000    29.9379     5.5557
 2374.5000    32.9653     5.5574
 2375.0000    34.0104     5.5590
 2375.5000    34.3954     5.5607
 2376.0000    37.7854     5.5624
 2376.5000    36.8517     5.5641
 2377.0000    37.2618     5.5657
 2377.5000    38.5198     5.5674
 2378.0000    40.3530     5.5691
 2378.5000    42.6783     5.5708
 2379.0000    42.2405     5.5722
 2379.5000    43.8543     5.5731
 2380.0000    46.7590     5.5740
 2380.5000    42.1812     5.5749
 2381.0000    38.6913     5.5757
 2381.5000    38.3355     5.5766
 2382.0000    38.4000     5.5775
 2382.5000    29.9933     5.5784
 2383.0000    28.3405     5.5793
 2383.5000    25.0336     5.5801
 2384.0000    21.8202     5.5810
 2384.5000    21.3221     5.5819
 2385.0000    26.4244     5.5828
 2385.5000    29.3901     5.5837
 2386.0000    30.6087     5.5845
 2386.5000    31.6805     5.5854
 2387.0000    30.8207     5.5863
 2387.5000    29.7381     5.5872
 2388.0000    27.8462     5.5881
 2388.5000    26.3400     5.5890
 2389.0000    26.6372     5.5898
 2389.5000    26.4674     5.5907
 2390.0000    22.4836     5.5916
 2390.5000    21.3183     5.5920
 2391.0000    24.6068     5.5920
 2391.5000    27.2749     5.5920
 2392.0000    29.9291     5.5920
 2392.5000    33.3035     5.5920
 2393.0000    31.7031     5.5920
 2393.5000    29.5484     5.5920
 2394.0000    28.8014     5.5920
 2394.5000    25.1675     5.5920
 2395.0000    21.6458     5.5914
 2395.5000    19.2344     5.5908
 2396.0000    18.2346     5.5901
 2396.5000    19.7017     5.5894
 2397.0000    20.3848     5.5888
 2397.5000    22.8633     5.5881
 2398.0000    24.6961     5.5875
 2398.5000    25.5930     5.5868
 2399.0000    27.8950     5.5861
 2399.5000    29.9920     5.5855
 2400.0000    30.0264     5.5848
 2400.5000    29.3551     5.5842
 2401.0000    27.1948     5.5835
 2401.5000    25.0593     5.5828
 2402.0000    22.9359     5.5822
 2402.5000    22.0547     5.5815
 2403.0000    23.2252     5.5809
 2403.5000    24.0252     5.5802
 2404.0000    21.4701     5.5795
 2404.5000    19.7856     5.5789
 2405.0000    20.5427     5.5782
 2405.5000    22.5671     5.5776
 2406.0000    24.7432     5.5769
 2406.5000    25.5320     5.5763
 2407.0000    24.5350     5.5756
 2407.5000    23.2054     5.5749
 2408.0000    23.9480     5.5743
 2408.5000    24.1921     5.5736
 2409.0000    22.3675     5.5730
 2409.5000    21.6983     5.5723
 2410.0000    22.4018     5.5720
 2410.5000    24.1562     5.5720
 2411.0000    24.5543     5.5720
 2411.5000    25.7559     5.5720
 2412.0000    31.9951     5.5720
 2412.5000    38.7273     5.5720
 2413.0000    41.1165     5.5720
 2413.5000    40.5756     5.5720
 2414.0000    39.9941     5.5720
 2414.5000    39.4231     5.5720
 2415.0000    39.0513     5.5720
 2415.5000    39.0609     5.5720
 2416.0000    38.8167     5.5720
 2416.5000    38.3871     5.5720
 2417.0000    36.9654     5.5720
 2417.5000    36.0763     5.5720
 2418.0000    36.3139     5.5720
 2418.5000    36.8088     5.5720
 2419.0000    38.3675     5.5720
 2419.5000    41.8365     5.5720
 2420.0000    42.6311     5.5720
 2420.5000    34.6197     5.5720
 2421.0000    33.5157     5.5720
 2421.5000    37.6393     5.5719
 2422.0000    32.6361     5.5718
 2422.5000    26.7777     5.5729
 2423.0000    24.1681     5.5919
 2423.5000    19.5575     5.6105
 2424.0000    14.6283     5.6294
 2424.5000    13.7471     5.6243
 2425.0000    23.1773     5.6143
 2425.5000    27.7437     5.6164
 2426.0000    29.2555     5.6225
 2426.5000    29.6490     5.6289
 2427.0000    32.7223     5.6306
 2427.5000    39.4845     5.5956
 2428.0000    45.2425     5.5594
 2428.5000    48.1717     5.5562
 2429.0000    48.0842     5.5620
 2429.5000    46.3716     5.5678
