~VERSION INFORMATION
 VERS.                2.0:   CWLS LOG ASCII STANDARD - VERSION 2.0
 WRAP.                 NO:   ONE LINE PER DEPTH STEP
~WELL INFORMATION
#MNEM.UNIT      DATA TYPE    INFORMATION
#----------   ------------   ------------------------------
 STRT.F           42.0000:   START DEPTH
 STOP.F          408.0000:   STOP DEPTH
 STEP.F            0.5000:   STEP LENGTH
 NULL.          -999.2500:   NO VALUE
 COMP. FENIX & SCISSON INC:   COMPANY
 WELL.       SX 3FO #22-3:   WELL
 FLD .             TEAPOT:   FIELD
 LOC .       S3 T38N R78W:   LOCATION
 CNTY.            NATRONA:   COUNTY
 STAT.            WYOMING:   STATE
 CTRY. UNITED STATES OF AMERICA:   COUNTRY
 SRVC.              Welex:   SERVICE COMPANY
 DATE.        01-JUL-1980:   LOGDATE
 API .       490251083000:   API NUMBER
~CURVE INFORMATION
#MNEM.UNIT       API CODE    CURVE DESCRIPTION
#----------   ------------   ------------------------------
 DEPT.F                  :   
 GRD .GAPI   45 310 01 00:   GAMMA RAY FROM DENSITY LOG
 CALD.IN     45 280 60 00:   CALIPER
 RHOB.G/C3   45 350 01 00:   BULK DENSITY
 DPHI.DEC    45 890 12 00:   DENSITY POROSITY SANDSTONE
 CORR.G/C3   45 356 01 00:   DENSITY CORRECTION
~PARAMETER INFORMATION
#MNEM.UNIT          VALUE    DESCRIPTION
#----------   ------------   ------------------------------
 PD  .                 GL:   PERMANENT DATUM
 EPD .F              5152:   ELEVATION PERMANENT DATUM
 LMF .                 KB:   LOG MEASURED FROM
 DAPD.F                 5:   FEET ABOVE PERMANENT DATUM
 DMF .                 KB:   DRILLING MEASURED FROM
 EKB .F              5157:   KELLING BUSHING
 EGL .F              5152:   GROUND LEVEL
 DATE.             7-1-80:   RUN DATE
 RUN .                  1:   RUN NUMBER
 DD  .F               470:   DEPTH DRILLER
 DL  .F               410:   DEPTH LOGGER
 BLI .F               408:   BOTTOM LOG INTERVAL
 TLI .F                40:   TOP LOG INTERVAL
 BS  .IN             8.75:   BIT SIZE
 BSD .F               470:   BIT SIZE AT DEPTH
 DFT .        AIR DRILLED:   DRILLING FLUID TYPE
 BHT .F                75:   BOTTOM HOLE TEMPERATURE
 TCS .HRS             4.5:   TIME CURCULATED STOPPED
 MRT .F                75:   MAXIMUM RECORDED TEMPERATURE
 ENGI.        REIN/GLASER:   RECORDING ENGINEER
 WITN.             ROADES:   WITNESSED BY
 CLNT.            A2DTECH:   CLIENT CODE
 ORIG.           5" PRINT:   ORIGIN OF DATA
 UWI .       490251083000:   UNIQUE WELL ID
 DICO. A2D Technologies, Inc.:   DIGITIZING COMPANY
~OTHER INFORMATION
~A   DEPT       GRD        CALD       RHOB       DPHI       CORR 
   42.0000    85.9325     9.1522     2.5789     0.0950     0.0070
   42.5000    86.6340     9.1522     2.5789     0.0950     0.0070
   43.0000    87.8895     9.1522     2.5839     0.0922     0.0070
   43.5000    89.1451     9.1522     2.7030     0.0807     0.0070
   44.0000    89.6722     9.1535     2.7871     0.0726     0.0070
   44.5000    88.1021     9.1628     2.9109     0.0606     0.0070
   45.0000    87.1192     9.1712     2.9964     0.0463     0.0067
   45.5000    89.2006     9.1484     2.9976     0.0320     0.0069
   46.0000    95.8514     9.1239     2.8379     0.0186     0.0116
   46.5000   102.5860     9.0995     2.5986     0.1114     0.0554
   47.0000   107.3456     9.0752     2.4979     0.1118     0.0280
   47.5000   110.3929     9.0509     2.5110     0.1050     0.0826
   48.0000   109.9164     9.0266     2.4989     0.1142     0.0730
   48.5000   108.6103     9.0009     2.4941     0.1190     0.0730
   49.0000   108.3087     9.0140     2.5010     0.1138     0.0771
   49.5000   108.1994     9.0430     2.4990     0.1157     0.0817
   50.0000   106.5193     9.0726     2.4942     0.1170     0.0822
   50.5000   104.1890     9.1022     2.4955     0.1155     0.0824
   51.0000   103.0126     9.1314     2.4989     0.1139     0.0875
   51.5000   103.7746     9.1525     2.4987     0.1151     0.0903
   52.0000   105.3547     9.1304     2.4905     0.1184     0.0875
   52.5000   105.7876     9.0872     2.4851     0.1217     0.0848
   53.0000   106.8192     9.0439     2.4867     0.1230     0.0830
   53.5000   107.9436     9.0131     2.4881     0.1215     0.0833
   54.0000   106.8826     8.9942     2.4894     0.1182     0.0837
   54.5000   106.7624     9.0043     2.4892     0.1195     0.0839
   55.0000   107.0084     9.0126     2.4871     0.1210     0.0843
   55.5000   107.2697     9.0205     2.4932     0.1180     0.0846
   56.0000   107.4770     9.0285     2.5000     0.1146     0.0848
   56.5000   109.9745     9.0365     2.4932     0.1184     0.0830
   57.0000   111.5924     9.0446     2.4841     0.1214     0.0795
   57.5000   109.2853     9.0530     2.4810     0.1237     0.0760
   58.0000   111.1048     9.0534     2.4801     0.1256     0.0702
   58.5000   109.9146     9.0535     2.4720     0.1298     0.0678
   59.0000   108.3993     9.0539     2.4858     0.1286     0.0697
   59.5000   107.1805     9.0497     2.4790     0.1272     0.0690
   60.0000   107.8835     9.0344     2.4671     0.1360     0.0636
   60.5000   108.7239     9.0333     2.4554     0.1394     0.0584
   61.0000   108.5250     9.0337     2.4528     0.1416     0.0546
   61.5000   107.7079     9.0434     2.4498     0.1442     0.0532
   62.0000   106.9769     9.0464     2.4438     0.1482     0.0545
   62.5000   106.6998     9.0391     2.4498     0.1442     0.0553
   63.0000   106.3487     9.0313     2.4600     0.1336     0.0625
   63.5000   105.7469     9.0238     2.4797     0.1229     0.0684
   64.0000   106.7625     9.0160     2.4987     0.1147     0.0731
   64.5000   107.2909     9.0264     2.4944     0.1178     0.0710
   65.0000   106.1768     9.0511     2.4897     0.1187     0.0689
   65.5000   105.1113     9.0727     2.5034     0.1138     0.0671
   66.0000   104.6010     9.0458     2.4951     0.1165     0.0672
   66.5000   106.1979     9.0156     2.5004     0.1121     0.0685
   67.0000   108.0345     8.9993     2.5102     0.1062     0.0698
   67.5000   108.0531     9.0220     2.5109     0.1087     0.0711
   68.0000   106.7275     9.0435     2.5034     0.1110     0.0723
   68.5000   105.7584     9.0649     2.5080     0.1083     0.0750
   69.0000   106.1464     9.0871     2.5087     0.1062     0.0794
   69.5000   106.8457     9.0851     2.5067     0.1086     0.0837
   70.0000   104.9490     9.0700     2.5119     0.1050     0.0877
   70.5000   104.4931     9.0541     2.5055     0.1106     0.0900
   71.0000   106.6164     9.0608     2.5044     0.1106     0.0924
   71.5000   108.6987     9.0758     2.5165     0.1056     0.0948
   72.0000   110.5142     9.0959     2.5195     0.1022     0.0969
   72.5000   109.3361     9.1052     2.5186     0.1028     0.0962
   73.0000   107.9759     9.0926     2.5156     0.1047     0.0932
   73.5000   106.6457     9.0790     2.5062     0.1101     0.0889
   74.0000   107.8652     9.0654     2.4968     0.1166     0.0850
   74.5000   109.7093     9.0534     2.4944     0.1143     0.0857
   75.0000   111.6161     9.0533     2.5030     0.1142     0.0869
   75.5000   112.2430     9.0534     2.4935     0.1195     0.0817
   76.0000   110.5733     9.0534     2.4797     0.1274     0.0742
   76.5000   109.7635     9.0534     2.4790     0.1251     0.0689
   77.0000   110.9153     9.0534     2.4887     0.1205     0.0705
   77.5000   110.2373     9.0534     2.4984     0.1159     0.0722
   78.0000   108.7941     9.0532     2.5047     0.1154     0.0723
   78.5000   109.6327     9.0613     2.4962     0.1138     0.0671
   79.0000   110.2071     9.0725     2.4797     0.1241     0.0618
   79.5000   106.0927     9.0542     2.4628     0.1320     0.0565
   80.0000   107.3209     9.0329     2.4533     0.1405     0.0520
   80.5000   109.0191     9.0140     2.4484     0.1453     0.0488
   81.0000   110.7107     9.0160     2.4453     0.1486     0.0457
   81.5000   111.3910     9.0186     2.4463     0.1457     0.0427
   82.0000   108.3543     9.0212     2.4560     0.1426     0.0506
   82.5000   105.4294     9.0237     2.4474     0.1422     0.0608
   83.0000   103.4051     9.0262     2.4358     0.1499     0.0632
   83.5000   105.8582     9.0288     2.4280     0.1578     0.0568
   84.0000   104.6330     9.0313     2.4153     0.1618     0.0487
   84.5000   103.1016     9.0336     2.3990     0.1724     0.0485
   85.0000   104.9693     9.0376     2.4088     0.1686     0.0571
   85.5000   103.8699     9.0455     2.4167     0.1626     0.0637
   86.0000   102.0524     9.0534     2.4239     0.1626     0.0696
   86.5000   103.2069     9.0612     2.4450     0.1453     0.0770
   87.0000   104.5566     9.0690     2.4559     0.1380     0.0845
   87.5000   105.7958     9.0577     2.4640     0.1345     0.0920
   88.0000   106.1739     9.0271     2.4698     0.1326     0.0996
   88.5000   106.3256     8.9955     2.4766     0.1262     0.1066
   89.0000   106.4578     8.9957     2.4830     0.1242     0.1086
   89.5000   106.6231     9.0032     2.4785     0.1268     0.1059
   90.0000   107.9172     9.0103     2.4732     0.1302     0.1047
   90.5000   109.1447     9.0174     2.4886     0.1195     0.1149
   91.0000   107.9210     9.0244     2.5034     0.1091     0.1269
   91.5000   105.6508     9.0323     2.5222     0.0990     0.1390
   92.0000   103.6201     9.0083     2.5413     0.0890     0.1510
   92.5000   103.9541     8.9726     2.5650     0.0769     0.1629
   93.0000   104.9947     8.9365     2.5599     0.0804     0.1634
   93.5000   104.0762     8.9007     2.5484     0.0857     0.1571
   94.0000   103.0472     8.8750     2.5358     0.0918     0.1507
   94.5000   103.2788     8.8819     2.5280     0.0981     0.1398
   95.0000   104.4066     8.9066     2.5211     0.1022     0.1291
   95.5000   105.4908     8.9306     2.5146     0.1064     0.1185
   96.0000   104.7176     8.9545     2.5113     0.1086     0.1188
   96.5000   103.5012     8.9785     2.5216     0.0998     0.1267
   97.0000   102.2615     9.0025     2.5317     0.0955     0.1314
   97.5000   100.8265     9.0276     2.5501     0.0889     0.1426
   98.0000    98.6890     9.0317     2.5635     0.0802     0.1536
   98.5000    96.6081     8.9863     2.5937     0.0576     0.1645
   99.0000    94.5233     8.9796     2.6114     0.0450     0.1754
   99.5000    93.3464     8.9890     2.6200     0.0432     0.1831
  100.0000    94.7349     8.9939     2.5922     0.0603     0.1706
  100.5000    96.7891     8.9937     2.5677     0.0736     0.1567
  101.0000    98.8690     8.9657     2.5648     0.0758     0.1429
  101.5000   100.9253     8.9149     2.5586     0.0811     0.1327
  102.0000   102.2117     8.9357     2.5516     0.0819     0.1314
  102.5000   101.2489     8.9658     2.5461     0.0866     0.1308
