~VERSION INFORMATION
 VERS.                2.0:   CWLS LOG ASCII STANDARD - VERSION 2.0
 WRAP.                 NO:   ONE LINE PER DEPTH STEP
~WELL INFORMATION
#MNEM.UNIT      DATA TYPE    INFORMATION
#----------   ------------   ------------------------------
 STRT.F          442.0000:   START DEPTH
 STOP.F         2636.0000:   STOP DEPTH
 STEP.F            0.5000:   STEP LENGTH
 NULL.          -999.2500:   NO VALUE
 COMP. FENIX & SCISSON INC:   COMPANY
 WELL.     25 SHX 2 #25-2:   WELL
 FLD .             TEAPOT:   FIELD
 LOC .       S2 T38N R78W:   LOCATION
 CNTY.            NATRONA:   COUNTY
 STAT.            WYOMING:   STATE
 CTRY. UNITED STATES OF AMERICA:   COUNTRY
 SRVC.              Welex:   SERVICE COMPANY
 DATE.        07-JUN-1980:   LOGDATE
 API .       490251080200:   API NUMBER
~CURVE INFORMATION
#MNEM.UNIT       API CODE    CURVE DESCRIPTION
#----------   ------------   ------------------------------
 DEPT.F                  :   
 CALD.IN     45 280 60 00:   CALIPER
 GRD .GAPI   45 310 01 00:   GAMMA RAY FROM DENSITY LOG
 DPHI.DEC    45 890 12 00:   DENSITY POROSITY SANDSTONE
 CORR.G/C3   45 356 01 00:   DENSITY CORRECTION
 RHOB.G/C3   45 350 01 00:   BULK DENSITY
~PARAMETER INFORMATION
#MNEM.UNIT          VALUE    DESCRIPTION
#----------   ------------   ------------------------------
 PD  .                 GL:   PERMANENT DATUM
 EPD .F              5120:   ELEVATION PERMANENT DATUM
 LMF .                 KB:   LOG MEASURED FROM
 DAPD.F                10:   FEET ABOVE PERMANENT DATUM
 DMF .                 KB:   DRILLING MEASURED FROM
 EKB .F              5130:   KELLING BUSHING
 EGL .F              5120:   GROUND LEVEL
 DATE.             6-7-80:   RUN DATE
 RUN .                  1:   RUN NUMBER
 DD  .F              2652:   DEPTH DRILLER
 DL  .F              2638:   DEPTH LOGGER
 BLI .F              2636:   BOTTOM LOG INTERVAL
 TLI .F              1224:   TOP LOG INTERVAL
 BS  .IN             6.75:   BIT SIZE
 BSD .F              2652:   BIT SIZE AT DEPTH
 DFT .        AIR DRILLED:   DRILLING FLUID TYPE
 TCS .HRS               2:   TIME CURCULATED STOPPED
 MRT .F               125:   MAXIMUM RECORDED TEMPERATURE
 ENGI.               REIN:   RECORDING ENGINEER
 WITN.           DINSMORE:   WITNESSED BY
 CLNT.            A2DTECH:   CLIENT CODE
 ORIG.           5" PRINT:   ORIGIN OF DATA
 UWI .       490251080200:   UNIQUE WELL ID
 DICO. A2D Technologies, Inc.:   DIGITIZING COMPANY
~OTHER INFORMATION
~A   DEPT     CALD         GRD      DPHI       CORR       RHOB   
# ...
 1479.0000     8.9843    76.8999     0.1091     0.0696     2.4702
 1479.5000     8.9843    76.6214     0.1056     0.0771     2.4771
 1480.0000     8.9843    76.4659     0.1140     0.0699     2.4539
 1480.5000     8.9843    76.3817     0.1246     0.0359     2.4241
 1481.0000     8.9843    76.2988     0.1353    -0.0013     2.3999
 1481.5000     8.9843    76.2159     0.1395    -0.0047     2.3916
 1482.0000     8.9843    76.1329     0.1241     0.0288     2.4265
 1482.5000     8.9843    76.0499     0.1144     0.0582     2.4534
 1483.0000     8.9843    75.9669     0.1201     0.0558     2.4388
 1483.5000     8.9843    75.8839     0.1285     0.0250     2.4169
 1484.0000     8.9843    75.8008     0.1332     0.0116     2.3995
 1484.5000     8.9843    75.7178     0.1315     0.0261     2.4088
 1485.0000     8.9843    75.6343     0.1255     0.0308     2.4274
 1485.5000     8.9843    75.5453     0.1251     0.0362     2.4301
 1486.0000     8.9843    75.7067     0.1177     0.0391     2.4279
 1486.5000     8.9843    75.9348     0.1090     0.0711     2.4658
 1487.0000     8.9843    76.0709     0.1036     0.0857     2.4762
 1487.5000     8.9843    75.7295     0.1123     0.0694     2.4579
 1488.0000     8.9843    75.3964     0.1144     0.0713     2.4506
 1488.5000     8.9843    75.0631     0.1082     0.0880     2.4665
 1489.0000     8.9843    75.0542     0.1036     0.1044     2.4813
 1489.5000     8.9843    75.3164     0.0980     0.1158     2.4907
 1490.0000     8.9843    75.5818     0.0896     0.1248     2.5048
 1490.5000     8.9843    75.8353     0.0884     0.1084     2.5047
 1491.0000     8.9843    75.9653     0.0976     0.1062     2.4994
 1491.5000     8.9843    75.2213     0.0904     0.1153     2.5035
 1492.0000     8.9844    74.5092     0.0975     0.1005     2.4887
 1492.5000     8.9850    73.7995     0.1070     0.0777     2.4722
 1493.0000     8.9855    74.3026     0.1096     0.0780     2.4650
 1493.5000     8.9860    74.9099     0.1019     0.0962     2.4908
 1494.0000     8.9866    75.5043     0.0961     0.0983     2.4948
 1494.5000     8.9871    75.6887     0.1049     0.0768     2.4736
 1495.0000     8.9877    75.8877     0.1103     0.0710     2.4633
 1495.5000     8.9882    75.8538     0.1141     0.0655     2.4533
 1496.0000     8.9888    75.4322     0.1178     0.0586     2.4463
 1496.5000     8.9893    75.0156     0.1216     0.0491     2.4396
 1497.0000     8.9899    74.7117     0.1253     0.0399     2.4272
 1497.5000     8.9904    74.7089     0.1271     0.0395     2.4231
 1498.0000     8.9910    75.0923     0.1181     0.0515     2.4484
 1498.5000     8.9915    75.4700     0.1162     0.0560     2.4597
 1499.0000     8.9921    75.8506     0.1187     0.0456     2.4416
 1499.5000     8.9926    76.2395     0.1145     0.0494     2.4534
 1500.0000     8.9932    76.7137     0.1066     0.0699     2.4740
 1500.5000     8.9937    77.1938     0.0980     0.0868     2.4960
 1501.0000     8.9943    77.2428     0.0972     0.0924     2.4962
 1501.5000     8.9948    77.1612     0.1000     0.0848     2.4858
 1502.0000     8.9954    76.9969     0.1053     0.0747     2.4747
 1502.5000     8.9959    76.6749     0.1108     0.0646     2.4633
 1503.0000     8.9965    76.3553     0.1108     0.0572     2.4615
 1503.5000     8.9970    76.0358     0.1078     0.0643     2.4727
 1504.0000     8.9976    75.7185     0.1044     0.0710     2.4791
 1504.5000     8.9981    75.5527     0.1097     0.0665     2.4700
 1505.0000     8.9986    75.6106     0.1112     0.0615     2.4648
 1505.5000     8.9992    75.6671     0.1048     0.0693     2.4803
 1506.0000     8.9997    75.7306     0.0976     0.0764     2.5005
 1506.5000     9.0003    75.4097     0.1044     0.0689     2.4808
 1507.0000     9.0008    75.0405     0.0986     0.0686     2.4909
 1507.5000     9.0014    74.6697     0.0928     0.0765     2.5043
 1508.0000     9.0019    74.3466     0.0966     0.0750     2.5011
 1508.5000     9.0025    74.8267     0.0942     0.0671     2.4936
 1509.0000     9.0030    74.8022     0.0973     0.0746     2.4986
 1509.5000     9.0036    74.5567     0.0950     0.0700     2.4887
 1510.0000     9.0039    74.3594     0.0986     0.0504     2.4776
 1510.5000     9.0039    74.4516     0.1011     0.0509     2.4743
 1511.0000     9.0039    74.5391     0.1044     0.0551     2.4848
 1511.5000     9.0039    74.6268     0.1071     0.0470     2.4728
 1512.0000     9.0039    74.7090     0.1109     0.0460     2.4606
 1512.5000     9.0039    75.0679     0.1101     0.0548     2.4565
 1513.0000     9.0039    75.5635     0.1056     0.0636     2.4758
 1513.5000     9.0039    76.0644     0.1099     0.0616     2.4746
 1514.0000     9.0039    76.5063     0.1139     0.0554     2.4558
 1514.5000     9.0039    76.3990     0.1180     0.0438     2.4441
 1515.0000     9.0039    76.3350     0.1192     0.0604     2.4569
 1515.5000     9.0039    76.4783     0.1055     0.0770     2.4748
 1516.0000     9.0039    76.6189     0.0958     0.0937     2.4917
 1516.5000     9.0039    76.6808     0.0928     0.0993     2.4958
 1517.0000     9.0039    76.5888     0.0993     0.0947     2.4889
 1517.5000     9.0039    76.6131     0.0987     0.0889     2.4839
 1518.0000     9.0039    77.2081     0.0987     0.0899     2.4827
 1518.5000     9.0039    77.0676     0.1044     0.0792     2.4734
 1519.0000     9.0040    76.7756     0.1112     0.0680     2.4617
 1519.5000     9.0035    76.4713     0.1115     0.0698     2.4671
 1520.0000     8.9934    75.8180     0.1100     0.0727     2.4600
 1520.5000     8.9831    74.6912     0.1164     0.0527     2.4447
 1521.0000     8.9729    74.3542     0.1058     0.0752     2.4799
 1521.5000     8.9628    74.3492     0.0984     0.0828     2.4939
 1522.0000     8.9526    74.4141     0.1030     0.0805     2.4848
 1522.5000     8.9422    74.6302     0.0972     0.0842     2.4942
 1523.0000     8.9315    74.8472     0.0984     0.0827     2.4856
 1523.5000     8.9051    74.6619     0.0921     0.1036     2.5054
 1524.0000     8.9286    74.1660     0.0765     0.1233     2.5341
 1524.5000     8.9530    73.7492     0.0856     0.1187     2.5244
 1525.0000     8.9770    73.8378     0.0909     0.0981     2.5081
 1525.5000     9.0010    74.2942     0.0918     0.0776     2.5022
 1526.0000     9.0243    74.7428     0.0928     0.0759     2.4959
 1526.5000     9.0287    75.1903     0.0930     0.0779     2.4983
 1527.0000     9.0204    75.6377     0.0920     0.0802     2.5002
 1527.5000     9.0181    76.0869     0.0970     0.0716     2.4919
 1528.0000     9.0155    76.4447     0.0984     0.0615     2.4842
 1528.5000     9.0129    76.7071     0.0997     0.0514     2.4794
 1529.0000     9.0103    76.9690     0.1044     0.0477     2.4859
 1529.5000     9.0077    77.2320     0.1041     0.0527     2.4773
 1530.0000     9.0051    77.7929     0.0980     0.0504     2.4892
 1530.5000     9.0025    78.4626     0.1112     0.0352     2.4602
 1531.0000     8.9999    78.7882     0.1112     0.0427     2.4729
 1531.5000     8.9973    79.1005     0.1040     0.0502     2.4819
 1532.0000     8.9946    79.4156     0.1056     0.0444     2.4719
 1532.5000     8.9920    79.7529     0.1045     0.0518     2.4783
 1533.0000     8.9894    80.1901     0.0976     0.0612     2.4883
 1533.5000     8.9868    80.1249     0.0972     0.0679     2.4914
 1534.0000     8.9846    79.5412     0.1109     0.0514     2.4664
 1534.5000     8.9901    78.7354     0.1204     0.0284     2.4398
 1535.0000     8.9956    78.6924     0.1235     0.0274     2.4351
 1535.5000     9.0012    78.9825     0.1142     0.0504     2.4566
 1536.0000     9.0067    79.3097     0.1068     0.0726     2.4740
 1536.5000     9.0122    79.6373     0.1004     0.0825     2.4869
 1537.0000     9.0177    79.9589     0.1140     0.0623     2.4548
 1537.5000     9.0232    80.2492     0.1132     0.0428     2.4517
 1538.0000     9.0287    80.5408     0.1183     0.0262     2.4374
 1538.5000     9.0342    80.8324     0.1160     0.0341     2.4543
 1539.0000     9.0398    81.1244     0.1174     0.0295     2.4522
 1539.5000     9.0453    81.5599     0.1163     0.0259     2.4451
