~VERSION INFORMATION
 VERS.                2.0:   CWLS LOG ASCII STANDARD - VERSION 2.0
 WRAP.                 NO:   ONE LINE PER DEPTH STEP
~WELL INFORMATION
#MNEM.UNIT      DATA TYPE    INFORMATION
#----------   ------------   ------------------------------
 STRT.F           33.0000:   START DEPTH
 STOP.F          694.0000:   STOP DEPTH
 STEP.F            0.5000:   STEP LENGTH
 NULL.          -999.2500:   NO VALUE
 COMP. FENIX & SCISSON INC:   COMPANY
 WELL.  NPR 3 #64 S 34-34:   WELL
 FLD .             TEAPOT:   FIELD
 LOC .      S34 T39N R78W:   LOCATION
 CNTY.            NATRONA:   COUNTY
 STAT.            WYOMING:   STATE
 CTRY. UNITED STATES OF AMERICA:   COUNTRY
 SRVC.              Welex:   SERVICE COMPANY
 DATE.        28-APR-1977:   LOGDATE
 API .       490251034600:   API NUMBER
~CURVE INFORMATION
#MNEM.UNIT       API CODE    CURVE DESCRIPTION
#----------   ------------   ------------------------------
 DEPT.F                  :   
 CALD.IN     45 280 60 00:   CALIPER FROM DENSITY LOG
 GRD .GAPI   45 310 01 00:   GAMMA RAY FROM DENSITY LOG
 CORR.G/C3   45 356 01 00:   DENSITY CORRECTION
 DPHI.DEC    45 890 12 00:   DENSITY POROSITY SANDSTONE
 RHOB.G/C3   45 350 01 00:   BULK DENSITY
 SPR .MV     07 010 01 00:   SPONTANEOUS POTENTIAL
 ILD .OHMM   07 120 46 00:   INDUCTION LOG DEEP
 ILM .OHMM   07 120 44 00:   INDUCTION LOG MEDIUM
 SGRD.OHMM   07 221 05 00:   SHALLOW SHORT GUARD RESISTIVITY
~PARAMETER INFORMATION
#MNEM.UNIT          VALUE    DESCRIPTION
#----------   ------------   ------------------------------
 PD  .                 GL:   PERMANENT DATUM
 EPD .F              5079:   ELEVATION PERMANENT DATUM
 LMF .                 GL:   LOG MEASURED FROM
 DMF .                 GL:   DRILLING MEASURED FROM
 EGL .F              5079:   GROUND LEVEL
 DATE.        28-APR-1977:   RUN DATE
 RUN .                  1:   RUN NUMBER
 DD  .F               735:   DEPTH DRILLER
 DL  .F               697:   DEPTH LOGGER
 BLI .F               695:   BOTTOM LOG INTERVAL
 TLI .F                32:   TOP LOG INTERVAL
 CS  .IN            8.625:   CASING SIZE
 BS  .IN               12:   BIT SIZE
 BSD .F               735:   BIT SIZE AT DEPTH
 DFT .            KCL MUD:   DRILLING FLUID TYPE
 DFD .                9.0:   DRILLING FLUID DENSITY
 BHT .F                74:   BOTTOM HOLE TEMPERATURE
 TCS .HRS            0100:   TIME CURCULATED STOPPED
 MRT .F                74:   MAXIMUM RECORDED TEMPERATURE
 ENGI.            C. DOAK:   RECORDING ENGINEER
 WITN.           ROB LYON:   WITNESSED BY
 CLNT.            A2DTECH:   CLIENT CODE
 ORIG.           5" PRINT:   ORIGIN OF DATA
 UWI .       490251034600:   UNIQUE WELL ID
 DICO. A2D Technologies, Inc.:   DIGITIZING COMPANY
~OTHER INFORMATION
~A   DEPT     CALD        GRD       CORR       DPHI       RHOB        SPR        ILD        ILM       SGRD   
# ...
  288.5000     7.9355   111.3939     0.0292     0.1131     2.4893   -40.5696     7.9837     8.8830    10.1460
  289.0000     7.9355   110.2279     0.0294     0.1202     2.4790   -40.5694     8.0990     9.0739    10.4239
  289.5000     7.9356   112.4744     0.0280     0.1271     2.4678   -40.5692     8.2159     9.0783    10.7220
  290.0000     7.9356   116.0562     0.0251     0.1297     2.4560   -40.5690     8.2770     9.0158    10.7272
  290.5000     7.9356   117.1158     0.0237     0.1273     2.4605   -40.5688     8.2174     8.9000    10.2952
  291.0000     7.9357   116.3949     0.0239     0.1246     2.4666   -40.5686     8.0498     8.9764    10.0882
  291.5000     7.9357   115.3773     0.0225     0.1221     2.4712   -40.5684     7.9524     9.0968    10.0221
  292.0000     7.9358   114.2113     0.0197     0.1203     2.4743   -40.5682     7.9004     9.2282     9.9577
  292.5000     7.9358   112.6003     0.0183     0.1265     2.4646   -40.5680     7.8496     9.2968     9.6912
  293.0000     7.9359   111.2860     0.0154     0.1277     2.4610   -40.5678     7.9089     9.3013     9.2367
  293.5000     7.9359   111.4510     0.0140     0.1244     2.4671   -40.5676     7.9677     9.3058     9.3054
  294.0000     7.9360   110.8961     0.0126     0.1241     2.4657   -40.5674     7.9715     8.8081     9.7727
  294.5000     7.9360   107.9159     0.0128     0.1255     2.4635   -40.5672     7.9753     8.9353     9.9138
  295.0000     7.9360   108.4075     0.0130     0.1258     2.4662   -40.5670     7.9791     9.1909     9.8499
  295.5000     7.9361   108.1177     0.0131     0.1215     2.4722   -40.5668     8.0384     9.3885     9.7866
  296.0000     7.9361   106.6588     0.0132     0.1173     2.4781   -40.5666     8.0982     9.5903    10.6405
  296.5000     7.9362   105.3363     0.0134     0.1149     2.4833   -40.5664     8.1584     9.7288    11.8118
  297.0000     7.9362   108.6296     0.0150     0.1158     2.4849   -40.5662     7.9943     9.8693    14.5798
  297.5000     7.9363   114.1402     0.0151     0.1177     2.4775   -40.5660     7.9981     9.5378    15.2790
  298.0000     7.9363   116.4945     0.0152     0.1227     2.4664   -40.5659     8.0020     8.9102    11.4198
  298.5000     7.9364   115.0671     0.0169     0.1222     2.4717   -40.5657     8.0059     8.6550    10.5882
  299.0000     7.9361   118.6541     0.0185     0.1235     2.4710   -40.5655     8.0097     8.6622    10.2340
  299.5000     7.9358   120.6039     0.0202     0.1279     2.4584   -40.5653     8.0136     8.6095     9.9604
  300.0000     7.9355   121.0648     0.0188     0.1320     2.4502   -40.5651     8.0175     8.5572     9.6941
  300.5000     7.9346   118.4201     0.0144     0.1304     2.4503   -40.5649     8.0771     8.5643     9.7002
  301.0000     7.9337   117.4039     0.0131     0.1277     2.4548   -40.5632     8.0810     8.6311     9.7737
  301.5000     7.9328   116.8328     0.0222     0.1232     2.4654   -40.5586     8.0291     8.6388     9.8478
  302.0000     7.9320   116.1134     0.0268     0.1194     2.4745   -40.5541     8.0330     8.6454     9.8540
  302.5000     7.9311   114.8005     0.0314     0.1146     2.4813   -40.5495     8.0369     8.7128     9.8601
  303.0000     7.9302   114.7685     0.0361     0.1114     2.4814   -40.5449     8.0408     8.7200     9.8663
  303.5000     7.9293   115.7356     0.0392     0.1087     2.4912   -40.5404     8.0447     8.6670     9.8724
  304.0000     7.9284   115.6097     0.0393     0.1057     2.5018   -40.5358     8.0485     8.6748     9.8104
  304.5000     7.9276   114.8902     0.0379     0.1048     2.5041   -40.5312     7.9968     8.6215     9.8165
  305.0000     7.9267   114.0225     0.0332     0.1068     2.4915   -40.5267     7.9916     8.5691     9.8226
  305.5000     7.9258   112.4128     0.0274     0.1191     2.4766   -40.5221     7.9493     8.5170     9.8287
  306.0000     7.9249   110.6548     0.0216     0.1280     2.4632   -40.5176     7.9541     8.5241     9.6325
  306.5000     7.9240   110.2265     0.0158     0.1340     2.4513   -40.5130     7.9579     8.5311     9.3750
  307.0000     7.9232   112.6285     0.0129     0.1370     2.4468   -40.5084     7.9618     8.5382     9.2517
  307.5000     7.9223   115.1731     0.0086     0.1318     2.4469   -40.5039     7.9656     8.5453     9.5839
  308.0000     7.9214   118.8372     0.0057     0.1282     2.4590   -40.4993     7.9145     8.5525     9.9280
  308.5000     7.9205   121.7624     0.0043     0.1287     2.4628   -40.4947     7.9183     8.6191     9.7974
  309.0000     7.9196   124.6877     0.0029     0.1323     2.4569   -40.4902     7.8665     8.6263     9.5355
  309.5000     7.9188   127.0094     0.0015     0.1355     2.4518   -40.4856     7.8712     8.5738     9.5415
  310.0000     7.9179   127.8928    -0.0028     0.1343     2.4481   -40.4810     7.8750     8.5810     9.5474
  310.5000     7.9170   126.1348    -0.0058     0.1307     2.4542   -40.4765     7.8235     8.5288     9.5534
  311.0000     7.9161   126.0089     0.0049     0.1283     2.4610   -40.4719     7.7196     8.4769     9.5593
  311.5000     7.9152   126.6248     0.0110     0.1276     2.4618   -40.4674     7.6701     8.4254     9.5658
  312.0000     7.9144   129.0211     0.0067     0.1357     2.4477   -40.4628     7.6217     8.3742     9.5713
  312.5000     7.9135   129.3645     0.0008     0.1401     2.4395   -40.4582     7.6254     8.3811     9.5772
  313.0000     7.9126   128.1757    -0.0006     0.1413     2.4388   -40.4537     7.5755     8.1588     9.6504
  313.5000     7.9117   126.8628    -0.0005     0.1410     2.4397   -40.4491     7.5278     8.2795     9.6559
  314.0000     7.9109   125.6983    -0.0004     0.1394     2.4420   -40.4445     7.5314     8.3440     9.7291
  314.5000     7.9100   123.9403    -0.0002     0.1367     2.4458   -40.4400     7.5351     8.4091     9.6679
  315.0000     7.9093   121.5888     0.0014     0.1334     2.4512   -40.4354     7.5911     8.4746     9.6740
  315.5000     7.9096   119.2374     0.0060     0.1282     2.4587   -40.4308     7.5948     8.4231     9.7473
  316.0000     7.9098   119.2598     0.0094     0.1227     2.4693   -40.4263     7.6512     8.4887     9.7534
  316.5000     7.9101   118.5404     0.0137     0.1159     2.4799   -40.4217     7.7081     8.4957     9.8274
  317.0000     7.9103   117.3759     0.0155     0.1090     2.4882   -40.4171     7.8194     8.5619     9.8335
  317.5000     7.9106   115.1728     0.0170     0.1026     2.4971   -40.4126     7.8775     8.5691     9.9081
  318.0000     7.9108   111.3376     0.0201     0.0979     2.5088   -40.4080     7.9361     8.5762     9.9832
  318.5000     7.9111   109.1345     0.0202     0.0994     2.5140   -40.4035     7.9951     8.5833    10.4860
  319.0000     7.9113   108.2611     0.0189     0.1086     2.5052   -40.3989     8.0546     8.4722    11.0907
  319.5000     7.9116   109.7729     0.0175     0.1161     2.4774   -40.3943     8.0584     8.5976    10.2120
  320.0000     7.9118   108.9051     0.0146     0.1183     2.4715   -40.3898     8.1184     8.7249    10.0777
  320.5000     7.9121   110.5595     0.0132     0.1151     2.4806   -40.3852     8.1223     8.7929    10.6589
  321.0000     7.9124   112.3624     0.0133     0.1163     2.4851   -40.3806     8.1262     8.8614    10.9653
  321.5000     7.9126   114.4619     0.0135     0.1207     2.4717   -40.3761     8.1301     8.8687    10.8211
  322.0000     7.9129   116.1164     0.0120     0.1267     2.4621   -40.3715     8.1341     8.8148    10.4591
  322.5000     7.9131   117.9193     0.0122     0.1293     2.4591   -40.3669     8.1380     8.8222    10.3216
  323.0000     7.9134   116.7547     0.0108     0.1326     2.4570   -40.3624     8.1419     8.8909    10.3280
  323.5000     7.9136   115.1451     0.0109     0.1358     2.4526   -40.3578     8.0887     8.8983    10.3345
  324.0000     7.9139   113.5299     0.0080     0.1382     2.4467   -40.3533     8.0377     8.9057    10.3409
  324.5000     7.9141   115.3630     0.0082     0.1391     2.4436   -40.3487     7.9861     8.9131    10.2759
