~VERSION INFORMATION
 VERS.                2.0:   CWLS LOG ASCII STANDARD - VERSION 2.0
 WRAP.                 NO:   ONE LINE PER DEPTH STEP
~WELL INFORMATION
#MNEM.UNIT      DATA TYPE    INFORMATION
#----------   ------------   ------------------------------
 STRT.F           30.0000:   START DEPTH
 STOP.F          770.5000:   STOP DEPTH
 STEP.F            0.5000:   STEP LENGTH
 NULL.          -999.2500:   NO VALUE
 COMP. FENIX & SCISSON INC:   COMPANY
 WELL. TEAPOT DOME 63 SX 34 #63-34:   WELL
 FLD .             TEAPOT:   FIELD
 LOC .      S34 T39N R78W:   LOCATION
 CNTY.            NATRONA:   COUNTY
 STAT.            WYOMING:   STATE
 CTRY. UNITED STATES OF AMERICA:   COUNTRY
 SRVC.           BIRDWELL:   SERVICE COMPANY
 DATE.        18-AUG-1978:   LOGDATE
 API .       490251070300:   API NUMBER
~CURVE INFORMATION
#MNEM.UNIT       API CODE    CURVE DESCRIPTION
#----------   ------------   ------------------------------
 DEPT.F                  :   
 SPR .MV     05 010 01 00:   SPONTANEOUS POTENTIAL
 SN  .OHMM   05 040 16 00:   SHORT NORMAL 16'
 ILD .OHMM   05 120 46 00:   INDUCTION LOG DEEP RESISTIVITY
 CALD.IN     45 280 60 00:   CALIPER
 GRD .GAPI   45 310 01 00:   GAMMA RAY FROM DENSITY LOG
 RHOB.G/C3   45 350 01 00:   BULK DENSITY
 DPHI.DEC    45 890 12 00:   DENSITY POROSITY SANDSTONE
 CORR.G/C3   45 356 01 00:   DENSITY CORRECTION
~PARAMETER INFORMATION
#MNEM.UNIT          VALUE    DESCRIPTION
#----------   ------------   ------------------------------
 PD  .                 GL:   PERMANENT DATUM
 EPD .F              5063:   ELEVATION PERMANENT DATUM
 LMF .                 KB:   LOG MEASURED FROM
 DAPD.F                 4:   FEET ABOVE PERMANENT DATUM
 DMF .                 KB:   DRILLING MEASURED FROM
 EKB .F              5067:   KELLING BUSHING
 EGL .F              5063:   GROUND LEVEL
 DATE.          8-18-1978:   RUN DATE
 RUN .                  1:   RUN NUMBER
 DD  .F               760:   DEPTH DRILLER
 DL  .F               770:   DEPTH LOGGER
 BLI .F               763:   BOTTOM LOG INTERVAL
 TLI .F                40:   TOP LOG INTERVAL
 CS  .IN            8.625:   CASING SIZE
 CBD .F                40:   CASING BOTTOM DRILLER
 CBL .F                40:   CASING BOTTOM LOGGER
 BS  .IN            7.875:   BIT SIZE
 BSD .F               760:   BIT SIZE AT DEPTH
 DFT .            MUD KCL:   DRILLING FLUID TYPE
 DFL .               10.6:   DRILLING FLUID LOSS
 MSS .          FLOW LINE:   MUD SAMPLE SOURCE
 RMS .OHMM             .2:   RESISTIVITY MUD SAMPLE
 MST .F                56:   MUD SAMPLE TEMPERATURE
 RMF .OHMM             .2:   RESISTIVITY MUD FILTRATE SAMPLE
 MFST.F                64:   MUD FILTRATE SAMPLE TEMPERATURE
 RMC .OHMM            .36:   RESISTIVITY MUD CAKE
 MCST.F                64:   MUD CAKE SAMPLE TEMPERATURE
 MFSS.               MEAS:   MUD FILTRATE SAMPLE SOURCE
 MCSS.               MEAS:   MUD CAKE SAMPLE SOURCE
 TCS .HRS               3:   TIME CURCULATED STOPPED
 MRT .F                72:   MAXIMUM RECORDED TEMPERATURE
 LUN .               3006:   LOGGING UNIT NUMBER
 LUL .               CASP:   LOGGING UNIT LOCATION
 ENGI.           REYNOLDS:   RECORDING ENGINEER
 WITN.              AMEND:   WITNESSED BY
 CLNT.            A2DTECH:   CLIENT CODE
 ORIG.           5" PRINT:   ORIGIN OF DATA
 UWI .       490251070300:   UNIQUE WELL ID
 DICO. A2D Technologies, Inc.:   DIGITIZING COMPANY
~OTHER INFORMATION
~A   DEPT      SPR         SN        ILD       CALD         GRD      RHOB       DPHI       CORR   
# ...
  232.5000   -80.2969     6.9469     5.6637     7.0695    82.9687     2.4538     0.1279     0.0289
  233.0000   -80.3202     6.9415     5.6348     7.0789    84.3750     2.4512     0.1292     0.0260
  233.5000   -80.3437     6.9361     5.6059     7.0867    86.8664     2.4489     0.1289     0.0263
  234.0000   -80.3671     6.9306     5.5773     7.0940    88.0670     2.4493     0.1281     0.0270
  234.5000   -80.3905     6.9253     5.5481     7.1014    88.4399     2.4501     0.1281     0.0276
  235.0000   -80.4138     6.9176     5.6209     7.1088    89.5661     2.4510     0.1268     0.0274
  235.5000   -80.4372     6.9419     5.6964     7.1162    90.7426     2.4529     0.1236     0.0248
  236.0000   -80.4606     6.9845     5.7731     7.1237    86.9651     2.4589     0.1226     0.0223
  236.5000   -80.4840     7.0272     5.8507     7.1311    83.3255     2.4552     0.1273     0.0200
  237.0000   -80.5074     7.0702     5.9294     7.1385    81.9785     2.4565     0.1226     0.0201
  237.5000   -80.5308     7.1134     6.0092     7.1458    80.7374     2.4611     0.1202     0.0204
  238.0000   -80.5542     7.1569     6.0904     7.1438    79.4618     2.4644     0.1198     0.0206
  238.5000   -80.5776     7.2007     6.1384     7.1301    78.9201     2.4643     0.1241     0.0208
  239.0000   -80.6011     7.2447     6.1384     7.1165    79.3548     2.4562     0.1297     0.0210
  239.5000   -80.6245     7.2891     6.1384     7.1028    78.7218     2.4483     0.1261     0.0213
  240.0000   -80.6473     7.3338     6.1161     7.0903    77.0392     2.4455     0.1303     0.0215
  240.5000   -80.6347     7.3780     6.0796     7.0921    76.0370     2.4470     0.1273     0.0217
  241.0000   -80.5699     7.3430     6.0435     7.0943    77.5712     2.4487     0.1296     0.0219
  241.5000   -80.5058     7.2886     6.0076     7.0964    79.2660     2.4477     0.1341     0.0190
  242.0000   -80.4416     7.2345     5.9720     7.0985    79.2882     2.4398     0.1387     0.0162
  242.5000   -80.3773     7.1809     5.9365     7.1006    79.1723     2.4327     0.1386     0.0204
  243.0000   -80.3131     7.1276     5.8837     7.1027    79.1603     2.4369     0.1341     0.0247
  243.5000   -80.2489     7.0748     5.7495     7.1048    80.7890     2.4420     0.1306     0.0289
  244.0000   -80.1846     7.0459     5.6184     7.1068    83.1499     2.4469     0.1274     0.0331
  244.5000   -80.1201     6.9780     5.5993     7.1089    82.7315     2.4521     0.1192     0.0373
  245.0000   -80.0620     6.9883     5.5993     7.1062    82.5478     2.4609     0.1117     0.0415
  245.5000   -80.0823     7.0106     5.5993     7.0983    83.9608     2.4821     0.1015     0.0457
  246.0000   -80.1041     7.0233     5.6954     7.0904    85.3318     2.5028     0.0883     0.0502
  246.5000   -80.1256     7.0355     5.7913     7.0825    86.3575     2.5236     0.0752     0.0492
  247.0000   -80.1470     7.0499     5.8898     7.0746    86.0338     2.5432     0.0707     0.0327
  247.5000   -80.1684     7.1446     5.9896     7.0666    78.6046     2.5259     0.0944     0.0182
  248.0000   -80.1898     7.2157     6.0824     7.0587    67.8392     2.5027     0.1074     0.0256
  248.5000   -80.2114     7.2874     6.0825     7.0509    69.4076     2.4812     0.1142     0.0417
  249.0000   -80.2316     7.3598     6.0823     7.0559    75.0245     2.4757     0.1146     0.0458
  249.5000   -80.2619     7.4329     6.0823     7.0626    80.3512     2.4815     0.1102     0.0460
  250.0000   -79.8590     7.5142     6.0821     7.0692    85.1817     2.4883     0.1068     0.0459
  250.5000   -79.3041     7.5014     6.0794     7.0759    85.3682     2.4951     0.1035     0.0459
  251.0000   -78.7365     7.4833     6.0768     7.0825    84.6719     2.4995     0.1001     0.0439
  251.5000   -78.5586     7.4651     6.0743     7.0892    83.9747     2.5026     0.0967     0.0415
  252.0000   -78.7452     7.4462     6.0717     7.0958    82.5212     2.5034     0.0933     0.0385
  252.5000   -78.9362     7.4454     6.0691     7.1025    81.1164     2.5055     0.0902     0.0331
  253.0000   -79.1237     7.4454     6.0666     7.1091    81.3916     2.5090     0.0899     0.0274
  253.5000   -79.1529     7.4454     6.0640     7.1158    81.0188     2.5008     0.0982     0.0313
  254.0000   -78.7884     7.4454     6.0615     7.1225    80.0268     2.4909     0.1060     0.0390
  254.5000   -78.4289     7.4454     6.0589     7.1291    79.0570     2.4807     0.1114     0.0468
  255.0000   -78.3081     7.4453     6.0564     7.1276    79.0502     2.4800     0.1111     0.0479
  255.5000   -78.3910     7.4339     6.0538     7.1248    81.4261     2.4831     0.1106     0.0470
  256.0000   -78.2380     7.3978     6.0512     7.1220    82.6976     2.4791     0.1138     0.0456
  256.5000   -77.5346     7.3621     6.0487     7.1192    81.2628     2.4724     0.1186     0.0441
  257.0000   -77.0461     7.3265     6.0461     7.1164    79.3460     2.4678     0.1163     0.0427
  257.5000   -77.0553     7.2911     6.0436     7.1136    77.5181     2.4688     0.1142     0.0400
  258.0000   -77.0540     7.2558     6.0410     7.1107    76.9745     2.4693     0.1183     0.0358
  258.5000   -77.0547     7.2207     6.0385     7.1079    76.4815     2.4635     0.1223     0.0315
  259.0000   -77.0606     7.1768     6.0359     7.1051    76.0302     2.4576     0.1249     0.0300
  259.5000   -76.7576     7.1905     6.0334     7.1023    77.7084     2.4569     0.1243     0.0299
  260.0000   -76.3568     7.2091     6.0308     7.0995    79.6205     2.4581     0.1228     0.0299
  260.5000   -75.9415     7.2280     6.0283     7.0967    81.5379     2.4586     0.1234     0.0299
  261.0000   -75.8465     7.2469     6.0268     7.0939    82.5398     2.4581     0.1235     0.0272
  261.5000   -75.8369     7.2658     6.0381     7.0911    82.1673     2.4579     0.1241     0.0206
  262.0000   -75.8298     7.2847     6.0467     7.0889    81.7999     2.4504     0.1298     0.0139
  262.5000   -75.8221     7.3038     6.0554     7.0871    81.2990     2.4415     0.1356     0.0073
  263.0000   -75.8142     7.3228     6.0640     7.0854    80.3086     2.4328     0.1413     0.0018
  263.5000   -75.8063     7.3419     6.0726     7.0836    79.5209     2.4292     0.1433     0.0023
  264.0000   -75.7984     7.3611     6.0813     7.0818    79.8192     2.4260     0.1433     0.0033
  264.5000   -75.7905     7.3797     6.0900     7.0800    80.1107     2.4372     0.1349     0.0041
  265.0000   -75.7826     7.3930     6.0986     7.0782    80.8900     2.4449     0.1313     0.0049
  265.5000   -75.7747     7.4067     6.1073     7.0765    81.6989     2.4467     0.1313     0.0056
  266.0000   -75.7668     7.4203     6.1160     7.0747    82.5063     2.4485     0.1301     0.0063
  266.5000   -75.7589     7.4340     6.1248     7.0729    83.3276     2.4528     0.1255     0.0070
  267.0000   -75.7510     7.4518     6.1335     7.0712    83.5159     2.4556     0.1236     0.0077
  267.5000   -75.7431     7.4900     6.1422     7.0725    82.8782     2.4488     0.1298     0.0085
  268.0000   -75.7352     7.5285     6.1510     7.0797    82.0673     2.4470     0.1306     0.0092
  268.5000   -75.7272     7.5671     6.1597     7.0868    81.8742     2.4454     0.1329     0.0099
  269.0000   -75.7193     7.6059     6.1685     7.0939    82.3812     2.4446     0.1321     0.0106
  269.5000   -75.7114     7.6449     6.1773     7.1010    82.9284     2.4533     0.1296     0.0114
  270.0000   -75.7035     7.6841     6.1861     7.1081    82.4316     2.4673     0.1261     0.0126
  270.5000   -75.6956     7.7242     6.1951     7.1153    80.8410     2.4668     0.1227     0.0171
  271.0000   -75.6877     7.7615     6.3181     7.1224    79.2859     2.4655     0.1193     0.0216
  271.5000   -75.6798     7.7996     6.4459     7.1295    78.9868     2.4723     0.1162     0.0260
  272.0000   -75.6720     7.8379     6.5763     7.1366    81.2630     2.4792     0.1162     0.0295
  272.5000   -75.6641     7.8764     6.7102     7.1437    83.0534     2.4754     0.1166     0.0258
