~VERSION INFORMATION
 VERS.                2.0:   CWLS LOG ASCII STANDARD - VERSION 2.0
 WRAP.                 NO:   ONE LINE PER DEPTH STEP
~WELL INFORMATION
#MNEM.UNIT      DATA TYPE    INFORMATION
#----------   ------------   ------------------------------
 STRT.F         1420.5000:   START DEPTH
 STOP.F         2350.5000:   STOP DEPTH
 STEP.F            0.5000:   STEP LENGTH
 NULL.          -999.2500:   NO VALUE
 COMP. BROWN JOHN E&C INC:   COMPANY
 WELL.   15 STX-14 #15-14:   WELL
 FLD .             TEAPOT:   FIELD
 LOC .      S14 T38N R78W:   LOCATION
 CNTY.            NATRONA:   COUNTY
 STAT.            WYOMING:   STATE
 CTRY. UNITED STATES OF AMERICA:   COUNTRY
 SRVC.            Unknown:   SERVICE COMPANY
 DATE.        02-JUN-1991:   LOGDATE
 API .       490251096000:   API NUMBER
~CURVE INFORMATION
#MNEM.UNIT       API CODE    CURVE DESCRIPTION
#----------   ------------   ------------------------------
 DEPT.F                  :   
 ROP .MIN/FT 91 810 01 00:   RATE OF DRILLING PENETRATION
 TGAS.UNITS  91 830 01 00:   TOTAL GAS
~PARAMETER INFORMATION
#MNEM.UNIT          VALUE    DESCRIPTION
#----------   ------------   ------------------------------
 EKB .F              5241:   KELLING BUSHING
 EGL .F              5231:   GROUND LEVEL
 DATE.             6-2-91:   RUN DATE
 DD  .F              2350:   DEPTH DRILLER
 BLI .F              2347:   BOTTOM LOG INTERVAL
 TLI .F              1420:   TOP LOG INTERVAL
 ENGI.              TOWER:   RECORDING ENGINEER
 CLNT.            A2DTECH:   CLIENT CODE
 ORIG.         2.5" PRINT:   ORIGIN OF DATA
 UWI .       490251096000:   UNIQUE WELL ID
 DICO. A2D Technologies, Inc.:   DIGITIZING COMPANY
~OTHER INFORMATION
~A  DEPT       ROP        TGAS  
 1420.5000  -999.2500    78.7500
 1421.0000     0.5667    78.7500
 1421.5000     0.5481    78.7500
 1422.0000     0.5295    82.5000
 1422.5000     0.5296    86.2500
 1423.0000     0.5531    86.2500
 1423.5000     0.5860    86.2500
 1424.0000     0.6423    86.2500
 1424.5000     0.6612    86.2500
 1425.0000     0.6991    86.2500
 1425.5000     0.7363    86.2500
 1426.0000     0.7364    86.2500
 1426.5000     0.7366    86.2500
 1427.0000     0.7179    86.2500
 1427.5000     0.6993    82.5000
 1428.0000     0.6586    82.5000
 1428.5000     0.6363    78.7500
 1429.0000     0.6622    78.7500
 1429.5000     0.7185    78.7500
 1430.0000     0.8123    78.7500
 1430.5000     0.8152    78.7500
 1431.0000     0.8312    78.7500
 1431.5000     0.8313    78.7500
 1432.0000     0.8315    78.7500
 1432.5000     0.8316    78.7500
 1433.0000     0.8317    78.7500
 1433.5000     0.8131    78.7500
 1434.0000     0.8132    78.7500
 1434.5000     0.7946    78.7500
 1435.0000     0.7573    78.7500
 1435.5000     0.7370    78.7500
 1436.0000     0.7094    86.2500
 1436.5000     0.6550    86.2500
 1437.0000     0.6079    90.0000
 1437.5000     0.6268    90.0000
 1438.0000     0.6676    90.0000
 1438.5000     0.7581   536.7444
 1439.0000     0.7582  -999.2500
 1439.5000     0.7958  -999.2500
 1440.0000     0.7959  -999.2500
 1440.5000     0.7960  -999.2500
 1441.0000     0.6942  -999.2500
 1441.5000     0.6464  -999.2500
 1442.0000     0.6091  -999.2500
 1442.5000     0.5905  -999.2500
 1443.0000     0.5906  -999.2500
 1443.5000     0.5943  -999.2500
 1444.0000     0.6872  -999.2500
 1444.5000     0.8157  -999.2500
 1445.0000     0.8158  -999.2500
 1445.5000     0.8159  -999.2500
 1446.0000     0.7973  -999.2500
 1446.5000     0.7655  -999.2500
 1447.0000     0.6919  -999.2500
 1447.5000     0.6104  -999.2500
 1448.0000     0.5918  -999.2500
 1448.5000     0.5919  -999.2500
 1449.0000     0.5920  -999.2500
 1449.5000     0.5921  -999.2500
 1450.0000     0.5922  -999.2500
 1450.5000     0.5924  -999.2500
 1451.0000     0.5925  -999.2500
 1451.5000     0.5926  -999.2500
 1452.0000     0.6205  -999.2500
 1452.5000     0.6490  -999.2500
 1453.0000     0.7428  -999.2500
 1453.5000     0.8014  -999.2500
 1454.0000     0.8741  -999.2500
 1454.5000     0.9014  -999.2500
 1455.0000     0.9492  -999.2500
 1455.5000     0.9681  -999.2500
 1456.0000     0.9488  -999.2500
 1456.5000     0.9078  -999.2500
 1457.0000     0.8590  -999.2500
 1457.5000     0.8187  -999.2500
 1458.0000     0.7627  -999.2500
 1458.5000     0.7628  -999.2500
 1459.0000     0.8264  -999.2500
 1459.5000     0.9014  -999.2500
 1460.0000     0.9691  -999.2500
 1460.5000     0.9692   855.0000
 1461.0000     0.9693   236.2500
 1461.5000     0.9102   228.7500
 1462.0000     0.8625   225.0000
 1462.5000     0.8095   225.0000
 1463.0000     0.7451   225.0000
 1463.5000     0.6703   221.2500
 1464.0000     0.6492   221.2500
 1464.5000     0.6082   221.2500
 1465.0000     0.5957   221.2500
 1465.5000     0.6146   221.2500
 1466.0000     0.6147   221.2500
 1466.5000     0.6374   225.0000
 1467.0000     0.7141   225.0000
 1467.5000     0.7461   225.0000
 1468.0000     0.7463   225.0000
 1468.5000     0.7651   225.0000
 1469.0000     0.7652   225.0000
 1469.5000     0.7653   225.0000
 1470.0000     0.7569   228.7500
 1470.5000     0.7468   228.7500
 1471.0000     0.7470   228.7500
 1471.5000     0.7471   228.7500
 1472.0000     0.5656   228.7500
 1472.5000     0.5226   228.7500
 1473.0000     0.5227   228.7500
 1473.5000     0.5790   228.7500
 1474.0000     0.5978   236.2500
 1474.5000     0.6167   236.2500
 1475.0000     0.5981   240.0000
 1475.5000     0.5795   240.0000
 1476.0000     0.5047   240.0000
 1476.5000     0.4299   254.7489
 1477.0000     0.3894   254.9372
 1477.5000     0.3739   255.1255
 1478.0000     0.3845   255.3138
 1478.5000     0.4304   255.5021
 1479.0000     0.4492   255.6904
 1479.5000     0.4733   268.5566
 1480.0000     0.5243   274.8954
 1480.5000     0.5432   275.1078
 1481.0000     0.5075   275.2800
 1481.5000     0.4873   275.4603
 1482.0000     0.4906   278.2866
 1482.5000     0.4998   294.6653
 1483.0000     0.5301   294.8535
 1483.5000     0.5872   295.0418
 1484.0000     0.6068   304.8957
 1484.5000     0.6451   314.2469
 1485.0000     0.5782   314.4352
 1485.5000     0.4955   314.6590
 1486.0000     0.4226   314.8313
 1486.5000     0.3681   315.0034
 1487.0000     0.3315   316.5659
 1487.5000     0.3699   334.2050
 1488.0000     0.3895   344.1845
 1488.5000     0.4092   378.8915
 1489.0000     0.4371   391.2552
 1489.5000     0.4674   401.6089
 1490.0000     0.4870   410.4602
 1490.5000     0.5440   410.6485
 1491.0000     0.6022   410.8678
 1491.5000     0.6475   411.0400
 1492.0000     0.7104   430.1674
 1492.5000     0.7253   450.9384
 1493.0000     0.6612   468.0753
 1493.5000     0.6245   468.2636
 1494.0000     0.5693   468.4519
 1494.5000     0.5514   468.6402
 1495.0000     0.5336   468.8285
 1495.5000     0.5534   481.4434
 1496.0000     0.5545   488.0334
 1496.5000     0.5554   488.2482
 1497.0000     0.6124   488.4203
 1497.5000     0.6332   488.5983
 1498.0000     0.6932   488.7866
 1498.5000     0.7157   493.1165
 1499.0000     0.7659   513.8909
 1499.5000     0.7857   534.6655
 1500.0000     0.8053   550.8119
 1500.5000     0.8249   561.4626
 1501.0000     0.7883   565.6067
 1501.5000     0.7408   584.8829
 1502.0000     0.6713   604.0545
 1502.5000     0.6041   623.2261
 1503.0000     0.5488   625.1976
 1503.5000     0.4935   646.2391
 1504.0000     0.4732   667.2805
 1504.5000     0.4350   681.2134
 1505.0000     0.4143   690.5323
 1505.5000     0.4036   711.5735
 1506.0000     0.4046   720.0000
 1506.5000     0.4055   749.2751
 1507.0000     0.4438   758.4564
 1507.5000     0.5037   777.6280
 1508.0000     0.5637   779.1215
 1508.5000     0.5862   797.1966
 1509.0000     0.5975   802.3749
 1509.5000     0.5984   823.4126
 1510.0000     0.5993   835.9833
 1510.5000     0.5814   846.6693
 1511.0000     0.5824   855.5649
 1511.5000     0.5575   869.9228
 1512.0000     0.5181   875.2013
 1512.5000     0.5103   875.5444
 1513.0000     0.5113   895.3888
 1513.5000     0.5309   913.9330
 1514.0000     0.5721   918.6422
 1514.5000     0.5890   933.5146
 1515.0000     0.6086   933.8912
 1515.5000     0.6097   944.1058
 1516.0000     0.6106   953.4728
 1516.5000     0.6302   967.3602
 1517.0000     0.6311   991.9463
 1517.5000     0.6363  1011.1179
 1518.0000     0.6517  1030.2928
 1518.5000     0.6526  1032.6925
 1519.0000     0.6537  1053.7340
 1519.5000     0.6546  1074.7755
 1520.0000     0.6554  1088.2845
 1520.5000     0.6564  1098.0273
 1521.0000     0.6358  1119.0693
 1521.5000     0.6353  1140.1094
 1522.0000     0.6160  1165.1766
 1522.5000     0.5782  1184.3483
 1523.0000     0.5590  1203.5198
 1523.5000     0.5585  1222.7196
 1524.0000     0.5393  1226.4856
 1524.5000     0.5014  1247.5244
 1525.0000     0.5009  1268.5676
 1525.5000     0.4817  1289.6058
 1526.0000     0.4812  1310.6473
 1526.5000     0.4621  1319.1213
 1527.0000     0.4616  1333.9017
 1527.5000     0.4611  1357.5785
 1528.0000     0.4606  1376.7502
 1528.5000     0.4602  1395.9414
 1529.0000     0.4597  1399.2340
 1529.5000     0.4780  1420.2769
 1530.0000     0.4775  1441.3203
 1530.5000     0.4959  1462.3584
 1531.0000     0.5376  1483.3999
 1531.5000     0.5606  1492.3431
 1532.0000     0.5693  1436.9810
 1532.5000     0.5879  1286.0389
 1533.0000     0.6059  1192.2399
 1533.5000     0.6241  1116.0497
 1534.0000     0.6236  1075.1062
 1534.5000     0.6231  1034.1531
 1535.0000     0.6172   993.1998
 1535.5000     0.6035   960.2028
 1536.0000     0.5655   939.9146
 1536.5000     0.5463   908.0034
 1537.0000     0.5401   893.9749
 1537.5000     0.5079   875.5873
 1538.0000     0.4887   875.9304
 1538.5000     0.4696   857.4452
 1539.0000     0.4691   855.8471
 1539.5000     0.4685   835.5623
 1540.0000     0.4681   815.2715
 1540.5000     0.4677   802.4686
 1541.0000     0.4860   784.2034
 1541.5000     0.5041   754.4100
