~VERSION INFORMATION
 VERS.                2.0:   CWLS LOG ASCII STANDARD - VERSION 2.0
 WRAP.                 NO:   ONE LINE PER DEPTH STEP
~WELL INFORMATION
#MNEM.UNIT      DATA TYPE    INFORMATION
#----------   ------------   ------------------------------
 STRT.F           19.0000:   START DEPTH
 STOP.F          600.0000:   STOP DEPTH
 STEP.F            0.5000:   STEP LENGTH
 NULL.          -999.2500:   NO VALUE
 COMP. FENIX & SCISSON INC:   COMPANY
 WELL.       NPR-3 #18-34:   WELL
 FLD .             TEAPOT:   FIELD
 LOC .      S34 T39N R78W:   LOCATION
 CNTY.            NATRONA:   COUNTY
 STAT.            WYOMING:   STATE
 CTRY. UNITED STATES OF AMERICA:   COUNTRY
 SRVC.           BIRDWELL:   SERVICE COMPANY
 DATE.        10-AUG-1978:   LOGDATE
 API .       490251068100:   API NUMBER
~CURVE INFORMATION
#MNEM.UNIT       API CODE    CURVE DESCRIPTION
#----------   ------------   ------------------------------
 DEPT.F                  :   
 SPR .MV     05 010 01 00:   SPONTANEOUS POTENTIAL FROM RES.
 SN  .OHMM   05 040 16 00:   SHORT NORMAL 16"
 ILD .OHMM   05 120 46 00:   INDUCTION LOG DEEP
 GRD .GAPI   45 310 01 00:   GAMMA RAY FROM DENSITY LOG
 CALD.IN     45 280 60 00:   CALIPER
 CORR.G/C3   45 356 01 00:   DENSITY CORRECTION
 DPHI.DEC    45 890 12 00:   DENSITY POROSITY SANDSTONE
 DEN .G/C3   45 350 01 00:   COMPENSATED BULK DENSTIY
~PARAMETER INFORMATION
#MNEM.UNIT          VALUE    DESCRIPTION
#----------   ------------   ------------------------------
 PD  .                 GL:   PERMANENT DATUM
 EPD .F              5159:   ELEVATION PERMANENT DATUM
 LMF .                 KB:   LOG MEASURED FROM
 DAPD.F                 4:   FEET ABOVE PERMANENT DATUM
 DMF .                 KB:   DRILLING MEASURED FROM
 EKB .F              5163:   KELLING BUSHING
 EGL .F              5159:   GROUND LEVEL
 DATE.            8-10-78:   RUN DATE
 RUN .                  1:   RUN NUMBER
 DD  .F               605:   DEPTH DRILLER
 DL  .F               606:   DEPTH LOGGER
 BLI .F               600:   BOTTOM LOG INTERVAL
 TLI .F                35:   TOP LOG INTERVAL
 CS  .IN            8.625:   CASING SIZE
 CBD .F                40:   CASING BOTTOM DRILLER
 BS  .IN            7.875:   BIT SIZE
 BSD .F               605:   BIT SIZE AT DEPTH
 DFT .                KCL:   DRILLING FLUID TYPE
 DFD .                8.7:   DRILLING FLUID DENSITY
 DFV .                 33:   DRILLING FLUID VISCOSITY
 DFPH.                  9:   DRILLING FLUID PH
 MSS .          FLOW LINE:   MUD SAMPLE SOURCE
 RMS .OHMM            .14:   RESISTIVITY MUD SAMPLE
 MST .F                88:   MUD SAMPLE TEMPERATURE
 MFSS.               MEAS:   MUD FILTRATE SAMPLE SOURCE
 MCSS.               MEAS:   MUD CAKE SAMPLE SOURCE
 TCS .HRS               1:   TIME CURCULATED STOPPED
 LUN .               3006:   LOGGING UNIT NUMBER
 LUL .               CASP:   LOGGING UNIT LOCATION
 ENGI.             MILLER:   RECORDING ENGINEER
 WITN.           MCGINLEY:   WITNESSED BY
 CLNT.            A2DTECH:   CLIENT CODE
 ORIG.           5" PRINT:   ORIGIN OF DATA
 UWI .       490251068100:   UNIQUE WELL ID
 DICO. A2D Technologies, Inc.:   DIGITIZING COMPANY
~OTHER INFORMATION
~A   DEPT      SPR         SN        ILD         GRD      CALD       CORR       DPHI        DEN   
# ...
  140.5000   -39.3000     7.0600     6.6301   101.1072     7.6831     0.0167     0.1442     2.4335
  141.0000   -39.3000     6.9830     6.6031    99.4439     7.6834     0.0179     0.1348     2.4538
  141.5000   -39.3000     6.9420     6.5764    96.8111     7.6933     0.0188     0.1348     2.4564
  142.0000   -39.3002     6.9419     6.5497    96.5953     7.7372     0.0176     0.1354     2.4564
  142.5000   -39.3013     6.9420     6.5231    99.4374     7.7569     0.0164     0.1364     2.4560
  143.0000   -39.2519     6.9420     6.5090   100.4939     7.7753     0.0152     0.1347     2.4558
  143.5000   -39.1946     6.9414     6.5669    97.4993     7.8615     0.0140     0.1333     2.4575
  144.0000   -39.1370     6.9397     6.6065    96.8941     7.9749     0.0130     0.1349     2.4583
  144.5000   -39.0797     7.0052     6.6463    94.7647     8.0858     0.0205     0.1326     2.4614
  145.0000   -39.0223     7.0996     6.6864    93.9343     8.1996     0.0289     0.1198     2.4709
  145.5000   -38.9646     7.1953     6.7598   100.8642     8.3100     0.0350     0.1186     2.4779
  146.0000   -38.9070     7.2922     6.8377   100.5167     8.4200     0.0348     0.1191     2.4786
  146.5000   -38.9134     7.3905     6.9171    96.6379     8.5190     0.0350     0.1219     2.4794
  147.0000   -38.9291     7.4900     6.9972    96.2814     8.5204     0.0383     0.1204     2.4845
  147.5000   -38.9449     7.5414     7.0783   100.2320     8.5198     0.0527     0.1106     2.4946
  148.0000   -38.9606     7.4144     7.1364   100.0885     8.5091     0.0715     0.1007     2.5145
  148.5000   -38.9763     7.3174     7.0946    94.6184     8.4861     0.0887     0.0983     2.5281
  149.0000   -38.9919     7.2444     7.0480    94.2325     8.5003     0.0810     0.1041     2.5182
  149.5000   -39.0076     7.1951     7.0017    96.4774     8.5282     0.0767     0.1089     2.5057
  150.0000   -39.0233     7.1461     6.9558    99.6588     8.5591     0.0767     0.1103     2.4946
  150.5000   -39.0389     7.0975     6.9101    99.9538     8.6407     0.0779     0.1113     2.4942
  151.0000   -39.0546     7.0492     6.8648    98.4324     8.7062     0.0797     0.1117     2.4939
  151.5000   -39.0705     7.0062     6.8155    98.3700     8.5711     0.0815     0.1115     2.4936
  152.0000   -39.0871     7.0338     6.8318    98.2895     8.5404     0.0816     0.1125     2.4906
  152.5000   -39.0930     7.0588     6.8498    97.4308     8.5416     0.0782     0.1211     2.4811
  153.0000   -38.9513     7.0838     6.8679    96.4980     8.4438     0.0748     0.1285     2.4718
  153.5000   -38.8138     7.1090     6.8860    95.5982     8.3152     0.0737     0.1275     2.4677
  154.0000   -38.6771     7.1343     6.9042    94.3355     8.1859     0.0722     0.1261     2.4677
  154.5000   -38.5354     7.1596     6.9224    94.0851     8.0568     0.0640     0.1286     2.4621
  155.0000   -38.4665     7.1850     6.9423    94.0773     7.9277     0.0520     0.1297     2.4607
  155.5000   -38.4187     7.2022     6.9382    94.0676     7.7983     0.0402     0.1339     2.4603
  156.0000   -38.3714     7.1739     6.9326    94.1596     7.6670     0.0326     0.1412     2.4489
  156.5000   -38.3238     7.1523     6.9271    96.5804     7.6304     0.0322     0.1424     2.4477
  157.0000   -38.2762     7.1308     6.9216    99.0113     7.6086     0.0316     0.1404     2.4477
  157.5000   -38.2286     7.1094     6.9161    98.6029     7.5868     0.0310     0.1371     2.4488
  158.0000   -38.1810     7.0880     6.9106    95.3242     7.5967     0.0292     0.1341     2.4513
  158.5000   -38.1333     7.0668     6.9051    94.2633     7.6124     0.0269     0.1368     2.4506
  159.0000   -38.0857     7.0455     6.8996    94.5954     7.6282     0.0269     0.1400     2.4495
  159.5000   -38.0381     7.0245     6.8941    98.6335     7.6445     0.0302     0.1327     2.4567
  160.0000   -37.9902     7.0062     6.8886   100.8812     7.6785     0.0352     0.1234     2.4744
  160.5000   -37.9422     7.0654     6.8831    99.9530     7.7190     0.0360     0.1205     2.4872
  161.0000   -37.9022     7.1177     6.8787    98.6415     7.7878     0.0348     0.1127     2.4887
  161.5000   -37.9702     7.1704     6.9005    97.5999     7.8552     0.0417     0.1053     2.5027
  162.0000   -38.0354     7.2235     6.9198    97.3370     7.9203     0.0488     0.0986     2.5114
  162.5000   -38.1000     7.2707     6.9392    97.0882     8.0704     0.0486     0.0962     2.5180
  163.0000   -38.1646     7.2827     6.9586    94.7333     8.2521     0.0444     0.1066     2.5133
  163.5000   -38.2298     7.2947     6.9780    90.3314     8.3532     0.0410     0.1153     2.4948
  164.0000   -38.2975     7.3067     7.0062    89.2810     8.3955     0.0556     0.1157     2.4906
  164.5000   -38.2673     7.3187     6.9851    93.3441     8.4432     0.0733     0.1157     2.4911
  165.0000   -38.2299     7.3357     6.9473    98.0813     8.4913     0.0917     0.1115     2.4926
  165.5000   -38.1926     7.3111     6.9098    99.5349     8.5395     0.1107     0.1058     2.5004
  166.0000   -38.1556     7.2661     6.8724   100.7276     8.5755     0.1299     0.1001     2.5090
  166.5000   -38.1185     7.2216     6.8352   101.9008     8.5607     0.1426     0.0944     2.5190
  167.0000   -38.0815     7.1773     6.7983   103.0778     8.5824     0.1395     0.0944     2.5257
  167.5000   -38.0444     7.1333     6.7615   104.0826     8.7107     0.1234     0.1030     2.5157
  168.0000   -38.0074     7.0896     6.7531   103.4895     8.5920     0.1040     0.1058     2.5032
  168.5000   -37.9704     7.0462     6.7531   103.0326     8.4646     0.0844     0.1124     2.4929
  169.0000   -37.9337     7.0030     6.7531   103.1558     8.4583     0.0712     0.1165     2.4859
  169.5000   -37.8955     6.9423     6.7529   103.9910     8.3971     0.0592     0.1239     2.4774
  170.0000   -37.8295     6.9523     6.7460   107.5861     8.2399     0.0472     0.1312     2.4615
  170.5000   -37.7646     6.9710     6.7388   105.7568     8.1346     0.0413     0.1385     2.4440
  171.0000   -37.7000     6.9894     6.7316   103.5262     8.0781     0.0387     0.1459     2.4372
  171.5000   -37.6354     7.0078     6.7243   105.2750     7.9532     0.0362     0.1532     2.4363
  172.0000   -37.5704     7.0263     6.7171   107.5924     7.8464     0.0348     0.1580     2.4231
  172.5000   -37.5035     7.0448     6.7099   102.6618     7.7403     0.0381     0.1551     2.4167
  173.0000   -37.4995     7.0634     6.7027    95.5927     7.6758     0.0406     0.1466     2.4326
  173.5000   -37.4999     7.0913     6.6956    94.6033     7.6605     0.0337     0.1445     2.4403
  174.0000   -37.5000     7.1259     6.6912    97.0095     7.6444     0.0270     0.1418     2.4451
  174.5000   -37.5000     7.1605     6.7452    99.7037     7.6700     0.0208     0.1379     2.4478
  175.0000   -37.5000     7.2023     6.7842   101.2721     7.7001     0.0182     0.1341     2.4494
  175.5000   -37.5000     7.1960     6.8155   100.9729     7.7306     0.0156     0.1303     2.4568
  176.0000   -37.5000     7.1882     6.8442   100.2191     7.7614     0.0139     0.1283     2.4614
  176.5000   -37.5000     7.1803     6.8729    98.2941     7.7672     0.0125     0.1305     2.4609
  177.0000   -37.5000     7.1724     6.9018    96.3499     7.7726     0.0110     0.1327     2.4603
  177.5000   -37.5000     7.1645     6.9421    94.6320     7.7781     0.0109     0.1333     2.4597
  178.0000   -37.5000     7.1566     6.9292    94.6657     7.7825     0.0109     0.1343     2.4597
  178.5000   -37.5000     7.1488     6.9074    94.7154     7.8060     0.0125     0.1349     2.4597
  179.0000   -37.5000     7.1410     6.8859    96.3391     7.8368     0.0147     0.1349     2.4596
  179.5000   -37.5000     7.1273     6.8644    97.5274     7.8735     0.0168     0.1291     2.4600
  180.0000   -37.5000     7.1060     6.8431    97.6320     7.9391     0.0188     0.1258     2.4708
  180.5000   -37.5000     7.0847     6.8218    98.3391     8.0047     0.0189     0.1245     2.4712
