~VERSION INFORMATION
 VERS.                2.0:   CWLS LOG ASCII STANDARD - VERSION 2.0
 WRAP.                 NO:   ONE LINE PER DEPTH STEP
~WELL INFORMATION
#MNEM.UNIT      DATA TYPE    INFORMATION
#----------   ------------   ------------------------------
 STRT.F           21.0000:   START DEPTH
 STOP.F          484.0000:   STOP DEPTH
 STEP.F            0.5000:   STEP LENGTH
 NULL.          -999.2500:   NO VALUE
 COMP.       F D SERV INC:   COMPANY
 WELL. N P R 3 SX-3 #78-3:   WELL
 FLD .             TEAPOT:   FIELD
 LOC .       S3 T38N R78W:   LOCATION
 CNTY.            NATRONA:   COUNTY
 STAT.            WYOMING:   STATE
 CTRY. UNITED STATES OF AMERICA:   COUNTRY
 SRVC.     Atlas Wireline:   SERVICE COMPANY
 DATE.        04-DEC-1992:   LOGDATE
 API .       490252254500:   API NUMBER
~CURVE INFORMATION
#MNEM.UNIT       API CODE    CURVE DESCRIPTION
#----------   ------------   ------------------------------
 DEPT.F                  :   
 DPHI.DEC    45 890 12 00:   DENSITY POROSITY SANDSTONE
 NPHI.DEC    42 890 03 00:   NEUTRON POROSITY SANDSTONE
 C13 .IN     45 280 13 00:   CALIPER 1 - 3
 GRD .GAPI   45 310 01 00:   GAMMA RAY FROM DENSITY LOG
 ZCOR.G/C3   45 356 01 00:   DENSITY CORRECTION
 ZDEN.G/C3   45 350 01 00:   BULK DENSITY
 RILD.OHMM   07 120 46 00:   INDUCTION LOG DEEP RESISTIVITY
 RILM.OHMM   07 120 44 00:   INDUCTION LOG MEDIUM RESISTIVITY
~PARAMETER INFORMATION
#MNEM.UNIT          VALUE    DESCRIPTION
#----------   ------------   ------------------------------
 PD  .                 GL:   PERMANENT DATUM
 EPD .F              5120:   ELEVATION PERMANENT DATUM
 LMF .                 KB:   LOG MEASURED FROM
 DAPD.F                10:   FEET ABOVE PERMANENT DATUM
 DMF .                 KB:   DRILLING MEASURED FROM
 EKB .F              5130:   KELLING BUSHING
 EDF .F              5129:   DRILLING FLOOR
 EGL .F              5120:   GROUND LEVEL
 DATE.        04-DEC-1992:   RUN DATE
 RUN .                  1:   RUN NUMBER
 DD  .F               488:   DEPTH DRILLER
 DL  .F               488:   DEPTH LOGGER
 BLI .F               479:   BOTTOM LOG INTERVAL
 CS  .IN            8.625:   CASING SIZE
 CBD .F                50:   CASING BOTTOM DRILLER
 CBL .F                54:   CASING BOTTOM LOGGER
 BS  .IN            7.875:   BIT SIZE
 BSD .F               488:   BIT SIZE AT DEPTH
 DFT .           AIR FOAM:   DRILLING FLUID TYPE
 MRT .F                66:   MAXIMUM RECORDED TEMPERATURE
 LUN .           HL- 6274:   LOGGING UNIT NUMBER
 LUL .             CASPER:   LOGGING UNIT LOCATION
 ENGI.             RAUTIO:   RECORDING ENGINEER
 WITN.        GARY STRONG:   WITNESSED BY
 CLNT.            A2DTECH:   CLIENT CODE
 ORIG.           5" PRINT:   ORIGIN OF DATA
 UWI .       490252254500:   UNIQUE WELL ID
 DICO. A2D Technologies, Inc.:   DIGITIZING COMPANY
~OTHER INFORMATION
~A   DEPT     DPHI       NPHI        C13        GRD       ZCOR       ZDEN       RILD       RILM   
# ...
  102.0000     0.0982     0.3219     8.1464   164.7676     0.0018     2.4885     8.0090     7.9196
  102.5000     0.0994     0.3219     8.1480   164.7418    -0.0026     2.4862     8.0068     7.9174
  103.0000     0.1009     0.3219     8.1171   164.4182    -0.0042     2.4831     7.9400     7.8601
  103.5000     0.1013     0.3219     8.0854   163.7909     0.0003     2.4839     7.8848     7.8333
  104.0000     0.0986     0.3231     8.0690   163.7656     0.0169     2.4922     7.8300     7.8340
  104.5000     0.0927     0.3246     8.0678   164.9571     0.0199     2.4997     7.8300     7.7799
  105.0000     0.0953     0.3262     8.0821   166.7547     0.0198     2.4952     7.8300     7.7261
  105.5000     0.1037     0.3268     8.0806   168.5522     0.0167     2.4807     7.8300     7.6727
  106.0000     0.1076     0.3246     8.0947   169.4406     0.0091     2.4730     7.7756     7.6197
  106.5000     0.1070     0.3250     8.1086   170.3291     0.0075     2.4746     7.7756     7.6739
  107.0000     0.1061     0.3259     8.1226   171.2182     0.0029     2.4761     7.7756     7.6744
  107.5000     0.1065     0.3262     8.1212   171.5000     0.0014     2.4753     7.7756     7.7288
  108.0000     0.1071     0.3265     8.1355   170.1818     0.0119     2.4722     7.8300     7.8383
  108.5000     0.1074     0.3265     8.1191   165.6959     0.0149     2.4715     7.8848     7.9493
  109.0000     0.1074     0.3262     8.1328   165.9783     0.0087     2.4722     7.9400     8.0620
  109.5000     0.1065     0.3256     8.1316   167.7758    -0.0019     2.4752     8.0515     8.1762
  110.0000     0.1032     0.3232     8.1305   166.8461     0.0014     2.4798     8.1645     8.2921
  110.5000     0.0998     0.3211     8.1293   161.6739     0.0222     2.4857     8.2792     8.4686
  111.0000     0.0986     0.3202     8.1281   160.7442     0.0191     2.4880     8.4542     8.7097
  111.5000     0.0986     0.3193     8.1266   160.4205     0.0145     2.4887     8.5729     8.8330
  112.0000     0.0995     0.3184     8.1255   161.3089     0.0099     2.4887     8.6329     8.9582
  112.5000     0.1017     0.3175     8.1243   162.8035     0.0083     2.4871     8.7541     9.0217
  113.0000     0.1035     0.3169     8.1231   158.5352     0.0113     2.4841     8.8770     9.0857
  113.5000     0.1047     0.3163     8.1219   155.4843     0.0173     2.4810     9.0117     9.2791
  114.0000     0.1059     0.3147     8.1360   155.1658     0.0218     2.4779     9.3210     9.6102
  114.5000     0.1059     0.3117     8.1347   158.7763     0.0107     2.4749     9.5846     9.8838
  115.0000     0.1030     0.3088     8.1335   161.4830     0.0020     2.4786     9.8557    10.0942
  115.5000     0.0978     0.3070     8.1321   157.2199    -0.0011     2.4854    10.1344    10.3815
  116.0000     0.0993     0.3048     8.1309   152.9568    -0.0012     2.4899    10.3486    10.6025
  116.5000     0.1008     0.3027     8.1298   149.9059    -0.0012     2.4869    10.5674    10.7527
  117.0000     0.1002     0.3002     8.1286   150.1882     0.0017     2.4838    10.7907    10.9050
  117.5000     0.0966     0.2961     8.1274   149.8594     0.0092     2.4898    10.8662    11.0595
  118.0000     0.0932     0.2927     8.1262   147.7176     0.0137     2.4966    10.9423    11.2162
  118.5000     0.0942     0.2912     8.1250   146.7878    -0.0047     2.4989    11.0188    11.2959
  119.0000     0.0984     0.2900     8.1238   147.9793    -0.0016     2.4890    11.0959    11.2967
  119.5000     0.1018     0.2891     8.1379   150.0799     0.0105     2.4821    11.1736    11.2974
  120.0000     0.1045     0.2888     8.1364   150.3674     0.0014     2.4776    11.1736    11.2192
  120.5000     0.1090     0.2888     8.1352   148.8265    -0.0063     2.4700    11.0959    10.9103
  121.0000     0.1157     0.2898     8.1340   148.5028     0.0058     2.4601    10.9423    10.8349
  121.5000     0.1215     0.2904     8.1329   148.8040     0.0075     2.4510    10.8662    10.8358
  122.0000     0.1242     0.2907     8.1317   149.6736    -0.0019     2.4472    10.7907    10.7608
  122.5000     0.1218     0.2910     8.1305   150.2590    -0.0020     2.4511    10.6413    10.6865
  123.0000     0.1148     0.2916     8.1293   149.6272     0.0086     2.4607    10.4210    10.3924
  123.5000     0.1121     0.2922     8.1279   148.6974     0.0115     2.4660    10.2053    10.1062
  124.0000     0.1112     0.2935     8.1267   151.1010     0.0130     2.4675    10.0640    10.3938
  124.5000     0.1137     0.2959     8.1255   155.6259     0.0114     2.4637    10.0640    10.3945
  125.0000     0.1152     0.2983     8.1243   158.3325     0.0068     2.4591     9.9941    10.3953
  125.5000     0.1142     0.2996     8.1386   156.7967    -0.0023     2.4613     9.9941    10.3960
  126.0000     0.1109     0.2959     8.1372   154.0161     0.0082     2.4658     9.9941    10.3242
  126.5000     0.1146     0.2908     8.1360   151.2505     0.0308     2.4658     9.9941    10.3249
  127.0000     0.1173     0.2871     8.1347   150.6690     0.0308     2.4603     9.9941    10.2536
  127.5000     0.1185     0.2867     8.1333   153.0726     0.0246     2.4559     9.9941    10.2545
  128.0000     0.1128     0.2881     8.1170   154.5671     0.0216     2.4589     9.9941    10.2552
  128.5000     0.1106     0.2869     8.1158   153.3343     0.0291     2.4665     9.9941    10.2559
  129.0000     0.1116     0.2829     8.1146   150.2834     0.0290     2.4710     9.9246    10.1849
  129.5000     0.1128     0.2814     8.1134   148.7476     0.0290     2.4664     9.9246    10.1147
  130.0000     0.1122     0.2802     8.1123   149.6360     0.0213     2.4655     9.8557    10.1154
  130.5000     0.1110     0.2805     8.1111   146.8353     0.0046     2.4671     9.8557    10.1161
  131.0000     0.1128     0.2815     8.1096   146.2614    -0.0015     2.4670     9.8557    10.0461
  131.5000     0.1158     0.2836     8.1084   151.6901     0.0090     2.4602     9.8557    10.0470
  132.0000     0.1180     0.2888     8.1073   155.9119     0.0150     2.4549     9.8557     9.9775
  132.5000     0.1155     0.2912     8.1061   156.5025     0.0180     2.4556     9.7872     9.8396
  133.0000     0.1080     0.2876     8.1049   153.1434     0.0225     2.4662     9.7192     9.7035
  133.5000     0.0953     0.2791     8.1037   150.3954     0.0239     2.4821     9.6499     9.5679
  134.0000     0.0916     0.2736     8.1026   149.1627     0.0193     2.4979     9.4519     9.4316
  134.5000     0.0959     0.2821     8.1166   148.8390     0.0147     2.5009     9.2562     9.2973
  135.0000     0.1065     0.2924     8.1151   149.4445     0.0148     2.4869     9.0646     9.1138
  135.5000     0.1126     0.2973     8.1139   151.6111     0.0207     2.4675     8.9391     8.9877
  136.0000     0.1138     0.2991     8.1127   155.4386     0.0236     2.4622     8.8153     8.9255
  136.5000     0.1138     0.3001     8.1116   156.6352     0.0372     2.4607     8.6933     8.8020
  137.0000     0.1147     0.3031     8.1104   152.9730     0.0417     2.4591     8.6329     8.7413
  137.5000     0.1156     0.3037     8.1092   150.5282     0.0371     2.4583     8.5729     8.6809
  138.0000     0.1156     0.3028     8.1080   149.5984     0.0279     2.4583     8.5133     8.6209
  138.5000     0.1156     0.3013     8.1068   151.0929     0.0203     2.4568     8.5133     8.5614
  139.0000     0.1165     0.3013     8.1054   152.2848     0.0157     2.4552     8.4542     8.5621
  139.5000     0.1199     0.3028     8.1042   151.0374     0.0172     2.4497     8.5133     8.5627
  140.0000     0.1250     0.3044     8.1185   149.5152     0.0186     2.4415     8.5173     8.6235
  140.5000     0.1272     0.3044     8.1170   152.5203     0.0155     2.4385     8.6329     8.6241
  141.0000     0.1275     0.3026     8.1159   151.8936     0.0034     2.4430     8.6329     8.6247
  141.5000     0.1220     0.2971     8.1147   147.0245     0.0169     2.4558     8.6329     8.6253
  142.0000     0.1151     0.2926     8.1135   142.4584     0.0214     2.4664     8.6329     8.6259
