~VERSION INFORMATION
 VERS.                2.0:   CWLS LOG ASCII STANDARD - VERSION 2.0
 WRAP.                 NO:   ONE LINE PER DEPTH STEP
~WELL INFORMATION
#MNEM.UNIT      DATA TYPE    INFORMATION
#----------   ------------   ------------------------------
 STRT.F           40.0000:   START DEPTH
 STOP.F         3444.0000:   STOP DEPTH
 STEP.F            0.5000:   STEP LENGTH
 NULL.          -999.2500:   NO VALUE
 COMP.    FENIX & SCISSON:   COMPANY
 WELL.     13-A-10 #13-10:   WELL
 FLD .            WILDCAT:   FIELD
 LOC .      S10 T38N R78W:   LOCATION
 CNTY.            NATRONA:   COUNTY
 STAT.            WYOMING:   STATE
 CTRY. UNITED STATES OF AMERICA:   COUNTRY
 SRVC.       Schlumberger:   SERVICE COMPANY
 DATE.        08-JUL-1970:   LOGDATE
 API .       490251090300:   API NUMBER
~CURVE INFORMATION
#MNEM.UNIT       API CODE    CURVE DESCRIPTION
#----------   ------------   ------------------------------
 DEPT.F                  :   
 ASN .OHMM   05 041 16 00:   AMPLIFIED SHORT NORMAL 16"
 CILD.MMHO   05 110 46 00:   CONDUCTIVITY INDUCTION LOG DEEP
 ILD .OHMM   05 120 46 00:   INDUCTION LOG DEEP
 SPR .MV     05 010 01 00:   SPONTANEOUS POTENTIAL FROM RES.
 CALD.IN     45 280 60 00:   CALIPER FROM DENSITY
 CORR.G/C3   45 356 01 00:   DENSITY CORRECTION
 DPHI.DEC    45 890 12 00:   DENSITY POROSITY SANDSTONE
 RHOB.G/C3   45 350 01 00:   BULK DENSITY
~PARAMETER INFORMATION
#MNEM.UNIT          VALUE    DESCRIPTION
#----------   ------------   ------------------------------
 PD  .                 GL:   PERMANENT DATUM
 EPD .F              5295:   ELEVATION PERMANENT DATUM
 LMF .                 KB:   LOG MEASURED FROM
 DAPD.F                10:   FEET ABOVE PERMANENT DATUM
 DMF .                 KB:   DRILLING MEASURED FROM
 EKB .F              5305:   KELLING BUSHING
 EGL .F              5295:   GROUND LEVEL
 DATE.        08-JUL-1970:   RUN DATE
 RUN .                  3:   RUN NUMBER
 DD  .F              3450:   DEPTH DRILLER
 DL  .F              3444:   DEPTH LOGGER
 BLI .F              3443:   BOTTOM LOG INTERVAL
 TLI .F              2950:   TOP LOG INTERVAL
 CS  .IN            10.75:   CASING SIZE
 CBD .F               842:   CASING BOTTOM DRILLER
 BS  .IN                9:   BIT SIZE
 BSD .F              3450:   BIT SIZE AT DEPTH
 DFT .      FRESH GEL MUD:   DRILLING FLUID TYPE
 DFD .               10.4:   DRILLING FLUID DENSITY
 DFV .                 43:   DRILLING FLUID VISCOSITY
 DFPH.                7.6:   DRILLING FLUID PH
 DFL .                  8:   DRILLING FLUID LOSS
 MSS .           FLOWLINE:   MUD SAMPLE SOURCE
 RMS .OHMM              2:   RESISTIVITY MUD SAMPLE
 MST .F                85:   MUD SAMPLE TEMPERATURE
 RMF .OHMM            1.6:   RESISTIVITY MUD FILTRATE SAMPLE
 MFST.F                85:   MUD FILTRATE SAMPLE TEMPERATURE
 MFSS.               MEAS:   MUD FILTRATE SAMPLE SOURCE
 RMB .OHMM           1.49:   RESISTIVITY MUD AT BHT
 BHT .F               114:   BOTTOM HOLE TEMPERATURE
 TCS .HRS               3:   TIME CURCULATED STOPPED
 MRT .F               114:   MAXIMUM RECORDED TEMPERATURE
 LUN .               4507:   LOGGING UNIT NUMBER
 LUL .               CSPR:   LOGGING UNIT LOCATION
 ENGI.             TURNER:   RECORDING ENGINEER
 WITN.                MAY:   WITNESSED BY
 CLNT.            A2DTECH:   CLIENT CODE
 ORIG.     2.5", 5" PRINT:   ORIGIN OF DATA
 UWI .       490251090300:   UNIQUE WELL ID
 DICO. A2D Technologies, Inc.:   DIGITIZING COMPANY
~OTHER INFORMATION
~A   DEPT        ASN      CILD         ILD      SPR       CALD       CORR       DPHI       RHOB   
# ...
 1214.5000     9.0615   112.9867     9.5522   -57.4839  -999.2500  -999.2500  -999.2500  -999.2500
 1215.0000     9.0005   114.4711     9.5522   -57.4853  -999.2500  -999.2500  -999.2500  -999.2500
 1215.5000     8.9395   114.4675     9.4030   -57.4868  -999.2500  -999.2500  -999.2500  -999.2500
 1216.0000     8.8889   114.4638     9.2537   -57.1907  -999.2500  -999.2500  -999.2500  -999.2500
 1216.5000     8.8174   115.9482     9.0229   -57.1921  -999.2500  -999.2500  -999.2500  -999.2500
 1217.0000     8.7442   117.4327     8.9552   -57.1936  -999.2500  -999.2500  -999.2500  -999.2500
 1217.5000     8.6654   117.4290     8.6567   -56.8975  -999.2500  -999.2500  -999.2500  -999.2500
 1218.0000     8.5744   118.9135     8.5075   -56.8989  -999.2500  -999.2500  -999.2500  -999.2500
 1218.5000     8.5134   118.9098     8.3582   -56.9004  -999.2500  -999.2500  -999.2500  -999.2500
 1219.0000     8.4523   118.9061     8.3582   -56.9019  -999.2500  -999.2500  -999.2500  -999.2500
 1219.5000     8.4384   118.9025     8.3582   -56.9033  -999.2500  -999.2500  -999.2500  -999.2500
 1220.0000     8.4685   118.8988     8.3582   -56.9048  -999.2500  -999.2500  -999.2500  -999.2500
 1220.5000     8.5285   118.8457     8.3582   -56.9063  -999.2500  -999.2500  -999.2500  -999.2500
 1221.0000     8.6486   117.3043     8.3582   -56.9078  -999.2500  -999.2500  -999.2500  -999.2500
 1221.5000     8.7087   114.4233     8.5075   -56.9092  -999.2500  -999.2500  -999.2500  -999.2500
 1222.0000     8.7988   112.9316     8.8060   -56.9107  -999.2500  -999.2500  -999.2500  -999.2500
 1222.5000     8.8889   111.4397     8.9552   -56.9122  -999.2500  -999.2500  -999.2500  -999.2500
 1223.0000     8.9489   111.4360     9.1045   -56.9137  -999.2500  -999.2500  -999.2500  -999.2500
 1223.5000     9.0090   111.0850     9.2537   -56.6175  -999.2500  -999.2500  -999.2500  -999.2500
 1224.0000     9.0390   109.9405     9.2537   -56.6191  -999.2500  -999.2500  -999.2500  -999.2500
 1224.5000     9.0691   109.9368     9.2537   -56.6205  -999.2500  -999.2500  -999.2500  -999.2500
 1225.0000     9.0991   109.9330     9.4030   -56.6220  -999.2500  -999.2500  -999.2500  -999.2500
 1225.5000     9.1291   109.9293     9.4030   -56.6235  -999.2500  -999.2500  -999.2500  -999.2500
 1226.0000     9.1892   109.9256     9.2537   -56.9226  -999.2500  -999.2500  -999.2500  -999.2500
 1226.5000     9.2492   109.2768     9.2537   -56.9241  -999.2500  -999.2500  -999.2500  -999.2500
 1227.0000     9.3093   108.4301     9.2537   -56.9256  -999.2500  -999.2500  -999.2500  -999.2500
 1227.5000     9.3694   108.4263     9.1045   -56.9271  -999.2500  -999.2500  -999.2500  -999.2500
 1228.0000     9.2761   108.4226     8.9552   -56.9285  -999.2500  -999.2500  -999.2500  -999.2500
 1228.5000     9.2151   108.4189     8.9552   -57.2277  -999.2500  -999.2500  -999.2500  -999.2500
 1229.0000     9.1592   108.4144     8.9552   -57.2291  -999.2500  -999.2500  -999.2500  -999.2500
 1229.5000     9.1291   108.4108     8.9552   -57.2307  -999.2500  -999.2500  -999.2500  -999.2500
 1230.0000     9.1291   108.4071     8.9552   -57.5298  -999.2500  -999.2500  -999.2500  -999.2500
 1230.5000     9.1291   108.4035     8.9552   -57.5312  -999.2500  -999.2500  -999.2500  -999.2500
 1231.0000     9.1291   108.3998     8.9074   -57.5327  -999.2500  -999.2500  -999.2500  -999.2500
 1231.5000     9.1291   109.8846     8.8060   -57.5342  -999.2500  -999.2500  -999.2500  -999.2500
 1232.0000     9.1291   111.3687     8.8060   -57.5357  -999.2500  -999.2500  -999.2500  -999.2500
 1232.5000     9.1174   111.3650     8.8060   -57.5372  -999.2500  -999.2500  -999.2500  -999.2500
 1233.0000     9.0864   112.8495     8.8060   -57.5387  -999.2500  -999.2500  -999.2500  -999.2500
 1233.5000     9.0691   112.8458     8.8060   -57.5402  -999.2500  -999.2500  -999.2500  -999.2500
 1234.0000     9.0545   112.8421     8.8060   -57.5417  -999.2500  -999.2500  -999.2500  -999.2500
 1234.5000     9.0090   112.8385     8.8060   -57.2458  -999.2500  -999.2500  -999.2500  -999.2500
 1235.0000     8.9790   112.8348     8.8060   -57.2473  -999.2500  -999.2500  -999.2500  -999.2500
 1235.5000     8.9489   112.8311     8.8060   -57.2488  -999.2500  -999.2500  -999.2500  -999.2500
 1236.0000     8.9189   112.8274     8.8060   -56.9524  -999.2500  -999.2500  -999.2500  -999.2500
 1236.5000     8.8889   112.8236     8.6567   -56.9541  -999.2500  -999.2500  -999.2500  -999.2500
 1237.0000     8.8288   112.8200     8.6567   -56.9556  -999.2500  -999.2500  -999.2500  -999.2500
 1237.5000     8.7688   112.8162     8.5075   -56.9570  -999.2500  -999.2500  -999.2500  -999.2500
 1238.0000     8.7087   114.3010     8.5075   -56.9585  -999.2500  -999.2500  -999.2500  -999.2500
 1238.5000     8.7087   114.2969     8.5075   -56.9600  -999.2500  -999.2500  -999.2500  -999.2500
 1239.0000     8.7087   114.2931     8.3582   -56.6637  -999.2500  -999.2500  -999.2500  -999.2500
 1239.5000     8.6787   115.7781     8.3582   -56.6653  -999.2500  -999.2500  -999.2500  -999.2500
 1240.0000     8.6787   115.7738     8.3582   -56.6668  -999.2500  -999.2500  -999.2500  -999.2500
 1240.5000     8.6486   117.2589     8.3582   -56.6682  -999.2500  -999.2500  -999.2500  -999.2500
 1241.0000     8.6486   117.2545     8.3582   -56.6697  -999.2500  -999.2500  -999.2500  -999.2500
 1241.5000     8.5886   118.7388     8.3582   -56.6712  -999.2500  -999.2500  -999.2500  -999.2500
 1242.0000     8.5285   119.4293     8.2090   -56.6726  -999.2500  -999.2500  -999.2500  -999.2500
 1242.5000     8.4376   120.2195     8.2090   -56.6741  -999.2500  -999.2500  -999.2500  -999.2500
 1243.0000     8.3466   121.0097     8.2090   -56.6756  -999.2500  -999.2500  -999.2500  -999.2500
 1243.5000     8.2883   121.7002     8.2090   -56.6771  -999.2500  -999.2500  -999.2500  -999.2500
 1244.0000     8.2883   121.6957     8.2090   -56.6785  -999.2500  -999.2500  -999.2500  -999.2500
 1244.5000     8.3228   121.6920     8.2090   -56.6801  -999.2500  -999.2500  -999.2500  -999.2500
 1245.0000     8.3839   121.6884     8.2090   -56.6816  -999.2500  -999.2500  -999.2500  -999.2500
 1245.5000     8.4384   121.6847     8.3582   -56.6830  -999.2500  -999.2500  -999.2500  -999.2500
 1246.0000     8.3710   121.6811     8.3582   -56.6845  -999.2500  -999.2500  -999.2500  -999.2500
 1246.5000     8.3400   120.1893     8.3582   -56.6860  -999.2500  -999.2500  -999.2500  -999.2500
 1247.0000     8.3090   120.1856     8.3582   -56.6875  -999.2500  -999.2500  -999.2500  -999.2500
 1247.5000     8.2883   120.1820     8.3582   -56.6890  -999.2500  -999.2500  -999.2500  -999.2500
 1248.0000     8.2883   118.6902     8.5075   -56.6905  -999.2500  -999.2500  -999.2500  -999.2500
 1248.5000     8.3183   118.6866     8.5075   -56.6920  -999.2500  -999.2500  -999.2500  -999.2500
 1249.0000     8.3483   117.1948     8.5493   -56.6934  -999.2500  -999.2500  -999.2500  -999.2500
 1249.5000     8.3784   117.1912     8.6567   -56.9925  -999.2500  -999.2500  -999.2500  -999.2500
 1250.0000     8.4384   117.1875     8.6567   -56.9940  -999.2500  -999.2500  -999.2500  -999.2500
 1250.5000     8.4845   117.1343     8.6567   -56.9955  -999.2500  -999.2500  -999.2500  -999.2500
 1251.0000     8.4816   115.6920     8.6567   -56.9970  -999.2500  -999.2500  -999.2500  -999.2500
 1251.5000     8.4384   115.6882     8.6567   -56.9985  -999.2500  -999.2500  -999.2500  -999.2500
 1252.0000     8.3784   115.6845     8.6567   -57.0000  -999.2500  -999.2500  -999.2500  -999.2500
 1252.5000     8.3183   117.1692     8.5075   -57.0015  -999.2500  -999.2500  -999.2500  -999.2500
 1253.0000     8.2583   118.9509     8.3582   -57.0030  -999.2500  -999.2500  -999.2500  -999.2500
 1253.5000     8.1982   121.6262     8.2090   -57.0044  -999.2500  -999.2500  -999.2500  -999.2500
 1254.0000     8.1682   123.5067     7.9781   -56.7084  -999.2500  -999.2500  -999.2500  -999.2500
 1254.5000     8.1081   126.0831     7.8248   -56.7098  -999.2500  -999.2500  -999.2500  -999.2500
