~VERSION INFORMATION
 VERS.                2.0:   CWLS LOG ASCII STANDARD - VERSION 2.0
 WRAP.                 NO:   ONE LINE PER DEPTH STEP
~WELL INFORMATION
#MNEM.UNIT      DATA TYPE    INFORMATION
#----------   ------------   ------------------------------
 STRT.F           19.5000:   START DEPTH
 STOP.F          635.0000:   STOP DEPTH
 STEP.F            0.5000:   STEP LENGTH
 NULL.          -999.2500:   NO VALUE
 COMP. FENIX & SCISSON INC:   COMPANY
 WELL. NPR-3 68-S-34 #3-34:   WELL
 FLD .  TEAPOT DOME NPR-3:   FIELD
 LOC .      S34 T39N R78W:   LOCATION
 CNTY.            NATRONA:   COUNTY
 STAT.            WYOMING:   STATE
 CTRY. UNITED STATES OF AMERICA:   COUNTRY
 SRVC.           BIRDWELL:   SERVICE COMPANY
 DATE.        01-AUG-1978:   LOGDATE
 API .       490251070600:   API NUMBER
~CURVE INFORMATION
#MNEM.UNIT       API CODE    CURVE DESCRIPTION
#----------   ------------   ------------------------------
 DEPT.F                  :   
 SPR .MV     05 010 01 00:   SPONTANEOUS POTENTIAL
 SN  .OHMM   05 040 16 00:   SHORT NORMAL 16'
 ILD .OHMM   05 120 46 00:   INDUCTION LOG DEEP RESISTIVITY
 GRD .GAPI   45 310 01 00:   GAMMA RAY FROM DENSITY LOG
 CALD.IN     45 280 60 00:   CALIPER
 RHOB.G/C3   45 350 01 00:   BULK DENSITY
 DPHI.DEC    45 890 12 00:   DENSITY POROSITY SANDSTONE
 CORR.G/C3   45 356 01 00:   DENSITY CORRECTION
~PARAMETER INFORMATION
#MNEM.UNIT          VALUE    DESCRIPTION
#----------   ------------   ------------------------------
 PD  .                 GL:   PERMANENT DATUM
 EPD .F              5100:   ELEVATION PERMANENT DATUM
 LMF .                 KB:   LOG MEASURED FROM
 DAPD.F                 4:   FEET ABOVE PERMANENT DATUM
 DMF .                 KB:   DRILLING MEASURED FROM
 EKB .F              5104:   KELLING BUSHING
 EGL .F              5100:   GROUND LEVEL
 DATE.           9-1-1978:   RUN DATE
 RUN .                  1:   RUN NUMBER
 DD  .F               635:   DEPTH DRILLER
 DL  .F               635:   DEPTH LOGGER
 BLI .F               629:   BOTTOM LOG INTERVAL
 TLI .F                40:   TOP LOG INTERVAL
 CS  .IN            8.625:   CASING SIZE
 CBD .F                40:   CASING BOTTOM DRILLER
 CBL .F                40:   CASING BOTTOM LOGGER
 BS  .IN            7.875:   BIT SIZE
 BSD .F               635:   BIT SIZE AT DEPTH
 DFT .                KCL:   DRILLING FLUID TYPE
 DFD .                8.6:   DRILLING FLUID DENSITY
 DFV .                 32:   DRILLING FLUID VISCOSITY
 DFPH.                  9:   DRILLING FLUID PH
 DFL .                  7:   DRILLING FLUID LOSS
 MSS .          FLOW LINE:   MUD SAMPLE SOURCE
 RMS .OHMM             .4:   RESISTIVITY MUD SAMPLE
 MST .F                76:   MUD SAMPLE TEMPERATURE
 RMF .OHMM             .3:   RESISTIVITY MUD FILTRATE SAMPLE
 MFST.F                80:   MUD FILTRATE SAMPLE TEMPERATURE
 RMC .OHMM             .4:   RESISTIVITY MUD CAKE
 MCST.F                80:   MUD CAKE SAMPLE TEMPERATURE
 MFSS.               MEAS:   MUD FILTRATE SAMPLE SOURCE
 MCSS.               MEAS:   MUD CAKE SAMPLE SOURCE
 RMB .OHMM            .43:   RESISTIVITY MUD AT BHT
 BHT .F                70:   BOTTOM HOLE TEMPERATURE
 TCS .HRS               3:   TIME CURCULATED STOPPED
 MRT .F                70:   MAXIMUM RECORDED TEMPERATURE
 LUN .               2958:   LOGGING UNIT NUMBER
 LUL .               CASP:   LOGGING UNIT LOCATION
 ENGI.            POINTER:   RECORDING ENGINEER
 WITN.           MCGINLEY:   WITNESSED BY
 CLNT.            A2DTECH:   CLIENT CODE
 ORIG.           5" PRINT:   ORIGIN OF DATA
 UWI .       490251070600:   UNIQUE WELL ID
 DICO. A2D Technologies, Inc.:   DIGITIZING COMPANY
~OTHER INFORMATION
~A   DEPT      SPR         SN        ILD         GRD      CALD       RHOB       DPHI       CORR   
# ...
  303.0000   -19.1584     9.0089    10.2921   108.6139     7.3782     2.4771     0.1229     0.0310
  303.5000   -19.1642     8.9838    10.2011   110.6956     7.3764     2.4777     0.1221     0.0273
  304.0000   -19.0284     8.9588    10.1108   112.6755     7.3746     2.4784     0.1223     0.0255
  304.5000   -18.8836     8.9338    10.0213   113.7858     7.3728     2.4789     0.1266     0.0234
  305.0000   -19.0190     8.9090     9.9326   113.0669     7.3710     2.4755     0.1308     0.0188
  305.5000   -19.2168     8.8841     9.8812   110.2623     7.3700     2.4672     0.1327     0.0140
  306.0000   -19.4159     8.8661     9.8513   107.7644     7.3700     2.4633     0.1317     0.0163
  306.5000   -19.6144     8.8662     9.8215   111.0467     7.3700     2.4653     0.1294     0.0196
  307.0000   -19.8235     8.8662     9.7919   112.2025     7.3694     2.4674     0.1301     0.0229
  307.5000   -19.6315     8.8662     9.7623   109.6706     7.3655     2.4689     0.1319     0.0251
  308.0000   -19.3295     8.8662     9.7328   107.7608     7.3617     2.4646     0.1344     0.0228
  308.5000   -19.0256     8.8662     9.7033   109.0026     7.3578     2.4602     0.1354     0.0206
  309.0000   -18.8237     8.8662     9.6740   111.4676     7.3539     2.4576     0.1363     0.0194
  309.5000   -18.7417     8.8663     9.6314   112.9055     7.3506     2.4559     0.1371     0.0193
  310.0000   -18.6592     8.8662     9.6426   110.3483     7.3743     2.4543     0.1380     0.0192
  310.5000   -18.5772     8.8662     9.6656   105.8077     7.4005     2.4527     0.1385     0.0190
  311.0000   -18.4937     8.7683     9.6887   101.5489     7.4099     2.4511     0.1387     0.0189
  311.5000   -18.4989     8.6035     9.7198   101.4236     7.4100     2.4517     0.1389     0.0188
  312.0000   -18.5535     8.5461     9.6455   105.3442     7.4100     2.4521     0.1391     0.0187
  312.5000   -18.6159     8.5461     9.5318   108.1213     7.4100     2.4526     0.1386     0.0185
  313.0000   -18.8195     8.5461     9.4194   110.6627     7.4100     2.4531     0.1379     0.0184
  313.5000   -19.1680     8.5047     9.3084   113.2615     7.4100     2.4536     0.1372     0.0183
  314.0000   -19.4885     8.4294     9.1880   115.6894     7.4100     2.4541     0.1365     0.0181
  314.5000   -19.8120     8.3547     8.9988   115.7450     7.4100     2.4557     0.1363     0.0180
  315.0000   -20.1358     8.2808     8.7295   113.1433     7.4100     2.4573     0.1362     0.0179
  315.5000   -20.4602     8.2075     8.4667   110.7683     7.4100     2.4577     0.1361     0.0178
  316.0000   -20.7837     8.1348     8.3621   111.3547     7.4100     2.4573     0.1360     0.0176
  316.5000   -21.0679     8.0858     8.3227   110.7819     7.4100     2.4586     0.1296     0.0175
  317.0000   -21.1744     8.0746     8.2835   111.8651     7.4100     2.4626     0.1318     0.0168
  317.5000   -21.2945     8.0633     8.2443   114.2074     7.4100     2.4657     0.1353     0.0160
  318.0000   -21.4211     8.0521     8.2376   115.8627     7.4100     2.4605     0.1358     0.0152
  318.5000   -21.2093     8.0408     8.2976   116.3995     7.4100     2.4570     0.1351     0.0144
  319.0000   -20.8437     8.0297     8.3462   117.4166     7.4100     2.4570     0.1344     0.0136
  319.5000   -20.4738     8.0142     8.3951   115.6123     7.4100     2.4574     0.1314     0.0161
  320.0000   -20.4621     8.0289     8.4442   112.5138     7.4100     2.4626     0.1256     0.0194
  320.5000   -20.5018     8.0560     8.4937   109.4445     7.4100     2.4730     0.1227     0.0226
  321.0000   -20.5390     8.0834     8.5434   107.0366     7.4100     2.4779     0.1228     0.0254
  321.5000   -20.5761     8.1108     8.5934   108.2633     7.4100     2.4778     0.1234     0.0239
  322.0000   -20.6131     8.1384     8.6437   110.4186     7.4100     2.4774     0.1239     0.0225
  322.5000   -20.6576     8.1660     8.6943   112.5945     7.4100     2.4770     0.1244     0.0211
  323.0000   -20.3370     8.1937     8.7452   114.7674     7.4100     2.4766     0.1249     0.0196
  323.5000   -19.9117     8.2215     8.7964   116.4767     7.4100     2.4763     0.1246     0.0203
  324.0000   -19.6708     8.2494     8.8662   114.8792     7.4100     2.4764     0.1225     0.0213
  324.5000   -19.7016     8.2773     8.8602   113.0532     7.4100     2.4790     0.1204     0.0223
  325.0000   -19.7296     8.3136     8.8510   111.2466     7.4100     2.4815     0.1241     0.0232
  325.5000   -19.7586     8.3108     8.8418   112.7470     7.4101     2.4811     0.1292     0.0242
  326.0000   -19.7872     8.3070     8.8325   117.2057     7.4100     2.4712     0.1287     0.0251
  326.5000   -19.8158     8.3030     8.8233   119.3452     7.3998     2.4695     0.1282     0.0269
  327.0000   -19.8440     8.2991     8.8141   117.1918     7.3566     2.4690     0.1277     0.0289
  327.5000   -19.8602     8.2951     8.8050   114.5210     7.3026     2.4701     0.1260     0.0310
  328.0000   -19.8600     8.2912     8.7958   116.4532     7.2244     2.4732     0.1248     0.0332
  328.5000   -20.0568     8.2872     8.7866   118.1118     7.1472     2.4750     0.1248     0.0310
  329.0000   -20.4430     8.2833     8.7775   114.8917     7.1000     2.4750     0.1264     0.0280
  329.5000   -20.8265     8.2794     8.7683   113.7951     7.1528     2.4734     0.1289     0.0250
  330.0000   -21.0601     8.2755     8.7592   113.3618     7.2026     2.4695     0.1316     0.0220
  330.5000   -21.0581     8.2715     8.7501   110.5154     7.2525     2.4649     0.1337     0.0200
  331.0000   -21.0591     8.2676     8.7409   108.7969     7.3027     2.4609     0.1360     0.0238
  331.5000   -21.0321     8.2637     8.7318   115.1611     7.3485     2.4573     0.1403     0.0276
  332.0000   -20.8039     8.2598     8.7227   121.0026     7.3317     2.4504     0.1448     0.0314
  332.5000   -20.5747     8.2559     8.7136   121.0914     7.3133     2.4435     0.1400     0.0353
  333.0000   -20.3431     8.2520     8.7047   119.7351     7.2953     2.4499     0.1347     0.0453
  333.5000   -20.3215     8.2481     8.6672   117.2028     7.2772     2.4563     0.1292     0.0561
  334.0000   -20.4156     8.2442     8.6217   114.4706     7.2789     2.4646     0.1257     0.0670
  334.5000   -20.5126     8.2402     8.5764   111.7537     7.2935     2.4759     0.1218     0.0777
  335.0000   -20.6096     8.2238     8.5313   110.2583     7.3083     2.4873     0.1179     0.0836
  335.5000   -20.7064     8.1821     8.4864   110.2156     7.3231     2.4924     0.1154     0.0701
  336.0000   -20.8012     8.1407     8.4418   113.6091     7.3379     2.4912     0.1159     0.0478
  336.5000   -20.7972     8.0994     8.3975   118.0460     7.3497     2.4900     0.1164     0.0312
  337.0000   -20.6486     8.0583     8.3533   119.0420     7.3457     2.4890     0.1157     0.0315
  337.5000   -20.5015     8.0175     8.3009   115.9767     7.3420     2.4907     0.1132     0.0315
  338.0000   -20.3565     8.0135     8.1707   113.9000     7.3383     2.4926     0.1172     0.0316
  338.5000   -20.2974     8.0135     8.0426   112.7517     7.3346     2.4902     0.1256     0.0274
  339.0000   -20.4152     8.0135     7.9164   110.8930     7.3312     2.4775     0.1305     0.0227
  339.5000   -20.4583     8.0135     7.7922   110.1457     7.3138     2.4692     0.1323     0.0180
  340.0000   -20.4593     8.0135     7.6536   112.1272     7.2926     2.4649     0.1341     0.0136
  340.5000   -20.4583     8.0137     7.6745   114.2005     7.2712     2.4611     0.1310     0.0146
  341.0000   -20.4539     8.0135     7.6988   115.1779     7.2499     2.4639     0.1250     0.0190
  341.5000   -20.4778     8.0135     7.7242   114.8848     7.2286     2.4714     0.1231     0.0241
  342.0000   -21.4356     7.9247     7.4398   112.7402     7.2071     2.4768     0.1249     0.0293
  342.5000   -22.1726     7.6933     7.1645   107.6510     7.1894     2.4737     0.1282     0.0336
  343.0000   -22.4513     7.4685     6.9010   102.4901     7.2020     2.4706     0.1361     0.0335
