~VERSION INFORMATION
 VERS.                2.0:   CWLS LOG ASCII STANDARD - VERSION 2.0
 WRAP.                 NO:   ONE LINE PER DEPTH STEP
~WELL INFORMATION
#MNEM.UNIT      DATA TYPE    INFORMATION
#----------   ------------   ------------------------------
 STRT.F           31.0000:   START DEPTH
 STOP.F          521.0000:   STOP DEPTH
 STEP.F            0.5000:   STEP LENGTH
 NULL.          -999.2500:   NO VALUE
 COMP. FENIX & SCISSON INC:   COMPANY
 WELL.      NPR-3 #52SX-3:   WELL
 FLD .             TEAPOT:   FIELD
 LOC .       S3 T38N R78W:   LOCATION
 CNTY.            NATRONA:   COUNTY
 STAT.            WYOMING:   STATE
 CTRY. UNITED STATES OF AMERICA:   COUNTRY
 SRVC.            Unknown:   SERVICE COMPANY
 DATE.        03-OCT-1978:   LOGDATE
 API .       490251071800:   API NUMBER
~CURVE INFORMATION
#MNEM.UNIT       API CODE    CURVE DESCRIPTION
#----------   ------------   ------------------------------
 DEPT.F                  :   
 SPR .MV     05 010 01 00:   SPONTANEOUS POTENTIAL FROM RES.
 GRD .GAPI   45 310 01 00:   GAMMA RAY FROM DENSITY LOG
 CALD.IN     45 280 60 00:   CALIPER
 RHOB.G/C3   45 350 01 00:   BULK DENSITY
 DPHI.DEC    45 890 12 00:   DENSITY POROSITY SANDSTONE
 CORR.G/C3   45 356 01 00:   DENSITY CORRECTION
 SN  .OHMM   05 040 16 00:   SHORT NORMAL 16"
 IL  .OHMM   05 120 00 00:   INDUCTION LOG
~PARAMETER INFORMATION
#MNEM.UNIT          VALUE    DESCRIPTION
#----------   ------------   ------------------------------
 PD  .                 GL:   PERMANENT DATUM
 EPD .F              5129:   ELEVATION PERMANENT DATUM
 LMF .                 KB:   LOG MEASURED FROM
 DAPD.F                 4:   FEET ABOVE PERMANENT DATUM
 DMF .                 KB:   DRILLING MEASURED FROM
 EKB .F              5133:   KELLING BUSHING
 EGL .F              5129:   GROUND LEVEL
 DATE.            10-3-78:   RUN DATE
 RUN .                  1:   RUN NUMBER
 DD  .F               521:   DEPTH DRILLER
 DL  .F               520:   DEPTH LOGGER
 BLI .F               514:   BOTTOM LOG INTERVAL
 TLI .F                46:   TOP LOG INTERVAL
 CS  .IN            8.625:   CASING SIZE
 CBL .F                44:   CASING BOTTOM LOGGER
 BS  .IN            7.875:   BIT SIZE
 BSD .F               521:   BIT SIZE AT DEPTH
 DFT .                KCL:   DRILLING FLUID TYPE
 DFD .                8.7:   DRILLING FLUID DENSITY
 DFV .                 34:   DRILLING FLUID VISCOSITY
 DFPH.                  9:   DRILLING FLUID PH
 DFL .               10.8:   DRILLING FLUID LOSS
 MSS .            MUD PIT:   MUD SAMPLE SOURCE
 RMS .OHMM            .24:   RESISTIVITY MUD SAMPLE
 MST .F                54:   MUD SAMPLE TEMPERATURE
 RMF .OHMM            .22:   RESISTIVITY MUD FILTRATE SAMPLE
 MFST.F                60:   MUD FILTRATE SAMPLE TEMPERATURE
 RMC .OHMM             .3:   RESISTIVITY MUD CAKE
 MCST.F                64:   MUD CAKE SAMPLE TEMPERATURE
 MFSS.               MEAS:   MUD FILTRATE SAMPLE SOURCE
 MCSS.               MEAS:   MUD CAKE SAMPLE SOURCE
 BHT .F                60:   BOTTOM HOLE TEMPERATURE
 TCS .HRS               3:   TIME CURCULATED STOPPED
 MRT .F                60:   MAXIMUM RECORDED TEMPERATURE
 LUN .               2958:   LOGGING UNIT NUMBER
 LUL .               CASP:   LOGGING UNIT LOCATION
 ENGI.             MILLER:   RECORDING ENGINEER
 WITN.           DINSMORE:   WITNESSED BY
 CLNT.            A2DTECH:   CLIENT CODE
 ORIG.       2", 5" PRINT:   ORIGIN OF DATA
 UWI .       490251071800:   UNIQUE WELL ID
 DICO. A2D Technologies, Inc.:   DIGITIZING COMPANY
~OTHER INFORMATION
~A   DEPT      SPR         GRD      CALD       RHOB       DPHI       CORR         SN         IL   
# ...
   71.5000   -30.6793   101.8708     7.7617     2.4647     0.1342     0.0211     8.0120     7.3698
   72.0000   -30.8241   102.3402     7.7622     2.4673     0.1319     0.0340     8.0219     7.3443
   72.5000   -30.9688   103.5442     7.7605     2.4765     0.1240     0.0350     8.0295     7.3188
   73.0000   -31.1130   104.0311     7.7681     2.4821     0.1194     0.0210     7.8262     7.2934
   73.5000   -31.2584   103.4649     7.9892     2.4800     0.1242     0.0126     7.6573     7.2680
   74.0000   -31.4083   102.2154     7.7797     2.4803     0.1247     0.0106     7.4576     7.2428
   74.5000   -31.7840   102.3306     7.7363     2.4841     0.1182     0.0085     7.5292     7.2177
   75.0000   -32.5806   103.3355     7.7253     2.4845     0.1191     0.0075     7.6208     7.1876
   75.5000   -34.7527   103.5858     7.6874     2.4805     0.1203     0.0075     7.7136     7.2435
   76.0000   -32.3777   103.8534     7.6385     2.4760     0.1247     0.0075     7.8075     7.3138
   76.5000   -32.3790   104.3520     7.6065     2.4715     0.1282     0.0075     7.8856     7.3848
   77.0000   -32.3293   104.7134     7.6172     2.4696     0.1285     0.0075     7.9030     7.4565
   77.5000   -32.2765   103.9965     7.6270     2.4699     0.1277     0.0075     7.9205     7.5267
   78.0000   -32.2239   102.2677     7.6373     2.4701     0.1287     0.0075     7.9380     7.5184
   78.5000   -32.1713   100.4354     7.6688     2.4706     0.1300     0.0075     7.9548     7.5103
   79.0000   -32.1186    97.7723     7.7427     2.4753     0.1253     0.0075     8.0771     7.5022
   79.5000   -32.0660    95.0826     7.8152     2.4768     0.1236     0.0075     8.1962     7.4941
   80.0000   -32.0134    94.1818     7.8632     2.4825     0.1226     0.0091     8.3172     7.4860
   80.5000   -31.9607    99.2515     7.8659     2.4904     0.1189     0.0119     8.4072     7.4779
   81.0000   -31.9080   102.0700     7.8693     2.4947     0.1150     0.0147     8.3715     7.4699
   81.5000   -31.8545   105.8187     7.8727     2.4990     0.1104     0.0175     8.3434     7.4618
   82.0000   -31.8452   106.9647     7.8760     2.5030     0.1072     0.0203     8.3152     7.4538
   82.5000   -31.8451   107.8628     7.8789     2.5053     0.1055     0.0232     8.2872     7.4457
   83.0000   -31.8452   108.9723     7.8612     2.5077     0.1044     0.0214     8.2593     7.4377
   83.5000   -31.8452   109.2496     7.8131     2.5101     0.1033     0.0188     8.2315     7.4297
   84.0000   -31.8452   109.1700     7.7655     2.5126     0.1022     0.0162     8.2038     7.4217
   84.5000   -31.8452   108.3672     7.7176     2.5154     0.0982     0.0136     8.1761     7.4137
   85.0000   -31.8452   108.3161     7.6703     2.5164     0.0983     0.0110     8.1486     7.4057
   85.5000   -31.8442   108.2882     7.6418     2.5105     0.1019     0.0083     8.1209     7.3978
   86.0000   -31.8384   108.2578     7.6170     2.5076     0.1045     0.0086     8.1022     7.3897
   86.5000   -32.0788   108.2271     7.6093     2.5051     0.1058     0.0102     8.1028     7.3985
   87.0000   -32.3488   108.1954     7.6200     2.4963     0.1129     0.0119     8.1029     7.4087
   87.5000   -32.6232   108.1784     7.6535     2.4883     0.1177     0.0135     8.1028     7.4188
   88.0000   -32.3654   107.2632     7.6953     2.4837     0.1186     0.0151     8.1028     7.4289
   88.5000   -32.0561   106.3188     7.7350     2.4794     0.1221     0.0168     8.1026     7.4391
   89.0000   -31.6430   106.2144     7.7875     2.4750     0.1262     0.0239     8.1030     7.4492
   89.5000   -31.0038   105.5935     7.8678     2.4707     0.1279     0.0361     8.1023     7.4594
   90.0000   -30.4338   104.4722     7.9478     2.4751     0.1279     0.0483     8.2186     7.4696
   90.5000   -30.3943   103.2547     8.0269     2.4832     0.1202     0.0605     8.3184     7.4798
   91.0000   -30.3437   102.8271     8.0861     2.4933     0.1140     0.0727     8.4193     7.4900
   91.5000   -30.2911   103.2087     8.1030     2.5099     0.1075     0.0849     8.5232     7.5002
   92.0000   -30.2385   105.7038     8.1209     2.5280     0.0923     0.0975     8.7783     7.5104
   92.5000   -30.1859   107.0434     8.1376     2.5310     0.0899     0.0902     9.2192     7.5206
   93.0000   -30.1332   107.2557     8.1211     2.5212     0.0904     0.0891     9.2131     7.5268
   93.5000   -30.0806   107.6745     8.1027     2.5183     0.0876     0.0885     9.2032     7.5267
   94.0000   -30.0280   108.4795     8.0845     2.5414     0.0825     0.0876     9.1933     7.5267
   94.5000   -29.9754   109.1590     8.0664     2.5472     0.0782     0.0794     9.1834     7.5267
   95.0000   -29.9227   108.0177     8.0482     2.5407     0.0849     0.0603     9.1735     7.5267
   95.5000   -29.8701   106.6002     8.0301     2.5154     0.0958     0.0408     9.1636     7.5267
   96.0000   -29.8175   106.4023     8.0119     2.5101     0.1026     0.0297     9.1539     7.5267
   96.5000   -29.7645   105.8100     7.9938     2.5097     0.1026     0.0282     9.1438     7.5267
   97.0000   -29.7105   105.1472     7.9757     2.5104     0.1026     0.0286     9.1346     7.5267
   97.5000   -29.6688   104.7801     7.9579     2.5043     0.1069     0.0306     8.9916     7.5267
   98.0000   -29.8004   104.7847     7.9380     2.4988     0.1120     0.0455     8.8591     7.5267
   98.5000   -30.2169   104.7798     7.8772     2.4977     0.1138     0.0661     8.7286     7.5267
   99.0000   -30.9664   104.5664     7.8202     2.5031     0.1069     0.0870     8.6000     7.5267
   99.5000   -31.0533   103.6359     7.7755     2.5143     0.1005     0.1079     8.4851     7.5267
  100.0000   -31.0529   102.7438     7.7332     2.5228     0.0934     0.1010     8.2850     7.5267
  100.5000   -31.0559   101.8469     7.7020     2.5261     0.0932     0.0877     8.1044     7.5267
  101.0000   -31.0952   101.4951     7.7011     2.5140     0.0988     0.0537     7.9270     7.5267
  101.5000   -31.1352   101.6428     7.6996     2.4992     0.1055     0.0241     7.7833     7.5267
  102.0000   -31.1759   101.7946     7.6981     2.4843     0.1189     0.0073     7.6997     7.5267
  102.5000   -31.2161   101.5613     7.6967     2.4743     0.1282     0.0060     7.6170     7.5267
  103.0000   -31.2019   101.2904     7.6952     2.4750     0.1264     0.0093     7.5351     7.5265
  103.5000   -30.7681   101.0277     7.6937     2.4813     0.1222     0.0118     7.4541     7.5260
  104.0000   -30.3280   101.2866     7.6923     2.4887     0.1175     0.0125     7.3734     7.5259
  104.5000   -29.8828   101.5791     7.6908     2.5000     0.1104     0.0133     7.3214     7.7362
  105.0000   -29.8717   101.8820     7.6893     2.5153     0.1033     0.0116     7.4917     7.9675
  105.5000   -29.8897   100.6572     7.6879     2.5243     0.1008     0.0082     7.6449     8.0976
  106.0000   -29.9057   100.6047     7.6864     2.5243     0.0995     0.0060     7.8121     8.1919
  106.5000   -29.9210   101.1056     7.6849     2.5183     0.0982     0.0089     7.8114     8.2872
  107.0000   -29.9363   101.2873     7.6833     2.5127     0.1011     0.0119     7.8245     8.3960
  107.5000   -29.9516   101.3913     7.6873     2.5119     0.1030     0.0148     7.8319     8.5165
  108.0000   -29.9669   101.4088     7.6925     2.5132     0.1012     0.0171     7.8396     8.6386
  108.5000   -29.9822   101.4066     7.6978     2.5163     0.0994     0.0105     7.8472     8.7625
  109.0000   -29.9975   101.3963     7.7030     2.5169     0.0976     0.0079     7.8549     8.8882
  109.5000   -30.0128   101.8816     7.7083     2.5072     0.1005     0.0054     7.8625     8.9677
  110.0000   -30.0282   102.8888     7.7134     2.4945     0.1082     0.0035     7.8702     8.6870
  110.5000   -30.0443   104.2186     7.7187     2.4817     0.1204     0.0035     7.8779     8.4882
  111.0000   -30.0567   104.1912     7.7277     2.4711     0.1272     0.0041     7.8855     8.3301
  111.5000   -29.9262   104.1753     7.7523     2.4674     0.1312     0.0067     7.8932     8.3372
