~VERSION INFORMATION
 VERS.                2.0:   CWLS LOG ASCII STANDARD - VERSION 2.0
 WRAP.                 NO:   ONE LINE PER DEPTH STEP
~WELL INFORMATION
#MNEM.UNIT      DATA TYPE    INFORMATION
#----------   ------------   ------------------------------
 STRT.F           30.0000:   START DEPTH
 STOP.F          626.0000:   STOP DEPTH
 STEP.F            0.5000:   STEP LENGTH
 NULL.          -999.2500:   NO VALUE
 COMP.       F D SERV INC:   COMPANY
 WELL.    63-2 SX-3 #63-3:   WELL
 FLD .             TEAPOT:   FIELD
 LOC .       S3 T38N R78W:   LOCATION
 CNTY.            NATRONA:   COUNTY
 STAT.            WYOMING:   STATE
 CTRY. UNITED STATES OF AMERICA:   COUNTRY
 SRVC.     Atlas Wireline:   SERVICE COMPANY
 DATE.        29-APR-1992:   LOGDATE
 API .       490252251900:   API NUMBER
~CURVE INFORMATION
#MNEM.UNIT       API CODE    CURVE DESCRIPTION
#----------   ------------   ------------------------------
 DEPT.F                  :   
 CALD.IN     45 280 60 00:   CALIPER FROM DENSITY
 CORR.G/C3   45 356 01 00:   DENSITY CORRECTION
 DEN .G/C3   45 350 01 00:   COMPENSATED BULK DENSTIY
 GRD .GAPI   45 310 01 00:   GAMMA RAY FROM DENSITY LOG
 PORD.DEC    45 890 12 00:   POROSITY DENSITY SANDSTONE
 RILD.OHMM   07 120 46 00:   INDUCTION LOG DEEP RESISTIVITY
 RILM.OHMM   07 120 44 00:   INDUCTION LOG MEDIUM RESISTIVITY
~PARAMETER INFORMATION
#MNEM.UNIT          VALUE    DESCRIPTION
#----------   ------------   ------------------------------
 PD  .                 GL:   PERMANENT DATUM
 EPD .F              5160:   ELEVATION PERMANENT DATUM
 LMF .                 KB:   LOG MEASURED FROM
 DAPD.F                 5:   FEET ABOVE PERMANENT DATUM
 DMF .                 KB:   DRILLING MEASURED FROM
 EKB .F              5165:   KELLING BUSHING
 EGL .F              5160:   GROUND LEVEL
 DATE.        29-APR-1992:   RUN DATE
 RUN .                  1:   RUN NUMBER
 DD  .F               630:   DEPTH DRILLER
 DL  .F               629:   DEPTH LOGGER
 BLI .F               626:   BOTTOM LOG INTERVAL
 CS  .IN            8.625:   CASING SIZE
 CBD .F                45:   CASING BOTTOM DRILLER
 CBL .F                45:   CASING BOTTOM LOGGER
 BS  .IN            7.875:   BIT SIZE
 BSD .F               630:   BIT SIZE AT DEPTH
 DFT .                AIR:   DRILLING FLUID TYPE
 LUN .            HL-6212:   LOGGING UNIT NUMBER
 LUL .             CASPER:   LOGGING UNIT LOCATION
 ENGI.             ZIEGEN:   RECORDING ENGINEER
 WITN.             STRONG:   WITNESSED BY
 CLNT.            A2DTECH:   CLIENT CODE
 ORIG.           5" PRINT:   ORIGIN OF DATA
 UWI .       490252251900:   UNIQUE WELL ID
 DICO. A2D Technologies, Inc.:   DIGITIZING COMPANY
~OTHER INFORMATION
~A   DEPT     CALD       CORR        DEN        GRD       PORD       RILD       RILM   
# ...
  530.5000     8.1593     0.0036     2.5474   164.0302     0.0619    11.2947    10.9138
  531.0000     8.1589     0.0021     2.5466   164.9217     0.0631    11.5293    11.2966
  531.5000     8.1585     0.0038     2.5466   167.0254     0.0641    11.6078    11.2950
  532.0000     8.1580     0.0066     2.5474   167.3126     0.0632    11.6048    11.2934
  532.5000     8.1576     0.0066     2.5481   166.9919     0.0617    11.6024    11.4564
  533.0000     8.1420     0.0051     2.5481   166.6749     0.0614    11.9266    11.6084
  533.5000     8.1114    -0.0009     2.5466   168.1706     0.0629    12.0072    11.8512
  534.0000     8.0959    -0.0039     2.5428   170.8748     0.0653    12.2579    12.0264
  534.5000     8.0955     0.0052     2.5383   172.0684     0.0674    12.4260    12.2666
  535.0000     8.0950     0.0067     2.5343   174.4704     0.0695    12.5106    12.5232
  535.5000     8.0946     0.0052     2.5300   176.5704     0.0716    12.5074    12.2631
  536.0000     8.1092     0.0052     2.5285   177.4622     0.0729    12.4183    12.2611
  536.5000     8.1088     0.0037     2.5239   176.8427     0.0741    12.5893    12.6048
  537.0000     8.0932    -0.0008     2.5217   178.0538     0.0765    12.6744    12.8689
  537.5000     8.0927     0.0023     2.5202   181.0929     0.0786    12.5841    12.5141
  538.0000     8.0922     0.0068     2.5239   183.8352     0.0764    12.4818    12.3402
  538.5000     8.0767     0.0068     2.5232   187.3536     0.0753    12.8435    12.9532
  539.0000     8.0763     0.0023     2.5209   187.3387     0.0771    12.9304    12.8613
  539.5000     8.0758     0.0008     2.5201   186.1154     0.0768    12.8382    12.5072
  540.0000     8.0603     0.0055     2.5254   182.4751     0.0756    12.6586    12.2475
  540.5000     8.0598     0.0174     2.5292   178.2306     0.0738    12.5684    12.2458
  541.0000     8.0594     0.0205     2.5322   175.1946     0.0717    12.4789    12.2441
  541.5000     8.0590     0.0250     2.5344   174.5755     0.0702    12.4763    12.2425
  542.0000     8.0585     0.0205     2.5312   174.8665     0.0738    12.4737    12.2408
  542.5000     8.0581     0.0145     2.5216   174.2437     0.0765    12.5580    12.4968
  543.0000     8.0576     0.0085     2.5178   169.3950     0.0772    12.5554    12.5826
  543.5000     8.0572     0.0085     2.5223   164.2441     0.0766    12.5528    12.5804
  544.0000     8.0567     0.0145     2.5283   162.4166     0.0751    12.3612    12.3193
  544.5000     8.0714     0.0191     2.5321   166.9334     0.0717    12.1944    12.1476
  545.0000     8.0708     0.0176     2.5298   170.5538     0.0702    12.1170    11.8955
  545.5000     8.0704     0.0130     2.5261   171.7375     0.0746    12.1145    11.6485
  546.0000     8.0699     0.0101     2.5208   169.2567     0.0784    11.8482    11.3278
  546.5000     8.0695     0.0071     2.5230   168.0787     0.0754    11.4249    10.9396
  547.0000     8.0690     0.0056     2.5328   169.2723     0.0721    10.9854    10.6384
  547.5000     8.0535     0.0087     2.5419   171.6743     0.0676    10.8317    10.5633
  548.0000     8.0683     0.0116     2.5502   173.1700     0.0631    10.8295    10.3440
  548.5000     8.0677     0.0116     2.5532   174.0652     0.0603    10.7524    10.1293
  549.0000     8.0823     0.0117     2.5494   174.9530     0.0616    10.6019    10.0578
  549.5000     8.0970     0.0102     2.5441   173.7296     0.0646    10.5264    10.0564
  550.0000     8.1267     0.0086     2.5407   170.7963     0.0668    10.3504    10.0644
  550.5000     8.1264     0.0056     2.5373   168.5672     0.0691    10.2606    10.1222
  551.0000     8.1430     0.0071     2.5358   170.6701     0.0694     9.9505     9.7740
  551.5000     8.1711     0.0086     2.5373   175.1899     0.0676     9.7428     9.5036
  552.0000     8.1707     0.0101     2.5387   180.0118     0.0664     9.7401     9.3699
  552.5000     8.1855     0.0130     2.5410   181.2085     0.0655     9.7375     9.3674
  553.0000     8.1852     0.0130     2.5432   181.4986     0.0652     9.7347     9.3648
  553.5000     8.1849     0.0130     2.5448   179.5743     0.0646     9.7320     9.4275
  554.0000     8.1846     0.0113     2.5470   175.5248     0.0643     9.7288     9.4906
  554.5000     8.1994     0.0068     2.5470   171.7923     0.0637     9.7262     9.4874
  555.0000     8.1991     0.0021     2.5477   171.4813     0.0628     9.7235     9.4848
  555.5000     8.1988     0.0008     2.5477   173.2791     0.0619     9.7209     9.4822
  556.0000     8.1985     0.0053     2.5492   175.6841     0.0610     9.6510     9.4796
  556.5000     8.1831     0.0068     2.5537   179.5997     0.0604     9.4495     9.4770
  557.0000     8.1677     0.0022     2.5605   187.1407     0.0583     9.1883     9.2790
  557.5000     8.1523     0.0007     2.5650   189.8478     0.0556     8.9343     9.2122
  558.0000     8.1370    -0.0009     2.5672   191.9507     0.0544     8.8087     8.9574
  558.5000     8.1216    -0.0039     2.5649   194.6578     0.0559     8.6849     8.8314
  559.0000     8.1213    -0.0054     2.5521   196.7608     0.0593     8.5628     8.6469
  559.5000     8.0908    -0.0070     2.5415   195.5404     0.0638     8.4425     8.3494
  560.0000     8.0904    -0.0055     2.5385   191.9031     0.0674     8.4402     8.1750
  560.5000     8.0901    -0.0010     2.5347   188.5680     0.0677     8.3794     8.0042
  561.0000     8.1049     0.0065     2.5317   187.0453     0.0696     8.2612     8.0021
  561.5000     8.1046     0.0140     2.5292   187.3357     0.0733     8.1451     7.9999
  562.0000     8.1043     0.0185     2.5226   188.2302     0.0765     7.9199     7.9422
  562.5000     8.1040     0.0170     2.5256   187.9162     0.0756     7.7546     7.9400
  563.0000     8.1037     0.0094     2.5346   187.5992     0.0714     7.6988     7.7737
  563.5000     8.1034     0.0033     2.5459   185.7746     0.0666     7.5381     7.6644
  564.0000     8.1031     0.0003     2.5391   185.4606     0.0675     7.3297     6.7618
  564.5000     8.1028     0.0003     2.5256   186.3550     0.0831     6.9319     6.1335
  565.0000     8.0875     0.0048     2.5014   184.5304     0.1067     6.7403     6.0054
  565.5000     8.0872     0.0094     2.4781   182.1016     0.1076     6.7385     6.0460
  566.0000     8.0869     0.0124     2.4871   179.9749     0.1040     6.7835     6.1712
  566.5000     8.0715     0.0167     2.5067   179.3588     0.0910     6.9244     6.3875
  567.0000     8.0712     0.0122     2.5164   179.6490     0.0802     7.1738     6.7039
  567.5000     8.0709     0.0106     2.5209   180.2413     0.0781     7.5339     7.1842
  568.0000     8.0706     0.0076     2.5224   180.5318     0.0772     7.9485     7.7525
  568.5000     8.0702     0.0151     2.5232   180.5197     0.0763     8.4000     8.1932
  569.0000     8.0851     0.0181     2.5223   180.8099     0.0760     8.6347     8.5991
  569.5000     8.0847     0.0120     2.5200   176.6641     0.0782     8.9988     9.0259
  570.0000     8.1146     0.0044     2.5179   173.2303     0.0802     9.3789     9.4065
  570.5000     8.1143    -0.0031     2.5201   172.9192     0.0781     9.6410     9.6860
  571.0000     8.0989    -0.0122     2.5231   175.0191     0.0754     9.8473    10.0079
  571.5000     8.0835    -0.0137     2.5276   175.9166     0.0730     9.8886    10.0749
  572.0000     8.0832    -0.0138     2.5336   174.0890     0.0709     9.9730     9.9325
  572.5000     8.0829    -0.0138     2.5396   173.7750     0.0679     9.9696     9.8610
  573.0000     8.0826    -0.0093     2.5449   175.8779     0.0646     9.8295     9.7223
  573.5000     8.0823    -0.0018     2.5434   179.1893     0.0643     9.8268     9.9250
  574.0000     8.0820     0.0012     2.5388   179.7846     0.0658     9.8932     9.9216
  574.5000     8.0817     0.0042     2.5335   177.6549     0.0685     9.9594     9.9189
  575.0000     8.0814    -0.0004     2.5298   176.1324     0.0721     9.8872     9.6445
  575.5000     8.0812    -0.0019     2.5282   174.6100     0.0742     9.7482     9.3776
