~VERSION INFORMATION
 VERS.                2.0:   CWLS LOG ASCII STANDARD - VERSION 2.0
 WRAP.                 NO:   ONE LINE PER DEPTH STEP
~WELL INFORMATION
#MNEM.UNIT      DATA TYPE    INFORMATION
#----------   ------------   ------------------------------
 STRT.F            1.0000:   START DEPTH
 STOP.F          508.0000:   STOP DEPTH
 STEP.F            0.1000:   STEP LENGTH
 NULL.          -999.2500:   NO VALUE
 COMP.       F D SERV INC:   COMPANY
 WELL. NAVAL PETROLEUM RESERVE 3 SX-1 #83-4-10:   WELL
 FLD .             TEAPOT:   FIELD
 LOC .      S10 T38N R78W:   LOCATION
 CNTY.            NATRONA:   COUNTY
 STAT.            WYOMING:   STATE
 CTRY. UNITED STATES OF AMERICA:   COUNTRY
 SRVC.     Atlas Wireline:   SERVICE COMPANY
 DATE.        26-JAN-1993:   LOGDATE
 API .       490252258300:   API NUMBER
~CURVE INFORMATION
#MNEM.UNIT       API CODE    CURVE DESCRIPTION
#----------   ------------   ------------------------------
 DEPT.F                  :   
 GRR .GAPI   07 310 01 00:   GAMMA RAY
 RILD.OHMM   07 120 46 00:   INDUCTION LOG DEEP RESISTIVITY
 RILM.OHMM   07 120 44 00:   INDUCTION LOG MEDIUM RESISTIVITY
~PARAMETER INFORMATION
#MNEM.UNIT          VALUE    DESCRIPTION
#----------   ------------   ------------------------------
 PD  .                 GL:   PERMANENT DATUM
 EPD .F              5152:   ELEVATION PERMANENT DATUM
 LMF .                 KB:   LOG MEASURED FROM
 DAPD.F                10:   FEET ABOVE PERMANENT DATUM
 DMF .                 KB:   DRILLING MEASURED FROM
 EKB .F              5162:   KELLING BUSHING
 EDF .F              5161:   DRILLING FLOOR
 EGL .F              5152:   GROUND LEVEL
 DATE.        26-JAN-1993:   RUN DATE
 RUN .                  1:   RUN NUMBER
 DD  .F               515:   DEPTH DRILLER
 DL  .F               516:   DEPTH LOGGER
 BLI .F               508:   BOTTOM LOG INTERVAL
 CS  .IN            8.625:   CASING SIZE
 CBD .F                55:   CASING BOTTOM DRILLER
 CBL .F                55:   CASING BOTTOM LOGGER
 BS  .IN            7.875:   BIT SIZE
 BSD .F               515:   BIT SIZE AT DEPTH
 DFT .                AIR:   DRILLING FLUID TYPE
 MRT .F                63:   MAXIMUM RECORDED TEMPERATURE
 LUN .           HL- 6274:   LOGGING UNIT NUMBER
 LUL .             CASPER:   LOGGING UNIT LOCATION
 ENGI.       P. RASMUSSEN:   RECORDING ENGINEER
 WITN.          G. STRONG:   WITNESSED BY
 CLNT.            A2DTECH:   CLIENT CODE
 ORIG.           5" PRINT:   ORIGIN OF DATA
 UWI .       490252258300:   UNIQUE WELL ID
 DICO. A2D Technologies, Inc.:   DIGITIZING COMPANY
~OTHER INFORMATION
~A    DEPT     GRR       RILD       RILM   
# ...
  146.6000   126.9770    10.5133    10.6599
  146.7000   125.9592    10.5130    10.6596
  146.8000   124.7712    10.5127    10.6594
  146.9000   123.0898    10.5124    10.6591
  147.0000   120.4639    10.4914    10.6588
  147.1000   119.2316    10.4393    10.6584
  147.2000   118.7590    10.4390    10.6052
  147.3000   118.6584    10.3793    10.5843
  147.4000   118.7659    10.3664    10.5543
  147.5000   119.0211    10.3292    10.5107
  147.6000   119.2900    10.2685    10.5104
  147.7000   119.8657    10.2230    10.5101
  147.8000   120.3096    10.2227    10.4532
  147.9000   120.9945    10.2224    10.3921
  148.0000   122.0160    10.2221    10.3313
  148.1000   123.3716    10.1800    10.2709
  148.2000   124.8293    10.1203    10.2216
  148.3000   125.8934    10.0807    10.2213
  148.4000   126.8675    10.0713    10.2209
  148.5000   127.8866    10.0106    10.1725
  148.6000   128.6053     9.9535    10.1130
  148.7000   129.0114     9.9409    10.0796
  148.8000   129.2667     9.9407    10.0645
  148.9000   129.5115     9.9156    10.0055
  149.0000   129.5121     9.8715     9.9401
  149.1000   129.7311     9.8676     9.9398
  149.2000   129.8145     9.8028     9.9396
  149.3000   129.9404     9.8026     9.9098
  149.4000   130.1169     9.7623     9.8518
  149.5000   130.1175     9.7344     9.8020
  149.6000   130.1181     9.7151     9.8017
  149.7000   130.3589     9.6667     9.7471
  149.8000   130.6140     9.6664     9.6901
  149.9000   130.7223     9.6661     9.6661
  150.0000   130.8233     9.6659     9.6436
  150.1000   131.0785     9.6656     9.5872
  150.2000   131.3265     9.6414     9.5324
  150.3000   131.3272     9.5984     9.5321
  150.4000   131.3277     9.5947     9.5319
  150.5000   131.3283     9.5316     9.4954
  150.6000   131.4510     9.5313     9.4399
  150.7000   131.7062     9.5311     9.4000
  150.8000   131.9325     9.5308     9.3997
  150.9000   131.9332     9.5305     9.3994
  151.0000   131.9337     9.5219     9.3992
  151.1000   131.9343     9.4642     9.3594
  151.2000   131.9349     9.4105     9.3046
  151.3000   131.9355     9.3984     9.2691
  151.4000   131.9362     9.3981     9.2689
  151.5000   131.9368     9.3748     9.2686
  151.6000   131.9375     9.3197     9.2684
  151.7000   131.9380     9.2681     9.2253
  151.8000   131.9386     9.2678     9.2039
  151.9000   131.9392     9.2202     9.2036
  152.0000   131.9398     9.2034     9.2034
  152.1000   131.9404     9.1756     9.2031
  152.2000   131.9410     9.1394     9.2028
  152.3000   131.9416     9.1391     9.2026
  152.4000   131.9422     9.1388     9.2024
  152.5000   131.9428     9.1386     9.2021
  152.6000   131.9434     9.1383     9.2018
  152.7000   131.9440     9.1381     9.2016
  152.8000   131.9446     9.1378     9.2013
  152.9000   131.9453     9.1376     9.2011
  153.0000   131.9458     9.1344     9.2008
  153.1000   131.9464     9.0740     9.2006
  153.2000   131.9470     9.0738     9.2208
  153.3000   131.9476     9.0369     9.2640
  153.4000   131.9257     9.0107     9.2637
  153.5000   131.6476     9.0104     9.2634
  153.6000   131.6482     9.0178     9.2632
  153.7000   131.4648     9.0725     9.2630
  153.8000   131.3482     9.0944     9.2872
  153.9000   131.2580     9.1171     9.3268
  154.0000   131.0040     9.1398     9.3266
  154.1000   130.7476     9.1626     9.3263
  154.2000   130.4471     9.1853     9.3749
  154.3000   130.2420     9.2080     9.3906
  154.4000   129.8289     9.2308     9.3903
  154.5000   129.3203     9.2535     9.3901
  154.6000   128.8116     9.2762     9.3898
  154.7000   128.2645     9.2989     9.3895
  154.8000   127.1374     9.3217     9.4424
  154.9000   126.6834     9.3444     9.4974
  155.0000   125.9940     9.3671     9.5197
  155.1000   125.4990     9.3898     9.5195
  155.2000   125.1574     9.4126     9.5315
  155.3000   124.7306     9.4353     9.5871
  155.4000   124.7313     9.4653     9.6514
  155.5000   124.7319     9.5241     9.6511
  155.6000   124.7325     9.6508     9.7263
  155.7000   124.7331     9.7012     9.8126
  155.8000   124.7337     9.8000     9.8698
  155.9000   124.7970     9.8845     9.9336
  156.0000   125.0361     9.9651    10.0592
  156.1000   125.0368    10.0835    10.1132
  156.2000   125.0373    10.2011    10.1722
  156.3000   125.0379    10.2695    10.2645
  156.4000   125.0386    10.3221    10.3848
  156.5000   125.0392    10.4264    10.4954
  156.6000   125.0398    10.4842    10.5571
  156.7000   125.0404    10.4839    10.6301
  156.8000   125.0410    10.4955    10.7307
  156.9000   125.0416    10.5575    10.7778
  157.0000   124.8896    10.6292    10.8326
  157.1000   124.7416    10.6290    10.9595
  157.2000   124.7422    10.6287    11.0837
  157.3000   124.7299    10.6284    11.1563
  157.4000   124.4422    10.6281    11.2134
  157.5000   124.2219    10.6278    11.3246
  157.6000   123.9679    10.6275    11.4233
  157.7000   123.4584    10.6272    11.5116
  157.8000   122.6140    10.6269    11.6372
  157.9000   121.6998    10.6266    11.7085
  158.0000   121.4338    10.6263    11.7733
  158.1000   121.1918    10.6260    11.8419
  158.2000   121.1337    10.6257    11.8309
  158.3000   121.1343    10.6254    11.7617
  158.4000   121.1349    10.6251    11.7069
  158.5000   121.3091    10.6249    11.7065
  158.6000   122.0957    10.6246    11.7062
  158.7000   122.8824    10.6243    11.5926
  158.8000   123.6690    10.6240    11.5446
  158.9000   124.4556    10.6237    11.4823
  159.0000   125.2423    10.6234    11.3668
  159.1000   126.0289    10.6230    11.2943
  159.2000   126.8155    10.6228    11.1504
  159.3000   127.6022    10.6225    11.0914
  159.4000   128.3888    10.5636    10.9805
  159.5000   128.9659    10.4758    10.8527
  159.6000   129.3245    10.4594    10.7263
  159.7000   129.5787    10.3311    10.6014
  159.8000   129.7663    10.2722    10.4749
  159.9000   129.7627    10.2113    10.4151
  160.0000   129.7588    10.1507    10.3542
  160.1000   129.7554    10.0905    10.2575
  160.2000   129.7518    10.0138    10.1876
  160.3000   129.7482     9.9022    10.1874
  160.4000   129.7446     9.8404    10.1815
  160.5000   129.7410     9.7851    10.0466
  160.6000   129.7165     9.6825     9.9960
  160.7000   129.4322     9.6026     9.9375
  160.8000   129.1936     9.5210     9.8794
  160.9000   129.1241     9.4235     9.8043
  161.0000   128.9719     9.3620     9.6967
  161.1000   128.7104     9.2440     9.6362
  161.2000   128.4490     9.1929     9.5317
  161.3000   128.1875     9.1384     9.4208
  161.4000   127.9008     9.0524     9.3111
  161.5000   127.6647     8.9455     9.2027
  161.6000   127.4032     8.8399     9.0757
  161.7000   127.2880     8.7355     8.8655
  161.8000   127.2843     8.6238     8.6238
  161.9000   127.2807     8.5769     8.5825
  162.0000   127.2771     8.4885     8.5323
  162.1000   127.2731     8.4170     8.4604
  162.2000   127.2699     8.3670     8.3873
  162.3000   127.4534     8.3174     8.3834
  162.4000   127.7076     8.2680     8.3289
  162.5000   127.9618     8.2142     8.2856
  162.6000   128.2161     8.1702     8.2372
  162.7000   128.4568     8.1570     8.1890
  162.8000   128.4526     7.9809     8.1568
  162.9000   128.9056     7.9337     8.1496
  163.0000   129.4177     7.9335     8.1001
  163.1000   129.7884     7.9333     8.0546
  163.2000   130.0426     7.9018     8.0437
  163.3000   130.3514     7.8781     8.0159
  163.4000   130.8748     7.8626     7.9690
  163.5000   131.7405     7.8233     7.9324
  163.6000   132.4144     7.8231     7.9307
  163.7000   133.0020     7.8228     7.8772
  163.8000   133.7919     7.8227     7.8770
  163.9000   134.8197     7.7923     7.8465
  164.0000   135.9518     7.7683     7.8222
  164.1000   137.4952     7.7536     7.8220
  164.2000   139.2453     7.7142     7.8218
  164.3000   140.1354     7.7140     7.8216
  164.4000   140.9831     7.7137     7.8214
  164.5000   141.4799     7.7136     7.8211
  164.6000   141.6410     7.7134     7.8101
  164.7000   141.6373     7.7131     7.7901
