~VERSION INFORMATION
 VERS.                2.0:   CWLS LOG ASCII STANDARD - VERSION 2.0
 WRAP.                 NO:   ONE LINE PER DEPTH STEP
~WELL INFORMATION
#MNEM.UNIT      DATA TYPE    INFORMATION
#----------   ------------   ------------------------------
 STRT.F            0.0000:   START DEPTH
 STOP.F          523.0000:   STOP DEPTH
 STEP.F            0.1000:   STEP LENGTH
 NULL.          -999.2500:   NO VALUE
 COMP.       F D SERV INC:   COMPANY
 WELL. NAVAL PETROLEUM RESERVE 3 SX-3 #87-3:   WELL
 FLD .             TEAPOT:   FIELD
 LOC .       S3 T38N R78W:   LOCATION
 CNTY.            NATRONA:   COUNTY
 STAT.            WYOMING:   STATE
 CTRY. UNITED STATES OF AMERICA:   COUNTRY
 SRVC.      Western Atlas:   SERVICE COMPANY
 DATE.        22-NOV-1992:   LOGDATE
 API .       490252254300:   API NUMBER
~CURVE INFORMATION
#MNEM.UNIT       API CODE    CURVE DESCRIPTION
#----------   ------------   ------------------------------
 DEPT.F                  :   
 GRR .GAPI   07 310 01 00:   GAMMA RAY
 RILD.OHMM   07 120 46 00:   INDUCTION LOG DEEP RESISTIVITY
 RILM.OHMM   07 120 44 00:   INDUCTION LOG MEDIUM RESISTIVITY
~PARAMETER INFORMATION
#MNEM.UNIT          VALUE    DESCRIPTION
#----------   ------------   ------------------------------
 PD  .                 GL:   PERMANENT DATUM
 EPD .F              5129:   ELEVATION PERMANENT DATUM
 LMF .                 KB:   LOG MEASURED FROM
 DAPD.F                10:   FEET ABOVE PERMANENT DATUM
 DMF .                 KB:   DRILLING MEASURED FROM
 EKB .F              5139:   KELLING BUSHING
 EDF .F              5138:   DRILLING FLOOR
 EGL .F              5129:   GROUND LEVEL
 DATE.        22-NOV-1992:   RUN DATE
 RUN .                  1:   RUN NUMBER
 DD  .F               530:   DEPTH DRILLER
 DL  .F               531:   DEPTH LOGGER
 BLI .F               530:   BOTTOM LOG INTERVAL
 TLI .F                58:   TOP LOG INTERVAL
 CS  .IN            8.625:   CASING SIZE
 CBD .F                58:   CASING BOTTOM DRILLER
 CBL .F                58:   CASING BOTTOM LOGGER
 BS  .IN            7.875:   BIT SIZE
 BSD .F               530:   BIT SIZE AT DEPTH
 DFT .           AIR FOAM:   DRILLING FLUID TYPE
 MRT .F                73:   MAXIMUM RECORDED TEMPERATURE
 LUN .            HL-6274:   LOGGING UNIT NUMBER
 LUL .             CASPER:   LOGGING UNIT LOCATION
 ENGI.       P. RASMUSSEN:   RECORDING ENGINEER
 WITN.          G. STRONG:   WITNESSED BY
 CLNT.            A2DTECH:   CLIENT CODE
 ORIG.           5" PRINT:   ORIGIN OF DATA
 UWI .       490252254300:   UNIQUE WELL ID
 DICO. A2D Technologies, Inc.:   DIGITIZING COMPANY
~OTHER INFORMATION
~A    DEPT      GRR      RILD       RILM   
# ...
   91.0000   129.9708     7.7779     7.7995
   91.1000   130.2297     7.7770     7.7986
   91.2000   130.4567     7.7761     7.7978
   91.3000   131.2183     7.7753     7.7969
   91.4000   132.3139     7.7744     7.8410
   91.5000   133.4178     7.7736     7.8497
   91.6000   134.1630     7.7727     7.8738
   91.7000   135.6333     7.7718     7.9028
   91.8000   136.9096     7.7709     7.9020
   91.9000   138.2707     7.7701     7.9010
   92.0000   139.4188     7.7967     7.9400
   92.1000   139.8591     7.8405     7.9546
   92.2000   139.8561     7.8767     7.9537
   92.3000   140.0671     7.8756     7.9528
   92.4000   140.1532     7.8747     7.9519
   92.5000   140.1508     7.9069     7.9510
   92.6000   140.1484     7.9280     7.9501
   92.7000   140.1459     7.9271     7.9733
   92.8000   140.3768     7.9293     8.0040
   92.9000   140.4428     7.9807     8.0031
   93.0000   140.4404     7.9799     8.0021
   93.1000   140.3737     7.9790     8.0013
   93.2000   140.1339     7.9781     8.0004
   93.3000   140.1310     7.9772     7.9995
   93.4000   140.1291     7.9763     7.9986
   93.5000   140.1267     7.9754     7.9977
   93.6000   140.0398     7.9746     7.9968
   93.7000   139.8202     7.9737     7.9959
   93.8000   139.8175     7.9863     7.9951
   93.9000   139.8154     8.0311     7.9942
   94.0000   139.8130     8.0827     7.9955
   94.1000   139.7060     8.0819     8.0482
   94.2000   139.3132     8.1103     8.0475
   94.3000   138.2974     8.1366     8.0740
   94.4000   137.5830     8.1445     8.1019
   94.5000   137.2066     8.1917     8.1010
   94.6000   136.9589     8.1908     8.1000
   94.7000   136.8480     8.1899     8.1418
   94.8000   137.0789     8.1890     8.1550
   94.9000   137.0759     8.1880     8.1541
   95.0000   137.0739     8.1871     8.1532
   95.1000   137.2163     8.1861     8.1523
   95.2000   137.5478     8.1853     8.1988
   95.3000   138.0360     8.1844     8.2074
   95.4000   138.5723     8.1835     8.2065
   95.5000   139.0126     8.1918     8.2056
   95.6000   139.5009     8.2389     8.2047
   95.7000   140.0979     8.2379     8.2037
   95.8000   140.7268     8.2370     8.2029
   95.9000   140.9737     8.2612     8.2019
   96.0000   141.6953     8.2928     8.2217
   96.1000   142.0590     8.2918     8.2677
   96.2000   142.1731     8.2908     8.3143
   96.3000   142.0983     8.3311     8.3134
   96.4000   141.8181     8.3470     8.3125
   96.5000   140.9589     8.3461     8.3372
   96.6000   140.9569     8.3549     8.3688
   96.7000   140.6567     8.4026     8.3678
   96.8000   140.1636     8.4016     8.3668
   96.9000   139.6341     8.4007     8.4072
   97.0000   138.8354     8.3998     8.4236
   97.1000   138.3825     8.3988     8.4226
   97.2000   137.7205     8.4024     8.4217
   97.3000   137.2075     8.4555     8.4207
   97.4000   137.0160     8.4969     8.4198
   97.5000   137.0136     8.5129     8.4189
   97.6000   137.2566     8.5329     8.4424
   97.7000   137.8777     8.5705     8.4897
   97.8000   138.8764     8.5695     8.5371
   97.9000   140.0242     8.5686     8.5928
   98.0000   141.0036     8.6052     8.5921
   98.1000   142.1270     8.6266     8.6209
   98.2000   143.5888     8.6256     8.6502
   98.3000   144.9980     8.6246     8.6492
   98.4000   146.4152     8.6236     8.6482
   98.5000   148.0503     8.7099     8.6933
   98.6000   149.3549     8.7757     8.7419
   98.7000   150.7282     8.8249     8.7908
   98.8000   150.9873     8.8634     8.8272
   98.9000   150.7395     8.8624     8.8262
   99.0000   150.3710     8.8614     8.8867
   99.1000   149.6329     8.9390     8.8859
   99.2000   148.8940     9.0120     8.9143
   99.3000   148.3488     9.0456     8.9461
   99.4000   147.7190     9.0446     8.9516
   99.5000   147.0608     9.0435     9.0066
   99.6000   146.4957     9.0426     9.0057
   99.7000   145.1050     9.0415     9.0047
   99.8000   143.8241     9.0406     9.0037
   99.9000   140.7809     9.0396     9.0027
  100.0000   137.6571     9.0385     9.0017
  100.1000   136.0463     8.9862     9.0006
  100.2000   136.6466     8.9738     8.9996
  100.3000   136.8775     8.9161     8.9707
  100.4000   137.1205     8.8477     8.9352
  100.5000   137.2428     8.8467     8.9291
  100.6000   137.4333     8.8456     8.8709
  100.7000   138.1835     8.7998     8.8700
  100.8000   139.6484     8.7823     8.8691
  100.9000   140.4349     8.7589     8.8681
  101.0000   141.1322     8.7081     8.8671
  101.1000   141.5360     8.6575     8.8661
  101.2000   141.7511     8.6074     8.8164
  101.3000   141.7481     8.5958     8.8026
  101.4000   141.5288     8.5949     8.7756
  101.5000   141.1202     8.5772     8.7248
  101.6000   140.8362     8.5216     8.6743
  101.7000   140.8338     8.4142     8.6164
  101.8000   140.8313     8.3703     8.6156
  101.9000   140.8289     8.3540     8.5845
  102.0000   140.8266     8.3314     8.5348
  102.1000   140.8242     8.2831     8.4774
  102.2000   140.8217     8.2345     8.3748
  102.3000   140.8313     8.1403     8.3739
  102.4000   141.1181     8.1199     8.3390
  102.5000   141.3172     8.1190     8.2907
  102.6000   141.5602     8.1129     8.2428
  102.7000   141.7146     8.0973     8.1951
  102.8000   141.7443     8.0817     8.1389
  102.9000   142.0112     8.0660     8.1382
  103.0000   142.0091     8.0504     8.1101
  103.1000   142.1716     8.0348     8.0303
  103.2000   142.4145     8.0191     7.9055
  103.3000   142.7097     8.0035     7.8558
  103.4000   143.2060     7.9878     7.7740
  103.5000   143.2036     7.9722     7.7152
  103.6000   144.9976     7.9566     7.6906
  103.7000   147.0491     7.9409     7.6898
  103.8000   148.1713     7.9253     7.6889
  103.9000   148.9254     7.9097     7.6881
  104.0000   148.9230     7.8940     7.6872
  104.1000   148.9207     7.8784     7.6863
  104.2000   148.9183     7.8627     7.6855
  104.3000   148.8493     7.8471     7.6846
  104.4000   148.5926     7.8315     7.6837
  104.5000   148.0056     7.8158     7.6829
  104.6000   147.8062     7.8002     7.6821
  104.7000   147.2779     7.7846     7.6812
  104.8000   146.7922     7.7689     7.6803
  104.9000   146.7897     7.7533     7.6795
  105.0000   146.7870     7.7376     7.6786
  105.1000   146.7849     7.7220     7.7109
  105.2000   146.7825     7.7064     7.7306
  105.3000   146.7801     7.6907     7.7432
  105.4000   146.7777     7.6751     7.7831
  105.5000   146.7751     7.6595     7.7820
  105.6000   147.0045     7.6524     7.7812
  105.7000   147.2468     7.6515     7.8082
  105.8000   147.4891     7.6507     7.8339
  105.9000   147.7315     7.6497     7.8331
  106.0000   147.9777     7.6874     7.8322
  106.1000   148.4650     7.7302     7.8313
  106.2000   148.9520     7.7732     7.8304
  106.3000   149.1693     7.8081     7.8519
  106.4000   149.0888     7.8070     7.8835
  106.5000   148.8416     7.8487     7.8826
  106.6000   148.5583     7.8598     7.8816
  106.7000   148.3473     7.9035     7.8809
  106.8000   148.1002     7.9804     7.9069
  106.9000   147.9482     8.0247     7.9511
  107.0000   147.9457     8.0782     7.9956
  107.1000   147.9431     8.0775     8.0438
  107.2000   147.9408     8.0766     8.0430
  107.3000   147.9384     8.0757     8.0740
  107.4000   147.9360     8.0748     8.0974
  107.5000   147.9337     8.0738     8.0965
  107.6000   147.9312     8.0729     8.0956
  107.7000   147.4425     8.0720     8.0947
  107.8000   147.1369     8.0711     8.1305
  107.9000   146.8897     8.0786     8.1759
  108.0000   146.7149     8.1257     8.0626
  108.1000   146.6971     8.1249     8.1021
  108.2000   146.4080     8.1571     8.1179
  108.3000   145.7961     8.1799     8.1366
  108.4000   144.7666     8.1908     8.1737
  108.5000   143.6298     8.2352     8.1730
  108.6000   142.6486     8.2343     8.1725
  108.7000   141.5696     8.2704     8.1719
  108.8000   140.0244     8.2900     8.1713
  108.9000   138.6362     8.2891     8.1840
  109.0000   137.9427     8.2882     8.2274
  109.1000   137.9403     8.2871     8.2267
