~VERSION INFORMATION
 VERS.                2.0:   CWLS LOG ASCII STANDARD - VERSION 2.0
 WRAP.                 NO:   ONE LINE PER DEPTH STEP
~WELL INFORMATION
#MNEM.UNIT      DATA TYPE    INFORMATION
#----------   ------------   ------------------------------
 STRT.F           64.0000:   START DEPTH
 STOP.F          532.0000:   STOP DEPTH
 STEP.F            0.5000:   STEP LENGTH
 NULL.          -999.2500:   NO VALUE
 COMP.       F D SERV INC:   COMPANY
 WELL.  81-3 SX 10 #81-10:   WELL
 FLD .             TEAPOT:   FIELD
 LOC .      S10 T38N R78W:   LOCATION
 CNTY.            NATRONA:   COUNTY
 STAT.            WYOMING:   STATE
 CTRY. UNITED STATES OF AMERICA:   COUNTRY
 SRVC.     Atlas Wireline:   SERVICE COMPANY
 DATE.        29-JAN-1993:   LOGDATE
 API .       490252258400:   API NUMBER
~CURVE INFORMATION
#MNEM.UNIT       API CODE    CURVE DESCRIPTION
#----------   ------------   ------------------------------
 DEPT.F                  :   
 C13 .IN     45 280 13 00:   
 ZCOR.G/C3   45 356 01 00:   DENSITY CORRECTION
 ZDEN.G/C3   45 350 01 00:   BULK DENSITY
 GRD .GAPI   45 310 01 00:   GAMMA RAY FROM DENSITY LOG
 PORS.DEC    42 890 00 00:   
 PORZ.DEC    45 890 00 00:   DENSITY POROSITY
 RILD.OHMM   07 120 46 00:   INDUCTION LOG DEEP RESISTIVITY
 RILM.OHMM   07 120 44 00:   INDUCTION LOG MEDIUM RESISTIVITY
~PARAMETER INFORMATION
#MNEM.UNIT          VALUE    DESCRIPTION
#----------   ------------   ------------------------------
 PD  .                 GL:   PERMANENT DATUM
 EPD .F              5161:   ELEVATION PERMANENT DATUM
 LMF .                 KB:   LOG MEASURED FROM
 DAPD.F                10:   FEET ABOVE PERMANENT DATUM
 DMF .                 KB:   DRILLING MEASURED FROM
 EKB .F              5171:   KELLING BUSHING
 EDF .F              5170:   DRILLING FLOOR
 EGL .F              5161:   GROUND LEVEL
 DATE.        29-JAN-1993:   RUN DATE
 RUN .                  1:   RUN NUMBER
 DD  .F               536:   DEPTH DRILLER
 DL  .F               536:   DEPTH LOGGER
 BLI .F               527:   BOTTOM LOG INTERVAL
 TLI .F                96:   TOP LOG INTERVAL
 CS  .IN            8.625:   CASING SIZE
 CBD .F                96:   CASING BOTTOM DRILLER
 CBL .F                96:   CASING BOTTOM LOGGER
 BS  .IN            7.875:   BIT SIZE
 BSD .F               536:   BIT SIZE AT DEPTH
 DFT .                AIR:   DRILLING FLUID TYPE
 MRT .F                65:   MAXIMUM RECORDED TEMPERATURE
 LUN .            HL-6274:   LOGGING UNIT NUMBER
 LUL .             CASPER:   LOGGING UNIT LOCATION
 ENGI.        P.RASMUSSEN:   RECORDING ENGINEER
 WITN.           G.STRONG:   WITNESSED BY
 CLNT.            A2DTECH:   CLIENT CODE
 ORIG.           5" PRINT:   ORIGIN OF DATA
 UWI .       490252258400:   UNIQUE WELL ID
 DICO. A2D Technologies, Inc.:   DIGITIZING COMPANY
~OTHER INFORMATION
~A   DEPT      C13       ZCOR       ZDEN        GRD       PORS       PORZ       RILD       RILM   
# ...
  266.5000     8.2873    -0.0047     2.4285   168.6775     0.3102     0.1394     4.8696     4.8816
  267.0000     8.2871    -0.0047     2.4498   170.7775     0.3003     0.1265     5.0064     5.0898
  267.5000     8.2718    -0.0047     2.4676   170.1645     0.3003     0.1099     5.2551     5.3809
  268.0000     8.2865    -0.0077     2.4789   168.9513     0.3003     0.1033     5.5930     5.7282
  268.5000     8.2862    -0.0107     2.4819   168.3323     0.3003     0.1018     6.0357     6.1404
  269.0000     8.2859    -0.0106     2.4826   167.7275     0.3015     0.1009     6.4733     6.5825
  269.5000     8.2856    -0.0076     2.4834   168.9238     0.3075     0.1006     6.8845     6.8156
  270.0000     8.3003    -0.0046     2.4857   172.8310     0.3096     0.1000     7.0779     7.1556
  270.5000     8.3000    -0.0016     2.4880   177.3386     0.3081     0.0985     7.2264     7.3070
  271.0000     8.2997     0.0014     2.4887   178.8383     0.3087     0.0990     7.3781     7.4103
  271.5000     8.2993    -0.0001     2.4849   178.2253     0.3105     0.1014     7.4294     7.5148
  272.0000     8.2991    -0.0091     2.4812   177.6144     0.3099     0.1026     7.5330     7.5157
  272.5000     8.2988    -0.0135     2.4804   177.6039     0.3087     0.1026     7.5854     7.6220
  273.0000     8.2984    -0.0090     2.4812   175.7882     0.3087     0.1008     7.6912     7.7294
  273.5000     8.2982    -0.0045     2.4850   172.7677     0.3090     0.0981     7.8526     7.8384
  274.0000     8.2979    -0.0111     2.4887   170.3172     0.3118     0.0972     7.9072     7.8394
  274.5000     8.2976    -0.0194     2.4887   169.1364     0.3135     0.0969     7.9072     7.8407
  275.0000     8.2973    -0.0239     2.4842   171.5354     0.3132     0.1020     7.8526     7.8417
  275.5000     8.3120    -0.0284     2.4812   172.7319     0.3129     0.1037     7.7446     7.8427
  276.0000     8.3117    -0.0134     2.4827   172.1189     0.3153     0.1007     7.6912     7.8438
  276.5000     8.3114     0.0015     2.4873   171.5080     0.3177     0.0980     7.6381     7.7908
  277.0000     8.3111    -0.0074     2.4888   171.4995     0.3205     0.0974     7.6381     7.7377
  277.5000     8.3259    -0.0179     2.4888   173.0171     0.3223     0.0971     7.6567     7.6321
  278.0000     8.3105    -0.0223     2.4865   175.0950     0.3232     0.1022     7.6912     7.6865
  278.5000     8.3102    -0.0284     2.4798   176.2935     0.3205     0.1091     7.7446     7.6877
  279.0000     8.2949    -0.0313     2.4715   177.1866     0.3189     0.1124     7.7446     7.7422
  279.5000     8.3096    -0.0283     2.4633   176.2724     0.3189     0.1121     7.7446     7.7432
  280.0000     8.3093    -0.0238     2.4648   174.4567     0.3202     0.1102     7.7446     7.7445
  280.5000     8.3090    -0.0252     2.4685   172.6410     0.3223     0.1093     7.6912     7.6388
  281.0000     8.3087    -0.0267     2.4693   171.1185     0.3229     0.1096     7.6381     7.4308
  281.5000     8.3083    -0.0312     2.4693   170.2124     0.3195     0.1096     7.3272     7.1283
  282.0000     8.3081    -0.0342     2.4693   174.1196     0.3177     0.1087     6.8845     6.8394
  282.5000     8.3078    -0.0342     2.4716   178.0268     0.3174     0.1078     6.4239     6.6071
  283.0000     8.3177    -0.0282     2.4701   181.0283     0.3247     0.1099     6.2053     6.4719
  283.5000     8.3222    -0.0192     2.4603   182.2247     0.3388     0.1183     6.1624     6.4280
  284.0000     8.3219    -0.0117     2.4445   182.8208     0.3460     0.1309     6.2053     6.3844
  284.5000     8.3066    -0.0042     2.4302   183.4127     0.3427     0.1330     6.1199     6.2973
  285.0000     8.3063     0.0033     2.4385   182.1973     0.3343     0.1240     6.0357     6.0836
  285.5000     8.3059     0.0063     2.4528   179.4780     0.3298     0.1110     5.9467     5.8366
  286.0000     8.2907     0.0003     2.4701   177.3611     0.3265     0.0987     5.7104     5.6384
  286.5000     8.2904    -0.0041     2.4851   174.9106     0.3256     0.0987     5.3654     5.3348
  287.0000     8.3051    -0.0041     2.4859   174.3321     0.3259     0.1011     4.9719     5.1895
  287.5000     8.3048    -0.0026     2.4769   176.4300     0.3304     0.1077     4.6392     5.0483
  288.0000     8.3045    -0.0131     2.4510   176.4216     0.3436     0.1248     4.7039     5.0490
  288.5000     8.3042    -0.0220     2.3958   174.3026     0.3592     0.1518     4.8696     5.0497
  289.0000     8.3039     0.0019     2.3657   173.3905     0.3580     0.1683     5.0762     5.1230
  289.5000     8.3036     0.0273     2.3454   173.9845     0.3436     0.1858     5.2551     5.3393
  290.0000     8.3033     0.0303     2.3913   174.5785     0.3269     0.1722     5.4027     5.6057
  290.5000     8.3030     0.0045     2.4319   173.3631     0.3189     0.1361     5.6319     5.9675
  291.0000     8.3027    -0.0055     2.4604   171.5474     0.3189     0.1163     6.0008     6.2341
  291.5000     8.3024    -0.0100     2.4750   172.4426     0.3186     0.1034     6.5135     6.5779
  292.0000     8.3021    -0.0144     2.4815   173.9402     0.3141     0.1021     6.7898     6.8583
  292.5000     8.2868    -0.0204     2.4815   173.0260     0.3123     0.1021     7.0779     7.0521
  293.0000     8.2865    -0.0249     2.4770   172.7163     0.3135     0.1045     7.2264     7.2016
  293.5000     8.2869    -0.0249     2.4740   173.0091     0.3159     0.1063     7.0779     7.1033
  294.0000     8.3009    -0.0189     2.4785   173.6030     0.3132     0.1039     6.7898     6.9098
  294.5000     8.3006    -0.0129     2.4883   171.1829     0.3087     0.0982     6.3795     6.6724
  295.0000     8.3003    -0.0158     2.4905   170.2708     0.3072     0.0964     5.8708     6.0585
  295.5000     8.3000    -0.0248     2.4800   171.7663     0.3129     0.1021     5.3284     5.4606
  296.0000     8.2997    -0.0203     2.4462   180.4928     0.3352     0.1186     5.1828     5.1308
  296.5000     8.2994    -0.0038     2.4094   184.4000     0.3487     0.1421     5.1115     5.0258
  297.0000     8.2990     0.0126     2.3936   184.3915     0.3400     0.1531     5.1470     5.0616
  297.5000     8.2988     0.0111     2.4087   178.3569     0.3265     0.1417     5.2916     5.1330
  298.0000     8.2985     0.0052     2.4365   172.3243     0.3202     0.1209     5.4402     5.3518
  298.5000     8.2982    -0.0038     2.4603   170.5087     0.3168     0.1092     5.7104     5.9395
  299.0000     8.2979    -0.0129     2.4801   172.7050     0.3086     0.1020     6.0777     6.4558
  299.5000     8.2976    -0.0202     2.4936   175.9114     0.3036     0.0929     6.4685     6.7779
  300.0000     8.2973    -0.0172     2.5071   174.9998     0.3003     0.0854     7.0779     7.0180
  300.5000     8.2970    -0.0082     2.5117   174.0933     0.2991     0.0824     7.3792     7.3179
  301.0000     8.2967    -0.0022     2.5124   173.4874     0.2970     0.0827     7.6404     7.5253
  301.5000     8.2964     0.0008     2.5123   171.6774     0.2952     0.0836     7.8018     7.7385
  302.0000     8.3111     0.0024     2.5110   168.6625     0.2931     0.0851     7.9117     7.8481
  302.5000     8.3108    -0.0036     2.5102   165.6275     0.2916     0.0851     7.9127     7.8500
  303.0000     8.3105    -0.0066     2.5117   165.0417     0.2907     0.0824     7.9769     7.8515
  303.5000     8.3102     0.0025     2.5148   165.3408     0.2920     0.0818     8.0254     7.9628
  304.0000     8.3099     0.0055     2.5148   165.6384     0.2943     0.0829     8.0822     7.9703
  304.5000     8.3096    -0.0020     2.5095   165.6737     0.2958     0.0859     8.1395     8.0775
  305.0000     8.3093    -0.0064     2.5050   166.8369     0.2965     0.0886     8.1406     8.1353
  305.5000     8.3240    -0.0109     2.5013   167.7377     0.2968     0.0907     8.1418     8.1935
  306.0000     8.3237    -0.0168     2.4983   168.0682     0.2956     0.0919     8.1429     8.1955
  306.5000     8.3152    -0.0183     2.4968   164.4181     0.2926     0.0919     8.1440     8.1971
