~VERSION INFORMATION
 VERS.                2.0:   CWLS LOG ASCII STANDARD - VERSION 2.0
 WRAP.                 NO:   ONE LINE PER DEPTH STEP
~WELL INFORMATION
#MNEM.UNIT      DATA TYPE    INFORMATION
#----------   ------------   ------------------------------
 STRT.F            0.0000:   START DEPTH
 STOP.F          464.0000:   STOP DEPTH
 STEP.F            0.5000:   STEP LENGTH
 NULL.          -999.2500:   NO VALUE
 COMP. BROWN JOHN E&C INC:   COMPANY
 WELL. NPR 3 SX-10 #64-3-10:   WELL
 FLD .             TEAPOT:   FIELD
 LOC .      S10 T38N R78W:   LOCATION
 CNTY.            NATRONA:   COUNTY
 STAT.            WYOMING:   STATE
 CTRY. UNITED STATES OF AMERICA:   COUNTRY
 SRVC.     Atlas Wireline:   SERVICE COMPANY
 DATE.        14-MAY-1991:   LOGDATE
 API .       490251133800:   API NUMBER
~CURVE INFORMATION
#MNEM.UNIT       API CODE    CURVE DESCRIPTION
#----------   ------------   ------------------------------
 DEPT.F                  :   
 RILD.OHMM   07 120 46 00:   INDUCTION LOG DEEP RESISTIVITY
 RILM.OHMM   07 120 44 00:   INDUCTION LOG MEDIUM RESISTIVITY
 GRR .GAPI   07 310 01 00:   GAMMA RAY
~PARAMETER INFORMATION
#MNEM.UNIT          VALUE    DESCRIPTION
#----------   ------------   ------------------------------
 PD  .                 GL:   PERMANENT DATUM
 EPD .F              5182:   ELEVATION PERMANENT DATUM
 LMF .                 KB:   LOG MEASURED FROM
 DAPD.F                 5:   FEET ABOVE PERMANENT DATUM
 DMF .                 KB:   DRILLING MEASURED FROM
 EKB .F              5187:   KELLING BUSHING
 EGL .F              5182:   GROUND LEVEL
 DATE.        01-MAY-1991:   RUN DATE
 RUN .                  1:   RUN NUMBER
 DD  .F               470:   DEPTH DRILLER
 DL  .F               470:   DEPTH LOGGER
 BLI .F               468:   BOTTOM LOG INTERVAL
 CS  .IN            8.625:   CASING SIZE
 CBD .F                45:   CASING BOTTOM DRILLER
 CBL .F                45:   CASING BOTTOM LOGGER
 BS  .IN            7.875:   BIT SIZE
 BSD .F               470:   BIT SIZE AT DEPTH
 DFT .                AIR:   DRILLING FLUID TYPE
 LUN .           HL- 6272:   LOGGING UNIT NUMBER
 LUL .             CASPER:   LOGGING UNIT LOCATION
 ENGI.             KINNET:   RECORDING ENGINEER
 WITN.             STRONG:   WITNESSED BY
 CLNT.            A2DTECH:   CLIENT CODE
 ORIG.           5" PRINT:   ORIGIN OF DATA
 UWI .       490251133800:   UNIQUE WELL ID
 DICO. A2D Technologies, Inc.:   DIGITIZING COMPANY
~OTHER INFORMATION
~A    DEPT    RILD       RILM         GRR  
    0.0000  -999.2500  -999.2500    28.8636
    0.5000  -999.2500  -999.2500    30.6844
    1.0000  -999.2500  -999.2500    28.6411
    1.5000  -999.2500  -999.2500    24.7796
    2.0000  -999.2500  -999.2500    20.6913
    2.5000  -999.2500  -999.2500    19.1025
    3.0000  -999.2500  -999.2500    17.9682
    3.5000  -999.2500  -999.2500    18.6526
    4.0000  -999.2500  -999.2500    24.7911
    4.5000  -999.2500  -999.2500    34.1114
    5.0000  -999.2500  -999.2500    42.5229
    5.5000  -999.2500  -999.2500    53.4341
    6.0000  -999.2500  -999.2500    64.3458
    6.5000  -999.2500  -999.2500    63.8934
    7.0000  -999.2500  -999.2500    62.9864
    7.5000  -999.2500  -999.2500    63.4436
    8.0000  -999.2500  -999.2500    64.1275
    8.5000  -999.2500  -999.2500    63.4478
    9.0000  -999.2500  -999.2500    62.5413
    9.5000  -999.2500  -999.2500    61.4070
   10.0000  -999.2500  -999.2500    60.0455
   10.5000  -999.2500  -999.2500    58.6840
   11.0000  -999.2500  -999.2500    58.6866
   11.5000  -999.2500  -999.2500    63.9160
   12.0000  -999.2500  -999.2500    66.1913
   12.5000  -999.2500  -999.2500    66.6479
   13.0000  -999.2500  -999.2500    67.7864
   13.5000  -999.2500  -999.2500    65.5163
   14.0000  -999.2500  -999.2500    65.7457
   14.5000  -999.2500  -999.2500    66.8841
   15.0000  -999.2500  -999.2500    65.7504
   15.5000  -999.2500  -999.2500    62.5707
   16.0000  -999.2500  -999.2500    60.5273
   16.5000  -999.2500  -999.2500    58.9390
   17.0000  -999.2500  -999.2500    61.6684
   17.5000  -999.2500  -999.2500    63.2614
   18.0000  -999.2500  -999.2500    61.4459
   18.5000  -999.2500  -999.2500    60.5389
   19.0000  -999.2500  -999.2500    60.0864
   19.5000  -999.2500  -999.2500    59.8613
   20.0000  -999.2500  -999.2500    60.5457
   20.5000  -999.2500  -999.2500    62.1387
   21.0000  -999.2500  -999.2500    66.6868
   21.5000  -999.2500  -999.2500    69.8707
   22.0000  -999.2500  -999.2500    70.5546
   22.5000  -999.2500  -999.2500    72.3754
   23.0000  -999.2500  -999.2500    75.1048
   23.5000  -999.2500  -999.2500    77.8342
   24.0000  -999.2500  -999.2500    78.5181
   24.5000  -999.2500  -999.2500    75.1116
   25.0000  -999.2500  -999.2500    72.6137
   25.5000  -999.2500  -999.2500    71.7067
   26.0000  -999.2500  -999.2500    77.3912
   26.5000  -999.2500  -999.2500    81.7115
   27.0000  -999.2500  -999.2500    85.8050
   27.5000  -999.2500  -999.2500    85.1253
   28.0000  -999.2500  -999.2500    78.9910
   28.5000  -999.2500  -999.2500    78.3113
   29.0000  -999.2500  -999.2500    79.6776
   29.5000  -999.2500  -999.2500    77.8615
   30.0000  -999.2500  -999.2500    76.9545
   30.5000  -999.2500  -999.2500    77.8662
   31.0000  -999.2500  -999.2500    79.2319
   31.5000  -999.2500  -999.2500    79.4614
   32.0000  -999.2500  -999.2500    78.3276
   32.5000  -999.2500  -999.2500    77.6478
   33.0000  -999.2500  -999.2500    77.6500
   33.5000  -999.2500  -999.2500    81.2889
   34.0000  -999.2500  -999.2500    82.6547
   34.5000  -999.2500  -999.2500    82.6333
   35.0000  -999.2500  -999.2500    80.6139
   35.5000  -999.2500  -999.2500    78.1160
   36.0000  -999.2500  -999.2500    76.2788
   36.5000  -999.2500  -999.2500    75.3935
   37.0000  -999.2500  -999.2500    74.4865
   37.5000  -999.2500  -999.2500    73.3333
   38.0000  -999.2500  -999.2500    72.4452
   38.5000  -999.2500  -999.2500    72.2201
   39.0000  -999.2500  -999.2500    72.4500
   39.5000  -999.2500  -999.2500    73.8162
   40.0000  -999.2500  -999.2500    78.8183
   40.5000  -999.2500  -999.2500    82.2727
   41.0000  -999.2500  -999.2500    87.0049
   41.5000  -999.2500  -999.2500    88.1433
   42.0000  -999.2500  -999.2500    88.1576
   42.5000  -999.2500  -999.2500    89.0571
   43.0000  -999.2500  -999.2500    89.9683
   43.5000  -999.2500  -999.2500    92.7273
   44.0000  -999.2500  -999.2500    98.1549
   44.5000  -999.2500  -999.2500   125.2024
   45.0000     2.2113   959.9155   130.2273
   45.5000     1.4098     3.8748   132.7072
   46.0000     1.6192     5.6763   134.0729
   46.5000     2.4533     5.9941   132.4628
   47.0000     5.5930     7.9072   131.3498
   47.5000    14.0490    10.7239   137.7161
   48.0000    27.1244    12.4887   144.3091
   48.5000     8.6521    13.0186   141.1299
   49.0000     5.2188     9.8688   135.9047
   49.5000     4.9375     8.3576   132.7220
   50.0000     4.9375     9.6659   129.1919
   50.5000     4.9719    10.2165   127.5543
   51.0000     5.0600    10.1878   127.4955
   51.5000     5.0976     9.3909   131.1364
   52.0000     6.0157     5.9723   133.6364
   52.5000     6.3599     6.3136   133.4091
   53.0000     6.1007     5.8087   133.1818
   53.5000     5.4974     5.7285   135.9091
   54.0000     5.0231     5.9310   139.7727
   54.5000     4.9541     6.0981   138.6364
   55.0000     5.0941     5.8087   125.2273
   55.5000     5.3855     5.7285   122.3683
   56.0000     5.6151     5.7685   129.3182
   56.5000     5.7737     5.9310   129.5455
   57.0000     5.8549     6.1834   130.6818
   57.5000     5.9372     6.5367   135.9091
   58.0000     6.1049     6.7677   139.5455
   58.5000     6.2773     6.8149   140.6818
   59.0000     6.5005     6.9594   138.4091
   59.5000     6.6867     7.1087   128.1385
   60.0000     6.8370     7.2612   122.6817
   60.5000     7.2652     7.4589   124.4977
   61.0000     7.5225     7.7225   126.3136
   61.5000     7.7349     7.9954   126.7659
   62.0000     7.9534     8.2780   126.9909
   62.5000     8.1780     8.6302   126.9886
   63.0000     8.4676     8.9352   126.6955
   63.5000     8.8286     9.2510   121.5291
   64.0000     9.1412     9.5116   118.5723
   64.5000     9.3994     9.9164   120.8428
   65.0000     9.6649    10.3384   129.0224
   65.5000    10.0071    10.7784   131.5201
   66.0000    10.3614    11.2371   129.9270
   66.5000    10.6541    11.6342   123.5611
   67.0000    10.8792    12.0453   116.2861
   67.5000    11.1090    12.2990   113.5572
   68.0000    11.4260    12.5614   115.3731
   68.5000    11.7454    12.7336   113.0976
   69.0000    11.9105    12.7336   109.9135
   69.5000    11.9115    12.7336   108.3204
   70.0000    11.9124    12.6455   108.0909
   70.5000    11.9132    12.5579   108.9977
   71.0000    11.7496    12.4710   112.7061
   71.5000    11.6691    12.3847   120.3487
   72.0000    11.5889    12.2990   131.0365
   72.5000    11.4298    12.1293   130.3518
   73.0000    11.3517    11.8792   123.7587
   73.5000    11.1958    11.5537   118.5292
   74.0000    10.9657    11.2371   116.9366
   74.5000    10.7403    10.9292   116.7065
   75.0000    10.5195    10.9292   114.6588
   75.5000    10.3751    11.0820   115.1111
   76.0000    10.2327    11.2371   116.0180
   76.5000    10.2334    11.3946   117.1521
   77.0000    10.3773    11.5537   120.1044
   77.5000    10.4503    11.6342   123.5112
   78.0000    10.4510    11.6342   124.4182
   78.5000    10.4519    11.5537   120.5522
   79.0000    10.4526    11.3943   114.4136
   79.5000    10.3091    11.2371   107.3636
   80.0000    10.2383    11.1593   108.1061
   80.5000    10.1681    10.9292   111.9038
   81.0000    10.2399    10.7784   117.7500
   81.5000    10.2406    10.6297   121.4473
   82.0000    10.1704    10.5561   121.6729
   82.5000     9.9613    10.4105   120.3064
   83.0000     9.8246    10.3384   120.0769
   83.5000     9.6895    10.1252   121.8929
   84.0000     9.5567     9.9855   121.4361
   84.5000     9.4255    10.0551   120.0702
   85.0000     9.3609    10.0551   118.9316
   85.5000     9.2967    10.1269   117.1112
   86.0000     9.3622    10.3384   115.5180
   86.5000     9.3628    10.3384   114.3794
   87.0000     9.2986    10.0551   112.5590
   87.5000     9.2994     9.7796   112.0644
   88.0000     9.3001     9.6447   114.6000
   88.5000     9.3007     9.5116   118.9296
   89.0000     9.2370     9.4458   120.0500
   89.5000     9.1735     9.5116   117.6773
   90.0000     9.1106     9.5116   114.3632
   90.5000     9.0482     9.5779   113.4519
