~VERSION INFORMATION
 VERS.                2.0:   CWLS LOG ASCII STANDARD - VERSION 2.0
 WRAP.                 NO:   ONE LINE PER DEPTH STEP
~WELL INFORMATION
#MNEM.UNIT      DATA TYPE    INFORMATION
#----------   ------------   ------------------------------
 STRT.F            0.0000:   START DEPTH
 STOP.F          666.0000:   STOP DEPTH
 STEP.F            0.1000:   STEP LENGTH
 NULL.          -999.2500:   NO VALUE
 COMP.   FLUOR DANIEL INC:   COMPANY
 WELL.   77-2 X 34 #77-34:   WELL
 FLD .             TEAPOT:   FIELD
 LOC .      S34 T39N R78W:   LOCATION
 CNTY.            NATRONA:   COUNTY
 STAT.            WYOMING:   STATE
 CTRY. UNITED STATES OF AMERICA:   COUNTRY
 SRVC.      Western Atlas:   SERVICE COMPANY
 DATE.        01-APR-1995:   LOGDATE
 API .       490252270000:   API NUMBER
~CURVE INFORMATION
#MNEM.UNIT       API CODE    CURVE DESCRIPTION
#----------   ------------   ------------------------------
 DEPT.F                  :   
 GRR .GAPI   07 310 01 00:   GAMMA RAY
 RILD.OHMM   07 120 46 00:   INDUCTION LOG DEEP RESISTIVITY
 RILM.OHMM   07 120 44 00:   INDUCTION LOG MEDIUM RESISTIVITY
~PARAMETER INFORMATION
#MNEM.UNIT          VALUE    DESCRIPTION
#----------   ------------   ------------------------------
 PD  .                 GL:   PERMANENT DATUM
 EPD .F              5106:   ELEVATION PERMANENT DATUM
 LMF .                 KB:   LOG MEASURED FROM
 DAPD.F                10:   FEET ABOVE PERMANENT DATUM
 DMF .                 KB:   DRILLING MEASURED FROM
 EKB .F              5116:   KELLING BUSHING
 EDF .F              5115:   DRILLING FLOOR
 EGL .F              5106:   GROUND LEVEL
 DATE.        01-APR-1995:   RUN DATE
 RUN .                  1:   RUN NUMBER
 DD  .F               674:   DEPTH DRILLER
 DL  .F               674:   DEPTH LOGGER
 BLI .F               666:   BOTTOM LOG INTERVAL
 TLI .F                52:   TOP LOG INTERVAL
 CS  .IN            9.625:   CASING SIZE
 CBD .F                52:   CASING BOTTOM DRILLER
 CBL .F                52:   CASING BOTTOM LOGGER
 BS  .IN             8.75:   BIT SIZE
 BSD .F               674:   BIT SIZE AT DEPTH
 DFT .                AIR:   DRILLING FLUID TYPE
 MRT .F                89:   MAXIMUM RECORDED TEMPERATURE
 LUN .            HL 6530:   LOGGING UNIT NUMBER
 LUL .             CASPER:   LOGGING UNIT LOCATION
 ENGI.      PAT RASMUSSEN:   RECORDING ENGINEER
 WITN.        GARY STRONG:   WITNESSED BY
 CLNT.            A2DTECH:   CLIENT CODE
 ORIG.           5" PRINT:   ORIGIN OF DATA
 UWI .       490252270000:   UNIQUE WELL ID
 DICO. A2D Technologies, Inc.:   DIGITIZING COMPANY
~OTHER INFORMATION
~A    DEPT      GRR      RILD       RILM   
# ...
  254.8000   127.4200     9.3210     9.5137
  254.9000   127.1690     9.3210     9.5139
  255.0000   127.0287     9.3210     9.4483
  255.1000   127.0293     9.3210     9.4485
  255.2000   127.0194     9.3210     9.4488
  255.3000   126.7289     9.3210     9.4490
  255.4000   126.7294     9.3210     9.4375
  255.5000   126.7300     9.3210     9.3840
  255.6000   126.8424     9.3210     9.3843
  255.7000   127.0947     9.3210     9.3846
  255.8000   127.3585     9.3210     9.3848
  255.9000   127.9392     9.3210     9.3851
  256.0000   128.5791     9.3210     9.3853
  256.1000   129.1714     9.3210     9.3856
  256.2000   129.6751     9.3210     9.3859
  256.3000   130.1789     9.3210     9.3861
  256.4000   130.6955     9.3210     9.4222
  256.5000   131.5627     9.3432     9.4522
  256.6000   131.9919     9.3978     9.4524
  256.7000   132.4957     9.4519     9.4527
  256.8000   132.8853     9.4519     9.4530
  256.9000   133.0091     9.4519     9.5014
  257.0000   132.7722     9.4863     9.5195
  257.1000   132.7729     9.5180     9.5465
  257.2000   132.5578     9.5180     9.5865
  257.3000   132.1414     9.5180     9.5919
  257.4000   131.7543     9.5180     9.6539
  257.5000   131.3726     9.5646     9.6542
  257.6000   130.6337     9.5846     9.6940
  257.7000   130.0616     9.5599     9.7221
  257.8000   129.6286     9.5043     9.7224
  257.9000   129.2927     9.4490     9.7227
  258.0000   128.9251     9.3862     9.7230
  258.1000   128.4225     9.3395     9.7232
  258.2000   127.9035     9.3210     9.7235
  258.3000   127.0486     9.3210     9.7237
  258.4000   126.8312     9.3210     9.7240
  258.5000   126.4122     9.3210     9.7243
  258.6000   125.9096     9.3210     9.7246
  258.7000   125.4749     9.3210     9.7248
  258.8000   125.2062     9.3210     9.7251
  258.9000   124.6390     9.3210     9.6941
  259.0000   124.4203     9.3210     9.6582
  259.1000   124.3385     9.3210     9.6585
  259.2000   124.2200     9.3210     9.6588
  259.3000   124.0380     9.3210     9.6048
  259.4000   124.0386     9.3210     9.5923
  259.5000   124.0393     9.3210     9.5926
  259.6000   124.2602     9.3210     9.5716
  259.7000   124.3421     9.3210     9.5266
  259.8000   124.3427     9.3210     9.5269
  259.9000   124.4135     9.3210     9.4723
  260.0000   124.6456     9.3210     9.4614
  260.1000   124.6462     9.3210     9.4616
  260.2000   124.8684     9.3210     9.4396
  260.3000   125.1206     9.3210     9.3966
  260.4000   125.3728     9.3210     9.3960
  260.5000   125.6964     9.3210     9.3320
  260.6000   126.2215     9.3210     9.3322
  260.7000   127.0631     9.3210     9.2986
  260.8000   127.9550     9.3210     9.2449
  260.9000   128.9620     9.3130     9.2040
  261.0000   129.9689     9.2562     9.2043
  261.1000   130.9758     9.2562     9.2046
  261.2000   132.0053     9.2562     9.2048
  261.3000   133.4016     9.2562     9.1704
  261.4000   134.2980     9.2562     9.1415
  261.5000   135.1311     9.2472     9.1418
  261.6000   135.7626     9.1919     9.1386
  261.7000   136.2664     9.1919     9.0789
  261.8000   136.7228     9.1919     9.0791
  261.9000   136.7234     9.1919     9.0794
  262.0000   136.7240     9.1919     9.0545
  262.1000   136.7246     9.1919     9.0170
  262.2000   136.7252     9.1919     9.0172
  262.3000   136.5757     9.1919     9.0175
  262.4000   136.0731     9.1495     9.0177
  262.5000   135.5204     9.1281     9.0180
  262.6000   134.3889     9.1281     9.0447
  262.7000   133.1316     9.1281     9.0814
  262.8000   132.0006     9.1281     9.0817
  262.9000   130.8425     9.1281     9.0819
  263.0000   129.3336     9.1281     9.0822
  263.1000   127.6809     9.1281     9.0824
  263.2000   126.7710     9.1281     9.0827
  263.3000   126.1202     9.1281     9.1005
  263.4000   125.7452     9.1281     9.1466
  263.5000   125.8815     9.1281     9.1469
  263.6000   126.8611     9.1281     9.1471
  263.7000   127.6845     9.1620     9.1474
  263.8000   128.1429     9.1919     9.1476
  263.9000   128.4678     9.1919     9.1479
  264.0000   128.7199     9.1919     9.1397
  264.1000   128.8935     9.1919     9.0850
  264.2000   128.8941     9.1919     9.0852
  264.3000   128.8948     9.1919     9.0855
  264.4000   128.8953     9.1919     9.0857
  264.5000   128.8959     9.1919     9.0860
  264.6000   128.8965     9.1919     9.0862
  264.7000   128.8173     9.1919     9.0865
  264.8000   128.5960     9.1919     9.0867
  264.9000   128.5967     9.1919     9.0870
  265.0000   128.8286     9.1919     9.0872
  265.1000   128.8996     9.1919     9.0875
  265.2000   129.0313     9.1919     9.0768
  265.3000   129.2834     9.1919     9.0250
  265.4000   129.5666     9.1444     9.0253
  265.5000   130.1086     9.1281     9.0255
  265.6000   130.5741     9.1017     9.0257
  265.7000   130.8955     9.0646     9.0260
  265.8000   131.1477     9.0591     9.0142
  265.9000   131.3176     9.0017     8.9639
  266.0000   131.3183     9.0017     8.9642
  266.1000   131.3189     9.0017     8.9644
  266.2000   131.0858     9.0017     8.9647
  266.3000   130.8348     9.0017     8.9649
  266.4000   130.7173     9.0017     8.9652
  266.5000   130.6345     9.0017     8.9654
  266.6000   130.4168     9.0017     8.9657
  266.7000   130.4175     9.0017     8.9659
  266.8000   130.4181     9.0017     8.9662
  266.9000   130.4187     9.0017     8.9664
  267.0000   130.4193     9.0017     8.9667
  267.1000   130.5046     9.0017     8.9669
  267.2000   130.8606     9.0017     8.9672
  267.3000   131.9294     9.0017     8.9674
  267.4000   132.4022     9.0017     8.9316
  267.5000   133.0920     9.0017     8.9058
  267.6000   133.7114     9.0017     8.9060
  267.7000   134.3011     9.0017     8.9007
  267.8000   135.0206     9.0017     8.8448
  267.9000   135.5530     9.0017     8.8450
  268.0000   136.5025     9.0017     8.8452
  268.1000   137.5097     9.0017     8.8455
  268.2000   138.2424     9.0017     8.8290
  268.3000   138.4848     9.0017     8.7846
  268.4000   138.2339     9.0017     8.7849
  268.5000   137.9699     9.0017     8.7374
  268.6000   137.4934     9.0017     8.7245
  268.7000   136.8024     9.0017     8.7247
  268.8000   135.9098     8.9911     8.7250
  268.9000   134.9924     8.9391     8.7252
  269.0000   134.2382     8.9391     8.7255
  269.1000   133.4486     8.8971     8.7257
  269.2000   133.2095     8.8770     8.6872
  269.3000   132.9585     8.8770     8.6657
  269.4000   132.8471     8.8657     8.6659
  269.5000   132.8477     8.8153     8.6662
  269.6000   132.8876     8.8153     8.6664
  269.7000   133.1505     8.8153     8.6667
  269.8000   133.6330     8.7830     8.6669
  269.9000   134.1368     8.7541     8.6671
  270.0000   134.6406     8.7541     8.6674
  270.1000   135.1444     8.7541     8.6676
  270.2000   135.6075     8.7541     8.6679
  270.3000   135.8691     8.7541     8.6081
  270.4000   135.8697     8.7541     8.6083
  270.5000   135.8703     8.7541     8.6085
  270.6000   135.7289     8.7541     8.6087
  270.7000   135.5698     8.7541     8.6090
  270.8000   135.5286     8.7541     8.6092
  270.9000   135.2694     8.7541     8.6095
  271.0000   135.2700     8.7541     8.6097
  271.1000   135.2706     8.7541     8.6099
  271.2000   135.2712     8.7541     8.6102
  271.3000   135.3649     8.7541     8.5979
  271.4000   135.6602     8.7541     8.5509
  271.5000   136.1780     8.7541     8.5512
  271.6000   136.6678     8.7541     8.5514
  271.7000   137.3661     8.7541     8.5517
  271.8000   138.1213     8.7541     8.5519
  271.9000   138.8766     8.7541     8.5521
  272.0000   139.6761     8.7541     8.5524
  272.1000   140.7065     8.7541     8.5527
  272.2000   141.4443     8.7541     8.5529
  272.3000   141.8083     8.7281     8.5531
  272.4000   142.0605     8.6933     8.5533
  272.5000   142.2172     8.6933     8.5536
  272.6000   142.2178     8.6933     8.5538
  272.7000   142.2184     8.6933     8.5541
  272.8000   142.2190     8.6933     8.5092
  272.9000   142.0227     8.6933     8.4952
