~VERSION INFORMATION
 VERS.                2.0:   CWLS LOG ASCII STANDARD - VERSION 2.0
 WRAP.                 NO:   ONE LINE PER DEPTH STEP
~WELL INFORMATION
#MNEM.UNIT      DATA TYPE    INFORMATION
#----------   ------------   ------------------------------
 STRT.F            0.0000:   START DEPTH
 STOP.F          497.0000:   STOP DEPTH
 STEP.F            0.1000:   STEP LENGTH
 NULL.          -999.2500:   NO VALUE
 COMP.       F D SERV INC:   COMPANY
 WELL. NAVAL PETROLEUM RESERVE 3 SX-1 #81-1-10:   WELL
 FLD .             NPR #3:   FIELD
 LOC .      S10 T38N R78W:   LOCATION
 CNTY.            NATRONA:   COUNTY
 STAT.            WYOMING:   STATE
 CTRY. UNITED STATES OF AMERICA:   COUNTRY
 SRVC.     Atlas Wireline:   SERVICE COMPANY
 DATE.        14-DEC-1997:   LOGDATE
 API .       490252257400:   API NUMBER
~CURVE INFORMATION
#MNEM.UNIT       API CODE    CURVE DESCRIPTION
#----------   ------------   ------------------------------
 DEPT.F                  :   
 GRR .GAPI   07 310 01 00:   GAMMA RAY
 RILD.OHMM   07 120 46 00:   INDUCTION LOG DEEP RESISTIVITY
 RILM.OHMM   07 120 44 00:   INDUCTION LOG MEDIUM RESISTIVITY
~PARAMETER INFORMATION
#MNEM.UNIT          VALUE    DESCRIPTION
#----------   ------------   ------------------------------
 PD  .                 GL:   PERMANENT DATUM
 EPD .F              5132:   ELEVATION PERMANENT DATUM
 LMF .                 KB:   LOG MEASURED FROM
 DAPD.F                10:   FEET ABOVE PERMANENT DATUM
 DMF .                 KB:   DRILLING MEASURED FROM
 EKB .F              5142:   KELLING BUSHING
 EDF .F              5141:   DRILLING FLOOR
 EGL .F              5132:   GROUND LEVEL
 DATE.        14-DEC-1992:   RUN DATE
 RUN .                  1:   RUN NUMBER
 DD  .F               513:   DEPTH DRILLER
 DL  .F               505:   DEPTH LOGGER
 BLI .F               497:   BOTTOM LOG INTERVAL
 CS  .IN            8.625:   CASING SIZE
 CBD .F                53:   CASING BOTTOM DRILLER
 CBL .F                54:   CASING BOTTOM LOGGER
 BS  .IN            7.875:   BIT SIZE
 BSD .F               513:   BIT SIZE AT DEPTH
 DFT .           AIR FOAM:   DRILLING FLUID TYPE
 BHT .F                68:   BOTTOM HOLE TEMPERATURE
 MRT .F                68:   MAXIMUM RECORDED TEMPERATURE
 LUN .           HL- 6274:   LOGGING UNIT NUMBER
 LUL .             CASPER:   LOGGING UNIT LOCATION
 ENGI.             RAUTIO:   RECORDING ENGINEER
 WITN.          G. STRONG:   WITNESSED BY
 CLNT.            A2DTECH:   CLIENT CODE
 ORIG.           5" PRINT:   ORIGIN OF DATA
 UWI .       490252257400:   UNIQUE WELL ID
 DICO. A2D Technologies, Inc.:   DIGITIZING COMPANY
~OTHER INFORMATION
~A    DEPT      GRR      RILD       RILM   
# ...
  473.2000   103.0554     8.9520     7.9737
  473.3000   103.2163     8.9524     7.9275
  473.4000   103.3518     8.8890     7.8777
  473.5000   103.4166     8.8078     7.7770
  473.6000   103.6674     8.7568     7.7368
  473.7000   103.9467     8.7061     7.6920
  473.8000   103.9446     8.6491     7.6250
  473.9000   104.1187     8.6057     7.5507
  474.0000   104.2410     8.5559     7.5070
  474.1000   104.3996     8.5064     7.4607
  474.2000   104.8711     8.4421     7.3802
  474.3000   105.1372     8.3442     7.3265
  474.4000   105.3727     8.2410     7.2840
  474.5000   105.4337     8.1965     7.2268
  474.6000   105.5731     8.0785     7.1503
  474.7000   105.9177     7.9126     7.1079
  474.8000   106.3306     7.7131     6.9880
  474.9000   106.3277     7.4747     6.8674
  475.0000   106.6260     7.1738     6.7488
  475.1000   106.6241     6.9292     6.6169
  475.2000   106.7767     6.7355     6.4726
  475.3000   107.0275     6.5269     6.3630
  475.4000   107.2783     6.3548     6.3630
  475.5000   107.5291     6.2079     6.3324
  475.6000   107.8165     6.0619     6.1367
  475.7000   108.4632     5.8664     5.8579
  475.8000   109.3887     5.7474     5.5446
  475.9000   110.0383     5.5700     5.1177
  476.0000   110.4337     5.4093     4.8245
  476.1000   111.1183     5.3037     4.7280
  476.2000   111.1154     5.2382     4.6559
  476.3000   111.3428     5.1423     4.6021
  476.4000   111.5936     5.1142     4.5411
  476.5000   111.8444     5.0846     4.4681
  476.6000   112.0952     5.0552     4.4400
  476.7000   112.3460     5.0373     4.3931
  476.8000   112.6071     5.0317     4.3606
  476.9000   113.0903     5.0029     4.3354
  477.0000   113.5944     5.0033     4.3188
  477.1000   114.2452     5.0035     4.3188
  477.2000   115.1012     5.0038     4.3188
  477.3000   116.3656     5.0040     4.3430
  477.4000   118.6337     5.0043     4.3878
  477.5000   120.4213     5.0046     4.4541
  477.6000   121.4594     5.0049     4.5324
  477.7000   122.7229     5.0052     4.6120
  477.8000   123.7626     5.0054     4.6929
  477.9000   124.6481     5.0057     4.8245
  478.0000   125.9278     5.0060     4.9166
  478.1000   127.6358     5.0106     5.0322
  478.2000   128.7401     5.0415     5.1374
  478.3000   129.8306     5.0702     5.2204
  478.4000   130.8412     5.1003     5.2884
  478.5000   131.6195     5.1305     5.5406
  478.6000   131.8412     5.1609     5.6519
  478.7000   131.8384     5.1980     5.8074
  478.8000   131.8362     5.2587     5.9454
  478.9000   131.8337     5.2950     6.0699
  479.0000   131.8313     5.3476     6.2450
  479.1000  -999.2500     5.3902     6.4071
  479.2000  -999.2500     5.4371     6.5424
  479.3000  -999.2500     5.5014     6.7241
  479.4000  -999.2500     5.5665     6.9013
  479.5000  -999.2500     5.6387     7.0366
  479.6000  -999.2500     5.7296     7.1242
  479.7000  -999.2500     5.8563     7.2570
  479.8000  -999.2500     6.0146     7.3367
  479.9000  -999.2500     6.1807     7.4225
  480.0000  -999.2500     6.3214     7.5092
  480.1000  -999.2500     6.4369     7.5970
  480.2000  -999.2500     6.5483     7.6857
  480.3000  -999.2500     6.6036     7.7770
  480.4000  -999.2500     6.6898     7.8663
  480.5000  -999.2500     6.7922     7.9217
  480.6000  -999.2500     6.8817     7.9958
  480.7000  -999.2500     7.0039     8.0892
  480.8000  -999.2500     7.1471     8.1630
  480.9000  -999.2500     7.3288     8.1653
  481.0000  -999.2500     7.5175     8.2767
  481.1000  -999.2500     7.6962     8.3169
  481.2000  -999.2500     7.8652     8.3654
  481.3000  -999.2500     8.0099     8.4141
  481.4000  -999.2500     8.2159     8.4631
  481.5000  -999.2500     8.3052     8.5124
  481.6000  -999.2500     8.4399     8.5681
  481.7000  -999.2500     8.5900     8.6119
  481.8000  -999.2500     8.7242     8.6620
  481.9000  -999.2500     8.8274     8.7125
  482.0000  -999.2500     8.9335     8.7633
  482.1000  -999.2500     8.9857     8.8143
  482.2000  -999.2500     9.0390     8.8698
  482.3000  -999.2500     9.0601     8.8698
  482.4000  -999.2500     9.0832     8.8698
  482.5000  -999.2500     9.1370     8.8975
  482.6000  -999.2500     9.1885     8.9314
  482.7000  -999.2500     9.1890     8.9393
  482.8000  -999.2500     9.1895     8.9934
  482.9000  -999.2500     9.1900     8.9934
  483.0000  -999.2500     9.1905     9.0338
  483.1000  -999.2500     9.1910     9.0558
  483.2000  -999.2500     9.1915     9.0558
  483.3000  -999.2500     9.1921     9.0662
  483.4000  -999.2500     9.1926     9.1187
  483.5000  -999.2500     9.2333     9.1187
  483.6000  -999.2500     9.2577     9.1187
  483.7000  -999.2500     9.2582     9.1518
  483.8000  -999.2500     9.2587     9.2051
  483.9000  -999.2500     9.2592     9.2587
  484.0000  -999.2500     9.3245     9.3100
  484.1000  -999.2500     9.3249     9.3100
  484.2000  -999.2500     9.3254     9.3565
  484.3000  -999.2500     9.3499     9.3746
  484.4000  -999.2500     9.4053     9.3746
  484.5000  -999.2500     9.4610     9.3900
  484.6000  -999.2500     9.5241     9.4447
  484.7000  -999.2500     9.5245     9.5053
  484.8000  -999.2500     9.5251     9.5053
  484.9000  -999.2500     9.5256     9.5445
  485.0000  -999.2500     9.5439     9.5713
  485.1000  -999.2500     9.5931     9.5894
  485.2000  -999.2500     9.5937     9.6377
  485.3000  -999.2500     9.5942     9.6377
  485.4000  -999.2500     9.5947     9.6377
  485.5000  -999.2500     9.5953     9.6377
  485.6000  -999.2500     9.5958     9.6377
  485.7000  -999.2500     9.6074     9.6584
  485.8000  -999.2500     9.6638     9.7047
  485.9000  -999.2500     9.6644     9.7047
  486.0000  -999.2500     9.6649     9.7047
  486.1000  -999.2500     9.6654     9.7495
  486.2000  -999.2500     9.6659     9.7720
  486.3000  -999.2500     9.6517     9.7954
  486.4000  -999.2500     9.6000     9.8399
  486.5000  -999.2500     9.6006     9.8415
  486.6000  -999.2500     9.6011     9.9082
  486.7000  -999.2500     9.6413     9.9082
  486.8000  -999.2500     9.6692     9.9082
  486.9000  -999.2500     9.6884     9.9344
  487.0000  -999.2500     9.7377     9.9770
  487.1000  -999.2500     9.7383     9.9811
  487.2000  -999.2500     9.7388    10.0463
  487.3000  -999.2500     9.7833    10.0978
  487.4000  -999.2500     9.8078    10.1566
  487.5000  -999.2500     9.8312    10.1863
  487.6000  -999.2500     9.8773    10.2044
  487.7000  -999.2500     9.8805    10.2638
  487.8000  -999.2500    10.0168    10.3283
  487.9000  -999.2500    10.0173    10.3838
  488.0000  -999.2500    10.0560    10.4443
  488.1000  -999.2500    10.1157    10.4722
  488.2000  -999.2500    10.2088    10.4722
  488.3000  -999.2500    10.3739    10.4914
  488.4000  -999.2500    10.3745    10.6181
  488.5000  -999.2500    10.4854    10.7380
  488.6000  -999.2500    10.6096    10.7661
  488.7000  -999.2500    10.7019    10.8395
  488.8000  -999.2500    10.7871    10.9410
  488.9000  -999.2500    10.9047    11.0047
  489.0000  -999.2500    10.9693    11.0688
  489.1000  -999.2500  -999.2500    11.1451
  489.2000  -999.2500  -999.2500    11.1982
  489.3000  -999.2500  -999.2500    11.2634
  489.4000  -999.2500  -999.2500    11.3290
  489.5000  -999.2500  -999.2500    11.3950
  489.6000  -999.2500  -999.2500    11.4613
  489.7000  -999.2500  -999.2500    11.5375
  489.8000  -999.2500  -999.2500    11.5375
  489.9000  -999.2500  -999.2500    11.5824
  490.0000  -999.2500  -999.2500    11.6499
  490.1000  -999.2500  -999.2500    11.6983
  490.2000  -999.2500  -999.2500    11.6983
  490.3000  -999.2500  -999.2500    11.6983
  490.4000  -999.2500  -999.2500    11.7598
  490.5000  -999.2500  -999.2500    11.7795
  490.6000  -999.2500  -999.2500    11.8152
  490.7000  -999.2500  -999.2500    11.8613
  490.8000  -999.2500  -999.2500    11.8708
  490.9000  -999.2500  -999.2500    11.9437
  491.0000  -999.2500  -999.2500    11.9437
  491.1000  -999.2500  -999.2500    11.9437
  491.2000  -999.2500  -999.2500    11.9437
  491.3000  -999.2500  -999.2500    11.9437
