~VERSION INFORMATION
 VERS.                2.0:   CWLS LOG ASCII STANDARD - VERSION 2.0
 WRAP.                 NO:   ONE LINE PER DEPTH STEP
~WELL INFORMATION
#MNEM.UNIT      DATA TYPE    INFORMATION
#----------   ------------   ------------------------------
 STRT.F           44.0000:   START DEPTH
 STOP.F          510.0000:   STOP DEPTH
 STEP.F            0.5000:   STEP LENGTH
 NULL.          -999.2500:   NO VALUE
 COMP. FENIX & SCISSON INC:   COMPANY
 WELL. NPR-3 76-SX-3 #76-3:   WELL
 FLD . TEAPOT DOME NPR #3:   FIELD
 LOC .       S3 T38N R78W:   LOCATION
 CNTY.            NATRONA:   COUNTY
 STAT.            WYOMING:   STATE
 CTRY. UNITED STATES OF AMERICA:   COUNTRY
 SRVC.            Unknown:   SERVICE COMPANY
 DATE.        13-OCT-1978:   LOGDATE
 API .       490251072300:   API NUMBER
~CURVE INFORMATION
#MNEM.UNIT       API CODE    CURVE DESCRIPTION
#----------   ------------   ------------------------------
 DEPT.F                  :   
 CALD.IN     45 280 60 00:   CALIPER
 RHOB.G/C3   45 350 01 00:   BULK DENSITY
 CORR.G/C3   45 356 01 00:   DENSITY CORRECTION
 SPR .MV     05 010 01 00:   SPONTANEOUS POTENTIAL FROM RES.
 SN  .OHMM   05 040 16 00:   SHORT NORMAL 16"
 ILD .OHMM   05 120 46 00:   INDUCTION LOG DEEP
 DPHI.DEC    45 890 12 00:   DENSITY POROSITY SANDSTONE
~PARAMETER INFORMATION
#MNEM.UNIT          VALUE    DESCRIPTION
#----------   ------------   ------------------------------
 PD  .                 GL:   PERMANENT DATUM
 EPD .F              5151:   ELEVATION PERMANENT DATUM
 LMF .                 KB:   LOG MEASURED FROM
 DAPD.F                 4:   FEET ABOVE PERMANENT DATUM
 DMF .                 KB:   DRILLING MEASURED FROM
 EKB .F              5155:   KELLING BUSHING
 EGL .F              5151:   GROUND LEVEL
 DATE.         10-13-1978:   RUN DATE
 RUN .                  1:   RUN NUMBER
 DD  .F               515:   DEPTH DRILLER
 DL  .F               517:   DEPTH LOGGER
 BLI .F               511:   BOTTOM LOG INTERVAL
 TLI .F                50:   TOP LOG INTERVAL
 CS  .IN            8.625:   CASING SIZE
 CBD .F                40:   CASING BOTTOM DRILLER
 BS  .IN            7.875:   BIT SIZE
 BSD .F               515:   BIT SIZE AT DEPTH
 DFT .                KCL:   DRILLING FLUID TYPE
 MSS .            MUD PIT:   MUD SAMPLE SOURCE
 RMS .OHMM             .2:   RESISTIVITY MUD SAMPLE
 MST .F                54:   MUD SAMPLE TEMPERATURE
 RMF .OHMM            .19:   RESISTIVITY MUD FILTRATE SAMPLE
 MFST.F                63:   MUD FILTRATE SAMPLE TEMPERATURE
 RMC .OHMM            .26:   RESISTIVITY MUD CAKE
 MCST.F                64:   MUD CAKE SAMPLE TEMPERATURE
 MFSS.               MEAS:   MUD FILTRATE SAMPLE SOURCE
 MCSS.               MEAS:   MUD CAKE SAMPLE SOURCE
 TCS .HRS               2:   TIME CURCULATED STOPPED
 LUN .               3006:   LOGGING UNIT NUMBER
 LUL .               CASP:   LOGGING UNIT LOCATION
 ENGI.             MILLER:   RECORDING ENGINEER
 WITN.           DINSMORE:   WITNESSED BY
 CLNT.            A2DTECH:   CLIENT CODE
 ORIG.           5" PRINT:   ORIGIN OF DATA
 UWI .       490251072300:   UNIQUE WELL ID
 DICO. A2D Technologies, Inc.:   DIGITIZING COMPANY
~OTHER INFORMATION
~A   DEPT     CALD       RHOB        CORR       SPR         SN        ILD         DPHI 
# ...
  453.5000     7.8887     2.5227     0.0745   -15.7738     8.6934     9.0142     0.0930
  454.0000     7.9206     2.5246     0.0748   -15.7738     8.4932     8.8428     0.0916
  454.5000     7.7548     2.5251     0.0745   -15.7731     8.3366     8.6748     0.0916
  455.0000     7.8107     2.5247     0.0698   -15.7680     8.2401     8.5527     0.0949
  455.5000     7.8751     2.5196     0.0650   -15.9874     8.1476     8.4600     0.0982
  456.0000     7.9398     2.5142     0.0601   -16.2474     8.0181     8.3662     0.0993
  456.5000     7.8039     2.5088     0.0587   -16.5086     7.8945     8.2052     0.0989
  457.0000     7.6532     2.5110     0.0583   -16.7694     7.7251     7.8278     0.1016
  457.5000     7.9284     2.5073     0.0579   -17.0285     7.5355     7.4720     0.1043
  458.0000     7.9745     2.5015     0.0574   -17.1156     7.3505     7.1316     0.1086
  458.5000     7.9522     2.4957     0.0571   -16.9140     7.1699     6.8069     0.1134
  459.0000     7.9283     2.4899     0.0619   -16.7211     6.9942     6.4970     0.1186
  459.5000     7.9045     2.4842     0.0672   -16.5281     6.7769     6.3795     0.1168
  460.0000     7.8938     2.4868     0.0726   -16.3351     6.8284     6.3340     0.1078
  460.5000     7.8962     2.5028     0.0710   -16.1073     6.8995     6.2955     0.0982
  461.0000     7.8986     2.5189     0.0639   -15.6959     6.9713     6.3331     0.0886
  461.5000     7.9010     2.5256     0.0596   -15.2811     7.1056     6.5682     0.0821
  462.0000     7.9034     2.5319     0.0617   -14.8599     7.5632     7.1819     0.0770
  462.5000     7.9058     2.5383     0.0637   -14.7384     8.0482     7.8529     0.0808
  463.0000     7.9082     2.5354     0.0657   -14.6831     8.5271     8.3726     0.0879
  463.5000     7.9106     2.5298     0.0677   -14.6294     8.8877     8.9267     0.0949
  464.0000     7.9130     2.5242     0.0697   -14.5749     9.1137     9.5210     0.0937
  464.5000     7.9154     2.5215     0.0717   -14.5204     9.1473     9.6572     0.0898
  465.0000     7.9178     2.5288     0.0726   -14.4658     9.1796     9.7231     0.0833
  465.5000     7.9202     2.5359     0.0705   -14.4112     9.2124     9.7875     0.0764
  466.0000     7.9226     2.5431     0.0679   -14.3567     9.2455     9.8527     0.0695
  466.5000     7.9250     2.5503     0.0608   -14.3021     9.2785     9.9185     0.0732
  467.0000     7.9274     2.5462     0.0537   -14.2475     9.3120     9.9848     0.0779
  467.5000     7.9299     2.5387     0.0464   -14.1930     9.3454    10.0515     0.0826
  468.0000     7.9321     2.5321     0.0461   -14.1384     9.6004    10.1675     0.0855
  468.5000     7.9130     2.5310     0.0479   -14.0838     9.9494    10.3038     0.0872
  469.0000     7.8914     2.5298     0.0498   -14.0293    10.2578    10.4479     0.0891
  469.5000     7.8697     2.5284     0.0517   -13.9747    10.2652    10.5694     0.0914
  470.0000     7.8482     2.5269     0.0535   -13.9201    10.2858    10.6979     0.0937
  470.5000     7.8350     2.5255     0.0554   -13.8657    10.3001    10.8279     0.0928
  471.0000     7.8433     2.5280     0.0573   -13.8100    10.3147    10.9595     0.0904
  471.5000     7.8513     2.5312     0.0591   -13.8408    10.3293    11.0927     0.0880
  472.0000     7.8593     2.5345     0.0610   -13.9225    10.3439    11.1760     0.0856
  472.5000     7.8672     2.5380     0.0629   -14.0053    10.3585    11.2282     0.0836
  473.0000     7.8729     2.5416     0.0647   -14.0880    10.3731    11.2807     0.0818
  473.5000     7.8728     2.5449     0.0666   -14.1707    10.3878    11.3333     0.0800
  474.0000     7.8741     2.5465     0.0702   -14.2534    10.4025    11.3863     0.0782
  474.5000     7.8224     2.5482     0.0742   -14.3361    10.4172    11.4395     0.0765
  475.0000     7.7326     2.5498     0.0782   -14.4188    10.4318    11.4929     0.0732
  475.5000     8.0175     2.5551     0.0823   -14.5014    10.4471    11.5619     0.0678
  476.0000     7.9296     2.5627     0.0818   -14.5841    10.4193    11.3078     0.0624
  476.5000     7.8530     2.5704     0.0802   -14.6668    10.3880    10.9618     0.0570
  477.0000     7.8197     2.5781     0.0776   -14.7495    10.3568    10.7406     0.0538
  477.5000     7.8330     2.5820     0.0699   -14.8322    10.3257    10.8636     0.0632
  478.0000     7.8462     2.5656     0.0622   -14.9149    10.2947    10.9559     0.0698
  478.5000     7.8422     2.5484     0.0622   -14.9976    10.2637    11.0502     0.0764
  479.0000     7.8209     2.5421     0.0638   -15.0804    10.2375    11.1432     0.0794
  479.5000     7.7988     2.5424     0.0652   -15.1644    10.2124    11.0212     0.0801
  480.0000     7.8285     2.5433     0.0661   -15.1787    10.1877    10.8996     0.0844
  480.5000     7.8723     2.5371     0.0671   -15.1788    10.1628    10.7793     0.0896
  481.0000     7.8454     2.5306     0.0680   -15.1786    10.0639    10.6604     0.0920
  481.5000     7.8149     2.5259     0.0689   -15.1786     9.9678    10.5428     0.0907
  482.0000     7.8014     2.5285     0.0699   -15.1786     9.8729    10.4264     0.0894
  482.5000     7.8320     2.5307     0.0708   -15.1785     9.7789    10.3113     0.0888
  483.0000     7.8619     2.5316     0.0717   -15.1784     9.6859    10.1976     0.0882
  483.5000     7.8915     2.5324     0.0727   -15.1758     9.5937    10.1035     0.0862
  484.0000     7.9084     2.5347     0.0726   -15.3156     9.5025    10.0182     0.0825
  484.5000     7.8919     2.5373     0.0717   -15.5079     9.4229     9.9337     0.0788
  485.0000     7.8759     2.5399     0.0708   -15.7013     9.3666     9.8499     0.0785
  485.5000     7.8600     2.5425     0.0699   -15.8942     9.3107     9.7668     0.0792
  486.0000     7.8442     2.5445     0.0690   -16.0880     9.2551     9.6843     0.0798
  486.5000     7.8373     2.5441     0.0690   -16.2136     9.1998     9.6026     0.0802
  487.0000     7.8534     2.5436     0.0690   -16.2919     9.1448     9.5216     0.0774
  487.5000     7.8693     2.5453     0.0690   -16.3690     9.0902     9.4413     0.0747
  488.0000     7.8844     2.5480     0.0690   -16.4462     9.0359     9.3570     0.0760
  488.5000     7.9071     2.5474     0.0690   -16.5246     8.9819     9.2735     0.0793
  489.0000     7.8819     2.5427     0.0690   -16.6535     8.9282     9.1908     0.0823
  489.5000     7.8580     2.5381     0.0690   -16.8551     8.8749     9.1088     0.0843
  490.0000     7.8342     2.5378     0.0690   -17.0552     8.8219     9.0275     0.0826
  490.5000     7.8134     2.5398     0.0690   -17.1632     8.7692     9.0163     0.0748
  491.0000     7.8386     2.5474     0.0690   -17.1627     8.7168     9.0162     0.0694
  491.5000     7.8672     2.5550     0.0690   -17.1628     8.6902     9.0163     0.0670
  492.0000     7.8900     2.5626     0.0678   -17.1627     8.6902     9.0164     0.0635
  492.5000     7.8668     2.5694     0.0663   -17.1627     8.6902     9.0165     0.0613
  493.0000     7.8429     2.5682     0.0649   -17.1623     8.6902     9.0159     0.0656
  493.5000     7.8192     2.5611     0.0635   -17.1604     8.6901     9.0183     0.0718
  494.0000     7.7957     2.5495     0.0620   -17.1701     8.6773     8.8628     0.0746
  494.5000     7.8045     2.5435     0.0611   -17.5562     8.6406     8.7500     0.0774
  495.0000     7.8273     2.5430     0.0614   -17.9705     8.6041     8.6385     0.0792
  495.5000     7.8500     2.5425     0.0617   -18.3877     8.5676     8.5285     0.0785
  496.0000     7.8728     2.5425     0.0621   -18.5491     8.5316     8.4199     0.0778
  496.5000     7.8955     2.5425     0.0624   -18.5520     8.5038     8.3126     0.0791
  497.0000     7.9182     2.5421     0.0627   -18.5519     8.4762     8.2068     0.0805
  497.5000     7.9409     2.5413     0.0630   -18.5516     8.4487     8.1096     0.0820
  498.0000     7.9415     2.5404     0.0624   -18.5516     8.4213     8.0229     0.0822
  498.5000     7.9199     2.5395     0.0619   -18.5516     8.3939     7.9367     0.0793
