~VERSION INFORMATION
 VERS.                2.0:   CWLS LOG ASCII STANDARD - VERSION 2.0
 WRAP.                 NO:   ONE LINE PER DEPTH STEP
~WELL INFORMATION
#MNEM.UNIT      DATA TYPE    INFORMATION
#----------   ------------   ------------------------------
 STRT.F            7.0000:   START DEPTH
 STOP.F          549.0000:   STOP DEPTH
 STEP.F            0.5000:   STEP LENGTH
 NULL.          -999.2500:   NO VALUE
 COMP. LAWRENCE-ALLISON &AS:   COMPANY
 WELL. NPR 3 #51-62-SX-10-LP3:   WELL
 FLD .             TEAPOT:   FIELD
 LOC .      S10 T38N R78W:   LOCATION
 CNTY.            NATRONA:   COUNTY
 STAT.            WYOMING:   STATE
 CTRY. UNITED STATES OF AMERICA:   COUNTRY
 SRVC.      Dresser Atlas:   SERVICE COMPANY
 DATE.        10-DEC-1984:   LOGDATE
 API .       490251099500:   API NUMBER
~CURVE INFORMATION
#MNEM.UNIT       API CODE    CURVE DESCRIPTION
#----------   ------------   ------------------------------
 DEPT.F                  :   
 SPR .MV     07 010 01 00:   SPONTANEOUS POTENTIAL
 RILD.OHMM   07 120 46 00:   INDUCTION LOG DEEP RESISTIVITY
 RILM.OHMM   07 120 44 00:   INDUCTION LOG MEDIUM RESISTIVITY
 RFOC.OHMM   07 220 04 00:   RESISTIVITY FOCUSED LOG
 DT  .US/F   60 520 00 00:   INTERVAL TRANSIT TIME
 PORD.DEC    45 890 12 00:   POROSITY DENSITY SANDSTONE
 CNCF.DEC    42 890 03 00:   NEUTRON POROSITY SANDSTONE
 CALD.IN     45 280 60 00:   CALIPER FROM DENSITY LOG
 GRD .GAPI   45 310 01 00:   GAMMA RAY FROM DENSITY LOG
 CORR.G/C3   45 356 01 00:   DENSITY CORRECTION
 DEN .G/C3   45 350 01 00:   COMPENSATED BULK DENSTIY
~PARAMETER INFORMATION
#MNEM.UNIT          VALUE    DESCRIPTION
#----------   ------------   ------------------------------
 PD  .                 GL:   PERMANENT DATUM
 EPD .F              5179:   ELEVATION PERMANENT DATUM
 LMF .                 GL:   LOG MEASURED FROM
 DMF .                 GL:   DRILLING MEASURED FROM
 EGL .F              5179:   GROUND LEVEL
 DATE.        10-DEC-1984:   RUN DATE
 RUN .                  1:   RUN NUMBER
 DD  .F               554:   DEPTH DRILLER
 DL  .F               551:   DEPTH LOGGER
 BLI .F               549:   BOTTOM LOG INTERVAL
 TLI .F                20:   TOP LOG INTERVAL
 CS  .IN            8.625:   CASING SIZE
 CBD .F                20:   CASING BOTTOM DRILLER
 CBL .F                20:   CASING BOTTOM LOGGER
 BS  .IN            7.875:   BIT SIZE
 BSD .F               554:   BIT SIZE AT DEPTH
 DFT .         KCL- WATER:   DRILLING FLUID TYPE
 MSS .           MUD TANK:   MUD SAMPLE SOURCE
 RMS .OHMM           .168:   RESISTIVITY MUD SAMPLE
 MST .F                77:   MUD SAMPLE TEMPERATURE
 RMF .OHMM           .126:   RESISTIVITY MUD FILTRATE SAMPLE
 MFST.F                77:   MUD FILTRATE SAMPLE TEMPERATURE
 RMC .OHMM            .21:   RESISTIVITY MUD CAKE
 MCST.F                77:   MUD CAKE SAMPLE TEMPERATURE
 MFSS.               CALC:   MUD FILTRATE SAMPLE SOURCE
 MCSS.               CALC:   MUD CAKE SAMPLE SOURCE
 RMB .OHMM            .15:   RESISTIVITY MUD AT BHT
 BHT .F                85:   BOTTOM HOLE TEMPERATURE
 TCS .HRS             3.5:   TIME CURCULATED STOPPED
 MRT .F               100:   MAXIMUM RECORDED TEMPERATURE
 LUN .               6270:   LOGGING UNIT NUMBER
 LUL .                 FM:   LOGGING UNIT LOCATION
 ENGI.          E. GOVETT:   RECORDING ENGINEER
 WITN.             GROOMS:   WITNESSED BY
 CLNT.            A2DTECH:   CLIENT CODE
 ORIG.           5" PRINT:   ORIGIN OF DATA
 UWI .       490251099500:   UNIQUE WELL ID
 DICO. A2D Technologies, Inc.:   DIGITIZING COMPANY
~OTHER INFORMATION
~A    DEPT     SPR       RILD       RILM       RFOC         DT       PORD         CNCF     CALD        GRD       CORR        DEN   
# ...
  464.5000   -59.5148    10.2994     8.2316    11.3610    93.3594     0.1223     0.2643     7.6729    89.7060     0.0308     2.4724
  465.0000   -59.5102    10.1619     8.0119    11.2872    93.5038     0.1272     0.2785     7.7162    93.0068     0.0277     2.4656
  465.5000   -59.5058     9.8883     7.8488    10.9106    93.5729     0.1275     0.2773     7.7450    95.5558     0.0260     2.4670
  466.0000   -59.6499     9.6888     7.6890    10.4723    93.5669     0.1257     0.2713     7.7737    98.5559     0.0259     2.4702
  466.5000   -59.9421     9.3627     7.4292     9.9823    93.5609     0.1232     0.2677     7.7720    99.1518     0.0047     2.4761
  467.0000   -60.0900     9.1721     7.1778     9.7149    93.8572     0.1195     0.2858     7.8007    95.9846     0.0031     2.4792
  467.5000   -60.5366     8.9225     6.9350     9.4547    94.2330     0.1155     0.2895     7.7994    95.3757     0.0029     2.4853
  468.0000   -60.8191     8.4950     6.7004     9.0749    95.2090     0.1101     0.2886     7.7980    94.7667     0.0043     2.4925
  468.5000   -60.9631     7.9172     6.4290     8.4724    96.2849     0.1044     0.2841     7.7967    94.6089     0.0088     2.5023
  469.0000   -61.1070     7.1641     6.0838     7.9088    97.8481     0.1041     0.2799     7.7804    92.1954     0.0240     2.5060
  469.5000   -61.3983     5.6992     5.4846     7.8585    98.9895     0.1038     0.2799     7.7640    91.2858     0.0416     2.5060
  470.0000   -61.5433     4.8279     4.8429     7.6491   100.0590     0.1053     0.2820     7.7780    91.7696     0.0309     2.5044
  470.5000   -61.8356     3.8961     4.1594     7.4442   100.5793     0.1092     0.2860     7.7764    96.4663     0.0168     2.4999
  471.0000   -62.1280     3.4168     3.2199     6.8544   101.2500     0.1162     0.3047     7.7751   100.3202     0.0066     2.4878
  471.5000   -62.7159     3.1238     2.7654     5.7281   101.9959     0.1216     0.3249     7.7737    98.3218     0.0186     2.4833
  472.0000   -63.3050     2.8558     2.5631     4.1678   105.2982     0.1288     0.3579     7.7874    96.9610     0.0292     2.4757
  472.5000   -64.0424     2.6470     2.5994     3.4828   110.4701     0.1403     0.3769     7.8011    97.2543     0.0409     2.4493
  473.0000   -64.4842     2.7040     2.7102     3.3894   116.5044     0.1608     0.3823     7.8148    99.2018     0.0329     2.4221
  473.5000   -64.3304     2.8792     2.8454     3.6602   122.5276     0.1921     0.3858     7.8281   100.5477     0.0241     2.3897
  474.0000   -63.7325     3.0871     3.0713     4.0913   126.3007     0.2248     0.4147     7.8422   100.6925     0.0240     2.3392
  474.5000   -63.1346     3.3330     3.6023     4.9695   124.5956     0.2518     0.4136     7.8558    97.3749     0.0259     2.2796
  475.0000   -62.6851     3.6741     4.1671     6.1203   121.4672     0.2584     0.3899     7.8542    87.7434     0.0283     2.2464
  475.5000   -62.2356     4.2221     4.6563     6.9366   115.1256     0.2440     0.3429     7.8378    85.1796     0.0176     2.2539
  476.0000   -61.6377     5.1284     5.4237     7.4381   108.7840     0.2268     0.3108     7.7915    85.1722     0.0178     2.2825
  476.5000   -61.0398     5.9755     6.1026     7.7580   102.9884     0.1625     0.2931     7.7451    92.0820     0.0267     2.3579
  477.0000   -60.5903     6.7722     6.6327     8.0357   100.8771     0.1380     0.2874     7.6837    92.3772     0.0609     2.4151
  477.5000   -59.9924     7.2110     6.9163     8.6167    99.8185     0.1205     0.2862     7.6223    91.9168     0.0894     2.4746
  478.0000   -59.6913     7.5726     7.0622     8.9872    99.3614     0.1187     0.2838     7.6210    92.2101     0.0984     2.4807
  478.5000   -59.3901     7.8973     7.1172     9.2447    98.9043     0.1296     0.2793     7.6047    95.0598     0.0590     2.4663
  479.0000   -59.2374     8.1792     7.2135     9.3788    98.3720     0.1323     0.2790     7.6033    94.1501     0.0032     2.4594
  479.5000   -59.0806     8.4141     7.2651     9.4492    98.0653     0.1335     0.2781     7.6170    93.9923     0.0166     2.4579
  480.0000   -58.7834     8.5336     7.3682     9.5201    97.9857     0.1339     0.2757     7.6154    94.5864     0.0270     2.4579
  480.5000   -58.6306     8.5371     7.3698     9.6582    98.4293     0.1309     0.3074     7.6441    96.3834     0.0329     2.4586
  481.0000   -58.4559     8.5406     7.3713     9.7306    98.8745     0.1273     0.2996     7.6581    98.0392     0.0373     2.4693
  481.5000   -58.1766     8.5442     7.2714     9.7360    99.1708     0.1188     0.2980     7.6564   100.3352     0.0372     2.4842
  482.0000   -58.0229     8.5484     7.1728     9.8090    98.9377     0.1170     0.2827     7.6551   102.8432     0.0341     2.4841
  482.5000   -58.0185     8.4342     7.0753     9.8145    99.0084     0.1170     0.2770     7.6387   104.2181     0.0219     2.4850
  483.0000   -58.0141     8.2070     6.9798     9.8199    99.2265     0.1153     0.2810     7.6074   105.9703     0.0338     2.4901
  483.5000   -58.0097     8.1528     6.9812     9.8935    99.5213     0.1117     0.2941     7.5910   106.2636     0.0533     2.5014
  484.0000   -58.0053     8.0998     6.9826     9.9678    99.7409     0.1096     0.3049     7.5897   106.5569     0.0577     2.4930
  484.5000   -58.2976     8.0472     6.9355    10.0426    99.8868     0.1141     0.3097     7.5884   105.3446     0.0320     2.4870
  485.0000   -58.4415     7.9949     6.8891    10.0481    99.8793     0.1250     0.3115     7.6021   102.0289     0.0078     2.4704
  485.5000   -58.7339     7.8889     6.9387     9.9154    99.8734     0.1262     0.3109     7.6007    99.9162     0.0257     2.4688
  486.0000   -59.0273     7.8369     6.9402     9.5154    99.8674     0.1156     0.3092     7.6451    99.1569     0.0105     2.5012
  486.5000   -59.4680     7.7330     6.9898     9.0695    99.8614     0.0927     0.3013     7.7182    99.3017    -0.0077     2.5283
  487.0000   -59.7592     7.6297     7.0888     8.8865    99.7803     0.0888     0.3013     7.6513   101.9991    -0.0093     2.5321
  487.5000   -59.9032     7.5793     7.1891     8.7072   100.0751     0.0973     0.2907     7.5801   101.6910    -0.0034     2.5132
  488.0000   -59.8988     7.5309     7.3415     8.4665   100.8210     0.1142     0.2896     7.5487   102.4354     0.0146     2.4740
  488.5000   -60.0427     7.5864     7.3941     8.1382   101.1158     0.1320     0.2896     7.5324   106.9392     0.0371     2.4596
  489.0000   -60.0383     7.6423     7.3956     8.0306   101.3354     0.1368     0.2890     7.5311   111.8942     0.0294     2.4521
  489.5000   -60.1825     7.7521     7.3971     8.3968   101.1735     0.1380     0.2830     7.5297   112.4901     0.0247     2.4505
  490.0000   -60.3264     7.8635     7.3476     8.8592   100.4110     0.1383     0.2782     7.5284   106.4658     0.0276     2.4505
  490.5000   -60.3219     7.9215     7.2984     9.0501    99.8742     0.1395     0.2818     7.5121   103.7284     0.0366     2.4497
  491.0000   -60.3174     8.0354     7.2999     9.3742    99.2717     0.1417     0.2864     7.4657   104.0449     0.0259     2.4467
  491.5000   -60.3130     8.0946     7.2488     9.1231    98.9627     0.1438     0.2867     7.4794   103.4360     0.0258     2.4398
  492.0000   -60.3086     8.1542     7.0543     8.8787    99.0717     0.1436     0.2843     7.5231   101.9248     0.0362     2.4383
  492.5000   -60.3041     8.1012     6.9107     8.8836    99.7131     0.1323     0.2813     7.6269   101.4662     0.0255     2.4496
  493.0000   -60.2997     7.9378     6.8644     8.8885    99.9342     0.1300     0.2777     7.6255   103.4584     0.0103     2.4684
  493.5000   -60.2952     7.7163     6.8185     8.9552   100.0034     0.1194     0.2747     7.5792   105.2261     0.0072     2.4774
  494.0000   -60.2908     7.4545     6.7261     8.8971    99.9208     0.1179     0.2711     7.5778   103.4387     0.0071     2.4819
  494.5000   -60.2855     7.2135     6.5895     8.8418    99.6892     0.1155     0.2699     7.6065   100.5414     0.0190     2.4879
