~VERSION INFORMATION
 VERS.                2.0:   CWLS LOG ASCII STANDARD - VERSION 2.0
 WRAP.                 NO:   ONE LINE PER DEPTH STEP
~WELL INFORMATION
#MNEM.UNIT      DATA TYPE    INFORMATION
#----------   ------------   ------------------------------
 STRT.F          458.0000:   START DEPTH
 STOP.F         2155.0000:   STOP DEPTH
 STEP.F            0.5000:   STEP LENGTH
 NULL.          -999.2500:   NO VALUE
 COMP.   FLUOR DANIEL INC:   COMPANY
 WELL. NAVAL PETROLEUM RESERVE 3 SHX- 1 #33-29:   WELL
 FLD .             TEAPOT:   FIELD
 LOC .      S29 T39N R78W:   LOCATION
 CNTY.            NATRONA:   COUNTY
 STAT.            WYOMING:   STATE
 CTRY. UNITED STATES OF AMERICA:   COUNTRY
 SRVC.            Unknown:   SERVICE COMPANY
 DATE.        29-JUN-1995:   LOGDATE
 API .       490252272500:   API NUMBER
~CURVE INFORMATION
#MNEM.UNIT       API CODE    CURVE DESCRIPTION
#----------   ------------   ------------------------------
 DEPT.F                  :   
 C1  .VF     91 831 01 00:   METHANE
 C2  .VF     91 832 01 00:   ETHANE
 C3  .VF     91 833 01 00:   PROPANE
 C4  .VF     91 834 01 00:   BUTANE
 ROP .FT/HR  91 810 01 00:   RAT OF DRILLING PENETRATION
 TGAS.TC/CC  91 830 01 00:   TOTAL GAS UNIT
~PARAMETER INFORMATION
#MNEM.UNIT          VALUE    DESCRIPTION
#----------   ------------   ------------------------------
 EKB .F              5020:   KELLING BUSHING
 EGL .F              5010:   GROUND LEVEL
 DATE.        29-JUN-1995:   RUN DATE
 RUN .                  1:   RUN NUMBER
 BLI .F              2155:   BOTTOM LOG INTERVAL
 TLI .F               460:   TOP LOG INTERVAL
 ENGI.     C.TOWER/R.HUSK:   RECORDING ENGINEER
 CLNT.            A2DTECH:   CLIENT CODE
 ORIG.           5" PRINT:   ORIGIN OF DATA
 UWI .       490252272500:   UNIQUE WELL ID
 DICO. A2D Technologies, Inc.:   DIGITIZING COMPANY
~OTHER INFORMATION
~A   DEPT       C1         C2         C3         C4          ROP       TGAS 
# ...
 2018.0000    14.8125     7.4881     6.9492     8.4480     0.8089   320.3549
 2018.5000    14.6250     7.4890     6.9492     8.4469     0.8091   319.4155
 2019.0000    14.6250     7.4898     6.9492     8.4457     0.8093   319.4155
 2019.5000    14.6250     7.4907     6.9492     8.4446     0.8001   319.4155
 2020.0000    14.4375     7.4916     6.9492     8.4434     0.7910   319.4155
 2020.5000    14.4375     7.4924     6.9492     8.4422     0.7912   319.4155
 2021.0000    14.4375     7.5168     6.9492     8.4410     0.7914   319.4155
 2021.5000    14.4375     7.5788     6.9492     8.4396     0.7917   319.4155
 2022.0000    14.4375     7.5797     7.0339     8.4385     0.7919   319.4155
 2022.5000    14.4813     7.5217     7.1186     8.4373     0.7922   319.4155
 2023.0000    14.6250     7.4966     7.1186     8.4362     0.7924   319.4155
 2023.5000    14.6250     7.5822     7.1186     8.4350     0.7926   319.4155
 2024.0000    14.6250     7.5548     7.1186     8.4339     0.8023   319.4155
 2024.5000    14.6250     7.4992     7.1186     8.4327     0.8025   319.4155
 2025.0000    14.6250     7.5000     7.1186     8.4316     0.7933   319.4155
 2025.5000    14.6250     7.5009     7.1186     8.4304     0.7747   319.4155
 2026.0000    14.6250     7.5018     7.1186     8.3349     0.7279   319.4155
 2026.5000    14.6250     7.4176     7.1186     8.3337     0.7187   320.3549
 2027.0000    14.6250     7.4186     7.1186     8.3325     0.7283   320.3549
 2027.5000    14.6250     7.4195     7.1186     8.3312     0.7286   320.3549
 2028.0000    14.6250     7.4203     7.1186     8.3300     0.7383   320.3549
 2028.5000    14.6250     7.4212     7.1186     8.3288     0.7385   320.3549
 2029.0000    14.6250     7.4221     7.1186     8.3277     0.7387   320.3549
 2029.5000    14.6250     7.4229     7.1186     8.3265     0.7390   320.3549
 2030.0000    14.6250     7.4239     7.1186     8.3254     0.7486   320.2769
 2030.5000    14.6250     7.4246     7.1186     8.3242     0.7488   319.4155
 2031.0000    14.6250     7.4254     7.1186     8.3231     0.7396   319.4155
 2031.5000    14.6250     7.4264     7.1186     8.3219     0.7399   319.4155
 2032.0000    14.6250     7.4271     7.1186     8.3208     0.7401   319.4155
 2032.5000    14.6250     7.4281     7.1186     8.4139     0.7404   319.4155
 2033.0000    14.6250     7.4288     7.1186     8.4127     0.7312   319.4155
 2033.5000    14.6250     7.4297     7.1186     8.4113     0.7220   319.4155
 2034.0000    14.6250     7.4305     7.1186     8.4102     0.7222   319.4155
 2034.5000    14.6250     7.4314     7.1186     8.4090     0.7225   319.4155
 2035.0000    14.6375     7.4703     7.1186     8.4079     0.7133   319.4155
 2035.5000    14.8125     7.5178     7.1186     8.4067     0.7136   319.4155
 2036.0000    14.8125     7.6034     7.1186     8.4056     0.7138   318.4760
 2036.5000    14.8125     7.6042     7.1186     8.4044     0.7045   317.5365
 2037.0000    14.6250     7.6051     7.1186     8.4033     0.7048   317.5365
 2037.5000    14.6250     7.6059     7.1186     8.4021     0.7051   318.4760
 2038.0000    14.6250     7.6068     7.1186     8.4009     0.7053   318.4760
 2038.5000    14.6250     7.6267     7.1186     8.3998     0.7055   318.4760
 2039.0000    14.6250     7.6933     7.1186     8.3986     0.7057   318.4760
 2039.5000    14.6075     7.6941     7.1186     8.3972     0.7060   318.4760
 2040.0000    14.4375     7.6949     7.1186     8.3961     0.6968   318.4760
 2040.5000    14.4375     7.6958     7.1179     8.3938     0.7032   318.3076
 2041.0000    14.4375     7.6966     7.1172     8.3914     0.7097   318.1391
 2041.5000    14.4375     7.7824     7.1165     8.3891     0.7156   317.9707
 2042.0000    14.4375     7.7831     7.1158     8.3868     0.6968   317.8023
 2042.5000    14.6250     7.6990     7.1151     8.3844     0.6968   317.6339
 2043.0000    14.6250     7.7000     7.1144     8.3817     0.6968   317.4655
 2043.5000    14.6250     7.7856     7.1137     8.3794     0.6968   318.3123
 2044.0000    14.6250     7.7695     7.1130     8.4720     0.6968   319.2233
 2044.5000    14.6250     7.7025     7.1123     8.4692     0.6968   319.2004
 2045.0000    14.6250     7.7034     7.1116     8.4669     0.7062   319.1776
 2045.5000    14.6250     7.7042     7.1108     8.4646     0.7156   319.1547
 2046.0000    14.6250     7.7051     7.1950     8.3679     0.7156   319.1319
 2046.5000    14.6250     7.7059     7.2790     8.3656     0.7156   319.1091
 2047.0000    14.6250     7.6644     7.2782     8.3628     0.7156   319.0862
 2047.5000    14.4375     7.7076     7.2775     8.3605     0.7156   318.1237
 2048.0000    14.4375     7.7085     7.2768     8.3582     0.7156   318.1002
 2048.5000    14.4375     7.7942     7.2761     8.3559     0.7156   318.0725
 2049.0000    14.4375     7.7949     7.2754     8.3536     0.6968   317.1103
 2049.5000    14.6250     7.7959     7.2746     8.3513     0.6874   317.0874
 2050.0000    14.6250     7.7966     7.2739     8.4434     0.6874   317.0646
 2050.5000    14.6250     7.8822     7.2732     8.4410     0.7533   317.0417
 2051.0000    14.6250     7.8831     7.2725     8.4387     0.7627   317.0189
 2051.5000    14.6250     7.8839     7.2718     8.4359     0.7627   316.9961
 2052.0000    14.6250     7.8847     7.2712     8.4336     0.7627   316.9729
 2052.5000    14.6250     7.8856     7.2705     8.4313     0.7533   316.9447
 2053.0000    14.6250     7.8864     7.2698     8.4290     0.7533   316.9218
 2053.5000    14.6250     7.8874     7.2691     8.4267     0.7533   316.8990
 2054.0000    14.6250     7.8883     7.2682     8.4244     0.7533   316.8762
 2054.5000    14.8125     7.8890     7.2675     8.4222     0.7533   316.8534
 2055.0000    14.8011     7.8898     7.2669     8.4198     0.7533   316.8305
 2055.5000    14.7708     7.8908     7.2662     8.4170     0.6959   316.8077
 2056.0000    14.7671     7.8916     7.2655     8.4147     0.6591   317.7244
 2056.5000    14.5760     7.8924     7.2648     8.4124     0.6591   317.7009
 2057.0000    14.3848     7.8932     7.2641     8.4101     0.6591   317.6729
 2057.5000    14.3811     7.8941     7.3482     8.4078     0.6968   317.6501
 2058.0000    14.0025     7.8949     7.3473     8.4055     0.7345   317.6272
 2058.5000    13.9988     7.8958     7.3466     8.4032     0.7345   317.6044
 2059.0000    13.9943     7.8966     7.3459     8.4009     0.7345   318.5211
 2059.5000    13.9906     7.8976     7.3453     8.3986     0.7345   317.5644
 2060.0000    13.9870     7.8137     7.3446     8.3958     0.7345   318.4760
 2060.5000    13.9833     7.8145     7.3439     8.3935     0.7250   318.4525
 2061.0000    13.9796     7.8154     7.3432     8.3912     0.7250   318.4290
 2061.5000    13.9760     7.8162     7.2578     8.3889     0.7250   318.4012
 2062.0000    13.9725     7.7559     7.2571     8.3866     0.7250   318.3783
 2062.5000    14.1562     7.7542     7.2562     8.3843     0.7250   319.3007
 2063.0000    14.1525     7.7523     7.3405     8.3820     0.7250   320.2115
 2063.5000    14.1487     7.7506     7.3396     8.3797     0.7250   320.1887
 2064.0000    13.9568     7.7492     7.3389     8.2830     0.7250   320.1659
 2064.5000    13.9531     7.7677     7.3382     8.1859     0.7250   320.1431
 2065.0000    13.9500     7.8305     7.3375     8.1836     0.7250   320.1201
 2065.5000    13.9458     7.8288     7.3369     8.2762     0.7250   320.0966
 2066.0000    13.9422     7.8271     7.3362     8.2733     0.7250   320.0688
 2066.5000    13.9388     7.8254     7.3353     8.2711     0.7250   320.0460
 2067.0000    13.9349     7.9082     7.3346     8.2688     0.7345   320.0232
 2067.5000    13.9312     7.9065     7.3339     8.2665     0.7345   320.0003
 2068.0000    13.9275     7.9051     7.3333     8.2642     0.8286   319.9775
 2068.5000    13.9238     7.9034     7.3326     8.2618     0.9605   319.9556
 2069.0000    13.9193     7.9016     7.2471     8.2590     0.9605   319.9318
 2069.5000    13.9157     7.8998     7.2464     8.2567     0.9510   319.9087
