~VERSION INFORMATION
 VERS.                2.0:   CWLS LOG ASCII STANDARD - VERSION 2.0
 WRAP.                 NO:   ONE LINE PER DEPTH STEP
~WELL INFORMATION
#MNEM.UNIT      DATA TYPE    INFORMATION
#----------   ------------   ------------------------------
 STRT.F          371.0000:   START DEPTH
 STOP.F         1998.0000:   STOP DEPTH
 STEP.F            0.5000:   STEP LENGTH
 NULL.          -999.2500:   NO VALUE
 COMP.       ANADARKO PET:   COMPANY
 WELL. StX-21 NPR #3 #17-21:   WELL
 FLD .             TEAPOT:   FIELD
 LOC .      S21 T39N R78W:   LOCATION
 CNTY.            NATRONA:   COUNTY
 STAT.            WYOMING:   STATE
 CTRY. UNITED STATES OF AMERICA:   COUNTRY
 SRVC.            Unknown:   SERVICE COMPANY
 DATE.        11-OCT-1994:   LOGDATE
 API .       490252266400:   API NUMBER
~CURVE INFORMATION
#MNEM.UNIT       API CODE    CURVE DESCRIPTION
#----------   ------------   ------------------------------
 DEPT.F                  :   
 ROP .MIN/FT 91 810 01 00:   RATE OF DRILLING PENETRATION
 TGAS.UNITS  91 830 01 00:   TOTAL GAS FROM HOTWIRE
~PARAMETER INFORMATION
#MNEM.UNIT          VALUE    DESCRIPTION
#----------   ------------   ------------------------------
 DATE.         10-11-1994:   RUN DATE
 RUN .                  1:   RUN NUMBER
 DD  .F              1997:   DEPTH DRILLER
 BLI .F              2000:   BOTTOM LOG INTERVAL
 TLI .F               360:   TOP LOG INTERVAL
 CS  .IN                7:   CASING SIZE
 CBD .F               344:   CASING BOTTOM DRILLER
 ENGI.   C. TOWER R. HUSK:   RECORDING ENGINEER
 CLNT.            A2DTECH:   CLIENT CODE
 ORIG.         2.5" PRINT:   ORIGIN OF DATA
 UWI .       490252266400:   UNIQUE WELL ID
 DICO. A2D Technologies, Inc.:   DIGITIZING COMPANY
~OTHER INFORMATION
~A   DEPT        ROP       TGAS 
# ...
 1829.0000     0.5708     9.8256
 1829.5000     0.5707     9.8219
 1830.0000     0.5706     9.8182
 1830.5000     0.5705     9.8141
 1831.0000     0.5704     9.8107
 1831.5000     0.5704     9.8070
 1832.0000     0.5702     9.8033
 1832.5000     0.5702     9.7996
 1833.0000     0.5701     9.7959
 1833.5000     0.5700     9.7921
 1834.0000     0.5699     9.7884
 1834.5000     0.5698     9.7847
 1835.0000     0.5697     9.7810
 1835.5000     0.5696     9.7773
 1836.0000     0.5695     9.7736
 1836.5000     0.5694     9.7698
 1837.0000     0.5693     9.7661
 1837.5000     0.5692     9.7617
 1838.0000     0.5691     9.7581
 1838.5000     0.5690     9.7544
 1839.0000     0.5690     9.7507
 1839.5000     0.5689     9.7471
 1840.0000     0.5688     9.7434
 1840.5000     0.5687     9.7398
 1841.0000     0.5686     9.7361
 1841.5000     0.5685     9.7325
 1842.0000     0.5684     9.7288
 1842.5000     0.5683     9.7252
 1843.0000     0.5682     9.7176
 1843.5000     0.5681     8.9573
 1844.0000     0.5680     8.5983
 1844.5000     0.5679     8.2227
 1845.0000     0.5678     7.7913
 1845.5000     0.5678     7.0996
 1846.0000     0.5677     7.0959
 1846.5000     0.5676     7.0921
 1847.0000     0.5675     7.0884
 1847.5000     0.5674     7.0847
 1848.0000     0.5673     7.4536
 1848.5000     0.5672     7.4492
 1849.0000     0.5671     7.4455
 1849.5000     0.5670     7.4417
 1850.0000     0.5669     7.8099
 1850.5000     0.5668     8.1781
 1851.0000     0.5667     8.1744
 1851.5000     0.5666     8.1699
 1852.0000     0.5665     8.1663
 1852.5000     0.5664     8.1626
 1853.0000     0.5664     8.1590
 1853.5000     0.5662     8.1553
 1854.0000     0.5662     8.1517
 1854.5000     0.5661     8.1480
 1855.0000     0.5660     8.1444
 1855.5000     0.5659     8.1407
 1856.0000     0.5658     8.1370
 1856.5000     0.5657     8.1334
 1857.0000     0.5656     8.1297
 1857.5000     0.5655     8.1260
 1858.0000     0.5654     8.1223
 1858.5000     0.5653     8.1186
 1859.0000     0.5652     8.1149
 1859.5000     0.5651     8.1112
 1860.0000     0.5651     8.1074
 1860.5000     0.5650     8.1037
 1861.0000     0.5649     8.1000
 1861.5000     0.5648     8.0963
 1862.0000     0.5647     8.0926
 1862.5000     0.5646     8.0888
 1863.0000     0.5645     8.0851
 1863.5000     0.5644     8.0814
 1864.0000     0.5643     8.0777
 1864.5000     0.5642     8.0737
 1865.0000     0.5641     8.0700
 1865.5000     0.5640     8.0664
 1866.0000     0.5639     8.0621
 1866.5000     0.5638     8.0591
 1867.0000     0.5638     8.0548
 1867.5000     0.5637     8.0512
 1868.0000     0.5636     8.0475
 1868.5000     0.5635     8.0438
 1869.0000     0.5634     8.0405
 1869.5000     0.5633     8.0368
 1870.0000     0.5632     8.0329
 1870.5000     0.5631     8.0292
 1871.0000     0.5630     8.0250
 1871.5000     0.5629     8.0213
 1872.0000     0.5628     8.0176
 1872.5000     0.3944     8.0140
 1873.0000     0.4325     8.0103
 1873.5000     0.4138     8.0070
 1874.0000     0.4138     8.0030
 1874.5000     0.4137     7.9996
 1875.0000     0.4136     7.9959
 1875.5000     0.4135     7.9921
 1876.0000     0.4134     7.9878
 1876.5000     0.4480     7.9841
 1877.0000     0.5339     7.9810
 1877.5000     0.5596     7.9773
 1878.0000     0.5431     7.9736
 1878.5000     0.5430     7.9695
 1879.0000     0.5429     7.9659
 1879.5000     0.5428     7.9622
 1880.0000     0.5427     7.9586
 1880.5000     0.5427     7.9543
 1881.0000     0.5426     7.9512
 1881.5000     0.5611     7.9475
 1882.0000     0.5424     7.9438
 1882.5000     0.5423     7.9401
 1883.0000     0.5422     7.9360
 1883.5000     0.5421     7.9326
 1884.0000     0.5420     7.9289
 1884.5000     0.5419     7.9252
 1885.0000     0.5418     7.9215
 1885.5000     0.5231     7.9171
 1886.0000     0.5230     7.9140
 1886.5000     0.5229     7.9103
 1887.0000     0.5229     7.9066
 1887.5000     0.5228     7.9029
 1888.0000     0.5227     7.8992
 1888.5000     0.5226     7.8955
 1889.0000     0.5225     7.8917
 1889.5000     0.5224     7.8873
 1890.0000     0.5223     7.8843
 1890.5000     0.5222     7.8806
 1891.0000     0.5221     7.8769
 1891.5000     0.5220     7.8727
 1892.0000     0.5219     7.8690
 1892.5000     0.5404     7.8654
 1893.0000     0.5403     7.8617
 1893.5000     0.5402     7.8580
 1894.0000     0.5401     7.8544
 1894.5000     0.5400     7.8507
 1895.0000     0.5400     7.8471
 1895.5000     0.5399     7.8434
 1896.0000     0.5398     7.8397
 1896.5000     0.5397     7.8355
 1897.0000     0.5396     7.8318
 1897.5000     0.5395     7.8282
 1898.0000     0.5394     7.8245
 1898.5000     0.5393     7.8209
 1899.0000     0.5392     7.8172
 1899.5000     0.5391     7.8136
 1900.0000     0.5390     7.8099
 1900.5000     0.5576     7.8099
 1901.0000     0.5576     7.8099
 1901.5000     0.5576     7.8099
 1902.0000     0.5390     7.8099
 1902.5000     0.5204     7.8099
 1903.0000     0.4833     7.8099
 1903.5000     0.4833     7.8099
 1904.0000     0.4833     7.8099
 1904.5000     0.6977     7.8099
 1905.0000     0.7063     7.8099
 1905.5000     0.6877     7.8099
 1906.0000     0.6877     7.8099
 1906.5000     0.6877     7.8099
 1907.0000     0.6877     7.8099
 1907.5000     0.6877     7.8099
 1908.0000     0.6877     7.8099
 1908.5000     0.6877     7.8099
 1909.0000     0.6877     7.8099
 1909.5000     0.6691     7.8099
 1910.0000     0.6691     7.8099
 1910.5000     0.6704     7.8099
 1911.0000     0.6877     7.8099
 1911.5000     0.6877     7.8099
 1912.0000     0.6877     7.8099
 1912.5000     0.6877     7.8099
 1913.0000     0.6877     7.8099
 1913.5000     0.6877     7.8099
 1914.0000     0.6877     7.8099
 1914.5000     0.6877     7.8099
 1915.0000     0.6691     7.8099
 1915.5000     0.6691     7.8099
 1916.0000     0.6691     7.8099
 1916.5000     0.6691     7.8099
 1917.0000     0.6691     7.8099
 1917.5000     0.6691     7.8099
 1918.0000     0.6691     7.8099
 1918.5000     0.6691     7.8099
 1919.0000     0.6691     7.8099
 1919.5000     0.6691     7.8099
 1920.0000     0.6691     7.8099
 1920.5000     0.6691     7.8099
 1921.0000     0.6605     7.8099
 1921.5000     0.6406     7.8099
 1922.0000     0.6320     7.8099
 1922.5000     0.6320     7.8099
 1923.0000     0.6320     7.8099
 1923.5000     0.6320     7.8099
 1924.0000     0.6134     7.8099
 1924.5000     0.6320     7.8099
 1925.0000     0.6134     7.8099
 1925.5000     0.6134     7.8099
 1926.0000     0.6877     7.8099
 1926.5000     0.6877     7.8099
 1927.0000     0.6828     7.8099
 1927.5000     0.6691     7.8099
 1928.0000     0.8550     7.8099
 1928.5000     0.8550     7.8099
 1929.0000     0.8364     7.8099
 1929.5000     0.8364     7.8099
 1930.0000     0.8364     7.8099
 1930.5000     0.8364     7.8099
 1931.0000     0.8364     7.8099
 1931.5000     0.8364     7.8099
 1932.0000     0.8364     7.8099
 1932.5000     0.8364     7.8099
 1933.0000     0.8550     7.8099
 1933.5000     0.8550     7.8099
 1934.0000     0.7584     7.8099
 1934.5000     0.5204     7.8099
 1935.0000     0.5266     7.8099
 1935.5000     0.5390     7.8099
 1936.0000     0.5390     7.8099
 1936.5000     0.5390     7.8099
 1937.0000     0.5390     7.8099
 1937.5000     0.5390     7.8099
 1938.0000     0.5390     7.8099
 1938.5000     0.5390     7.8099
 1939.0000     0.5390     7.8099
 1939.5000     0.5576     7.8099
 1940.0000     0.5576     7.8099
 1940.5000     0.5576     7.8099
 1941.0000     0.5576     7.8099
 1941.5000     0.5576     7.8099
 1942.0000     0.5576     7.8099
 1942.5000     0.5576     7.8099
 1943.0000     0.5576     7.8099
 1943.5000     0.5576     7.8099
 1944.0000     0.5576     7.8099
 1944.5000     0.5576     7.8099
 1945.0000     0.5576     7.8099
 1945.5000     0.5576     7.8099
 1946.0000     0.5576     7.8099
 1946.5000     0.5762     7.8099
 1947.0000     0.5762     7.8099
 1947.5000     0.5762     7.8099
 1948.0000     0.5948     7.8099
 1948.5000     0.5973     7.8099
 1949.0000     0.6134     7.8099
 1949.5000     0.6134     7.8099
 1950.0000     0.6134     7.8099
