~VERSION INFORMATION
 VERS.                2.0:   CWLS LOG ASCII STANDARD - VERSION 2.0
 WRAP.                 NO:   ONE LINE PER DEPTH STEP
~WELL INFORMATION
#MNEM.UNIT      DATA TYPE    INFORMATION
#----------   ------------   ------------------------------
 STRT.F            9.0000:   START DEPTH
 STOP.F          512.0000:   STOP DEPTH
 STEP.F            0.5000:   STEP LENGTH
 NULL.          -999.2500:   NO VALUE
 COMP. LAWRENCE-ALLISON &AS:   COMPANY
 WELL. NPR 3 #61-21SX10UP2:   WELL
 FLD .             TEAPOT:   FIELD
 LOC .      S10 T38N R78W:   LOCATION
 CNTY.            NATRONA:   COUNTY
 STAT.            WYOMING:   STATE
 CTRY. UNITED STATES OF AMERICA:   COUNTRY
 SRVC.      Dresser Atlas:   SERVICE COMPANY
 DATE.        13-DEC-1984:   LOGDATE
 API .       490251100500:   API NUMBER
~CURVE INFORMATION
#MNEM.UNIT       API CODE    CURVE DESCRIPTION
#----------   ------------   ------------------------------
 DEPT.F                  :   
 PORD.DEC    45 890 12 00:   POROSITY DENSITY SANDSTONE
 CNCF.DEC    42 890 03 00:   NEUTRON POROSITY SANDSTONE
 GRD .GAPI   45 310 01 00:   GAMMA RAY FROM DENSITY LOG
 CALD.IN     45 280 60 00:   CALIPER FROM DENSITY LOG
 CORR.G/C3   45 356 01 00:   DENSITY CORRECTION
 DEN .G/C3   45 350 01 00:   COMPENSATED BULK DENSTIY
 AC  .US/F   60 520 00 00:   ACCOUSTIC
 RILD.OHMM   07 120 46 00:   INDUCTION LOG DEEP RESISTIVITY
 RILM.OHMM   07 120 44 00:   INDUCTION LOG MEDIUM RESISTIVITY
 RFOC.OHMM   07 220 04 00:   RESISTIVITY FOCUSED LOG
 SPR .MV     11 010 01 00:   SPONTANEOUS POTENTIAL FROM RES.
 RS  .OHMM   11 220 09 00:   RESISTIVITY SHALLOW
 RD  .OHMM   11 220 10 00:   RESISTIVITY DEEP
~PARAMETER INFORMATION
#MNEM.UNIT          VALUE    DESCRIPTION
#----------   ------------   ------------------------------
 PD  .                 GL:   PERMANENT DATUM
 EPD .F              5157:   ELEVATION PERMANENT DATUM
 LMF .                 GL:   LOG MEASURED FROM
 DMF .                 GL:   DRILLING MEASURED FROM
 EGL .F              5157:   GROUND LEVEL
 DATE.         12-13-1984:   RUN DATE
 RUN .                  1:   RUN NUMBER
 DD  .F               514:   DEPTH DRILLER
 DL  .F               513:   DEPTH LOGGER
 BLI .F               512:   BOTTOM LOG INTERVAL
 TLI .F                20:   TOP LOG INTERVAL
 CS  .IN            8.625:   CASING SIZE
 CBD .F                20:   CASING BOTTOM DRILLER
 CBL .F                20:   CASING BOTTOM LOGGER
 BS  .IN            7.875:   BIT SIZE
 BSD .F               514:   BIT SIZE AT DEPTH
 DFT .          KCL WATER:   DRILLING FLUID TYPE
 MSS .           FLOWLINE:   MUD SAMPLE SOURCE
 RMS .OHMM            .17:   RESISTIVITY MUD SAMPLE
 MST .F                95:   MUD SAMPLE TEMPERATURE
 RMF .OHMM            .08:   RESISTIVITY MUD FILTRATE SAMPLE
 MFST.F                95:   MUD FILTRATE SAMPLE TEMPERATURE
 RMC .OHMM            .14:   RESISTIVITY MUD CAKE
 MCST.F                95:   MUD CAKE SAMPLE TEMPERATURE
 MFSS.               CALC:   MUD FILTRATE SAMPLE SOURCE
 MCSS.               CALC:   MUD CAKE SAMPLE SOURCE
 TCS .HRS              10:   TIME CURCULATED STOPPED
 MRT .F               100:   MAXIMUM RECORDED TEMPERATURE
 LUN .               6270:   LOGGING UNIT NUMBER
 LUL .                 FM:   LOGGING UNIT LOCATION
 ENGI.            LEBSOCK:   RECORDING ENGINEER
 WITN.        GREG GROOMS:   WITNESSED BY
 CLNT.            A2DTECH:   CLIENT CODE
 ORIG.           5" PRINT:   ORIGIN OF DATA
 UWI .       490251100500:   UNIQUE WELL ID
 DICO. A2D Technologies, Inc.:   DIGITIZING COMPANY
~OTHER INFORMATION
~A    DEPT    PORD       CNCF        GRD       CALD       CORR        DEN          AC      RILD       RILM       RFOC        SPR         RS         RD   
# ...
  191.0000     0.1882     0.3010   106.7982     7.7684     0.0380     2.3995   112.5581     4.6109     4.8526     4.6983   -73.2729     5.8828     7.9085
  191.5000     0.1949     0.2962   110.4081     7.7674     0.0364     2.3588   111.0554     4.8727     5.2733     4.9993   -72.9834     5.5630     8.1835
  192.0000     0.1762     0.2929   112.8133     7.7663     0.0212     2.3530   109.3262     5.2216     5.7304     5.8236   -72.9965     5.7695     8.9519
  192.5000     0.1569     0.2966   111.9051     7.7653     0.0090     2.3927   107.5971     5.5955     6.2271     6.5974   -72.8544     6.4958     9.9986
  193.0000     0.1430     0.3156   108.2861     7.7642     0.0044     2.4245   106.3962     6.0380     6.7668     7.2184   -73.0173     7.4069    11.4029
  193.5000     0.1388     0.3359   106.9262     7.7632     0.0013     2.4434   105.3463     6.6529     7.1018     7.5221   -73.0278     8.3275    12.6480
  194.0000     0.1391     0.3371   107.8253     7.7621     0.0028     2.4486   105.8059     7.0307     7.4017     7.7303   -73.0382     8.8547    13.3633
  194.5000     0.1397     0.3109   111.2846     7.7611     0.0042     2.4486   106.2654     7.3785     7.6607     7.8343   -73.0486     9.0921    13.3559
  195.0000     0.1406     0.3009   115.9488     7.7600     0.0041     2.4456   106.6494     7.7435     7.8193     7.8849   -73.0591     9.0782    13.5353
  195.5000     0.1410     0.3043   118.0527     7.7590     0.0026     2.4426   106.8826     7.9036     8.0367     7.9909   -73.0695     9.2124    13.7189
  196.0000     0.1398     0.3031   117.8976     7.7579     0.0010     2.4434   106.6628     8.0670     8.2030     8.0424   -72.9295     9.4542    14.0957
  196.5000     0.1371     0.2926   116.8389     7.7569    -0.0006     2.4494   106.2167     8.1765     8.2568     8.2075   -72.9405     9.7156    14.3845
  197.0000     0.1334     0.2793   112.4669     7.7558    -0.0007     2.4569   105.7706     8.3455     8.1393     8.3199   -72.9509     9.8478    14.6793
  197.5000     0.1280     0.2618   111.1069     7.7548     0.0008     2.4653   105.4754     8.4041     8.0748     8.4348   -72.8111    10.0502    14.8785
  198.0000     0.1244     0.2652   110.8012     7.7537     0.0037     2.4698   105.3311     8.5215     7.9570     8.5435   -72.8218    10.1845    14.9739
  198.5000     0.1229     0.2860   109.8931     7.7527     0.0097     2.4721   105.2624     8.6302     7.8510     8.5984   -72.6822    10.2505    15.0699
  199.0000     0.1223     0.2978   109.4367     7.7516     0.0096     2.4743   105.1953     8.6869     7.7926     8.6537   -72.6928    10.2455    14.9227
  199.5000     0.1223     0.3139   109.4322     7.7506     0.0095     2.4766   105.2020     8.6824     7.7354     8.5890   -72.7032    10.3131    14.8857
  200.0000     0.1205     0.3112   110.1090     7.7519     0.0117     2.4773   105.3098     8.6135     7.7330     8.6442   -72.8636    10.3007    14.8486
  200.5000     0.1143     0.2818   111.6250     7.7647     0.0256     2.4847   105.6661     8.5396     7.7728     8.6393   -72.9951    10.2109    14.8117
  201.0000     0.1074     0.2759   113.1410     7.7795     0.0395     2.4919   106.0487     8.4658     7.7791     8.6351   -73.1267    10.0866    14.7046
  201.5000     0.1005     0.2845   114.4111     7.7793     0.0532     2.5034   106.5067     8.4271     7.7754     8.6309   -73.2582     9.9434    14.5932
  202.0000     0.0952     0.3083   114.6988     7.7641     0.0560     2.5171   106.9648     8.4186     7.7170     8.5669   -73.3509     9.8705    14.3920
  202.5000     0.0943     0.3035   112.0934     7.7639     0.0543     2.5219   107.3474     8.3595     7.6072     8.5627   -73.2099     9.7982    14.2879
  203.0000     0.1016     0.3132   111.9880     7.7638     0.0482     2.5076   107.5790     8.3548     7.4973     8.5586   -73.3689     9.7264    14.2839
  203.5000     0.1092     0.3178   116.0542     7.7485     0.0400     2.5015   107.4333     8.4740     7.4428     8.6142   -73.3779     9.7911    14.2800
  204.0000     0.1101     0.3102   117.8614     7.7484     0.0242     2.4985   107.2122     8.6490     7.3875     8.7917   -73.2347     9.7183    14.1767
  204.5000     0.1098     0.2982   117.2590     7.7482     0.0181     2.4962   106.9910     8.6966     7.3312     8.8491   -72.9461     9.7830    14.1728
  205.0000     0.1125     0.2952   117.1084     7.7481     0.0256     2.4894   106.8453     8.6313     7.2278     8.8446   -72.9551     9.8470    14.2682
  205.5000     0.1162     0.2997   117.5602     7.7631     0.0331     2.4864   106.7750     8.5073     7.1244     8.8403   -73.1140     9.9104    14.2458
  206.0000     0.1150     0.2986   117.8614     7.7780     0.0346     2.4864   106.7854     8.2683     7.0225     8.7747   -73.5728     9.9063    14.0616
  206.5000     0.1138     0.2847   118.4639     7.7778     0.0285     2.4879   106.8610     8.0370     6.8242     8.4704   -73.7317     9.9714    14.0577
  207.0000     0.1153     0.2790   118.7651     7.7777     0.0178     2.4902   106.7908     7.8666     6.4472     8.4046   -74.0406     9.8981    13.9561
  207.5000     0.1199     0.2790   116.8072     7.7775     0.0057     2.4872   106.7205     7.6999     6.0143     8.5213   -74.0496     9.5565    13.7589
  208.0000     0.1250     0.2812   111.3855     7.7774     0.0012     2.4773   107.2554     7.4325     5.8892     8.3994   -74.0586     9.0996    13.1911
  208.5000     0.1305     0.2848   113.4940     7.7772     0.0222     2.4675   108.4682     7.2246     5.9275     7.8291   -73.9177     8.5450    12.7353
  209.0000     0.1362     0.2963   118.4639     7.7771     0.0147     2.4585   110.4357     7.0714     5.9685     6.7106   -73.7745     7.9687    11.3868
  209.5000     0.1429     0.2939   119.8193     7.7618     0.0071     2.4471   111.4221     6.8259     6.0889     6.4376   -73.6336     7.6937    11.2259
  210.0000     0.1375     0.2740   118.7651     7.7617     0.0040     2.4434   111.0499     6.5889     6.0859     6.7152   -73.6448     7.7441    11.3805
  210.5000     0.1296     0.2714   114.6988     7.7615     0.0070     2.4622   110.3759     6.4046     6.0830     7.2023   -73.6538     7.9037    11.8638
  211.0000     0.1260     0.2753   110.1807     7.7614     0.0130     2.4698   109.7019     6.2254     5.9070     7.6617   -73.5107     8.2938    12.4541
  211.5000     0.1254     0.3197   110.0301     7.7612     0.0129     2.4698   109.1034     5.9676     5.5811     8.0285   -73.3697     8.6429    12.5387
  212.0000     0.1258     0.3321   111.8373     7.7611     0.0023     2.4683   109.3350     5.7204     5.0953     8.0807   -73.2288     8.6393    12.3607
  212.5000     0.1277     0.3306   114.0964     7.7609    -0.0083     2.4630   111.1516     5.4455     4.9613     7.9557   -73.5399     7.9456    11.2857
  213.0000     0.1424     0.3298   116.2048     7.7759    -0.0023     2.4532   112.4399     5.2565     5.0284     7.4630   -73.9987     7.1042     9.6097
  213.5000     0.1547     0.3434   116.9578     7.7606     0.0127     2.4305   113.0489     5.1810     5.0995     5.2034   -74.3075     6.2656     7.9021
  214.0000     0.1587     0.3449   114.5482     7.7605     0.0293     2.4147   112.3749     5.2506     5.2047     5.0587   -74.4665     5.8864     8.0670
  214.5000     0.1515     0.3006   108.3735     7.7452     0.0308     2.4241   110.1160     5.3958     5.3121     5.8109   -74.4755     5.8899     9.1440
  215.0000     0.1394     0.2891   108.5241     7.7451     0.0292     2.4491   108.5363     5.6227     5.4596     6.7224   -74.3323     6.4091    10.0795
  215.5000     0.1255     0.2816   108.8253     7.7299     0.0277     2.4711   107.6359     6.0244     5.6545     7.4587   -73.8938     7.3639    11.7486
  216.0000     0.1177     0.2900   108.5241     7.7146     0.0246     2.4847   107.1883     6.4999     6.0595     7.8274   -73.6029     8.3332    12.5065
  216.5000     0.1135     0.2968   108.8253     7.7145     0.0230     2.4909   106.8916     7.0129     6.4534     7.9887   -73.1599     8.7946    12.5031
