~VERSION INFORMATION
 VERS.                2.0:   CWLS LOG ASCII STANDARD - VERSION 2.0
 WRAP.                 NO:   ONE LINE PER DEPTH STEP
~WELL INFORMATION
#MNEM.UNIT      DATA TYPE    INFORMATION
#----------   ------------   ------------------------------
 STRT.F           32.0000:   START DEPTH
 STOP.F          517.0000:   STOP DEPTH
 STEP.F            0.5000:   STEP LENGTH
 NULL.          -999.2500:   NO VALUE
 COMP.    FENIX & SCISSON:   COMPANY
 WELL.        NPR #75-S-3:   WELL
 FLD .             TEAPOT:   FIELD
 LOC .       S3 T38N R78W:   LOCATION
 CNTY.            NATRONA:   COUNTY
 STAT.            WYOMING:   STATE
 CTRY. UNITED STATES OF AMERICA:   COUNTRY
 SRVC.              Welex:   SERVICE COMPANY
 DATE.        08-MAR-1977:   LOGDATE
 API .       490251030900:   API NUMBER
~CURVE INFORMATION
#MNEM.UNIT       API CODE    CURVE DESCRIPTION
#----------   ------------   ------------------------------
 DEPT.F                  :   
 SPR .MV     07 010 01 00:   SPONTANEOUS POTENTIAL
 ILD .OHMM   07 120 46 00:   INDUCTION LOG DEEP RES
 ILM .OHMM   07 120 44 00:   INDUCTION LOG MEDIUM RES
 SGRD.OHMM   07 220 05 00:   SHALLOW  GUARD RESISTIVITY
 CALD.IN     45 280 60 00:   CALIPER FROM DENSITY
 GRD .GAPI   45 310 01 00:   GAMMA RAY FROM DENSITY LOG
 CORR.G/C3   45 356 01 00:   DENSITY CORRECTION
 DPHI.DEC    45 890 12 00:   DENSITY POROSITY SANDSTONE
 RHOB.G/C3   45 350 01 00:   BULK DENSITY
~PARAMETER INFORMATION
#MNEM.UNIT          VALUE    DESCRIPTION
#----------   ------------   ------------------------------
 PD  .                 GL:   PERMANENT DATUM
 EPD .F              5141:   ELEVATION PERMANENT DATUM
 LMF .                 GL:   LOG MEASURED FROM
 DMF .                 GL:   DRILLING MEASURED FROM
 EGL .F              5141:   GROUND LEVEL
 DATE.         03-08-1977:   RUN DATE
 RUN .                  1:   RUN NUMBER
 DD  .F               521:   DEPTH DRILLER
 DL  .F               521:   DEPTH LOGGER
 BLI .F               519:   BOTTOM LOG INTERVAL
 TLI .F                35:   TOP LOG INTERVAL
 CS  .IN            8.625:   CASING SIZE
 CBD .F                40:   CASING BOTTOM DRILLER
 CBL .F                42:   CASING BOTTOM LOGGER
 BS  .IN            7.875:   BIT SIZE
 BSD .F               521:   BIT SIZE AT DEPTH
 DFT .            KCL MUD:   DRILLING FLUID TYPE
 DFD .                8.5:   DRILLING FLUID DENSITY
 DFV .                 32:   DRILLING FLUID VISCOSITY
 DFPH.                  8:   DRILLING FLUID PH
 DFL .                8.5:   DRILLING FLUID LOSS
 MSS .            MUD PIT:   MUD SAMPLE SOURCE
 RMS .OHMM            .65:   RESISTIVITY MUD SAMPLE
 MST .F                53:   MUD SAMPLE TEMPERATURE
 RMF .OHMM            .51:   RESISTIVITY MUD FILTRATE SAMPLE
 MFST.F                58:   MUD FILTRATE SAMPLE TEMPERATURE
 RMC .OHMM            .67:   RESISTIVITY MUD CAKE
 MCST.F                54:   MUD CAKE SAMPLE TEMPERATURE
 MFSS.           FANN KIT:   MUD FILTRATE SAMPLE SOURCE
 MCSS.           FANN KIT:   MUD CAKE SAMPLE SOURCE
 RMB .OHMM            .53:   RESISTIVITY MUD AT BHT
 BHT .F                64:   BOTTOM HOLE TEMPERATURE
 TCS .HRS             1.5:   TIME CURCULATED STOPPED
 MRT .F                64:   MAXIMUM RECORDED TEMPERATURE
 LUN .               8611:   LOGGING UNIT NUMBER
 LUL .           GILLETTE:   LOGGING UNIT LOCATION
 ENGI.               DOAK:   RECORDING ENGINEER
 WITN.           S. BURKE:   WITNESSED BY
 CLNT.            A2DTECH:   CLIENT CODE
 ORIG.           5" PRINT:   ORIGIN OF DATA
 UWI .       490251030900:   UNIQUE WELL ID
 DICO. A2D Technologies, Inc.:   DIGITIZING COMPANY
~OTHER INFORMATION
~A   DEPT      SPR        ILD        ILM       SGRD       CALD        GRD        CORR        DPHI       RHOB 
# ...
  178.0000   -43.1796     8.0615     8.9997    11.1333     7.9928   113.7279     0.0523     0.1138     2.4580
  178.5000   -43.1737     8.0672     8.9441    11.7737     7.9926   110.9293     0.0525     0.1138     2.4581
  179.0000   -43.1678     8.0172     9.0137    12.1086     7.9924   109.7603     0.0541     0.1137     2.4589
  179.5000   -43.3094     7.8589     9.0823    11.6270     7.9922   108.8874     0.0543     0.1128     2.4605
  180.0000   -43.3034     7.6506     9.2147    10.6369     7.9920   108.6074     0.0545     0.1116     2.4636
  180.5000   -43.4450     7.3966     9.2211    10.7171     7.9917   106.5251     0.0546     0.1109     2.4667
  181.0000   -43.7341     7.2006     9.0387    11.0236     7.9915   104.4720     0.0548     0.1118     2.4682
  181.5000   -44.0232     6.9616     8.7991    10.8795     7.9913   103.6189     0.0520     0.1124     2.4653
  182.0000   -44.1647     6.7771     8.1626    10.3021     7.9911   103.3387     0.0491     0.1090     2.4676
  182.5000   -44.3063     6.5522     7.7303     9.9592     7.9909   103.0586     0.0508     0.1069     2.4707
  183.0000   -44.4479     6.3785     7.4725     9.6278     7.9907   104.4121     0.0540     0.1066     2.4723
  183.5000   -44.4420     6.2513     7.2744     8.9302     7.9905   107.0949     0.0556     0.1123     2.4694
  184.0000   -44.4361     6.2127     7.1305     6.6893     7.9903   110.2222     0.0498     0.1191     2.4574
  184.5000   -44.2827     6.2610     7.1367     7.1220     7.9901   111.8680     0.0469     0.1230     2.4477
  185.0000   -43.9818     6.3962     7.1910     8.7036     7.9899   113.5138     0.0486     0.1230     2.4463
  185.5000   -43.8284     6.5794     7.4996    10.4186     7.9897   114.1226     0.0487     0.1218     2.4479
  186.0000   -43.6749     6.7680     7.7678    11.3243     7.9895   113.3980     0.0504     0.1184     2.4577
  186.5000   -43.5215     6.9619     7.9904    10.7233     7.9892   110.4512     0.0536     0.1150     2.4668
  187.0000   -43.5163     7.1122     7.9959    10.2245     7.9890   108.5414     0.0553     0.1103     2.4744
  187.5000   -43.3630     7.2158     7.9465    10.1589     7.9888   108.2572     0.0584     0.1023     2.4805
  188.0000   -43.3570     7.3210     7.9520    10.8176     7.9886   108.1253     0.0602     0.0964     2.4843
  188.5000   -43.3512     7.3767     8.0679    11.2815     7.9884   106.8121     0.0618     0.0981     2.4828
  189.0000   -43.3453     7.3818     8.2421    11.4452     7.9882   105.1987     0.0620     0.1008     2.4775
  189.5000   -43.3393     7.4380     8.4782    11.2938     7.9880   105.3630     0.0604     0.1035     2.4755
  190.0000   -43.3334     7.3908     8.6612    10.8446     7.9878   106.8606     0.0578     0.1038     2.4763
  190.5000   -43.3274     7.3972     8.6672    10.7011     7.9876   108.3583     0.0564     0.1034     2.4772
  191.0000   -43.3215     7.4023     8.4375    10.7094     7.9874   109.2633     0.0581     0.1022     2.4788
  191.5000   -43.3157     7.3566     8.3264    10.7888     7.9872   109.7239     0.0583     0.1013     2.4788
  192.0000   -43.3097     7.2609     8.2749    10.7818     7.9870   110.3327     0.0585     0.1003     2.4789
  192.5000   -43.3038     7.1665     8.2238    10.7152     7.9867   110.7933     0.0586     0.1000     2.4790
  193.0000   -43.2979     7.0248     8.1730    10.4310     7.9865   111.5502     0.0588     0.0994     2.4798
  193.5000   -43.4395     6.8386     8.0127    10.0050     7.9863   112.1589     0.0590     0.0990     2.4814
  194.0000   -43.7285     6.6573     7.8424     9.6919     7.9844   112.6195     0.0591     0.0990     2.4822
  194.5000   -43.7964     6.4364     7.6354     9.5569     7.9810   112.7838     0.0593     0.0990     2.4800
  195.0000   -43.8642     6.2478     7.4338     9.4400     7.9775   112.8000     0.0594     0.1001     2.4763
  195.5000   -44.0795     6.0080     7.0337     9.3810     7.9741   112.6680     0.0596     0.1037     2.4734
  196.0000   -44.2949     5.8156     6.7087     9.2583     7.9707   112.2301     0.0598     0.1073     2.4690
  196.5000   -44.4364     5.7006     6.3548     8.9972     7.9673   110.8934     0.0599     0.1112     2.4653
  197.0000   -44.4313     5.6654     5.9864     8.0568     7.9638   109.6949     0.0601     0.1163     2.4616
  197.5000   -44.4253     5.6694     5.9494     6.7778     7.9604   108.8567     0.0603     0.1189     2.4497
  198.0000   -44.2719     5.6733     5.9975     5.4210     7.9570   109.1973     0.0604     0.1175     2.4505
  198.5000   -44.1185     5.7188     6.1262     8.4538     7.9535   109.9542     0.0606     0.1093     2.4618
  199.0000   -43.9651     5.8835     6.3475     9.6205     7.9501   111.7481     0.0592     0.1029     2.4724
  199.5000   -43.8117     6.2194     6.7087     9.9624     7.9467   112.5051     0.0594     0.0957     2.4875
  200.0000   -43.5108     6.5744     7.0920    10.1077     7.9435   112.3704     0.0611     0.0902     2.5049
  200.5000   -43.2039     6.9517     7.4990    10.2537     7.9458   110.4667     0.0613     0.0911     2.5011
  201.0000   -43.1889     7.0511     7.7433    10.5469     7.9478   109.8963     0.0615     0.0989     2.4870
  201.5000   -43.1766     7.1528     7.8807    10.8485     7.9499   110.0668     0.0601     0.0994     2.4819
  202.0000   -43.1633     7.2062     7.9407    10.8553     7.9520   111.8668     0.0603     0.0958     2.4865
  202.5000   -43.1501     7.2102     8.0564     9.8627     7.9541   114.1113     0.0575     0.0951     2.4881
  203.0000   -43.1368     7.3648     8.1738    10.3567     7.9561   117.2447     0.0562     0.0975     2.4844
  203.5000   -43.1235     7.5748     8.3502    10.9507     7.9582   119.7854     0.0548     0.0978     2.4837
  204.0000   -43.1103     7.7372     8.6488    11.1097     7.9603   119.0670     0.0535     0.0947     2.4884
  204.5000   -43.0970     7.8489     8.8965    11.0402     7.9623   111.6818     0.0507     0.0941     2.4915
  205.0000   -43.0837     7.9621     9.1514    11.1235     7.9644   109.1856     0.0493     0.0974     2.4855
  205.5000   -43.0693     7.8575     9.0932    11.2849     7.9665   110.2449     0.0465     0.1003     2.4811
  206.0000   -43.0572     7.8079     8.9134    11.3700     7.9686   113.2301     0.0451     0.1033     2.4789
  206.5000   -43.0439     7.8122     8.9210    11.3771     7.9706   115.6227     0.0438     0.0999     2.4813
  207.0000   -43.0306     7.8165     8.9272    11.3841     7.9727   117.5709     0.0456     0.1011     2.4799
  207.5000   -43.0173     7.8208     8.9333    11.5493     7.9748   119.3709     0.0457     0.1017     2.4778
  208.0000   -43.0041     7.8792     9.0013    11.6364     7.9769   115.8376     0.0489     0.1007     2.4771
  208.5000   -42.9908     7.9929     9.0697    11.8870     7.9789   114.0815     0.0506     0.0992     2.4832
  209.0000   -42.9775     8.1083     9.2019    11.9767     7.9810   114.5488     0.0523     0.0976     2.4886
  209.5000   -42.9642     8.1127     9.4005    12.1505     7.9831   115.1637     0.0540     0.0952     2.4924
  210.0000   -42.9510     8.1172     9.6698    12.2421     7.9852   115.1859     0.0572     0.0918     2.4947
  210.5000   -42.9377     8.0659     9.6765    12.2497     7.9861   112.9860     0.0589     0.0891     2.4986
  211.0000   -42.9244     8.0704     9.3553    12.0895     7.9867   110.6379     0.0621     0.0876     2.5032
  211.5000   -42.9111     8.1306     8.9210    11.9313     7.9873   112.2897     0.0638     0.0866     2.5048
  212.0000   -42.8979     8.1351     8.7430    12.0213     7.9879   114.6824     0.0640     0.0860     2.5041
  212.5000   -43.1796     8.1396     8.7506    12.1958     7.9885   114.2602     0.0656     0.0853     2.5035
  213.0000   -43.3138     8.1441     8.8171    12.1195     7.9891   113.0973     0.0658     0.0856     2.5073
  213.5000   -43.3005     8.0926     9.0074    12.0437     7.9897   112.3788     0.0644     0.0880     2.5059
  214.0000   -43.4347     8.0971     9.2019    11.6429     7.9903   112.2242     0.0601     0.0906     2.4955
