~VERSION INFORMATION
 VERS.                2.0:   CWLS LOG ASCII STANDARD - VERSION 2.0
 WRAP.                 NO:   ONE LINE PER DEPTH STEP
~WELL INFORMATION
#MNEM.UNIT      DATA TYPE    INFORMATION
#----------   ------------   ------------------------------
 STRT.F           38.0000:   START DEPTH
 STOP.F          483.5000:   STOP DEPTH
 STEP.F            0.5000:   STEP LENGTH
 NULL.          -999.2500:   NO VALUE
 COMP. FENIX & SCISSON INC:   COMPANY
 WELL.    43 SX 10 #43-10:   WELL
 FLD .             TEAPOT:   FIELD
 LOC .      S10 T38N R78W:   LOCATION
 CNTY.            NATRONA:   COUNTY
 STAT.            WYOMING:   STATE
 CTRY. UNITED STATES OF AMERICA:   COUNTRY
 SRVC.            Unknown:   SERVICE COMPANY
 DATE.        12-NOV-1978:   LOGDATE
 API .       490251072700:   API NUMBER
~CURVE INFORMATION
#MNEM.UNIT       API CODE    CURVE DESCRIPTION
#----------   ------------   ------------------------------
 DEPT.F                  :   
 SPR .MV     05 010 01 00:   SPONTANEOUS POTENTIAL FROM RES.
 SN  .OHMM   05 040 16 00:   SHORT NORMAL 16"
 IL  .OHMM   05 120 00 00:   INDUCTION LOG
 GRD .GAPI   45 310 01 00:   GAMMA RAY FROM DENSITY LOG
 CALD.IN     45 280 60 00:   CALIPER
 DEN .G/C3   45 350 01 00:   COMPENSATED BULK DENSTIY
 DPHI.DEC    45 890 12 00:   DENSITY POROSITY SANDSTONE
 CORR.G/C3   45 356 01 00:   DENSITY CORRECTION
~PARAMETER INFORMATION
#MNEM.UNIT          VALUE    DESCRIPTION
#----------   ------------   ------------------------------
 PD  .                 GL:   PERMANENT DATUM
 EPD .F              5193:   ELEVATION PERMANENT DATUM
 LMF .                 KB:   LOG MEASURED FROM
 DAPD.F                 4:   FEET ABOVE PERMANENT DATUM
 DMF .                 KB:   DRILLING MEASURED FROM
 EKB .F              5197:   KELLING BUSHING
 EGL .F              5193:   GROUND LEVEL
 DATE.           11-12-78:   RUN DATE
 RUN .                  1:   RUN NUMBER
 DD  .F               480:   DEPTH DRILLER
 DL  .F               485:   DEPTH LOGGER
 BLI .F               479:   BOTTOM LOG INTERVAL
 TLI .F                50:   TOP LOG INTERVAL
 CS  .IN            8.625:   CASING SIZE
 CBD .F                40:   CASING BOTTOM DRILLER
 CBL .F                45:   CASING BOTTOM LOGGER
 BS  .IN            7.875:   BIT SIZE
 BSD .F               480:   BIT SIZE AT DEPTH
 DFT .            SEA MUD:   DRILLING FLUID TYPE
 DFD .                8.7:   DRILLING FLUID DENSITY
 DFV .                 36:   DRILLING FLUID VISCOSITY
 DFPH.               10.5:   DRILLING FLUID PH
 MSS .            MUD PIT:   MUD SAMPLE SOURCE
 RMS .OHMM            .42:   RESISTIVITY MUD SAMPLE
 MST .F                52:   MUD SAMPLE TEMPERATURE
 RMF .OHMM            .42:   RESISTIVITY MUD FILTRATE SAMPLE
 MFST.F                52:   MUD FILTRATE SAMPLE TEMPERATURE
 RMC .OHMM            .48:   RESISTIVITY MUD CAKE
 MCST.F                54:   MUD CAKE SAMPLE TEMPERATURE
 MFSS.               MEAS:   MUD FILTRATE SAMPLE SOURCE
 MCSS.               MEAS:   MUD CAKE SAMPLE SOURCE
 RMB .OHMM            .34:   RESISTIVITY MUD AT BHT
 BHT .F                71:   BOTTOM HOLE TEMPERATURE
 TCS .HRS               3:   TIME CURCULATED STOPPED
 MRT .F                71:   MAXIMUM RECORDED TEMPERATURE
 LUN .               3006:   LOGGING UNIT NUMBER
 LUL .               CASP:   LOGGING UNIT LOCATION
 ENGI.             MILLER:   RECORDING ENGINEER
 WITN.           DINSMORE:   WITNESSED BY
 CLNT.            A2DTECH:   CLIENT CODE
 ORIG.       2", 5" PRINT:   ORIGIN OF DATA
 UWI .       490251072700:   UNIQUE WELL ID
 DICO. A2D Technologies, Inc.:   DIGITIZING COMPANY
~OTHER INFORMATION
~A   DEPT      SPR         SN         IL         GRD      CALD        DEN       DPHI       CORR   
# ...
  240.5000   -32.1735     6.8948     6.0353    94.1461     8.5346     2.4544     0.1331     0.0595
  241.0000   -32.1709     7.0244     5.9845    93.3036     8.5346     2.4365     0.1445     0.0636
  241.5000   -32.1714     7.1575     5.9220    92.0973     8.5346     2.4203     0.1553     0.0662
  242.0000   -32.1713     7.1884     5.9274   116.2381     8.5346     2.4209     0.1529     0.0632
  242.5000   -32.1713     6.9613     5.9359   127.5210     8.5347     2.4511     0.1401     0.0575
  243.0000   -32.1715     6.7736     5.9446   126.1881     8.5348     2.4709     0.1243     0.0524
  243.5000   -32.1709     6.5546     5.9532   126.0829     8.5348     2.4738     0.1232     0.0525
  244.0000   -32.1745     6.5767     5.9619   125.8184     8.5268     2.4771     0.1229     0.0530
  244.5000   -31.9071     6.6045     5.9708   125.3262     8.4727     2.4845     0.1224     0.0567
  245.0000   -31.4785     6.7533     6.0077   124.9266     8.4178     2.4933     0.1147     0.0604
  245.5000   -31.0416     7.0965     6.1489   123.6488     8.4319     2.4991     0.1080     0.0597
  246.0000   -31.0679     7.4571     6.4239   121.6233     8.4914     2.4973     0.1082     0.0586
  246.5000   -31.1790     7.6833     6.7923   121.0343     8.5527     2.4945     0.1112     0.0574
  247.0000   -31.2915     7.7210     6.9688   119.7995     8.5661     2.4917     0.1118     0.0563
  247.5000   -31.3822     7.7589     7.0619   115.5327     8.4038     2.4889     0.1124     0.0552
  248.0000   -31.4079     7.7969     7.1852   112.5552     8.4727     2.4870     0.1142     0.0559
  248.5000   -31.4342     7.8095     6.9218   112.1316     8.5192     2.4706     0.1245     0.0590
  249.0000   -31.4606     7.5926     6.5345   108.7077     8.5288     2.4474     0.1389     0.0620
  249.5000   -31.4870     7.4487     6.1724   104.8645     8.5385     2.4237     0.1532     0.0689
  250.0000   -31.5135     7.3214     5.8268   104.6262     8.5476     2.4042     0.1621     0.0711
  250.5000   -31.5403     7.0300     5.6000   108.5496     8.5399     2.4279     0.1496     0.0687
  251.0000   -31.5731     6.6667     5.6050   110.8117     8.4869     2.4511     0.1318     0.0703
  251.5000   -31.2981     6.2840     5.6035   111.1365     8.4941     2.4742     0.1158     0.0719
  252.0000   -30.9171     6.1902     5.5612   111.3727     8.5198     2.4848     0.1144     0.0701
  252.5000   -30.5349     6.1681     5.5160   115.0305     8.5461     2.4850     0.1146     0.0654
  253.0000   -30.1501     6.1449     5.4509   117.6587     8.5721     2.4850     0.1156     0.0608
  253.5000   -29.9935     6.5225     5.6969   117.5505     8.5947     2.4877     0.1153     0.0623
  254.0000   -30.0095     6.9457     6.1715   117.2118     8.5941     2.4925     0.1133     0.0641
  254.5000   -30.0285     7.3963     6.6857   116.9419     8.5941     2.4973     0.1104     0.0660
  255.0000   -30.0480     7.6812     7.2542   118.8546     8.5941     2.5022     0.1060     0.0678
  255.5000   -30.0671     7.9106     7.4213   118.9940     8.5941     2.5071     0.1016     0.0683
  256.0000   -30.0863     8.1468     7.5957   118.3046     8.5941     2.5093     0.1008     0.0678
  256.5000   -30.1054     8.3902     7.7743   117.6068     8.5941     2.5101     0.1008     0.0673
  257.0000   -30.1245     8.6410     7.9570   117.3184     8.5941     2.5109     0.1008     0.0668
  257.5000   -30.1436     8.8999     8.1440   116.7507     8.5944     2.5111     0.1011     0.0663
  258.0000   -30.1627     9.0639     8.1907   112.9087     8.5925     2.5073     0.1022     0.0658
  258.5000   -30.1819     9.0947     8.2064   111.5242     8.5503     2.5028     0.1034     0.0653
  259.0000   -30.2010     9.1257     8.2221   108.4727     8.5074     2.4982     0.1068     0.0647
  259.5000   -30.2201     9.1568     8.2378   106.4207     8.4795     2.4939     0.1107     0.0650
  260.0000   -30.2392     9.1880     8.2535   101.5464     8.5039     2.4983     0.1080     0.0656
  260.5000   -30.2584     9.2192     8.2693   100.3789     8.5274     2.5033     0.1044     0.0663
  261.0000   -30.2775     9.2507     8.2851   100.4720     8.5278     2.5043     0.1044     0.0669
  261.5000   -30.2966     9.2822     8.3010   102.3413     8.5180     2.5047     0.1043     0.0676
  262.0000   -30.3157     9.3047     8.3168   104.6371     8.5185     2.5051     0.1043     0.0683
  262.5000   -30.3348     9.3046     8.3327   106.5226     8.5257     2.5055     0.1042     0.0705
  263.0000   -30.3537     9.3046     8.3486   108.1734     8.5330     2.5059     0.1042     0.0743
  263.5000   -30.3701     9.3046     8.3646   109.6651     8.5403     2.5062     0.1041     0.0779
  264.0000   -30.5594     9.3046     8.3808   109.9903     8.5476     2.5064     0.1041     0.0759
  264.5000   -30.8088     9.3046     8.3967   110.9448     8.5549     2.5066     0.1040     0.0605
  265.0000   -31.0613     9.3046     8.4533   111.2764     8.5623     2.5068     0.1038     0.0452
  265.5000   -31.1723     9.3046     8.5920   110.6473     8.5694     2.5070     0.1025     0.0384
  266.0000   -31.2211     9.3046     8.7330   109.9828     8.5648     2.5062     0.1020     0.0386
  266.5000   -31.2819     9.3047     8.8774   110.0770     8.5367     2.5053     0.1032     0.0386
  267.0000   -31.3426     9.3042     8.9696   110.3465     8.5091     2.5044     0.1055     0.0343
  267.5000   -31.4037     9.3057     8.9715   111.9303     8.4813     2.4977     0.1160     0.0209
  268.0000   -31.4656     9.1968     8.9724   113.4961     8.4493     2.4770     0.1373     0.0143
  268.5000   -31.5254     9.1359     8.2020   115.0098     8.4158     2.4346     0.1586     0.0256
  269.0000   -31.4953     9.0744     7.6068   120.9466     8.3741     2.3924     0.1799     0.0365
  269.5000   -31.0476     8.7469     7.0562   124.4046     8.3176     2.3746     0.1825     0.0335
  270.0000   -30.6110     8.2685     6.5546   123.9416     8.3249     2.4245     0.1714     0.0313
  270.5000   -30.1525     7.8155     7.0563   120.2092     8.3676     2.4645     0.1278     0.0324
  271.0000   -29.1491     7.3878     7.0563   109.6896     8.4337     2.5043     0.1034     0.0336
  271.5000   -28.1375     7.1854     7.0563   103.0140     8.5025     2.5248     0.0904     0.0352
  272.0000   -27.8854     7.1854     7.0563   102.9097     8.5492     2.5206     0.0926     0.0432
  272.5000   -27.7656     7.7128     7.2844   102.8967     8.5172     2.5161     0.0959     0.0532
  273.0000   -27.6478     8.5111     7.8102   102.4027     8.4870     2.5117     0.0992     0.0624
  273.5000   -27.5285     9.3825     8.5815   100.9738     8.4572     2.5072     0.1025     0.0627
  274.0000   -27.4089    10.3461     9.6904   100.3521     8.4370     2.5031     0.1056     0.0586
  274.5000   -27.2899    11.1302    10.9426   100.5123     8.4454     2.5018     0.1054     0.0504
  275.0000   -27.1700    11.2774    11.1308    99.8711     8.4536     2.4996     0.1059     0.0329
  275.5000   -27.0491    11.4281    11.1956   100.0893     8.4493     2.4937     0.1124     0.0222
  276.0000   -26.5504    11.5809    11.2607   101.6324     8.4407     2.4881     0.1159     0.0184
  276.5000   -25.7505    11.7668    11.3254   102.7932     8.4320     2.4822     0.1167     0.0185
  277.0000   -25.5710    12.1841    11.3957    97.6956     8.4234     2.4712     0.1237     0.0186
  277.5000   -25.3723    12.6162    11.8995    93.5480     8.4153     2.4428     0.1445     0.0232
  278.0000   -25.0469    13.0872    12.4673    86.3610     8.3971     2.4086     0.1660     0.0312
  278.5000   -23.9896    13.7805    13.4811    78.4998     8.3769     2.3743     0.1876     0.0363
  279.0000   -22.9298    14.5514    14.7373    73.5983     8.3574     2.3399     0.2058     0.0354
  279.5000   -21.8807    15.3654    16.1087    70.0323     8.3650     2.3368     0.2054     0.0346
  280.0000   -21.1596    16.2250    17.6074    69.9264     8.3742     2.3433     0.2011     0.0371
  280.5000   -21.0534    17.1327    19.2456    70.5487     8.3833     2.3493     0.1997     0.0398
