~VERSION INFORMATION
 VERS.                2.0:   CWLS LOG ASCII STANDARD - VERSION 2.0
 WRAP.                 NO:   ONE LINE PER DEPTH STEP
~WELL INFORMATION
#MNEM.UNIT      DATA TYPE    INFORMATION
#----------   ------------   ------------------------------
 STRT.F            0.0000:   START DEPTH
 STOP.F          545.0000:   STOP DEPTH
 STEP.F            0.1000:   STEP LENGTH
 NULL.          -999.2500:   NO VALUE
 COMP.       F D SERV INC:   COMPANY
 WELL. NAVAL PETROLEUM RESERVE 3 SX-3 #88-5-3:   WELL
 FLD .             TEAPOT:   FIELD
 LOC .       S3 T38N R78W:   LOCATION
 CNTY.            NATRONA:   COUNTY
 STAT.            WYOMING:   STATE
 CTRY. UNITED STATES OF AMERICA:   COUNTRY
 SRVC.     Atlas Wireline:   SERVICE COMPANY
 DATE.        14-OCT-1992:   LOGDATE
 API .       490252255700:   API NUMBER
~CURVE INFORMATION
#MNEM.UNIT       API CODE    CURVE DESCRIPTION
#----------   ------------   ------------------------------
 DEPT.F                  :   
 GRR .GAPI   07 310 01 00:   GAMMA RAY
 RILD.OHMM   07 120 46 00:   INDUCTION LOG DEEP RESISTIVITY
 RILM.OHMM   07 120 44 00:   INDUCTION LOG MEDIUM RESISTIVITY
~PARAMETER INFORMATION
#MNEM.UNIT          VALUE    DESCRIPTION
#----------   ------------   ------------------------------
 PD  .                 GL:   PERMANENT DATUM
 EPD .F              5152:   ELEVATION PERMANENT DATUM
 LMF .                 KB:   LOG MEASURED FROM
 DAPD.F                10:   FEET ABOVE PERMANENT DATUM
 DMF .                 KB:   DRILLING MEASURED FROM
 EKB .F              5162:   KELLING BUSHING
 EDF .F              5161:   DRILLING FLOOR
 EGL .F              5152:   GROUND LEVEL
 DATE.        14-OCT-1992:   RUN DATE
 RUN .                  1:   RUN NUMBER
 DD  .F               555:   DEPTH DRILLER
 DL  .F               552:   DEPTH LOGGER
 BLI .F               546:   BOTTOM LOG INTERVAL
 CS  .IN            8.625:   CASING SIZE
 CBD .F                85:   CASING BOTTOM DRILLER
 CBL .F                96:   CASING BOTTOM LOGGER
 BS  .IN            7.875:   BIT SIZE
 BSD .F               555:   BIT SIZE AT DEPTH
 DFT .           AIR FOAM:   DRILLING FLUID TYPE
 BHT .F                72:   BOTTOM HOLE TEMPERATURE
 TCS .HRS               2:   TIME CURCULATED STOPPED
 MRT .F                72:   MAXIMUM RECORDED TEMPERATURE
 LUN .            HL-6274:   LOGGING UNIT NUMBER
 LUL .             CASPER:   LOGGING UNIT LOCATION
 ENGI.             RAUTIO:   RECORDING ENGINEER
 WITN.        GARY STRONG:   WITNESSED BY
 CLNT.            A2DTECH:   CLIENT CODE
 ORIG.           5" PRINT:   ORIGIN OF DATA
 UWI .       490252255700:   UNIQUE WELL ID
 DICO. A2D Technologies, Inc.:   DIGITIZING COMPANY
~OTHER INFORMATION
~A    DEPT      GRR      RILD       RILM   
# ...
  436.8000   100.8088    18.7820    18.8482
  436.9000   101.3646    18.6998    18.7337
  437.0000   102.0301    18.6990    18.7325
  437.1000   102.6778    18.6982    18.6392
  437.2000   103.6605    18.6975    18.6015
  437.3000   104.2088    18.6967    18.6004
  437.4000   104.9321    18.6246    18.5994
  437.5000   105.3053    18.5129    18.5770
  437.6000   105.4030    18.4374    18.4691
  437.7000   105.4006    18.4367    18.4679
  437.8000   105.3982    18.4359    18.3709
  437.9000   105.3622    18.4350    18.3387
  438.0000   105.0930    18.3411    18.3377
  438.1000   105.0902    18.2312    18.2933
  438.2000   105.0883    18.1795    18.1834
  438.3000   105.0859    18.1787    18.0826
  438.4000   105.0835    18.1780    18.0815
  438.5000   105.0811    18.1709    18.0806
  438.6000   105.0787    18.0510    17.9978
  438.7000   105.0763    17.9537    17.8897
  438.8000   105.0735    17.9251    17.8292
  438.9000   104.8536    17.9244    17.7982
  439.0000   104.7688    17.8783    17.6912
  439.1000   104.7664    17.7711    17.5811
  439.2000   104.4854    17.6758    17.5800
  439.3000   103.3999    17.6751    17.4950
  439.4000   101.1073    17.6744    17.3900
  439.5000    99.6514    17.5904    17.3357
  439.6000    98.7427    17.4849    17.3347
  439.7000    97.8906    17.4293    17.3164
  439.8000    97.2556    17.3957    17.2133
  439.9000    96.9393    17.3076    17.2122
  440.0000    96.9369    17.3069    17.1244
  440.1000    96.9345    17.1868    17.0918
  440.2000    96.9319    17.1862    17.0908
  440.3000    97.1652    17.1854    17.0899
  440.4000    97.4214    17.1310    17.0672
  440.5000    97.5255    17.0283    16.9701
  440.6000    97.5231    16.9471    16.9691
  440.7000    97.4519    16.9464    16.8779
  440.8000    97.1908    16.9456    16.8503
  440.9000    96.9152    16.8550    16.8494
  441.0000    96.9129    16.8275    16.8484
  441.1000    96.9105    16.7692    16.8216
  441.2000    96.9081    16.7100    16.7206
  441.3000    96.9057    16.7093    16.6141
  441.4000    96.9033    16.6987    16.6132
  441.5000    96.9009    16.5927    16.5351
  441.6000    96.8984    16.4990    16.4968
  441.7000    97.1960    16.4769    16.4959
  441.8000    97.1940    16.4763    16.4950
  441.9000    97.3614    16.4298    16.4799
  442.0000    97.4895    16.3613    16.3794
  442.1000    97.4871    16.3606    16.3783
  442.2000    97.4847    16.3599    16.3776
  442.3000    97.4823    16.2463    16.3767
  442.4000    97.4795    16.2458    16.3758
  442.5000    97.4775    16.2451    16.3410
  442.6000    97.6537    16.2444    16.2428
  442.7000    97.9099    16.2090    16.1480
  442.8000    98.1662    16.1310    16.1470
  442.9000    98.4224    16.1263    15.9796
  443.0000    98.6668    16.0184    15.9234
  443.1000    98.6640    16.0178    15.8703
  443.2000    98.6619    16.0171    15.7750
  443.3000    98.4720    16.0165    15.7020
  443.4000    98.2110    16.0158    15.6942
  443.5000    97.9500    15.9912    15.5919
  443.6000    97.6889    15.9041    15.5062
  443.7000    97.4278    15.9033    15.4827
  443.8000    97.1458    15.9027    15.4819
  443.9000    96.9057    15.8286    15.4407
  444.0000    96.4485    15.7918    15.3480
  444.1000    96.2378    15.7911    15.2665
  444.2000    96.0096    15.7904    15.2657
  444.3000    95.6324    15.7898    15.1594
  444.4000    95.5708    15.7891    15.1587
  444.5000    95.0269    15.6795    15.1001
  444.6000    95.0246    15.6018    15.0525
  444.7000    94.8172    15.5702    15.0228
  444.8000    94.5562    15.5223    14.9471
  444.9000    94.1734    15.4615    14.9459
  445.0000    93.7337    15.4431    14.8422
  445.1000    93.5111    15.3536    14.8416
  445.2000    93.5087    15.3529    14.7801
  445.3000    93.8062    15.3524    14.7376
  445.4000    94.2318    15.2861    14.7045
  445.5000    94.7468    15.1944    14.6343
  445.6000    95.2616    15.1395    14.6335
  445.7000    95.7765    15.0951    14.6326
  445.8000    96.3387    14.9301    14.6319
  445.9000    97.1011    14.9295    14.5675
  446.0000    97.3931    14.8465    14.5294
  446.1000    97.8363    14.7575    14.4929
  446.2000    98.3512    14.7225    14.4276
  446.3000    98.5874    14.6823    14.4268
  446.4000    98.7803    14.6197    14.4259
  446.5000    99.2392    14.6074    14.4252
  446.6000    99.4812    14.5177    14.4244
  446.7000    99.4784    14.5170    14.4236
  446.8000    99.7077    14.4458    14.3836
  446.9000    99.7742    14.3591    14.3225
  447.0000    99.7718    14.3158    14.3218
  447.1000    99.7694    14.3152    14.3209
  447.2000    99.7021    14.3146    14.2213
  447.3000    99.4411    14.3117    14.2206
  447.4000    99.1614    14.2146    14.1639
  447.5000    99.1592    14.2141    14.0788
  447.6000    99.1568    14.2135    14.0228
  447.7000    99.1544    14.1662    14.0067
  447.8000    99.1519    14.1144    13.9246
  447.9000    99.1495    14.1138    13.9237
  448.0000    99.1471    14.1067    13.8514
  448.1000    99.1447    14.0152    13.8263
  448.2000    99.1419    13.9380    13.7805
  448.3000    99.3474    13.9175    13.6977
  448.4000    99.4378    13.9169    13.6340
  448.5000    99.5595    13.8795    13.6332
  448.6000    99.8158    13.8198    13.6324
  448.7000   100.0721    13.8087    13.6317
  448.8000   100.3291    13.7233    13.5700
  448.9000   100.6266    13.7227    13.5362
  449.0000   100.8409    13.7222    13.5006
  449.1000   101.2716    13.7216    13.4414
  449.2000   101.7865    13.7211    13.4406
  449.3000   102.3015    13.7205    13.4399
  449.4000   102.8164    13.7054    13.4392
  449.5000   103.3233    13.6247    13.3748
  449.6000   103.6129    13.6241    13.3450
  449.7000   103.8358    13.6236    13.3443
  449.8000   104.2755    13.6230    13.3435
  449.9000   104.7904    13.6225    13.3302
  450.0000   105.2921    13.6125    13.2500
  450.1000   105.7731    13.5877    13.2753
  450.2000   106.2540    13.5628    13.3006
  450.3000   106.7350    13.5379    13.3259
  450.4000   107.2072    13.5130    13.3512
  450.5000   107.4951    13.4881    13.3765
  450.6000   107.4931    13.4633    13.4018
  450.7000   107.4907    13.4384    13.4307
  450.8000   107.4883    13.4135    13.4302
  450.9000   107.4859    13.3886    13.4297
  451.0000   107.4354    13.3637    13.4291
  451.1000   106.8803    13.3359    13.4286
  451.2000   106.6490    13.3354    13.4280
  451.3000   105.8497    13.3348    13.4274
  451.4000   103.9002    13.3343    13.4269
  451.5000   101.5494    13.3337    13.4263
  451.6000   100.1081    13.3332    13.4258
  451.7000    99.0582    13.3326    13.4252
  451.8000    98.5690    13.3321    13.4247
  451.9000    98.0613    13.3315    13.4241
  452.0000    97.8499    13.3310    13.4235
  452.1000    97.8475    13.3304    13.4230
  452.2000    97.8450    13.3299    13.4224
  452.3000    97.8478    13.3293    13.4219
  452.4000    98.1401    13.3288    13.4213
  452.5000    98.5586    13.3282    13.4208
  452.6000    98.8989    13.3276    13.4201
  452.7000    99.1492    13.3271    13.4196
  452.8000    99.3994    13.3265    13.4191
  452.9000    99.6496    13.3260    13.4185
  453.0000    99.9277    13.3253    13.4180
  453.1000   100.1502    13.3249    13.4174
  453.2000   100.2234    13.3243    13.4168
  453.3000   100.3504    13.3238    13.4163
  453.4000   100.6007    13.3232    13.4157
  453.5000   100.8850    13.3227    13.4152
  453.6000   101.4149    13.3220    13.4146
  453.7000   102.1296    13.3216    13.4141
  453.8000   102.6938    13.3210    13.4135
  453.9000   103.1968    13.2837    13.4130
  454.0000   103.6996    13.2280    13.4124
  454.1000   104.2509    13.2275    13.4118
  454.2000   105.0058    13.2269    13.4113
  454.3000   105.6020    13.2264    13.3996
  454.4000   106.0116    13.1714    13.3177
  454.5000   106.5145    13.1341    13.2437
  454.6000   107.0174    13.1336    13.2248
  454.7000   107.3946    13.1330    13.2242
  454.8000   107.4074    13.1324    13.2237
  454.9000   107.6898    13.1319    13.2231
