~VERSION INFORMATION
 VERS.                2.0:   CWLS LOG ASCII STANDARD - VERSION 2.0
 WRAP.                 NO:   ONE LINE PER DEPTH STEP
~WELL INFORMATION
#MNEM.UNIT      DATA TYPE    INFORMATION
#----------   ------------   ------------------------------
 STRT.F            2.0000:   START DEPTH
 STOP.F          560.0000:   STOP DEPTH
 STEP.F            0.1000:   STEP LENGTH
 NULL.          -999.2500:   NO VALUE
 COMP.       F D SERV INC:   COMPANY
 WELL. NAVAL PETROLEUM RESERVE 3 SX-3 #88-3:   WELL
 FLD .             NPR #3:   FIELD
 LOC .       S3 T38N R78W:   LOCATION
 CNTY.            NATRONA:   COUNTY
 STAT.            WYOMING:   STATE
 CTRY. UNITED STATES OF AMERICA:   COUNTRY
 SRVC.      Western Atlas:   SERVICE COMPANY
 DATE.        30-OCT-1992:   LOGDATE
 API .       490252254900:   API NUMBER
~CURVE INFORMATION
#MNEM.UNIT       API CODE    CURVE DESCRIPTION
#----------   ------------   ------------------------------
 DEPT.F                  :   
 GRR .GAPI   07 310 01 00:   GAMMA RAY
 RILD.OHMM   07 120 46 00:   INDUCTION LOG DEEP RESISTIVITY
 RILM.OHMM   07 120 44 00:   INDUCTION LOG MEDIUM RESISTIVITY
~PARAMETER INFORMATION
#MNEM.UNIT          VALUE    DESCRIPTION
#----------   ------------   ------------------------------
 PD  .                 GL:   PERMANENT DATUM
 EPD .F              5131:   ELEVATION PERMANENT DATUM
 LMF .                 KB:   LOG MEASURED FROM
 DAPD.F                10:   FEET ABOVE PERMANENT DATUM
 DMF .                 KB:   DRILLING MEASURED FROM
 EKB .F              5141:   KELLING BUSHING
 EDF .F              5140:   DRILLING FLOOR
 EGL .F              5131:   GROUND LEVEL
 DATE.        30-OCT-1992:   RUN DATE
 RUN .                  1:   RUN NUMBER
 DD  .F               568:   DEPTH DRILLER
 DL  .F               568:   DEPTH LOGGER
 BLI .F               560:   BOTTOM LOG INTERVAL
 CS  .IN            8.625:   CASING SIZE
 CBD .F                73:   CASING BOTTOM DRILLER
 CBL .F                73:   CASING BOTTOM LOGGER
 BS  .IN            7.875:   BIT SIZE
 BSD .F               568:   BIT SIZE AT DEPTH
 DFT .           AIR FOAM:   DRILLING FLUID TYPE
 BHT .F                63:   BOTTOM HOLE TEMPERATURE
 TCS .HRS               2:   TIME CURCULATED STOPPED
 MRT .F                63:   MAXIMUM RECORDED TEMPERATURE
 LUN .            HL-6274:   LOGGING UNIT NUMBER
 LUL .             CASPER:   LOGGING UNIT LOCATION
 ENGI.             RAUTIO:   RECORDING ENGINEER
 WITN.          BOB SYLAR:   WITNESSED BY
 CLNT.            A2DTECH:   CLIENT CODE
 ORIG.           5" PRINT:   ORIGIN OF DATA
 UWI .       490252254900:   UNIQUE WELL ID
 DICO. A2D Technologies, Inc.:   DIGITIZING COMPANY
~OTHER INFORMATION
~A    DEPT      GRR      RILD       RILM   
# ...
  420.6000    84.1596    22.1942    21.4297
  420.7000    82.5601    23.0680    22.3232
  420.8000    80.7787    23.6949    23.1169
  420.9000    78.3767    24.3435    23.9378
  421.0000    76.5865    25.3438    24.7749
  421.1000    74.4869    25.8698    25.5888
  421.2000    73.4296    26.5049    25.9912
  421.3000    72.6421    27.0852    26.3426
  421.4000    72.4782    27.5639    26.6526
  421.5000    72.7367    28.1823    26.9660
  421.6000    72.9952    29.1572    27.2829
  421.7000    73.2837    29.9259    27.6241
  421.8000    73.5124    30.7113    27.7767
  421.9000    73.7709    31.4917    27.8196
  422.0000    74.0294    32.1391    27.9117
  422.1000    74.2064    32.7068    28.0763
  422.2000    74.2088    33.2842    28.2419
  422.3000    74.2114    33.9066    28.4110
  422.4000    74.4548    34.4716    28.5761
  422.5000    74.5205    35.0815    28.7447
  422.6000    74.6675    35.5836    28.8129
  422.7000    75.0222    35.9231    28.8843
  422.8000    75.5370    36.2146    29.0546
  422.9000    76.0524    36.8545    29.2205
  423.0000    76.6941    37.3706    29.2229
  423.1000    77.3368    37.7271    29.5124
  423.2000    77.9000    38.0327    29.6339
  423.3000    78.6364    38.2568    29.7957
  423.4000    79.7258    38.4823    30.0510
  423.5000    80.9945    38.6964    30.0670
  423.6000    82.1580    38.4321    30.2641
  423.7000    82.3821    38.2406    30.4229
  423.8000    82.2932    38.1710    30.4783
  423.9000    82.0395    38.0646    30.4804
  424.0000    81.8630    37.7799    30.4825
  424.1000    81.8366    37.3685    30.4846
  424.2000    81.5637    37.1373    30.4868
  424.3000    81.0926    36.9401    30.4888
  424.4000    80.7711    36.5715    30.3591
  424.5000    80.6575    36.2648    30.2827
  424.6000    80.6600    35.9816    30.2848
  424.7000    80.6624    35.6016    30.2563
  424.8000    80.6649    35.3929    30.0802
  424.9000    80.6673    35.1934    30.0822
  425.0000    80.6697    34.9911    30.0843
  425.1000    80.6721    34.6684    29.9813
  425.2000    80.6746    34.3513    29.8096
  425.3000    80.6770    34.1538    29.6388
  425.4000    80.6892    33.9499    29.4690
  425.5000    80.9867    33.5001    29.2735
  425.6000    80.9887    33.3365    28.9908
  425.7000    81.1605    33.2725    28.7659
  425.8000    81.4190    33.1831    28.6012
  425.9000    81.6049    33.0467    28.4374
  426.0000    81.6178    33.0303    28.2744
  426.1000    81.7299    32.8226    28.0945
  426.2000    81.8421    32.6516    27.8079
  426.3000    81.9543    32.4639    27.4886
  426.4000    82.0665    32.2772    27.2526
  426.5000    82.1787    32.0916    27.0965
  426.6000    82.5116    31.8790    26.9608
  426.7000    82.9341    31.4981    26.9630
  426.8000    83.1489    31.3237    26.8185
  426.9000    83.1513    31.0040    26.6650
  427.0000    83.4054    30.7510    26.5979
  427.1000    83.6639    30.5742    26.5434
  427.2000    83.9225    30.3984    26.4178
  427.3000    84.0743    30.2198    26.4200
  427.4000    84.1351    29.8135    26.2712
  427.5000    84.3937    29.8149    26.2414
  427.6000    84.6908    29.7052    26.2432
  427.7000    84.6928    29.6126    26.1643
  427.8000    84.8649    29.5685    25.9706
  427.9000    85.1235    29.3984    25.7768
  428.0000    85.3820    29.2106    25.5831
  428.1000    85.6158    29.0614    25.3894
  428.2000    85.6185    28.8943    25.1957
  428.3000    85.8532    28.6432    25.0143
  428.4000    86.1118    28.3660    25.0163
  428.5000    86.3704    28.1808    24.8913
  428.6000    86.6289    27.8386    24.7488
  428.7000    86.8875    27.6872    24.6774
  428.8000    87.1550    27.5280    24.6360
  428.9000    87.4046    27.4604    24.5104
  429.0000    87.6631    27.4013    24.5125
  429.1000    87.9217    27.2738    24.5140
  429.2000    88.1802    27.2756    24.5157
  429.3000    88.4388    27.2774    24.5174
  429.4000    88.6973    27.1497    24.5191
  429.5000    88.9989    26.9936    24.5208
  429.6000    89.0009    26.9066    24.5226
  429.7000    89.0033    26.8693    24.5242
  429.8000    88.8889    26.7240    24.5259
  429.9000    88.7038    26.7257    24.4441
  430.0000    88.6859    26.5918    24.3601
  430.1000    88.4045    26.5442    24.3327
  430.2000    88.1786    26.4695    24.1955
  430.3000    88.1047    26.3640    24.1975
  430.4000    87.9756    26.3655    24.0831
  430.5000    87.6387    26.3671    24.0336
  430.6000    87.1984    26.2264    23.9734
  430.7000    87.2013    26.1880    23.8712
  430.8000    86.9610    26.1057    23.8641
  430.9000    86.7072    26.0103    23.7101
  431.0000    86.4535    26.0118    23.5916
  431.1000    86.1021    26.0132    23.5496
  431.2000    85.6418    26.0146    23.4841
  431.3000    85.3893    26.0161    23.3496
  431.4000    85.3922    26.0175    23.2306
  431.5000    85.6033    26.0190    23.2325
  431.6000    86.5048    26.0204    23.2340
  431.7000    87.5629    26.0154    23.1373
  431.8000    88.3337    25.8440    23.0770
  431.9000    89.1046    25.8453    23.0786
  432.0000    89.9729    25.7469    23.0802
  432.1000    91.0934    25.6699    23.0818
  432.2000    91.6749    25.6283    22.9539
  432.3000    92.1876    25.4955    22.9258
  432.4000    92.8797    25.4972    22.7719
  432.5000    93.4248    25.4985    22.6138
  432.6000    94.2492    25.4999    22.5883
  432.7000    94.9662    25.5013    22.4589
  432.8000    95.3571    25.5027    22.3079
  432.9000    95.4740    25.5041    22.3092
  433.0000    95.4764    25.5056    22.3107
  433.1000    95.5239    25.3637    22.3122
  433.2000    95.7857    25.3325    22.3138
  433.3000    95.7881    25.3339    22.3153
  433.4000    95.7906    25.3353    22.3171
  433.5000    95.6367    25.3367    22.3184
  433.6000    95.4910    25.3381    22.3200
  433.7000    95.5531    25.3397    22.3215
  433.8000    95.8003    25.3409    22.3623
  433.9000    95.8031    25.3423    22.4796
  434.0000    95.5860    25.3437    22.4813
  434.1000    95.5032    25.3852    22.4827
  434.2000    95.5056    25.5225    22.4843
  434.3000    95.5081    25.5241    22.4858
  434.4000    95.5105    25.5253    22.5332
  434.5000    95.5131    25.5267    22.6451
  434.6000    95.5154    25.5282    22.6467
  434.7000    95.5178    25.5296    22.6482
  434.8000    95.2459    25.5310    22.6498
  434.9000    94.8250    25.5325    22.6514
  435.0000    94.5713    25.5338    22.6529
  435.1000    94.3100    25.4223    22.6545
  435.2000    94.0640    25.3605    22.6561
  435.3000    93.8103    25.3619    22.6579
  435.4000    93.5566    25.3633    22.5509
  435.5000    93.4064    25.3648    22.5045
  435.6000    93.3537    25.3664    22.5061
  435.7000    93.1068    25.3676    22.5076
  435.8000    93.1097    25.3690    22.5009
  435.9000    93.1117    25.3704    22.3557
  436.0000    92.9478    25.3718    22.3571
  436.1000    92.8122    25.3732    22.3586
  436.2000    92.7449    25.3748    22.3602
  436.3000    92.4697    25.3760    22.3617
  436.4000    91.9065    25.3774    22.3632
  436.5000    91.2208    25.3788    22.3649
  436.6000    90.6359    25.3802    22.3663
  436.7000    89.9934    25.3636    22.3679
  436.8000    89.3963    25.2081    22.3694
  436.9000    89.1064    25.2094    22.3710
  437.0000    88.5724    25.2108    22.3725
  437.1000    88.5747    25.2122    22.3741
  437.2000    88.3816    25.1598    22.3756
  437.3000    88.2752    25.0408    22.3772
  437.4000    88.3767    25.0425    22.3787
  437.5000    88.7366    24.8714    22.3803
  437.6000    89.5026    24.8725    22.3818
  437.7000    89.8074    24.7854    22.3834
  437.8000    90.2299    24.6429    22.3852
  437.9000    90.5827    24.5347    22.3865
  438.0000    91.0685    24.5293    22.3880
  438.1000    91.7085    24.3684    22.3896
  438.2000    91.9671    24.3696    22.3911
  438.3000    92.2572    24.2761    22.3844
  438.4000    92.7091    24.2042    22.2400
  438.5000    92.8706    24.1644    22.2413
  438.6000    93.0013    24.0398    22.1549
  438.7000    93.1799    24.0414    22.0910
