~VERSION INFORMATION
 VERS.                2.0:   CWLS LOG ASCII STANDARD - VERSION 2.0
 WRAP.                 NO:   ONE LINE PER DEPTH STEP
~WELL INFORMATION
#MNEM.UNIT      DATA TYPE    INFORMATION
#----------   ------------   ------------------------------
 STRT.F           12.0000:   START DEPTH
 STOP.F          551.0000:   STOP DEPTH
 STEP.F            0.5000:   STEP LENGTH
 NULL.          -999.2500:   NO VALUE
 COMP. LAWRENCE-ALLISON &AS:   COMPANY
 WELL. NPR 3 #58-46SX3LP4:   WELL
 FLD .             TEAPOT:   FIELD
 LOC .       S3 T38N R78W:   LOCATION
 CNTY.            NATRONA:   COUNTY
 STAT.            WYOMING:   STATE
 CTRY. UNITED STATES OF AMERICA:   COUNTRY
 SRVC.      Dresser Atlas:   SERVICE COMPANY
 DATE.        14-DEC-1984:   LOGDATE
 API .       490251099900:   API NUMBER
~CURVE INFORMATION
#MNEM.UNIT       API CODE    CURVE DESCRIPTION
#----------   ------------   ------------------------------
 DEPT.F                  :   
 RD  .OHMM   11 220 10 00:   RESISTIVITY DEEP
 RS  .OHMM   11 220 09 00:   RESISTIVITY SHALLOW
 SPR .MV     11 010 01 00:   SPONTANEOUS POTENTIAL FROM RES.
 AC  .US/F   60 520 00 00:   ACOUSTIC SONIC
 CALD.IN     45 280 60 00:   CALIPER FROM DENSITY
 CORR.G/C3   45 356 01 00:   DENSITY CORRECTION
 DEN .G/C3   45 350 01 00:   COMPENSATED BULK DENSTIY
 GRD .GAPI   45 310 01 00:   GAMMA RAY FROM DENSITY LOG
 PORD.DEC    45 890 12 00:   POROSITY DENSITY SANDSTONE
 CNC .DEC    42 890 03 00:   NEUTRON POROSITY SANDSTONE
~PARAMETER INFORMATION
#MNEM.UNIT          VALUE    DESCRIPTION
#----------   ------------   ------------------------------
 PD  .                 GL:   PERMANENT DATUM
 EPD .F              5201:   ELEVATION PERMANENT DATUM
 LMF .                 GL:   LOG MEASURED FROM
 DMF .                 GL:   DRILLING MEASURED FROM
 EGL .F              5201:   GROUND LEVEL
 DATE.        14-DEC-1984:   RUN DATE
 RUN .                  1:   RUN NUMBER
 DD  .F               552:   DEPTH DRILLER
 DL  .F               552:   DEPTH LOGGER
 BLI .F               550:   BOTTOM LOG INTERVAL
 TLI .F                20:   TOP LOG INTERVAL
 CS  .IN            8.625:   CASING SIZE
 CBD .F                20:   CASING BOTTOM DRILLER
 CBL .F                20:   CASING BOTTOM LOGGER
 BS  .IN            7.875:   BIT SIZE
 BSD .F               552:   BIT SIZE AT DEPTH
 DFT .          KCL WATER:   DRILLING FLUID TYPE
 MSS .            MUDTANK:   MUD SAMPLE SOURCE
 RMS .OHMM          0.152:   RESISTIVITY MUD SAMPLE
 MST .F                76:   MUD SAMPLE TEMPERATURE
 RMF .OHMM           0.11:   RESISTIVITY MUD FILTRATE SAMPLE
 MFST.F                76:   MUD FILTRATE SAMPLE TEMPERATURE
 RMC .OHMM           0.19:   RESISTIVITY MUD CAKE
 MCST.F                76:   MUD CAKE SAMPLE TEMPERATURE
 MFSS.               CALC:   MUD FILTRATE SAMPLE SOURCE
 MCSS.               CALC:   MUD CAKE SAMPLE SOURCE
 TCS .HRS               5:   TIME CURCULATED STOPPED
 MRT .F               100:   MAXIMUM RECORDED TEMPERATURE
 LUN .               6270:   LOGGING UNIT NUMBER
 ENGI.            LEBSOCK:   RECORDING ENGINEER
 WITN.        GREG GROOMS:   WITNESSED BY
 CLNT.            A2DTECH:   CLIENT CODE
 ORIG.           5" PRINT:   ORIGIN OF DATA
 UWI .       490251099900:   UNIQUE WELL ID
 DICO. A2D Technologies, Inc.:   DIGITIZING COMPANY
~OTHER INFORMATION
~A   DEPT       RD         RS        SPR         AC       CALD       CORR        DEN        GRD       PORD          CNC 
# ...
  380.5000    22.8053    24.7634   -54.5873    99.6332     7.8985     0.0245     2.3687    71.1609     0.1851     0.2689
  381.0000    22.6623    24.4368   -54.8692    99.6280     7.9284     0.0321     2.3626    72.5263     0.1854     0.2741
  381.5000    22.5202    23.9484   -55.1512    99.6227     7.9287     0.0275     2.3596    74.9740     0.1881     0.2750
  382.0000    22.3755    23.4697   -55.5777    99.6926     7.9290     0.0184     2.3581    78.4521     0.1896     0.2737
  382.5000    22.2352    23.0005   -55.7150    99.9140     7.9293     0.0093     2.3724    78.5412     0.1881     0.2477
  383.0000    22.0958    22.5408   -55.9932   100.1342     7.8996     0.0063     2.3739    77.9427     0.1835     0.2375
  383.5000    21.8060    22.2404   -56.1268   100.2040     7.9149     0.0244     2.3761    79.9013     0.1823     0.2338
  384.0000    21.6000    21.7958   -56.2640   100.1975     7.9152     0.0274     2.3769    80.9562     0.1814     0.2362
  384.5000    21.2519    21.5084   -56.3939   100.1922     7.9155     0.0213     2.3746    78.4035     0.1808     0.2628
  385.0000    20.9038    21.0785   -56.6758   100.0367     7.9158     0.0152     2.3723    77.8042     0.1808     0.2702
  385.5000    20.5558    20.6600   -56.8101    99.6558     7.9312     0.0016     2.3760    79.9132     0.1814     0.2640
  386.0000    20.1384    20.2470   -57.0920    98.9743     7.9164    -0.0064     2.3769    77.5102     0.1822     0.2474
  386.5000    19.7375    19.9772   -57.3739    98.2929     7.9016     0.0136     2.3737    76.0094     0.1822     0.2407
  387.0000    19.3445    19.5779   -57.6551    97.6866     7.9020     0.0197     2.3684    77.3658     0.1813     0.2428
  387.5000    19.0879    19.3197   -57.9371    97.1554     7.9023     0.0293     2.3654    80.5266     0.1843     0.2507
  388.0000    18.9682    18.9361   -58.0712    96.7745     7.9026     0.0513     2.3664    82.4845     0.1855     0.2519
  388.5000    18.8493    18.9466   -58.3525    96.3184     7.9029     0.0542     2.3774    82.1867     0.1858     0.2455
  389.0000    18.9947    18.8238   -58.4866    96.0126     7.9032     0.0391     2.3773    80.5356     0.1825     0.2343
  389.5000    18.8726    18.5781   -58.4713    95.8571     7.9035     0.0210     2.3721    77.8318     0.1809     0.2301
  390.0000    18.6252    18.4578   -58.4565    95.7767     7.9038    -0.0047     2.3705    76.0302     0.1812     0.2289
  390.5000    18.3838    18.2168   -58.4417    95.6212     7.9041     0.0179     2.3811    74.0783     0.1824     0.2298
  391.0000    18.0178    17.9741   -58.5757    95.3906     7.9044     0.0239     2.3909    73.7805     0.1794     0.2350
  391.5000    17.7815    17.7395   -58.8571    95.2350     7.8745     0.0209     2.3984    74.2346     0.1736     0.2403
  392.0000    17.5456    17.5055   -58.9911    95.0044     7.8448     0.0148     2.4014    78.1474     0.1690     0.2412
  392.5000    17.1990    17.3921   -59.4210    94.7737     7.8451     0.0057     2.3878    78.1504     0.1672     0.2415
  393.0000    17.0885    17.1627   -59.5549    94.4679     7.8454    -0.0003     2.3832    76.4722     0.1681     0.2392
  393.5000    16.9813    17.0539   -59.8368    94.0119     7.8457     0.0072     2.3802    74.5007     0.1744     0.2324
  394.0000    16.7587    16.9457   -60.1187    93.5558     7.8460     0.0177     2.3824    73.6480     0.1768     0.2329
  394.5000    16.6536    16.7222   -60.4003    93.0247     7.8463     0.0252     2.3877    77.1159     0.1768     0.2509
  395.0000    16.6665    16.6162   -60.6822    92.3432     7.8767     0.0313     2.3945    82.0758     0.1747     0.2495
  395.5000    16.5594    16.5108   -60.8160    91.9623     7.8770     0.0374     2.4013    81.7780     0.1707     0.2405
  396.0000    16.3448    16.2953   -61.0979    91.9570     7.8623     0.0387     2.4050    79.3749     0.1677     0.2366
  396.5000    16.2398    16.1920   -61.2315    92.2523     7.8626     0.0326     2.4088    79.6787     0.1647     0.2345
  397.0000    16.1380    16.2009   -61.3650    92.4725     7.8629     0.0236     2.4110    80.1328     0.1634     0.2336
  397.5000    16.1505    16.0960   -61.3500    92.5436     7.8632     0.0039     2.4057    79.3839     0.1625     0.2354
  398.0000    16.0467    15.9939   -61.1868    92.4619     7.8635    -0.0157     2.4034    79.0853     0.1624     0.2369
  398.5000    16.1705    16.0049   -61.1720    92.2313     7.8487    -0.0127     2.4133    80.2921     0.1634     0.2354
  399.0000    16.1805    15.9012   -61.0089    91.9255     7.8641     0.0053     2.4177    80.5958     0.1606     0.2254
  399.5000    16.1905    15.9122   -60.9940    91.4694     7.8644     0.0144     2.4192    79.8469     0.1576     0.2136
  400.0000    16.3462    16.1429   -61.1276    91.1638     7.8496     0.0109     2.4176    78.9886     0.1548     0.2091
  400.5000    16.5619    16.2649   -61.5168    90.7799     7.8620    -0.0012     2.4169    78.6451     0.1564     0.2213
  401.0000    16.6721    16.6161   -62.0089    90.7032     7.8650     0.0018     2.4222    80.1513     0.1554     0.2369
  401.5000    16.6813    16.6263   -62.2837    90.6228     7.8501     0.0108     2.4274    81.3519     0.1530     0.2369
  402.0000    16.5619    16.2950   -62.2967    90.6165     7.8502     0.0243     2.4312    80.1363     0.1479     0.2188
  402.5000    16.2442    16.0811   -62.2606    90.6114     7.8504     0.0288     2.4274    79.2406     0.1489     0.2209
  403.0000    15.9197    15.8676   -62.2503    90.6062     7.8505     0.0211     2.4229    79.5518     0.1531     0.2350
  403.5000    15.8187    15.8798   -62.2400    90.6010     7.8500     0.0105     2.4191    80.9128     0.1546     0.2449
  404.0000    15.8296    15.8896   -62.3806    90.5958     7.8358     0.0014     2.4228    81.8005     0.1532     0.2482
  404.5000    15.8383    16.0097   -62.5162    90.6670     7.8368     0.0149     2.4394    82.5519     0.1459     0.2480
  405.0000    15.9569    16.0196   -62.5059    90.6605     7.8511     0.0209     2.4424    82.8421     0.1401     0.2356
  405.5000    15.9656    16.0295   -62.6465    90.7317     7.8513     0.0118     2.4349    81.0140     0.1451     0.2301
  406.0000    15.8622    15.9284   -62.6337    90.8017     7.8514    -0.0019     2.4303    79.5068     0.1480     0.2289
  406.5000    15.7638    15.7197   -62.4750    90.8703     7.8365    -0.0081     2.4318    79.6074     0.1458     0.2359
  407.0000    15.5560    15.5131   -62.1680    90.8651     7.8381     0.0056     2.4405    83.8224     0.1374     0.2511
  407.5000    15.4552    15.2043   -62.1577    91.0102     7.8519     0.0191     2.4560    88.6541     0.1322     0.2667
  408.0000    15.1485    15.0047   -62.4442    91.1553     7.8520     0.0267     2.4650    91.2542     0.1295     0.2688
  408.5000    15.0504    14.8077   -62.7306    91.1501     7.8522     0.0205     2.4559    90.6000     0.1319     0.2520
  409.0000    14.9550    14.7148   -62.7203    91.1449     7.8523     0.0280     2.4408    88.0031     0.1413     0.2317
  409.5000    15.0690    15.0327   -63.0068    91.0645     7.8525     0.0400     2.4363    85.4972     0.1438     0.2269
  410.0000    15.1818    15.2515   -63.1475    91.0593     7.8226     0.0445     2.4400    84.6316     0.1428     0.2314
  410.5000    15.4015    15.4735   -63.2834    90.9038     7.8227     0.0338     2.4491    86.7775     0.1374     0.2420
  411.0000    15.5168    15.3783   -63.5694    90.8159     7.8229     0.0231     2.4528    87.8085     0.1353     0.2469
  411.5000    15.5253    15.2794   -63.8561    90.5815     7.8230     0.0125     2.4558    87.5885     0.1341     0.2517
  412.0000    15.5339    15.1858   -64.1423    90.4362     7.8232     0.0079     2.4634    85.7804     0.1298     0.2529
  412.5000    15.5424    15.1952   -64.4288    90.7316     7.8233     0.0064     2.4709    84.7494     0.1262     0.2493
  413.0000    15.4438    15.0974   -65.0120    91.1033     7.8411     0.0125     2.4754    84.3219     0.1235     0.2502
  413.5000    15.4523    14.8993   -65.4584    91.3987     7.8537     0.0169     2.4784    85.7549     0.1202     0.2506
