~VERSION INFORMATION
 VERS.                2.0:   CWLS LOG ASCII STANDARD - VERSION 2.0
 WRAP.                 NO:   ONE LINE PER DEPTH STEP
~WELL INFORMATION
#MNEM.UNIT      DATA TYPE    INFORMATION
#----------   ------------   ------------------------------
 STRT.F            5.0000:   START DEPTH
 STOP.F          610.0000:   STOP DEPTH
 STEP.F            0.5000:   STEP LENGTH
 NULL.          -999.2500:   NO VALUE
 COMP. FENIX & SCISSON INC:   COMPANY
 WELL.        NPR 3 #25-3:   WELL
 FLD .        TEAPOT DOME:   FIELD
 LOC .       S3 T38N R78W:   LOCATION
 CNTY.            NATRONA:   COUNTY
 STAT.            WYOMING:   STATE
 CTRY. UNITED STATES OF AMERICA:   COUNTRY
 SRVC.           BIRDWELL:   SERVICE COMPANY
 DATE.        28-SEP-1978:   LOGDATE
 API .       490251068900:   API NUMBER
~CURVE INFORMATION
#MNEM.UNIT       API CODE    CURVE DESCRIPTION
#----------   ------------   ------------------------------
 DEPT.F                  :   
 SPR .MV     05 010 01 00:   SPONTANEOUS POTENTIAL FROM RES.
 IL  .OHMM   05 120 00 00:   INDUCTION LOG
 SN  .OHMM   05 040 16 00:   SHORT NORMAL 16"
 CALD.IN     45 280 60 00:   CALIPER
 GRD .GAPI   45 310 01 00:   GAMMA RAY FROM DENSITY LOG
 CORR.G/C3   45 356 01 00:   DENSITY CORRECTION
 DEN .G/C3   45 350 01 00:   COMPENSATED BULK DENSTIY
 DPHI.DEC    45 890 12 00:   DENSITY POROSITY SANDSTONE
~PARAMETER INFORMATION
#MNEM.UNIT          VALUE    DESCRIPTION
#----------   ------------   ------------------------------
 PD  .                 GL:   PERMANENT DATUM
 EPD .F              5249:   ELEVATION PERMANENT DATUM
 LMF .                 KB:   LOG MEASURED FROM
 DAPD.F                 4:   FEET ABOVE PERMANENT DATUM
 DMF .                 KB:   DRILLING MEASURED FROM
 EKB .F              5253:   KELLING BUSHING
 EGL .F              5249:   GROUND LEVEL
 DATE.            9-28-78:   RUN DATE
 RUN .                  1:   RUN NUMBER
 DD  .F               616:   DEPTH DRILLER
 DL  .F               613:   DEPTH LOGGER
 BLI .F               607:   BOTTOM LOG INTERVAL
 TLI .F                40:   TOP LOG INTERVAL
 BS  .IN            7.875:   BIT SIZE
 BSD .F               616:   BIT SIZE AT DEPTH
 DFT .                KCL:   DRILLING FLUID TYPE
 DFD .                8.7:   DRILLING FLUID DENSITY
 DFV .                 33:   DRILLING FLUID VISCOSITY
 DFPH.                  9:   DRILLING FLUID PH
 DFL .                  5:   DRILLING FLUID LOSS
 MSS .            MUD PIT:   MUD SAMPLE SOURCE
 RMS .OHMM            .14:   RESISTIVITY MUD SAMPLE
 MST .F                65:   MUD SAMPLE TEMPERATURE
 RMF .OHMM            2.1:   RESISTIVITY MUD FILTRATE SAMPLE
 MFST.F                65:   MUD FILTRATE SAMPLE TEMPERATURE
 RMC .OHMM            .32:   RESISTIVITY MUD CAKE
 MCST.F                65:   MUD CAKE SAMPLE TEMPERATURE
 MFSS.               MEAS:   MUD FILTRATE SAMPLE SOURCE
 TCS .HRS               2:   TIME CURCULATED STOPPED
 LUN .               2958:   LOGGING UNIT NUMBER
 LUL .               CASP:   LOGGING UNIT LOCATION
 ENGI.            ROLLINS:   RECORDING ENGINEER
 WITN.              AMEND:   WITNESSED BY
 CLNT.            A2DTECH:   CLIENT CODE
 ORIG.           5" PRINT:   ORIGIN OF DATA
 UWI .       490251068900:   UNIQUE WELL ID
 DICO. A2D Technologies, Inc.:   DIGITIZING COMPANY
~OTHER INFORMATION
~A    DEPT     SPR         IL         SN         CALD       GRD      CORR        DEN       DPHI   
# ...
  491.0000     8.2900    16.2231    10.9974     8.0079    81.7387     0.0813     2.3639     0.1915
  491.5000     8.3545    16.2588    10.9974     8.0093    82.6232     0.1411     2.3642     0.1918
  492.0000     8.4074    16.2945    10.9974     8.0114    83.4924     0.1866     2.3645     0.1857
  492.5000     8.4615    16.3303    10.9974     8.0596    84.1148     0.0905     2.3741     0.1669
  493.0000     8.5154    14.4874    10.9974     8.1071    83.8790     0.0989     2.4105     0.1651
  493.5000     8.5694    14.5101    10.9974     8.1554    83.7010     0.0342     2.4016     0.1862
  494.0000     8.6245    14.5523    10.9974     8.1689    84.0031     0.0115     2.3883     0.2007
  494.5000     8.6842    14.5970    10.9974     8.1693    84.3406     0.0162     2.3516     0.2092
  495.0000     8.5339    15.0333    10.9975     8.1688    84.6760     0.0213     2.3364     0.2109
  495.5000     8.3672    16.5805    10.9980     8.1321    84.8369     0.0263     2.3343     0.2149
  496.0000     8.1996    18.1008    11.0009     8.0909    84.1046     0.0320     2.3268     0.2285
  496.5000     8.0326    19.6668    10.8195     8.0496    83.3793     0.0526     2.2982     0.2450
  497.0000     7.8866    20.5318    10.6219     8.0083    83.4005     0.0706     2.2770     0.2442
  497.5000     7.9973    21.0478    10.4278     7.9881    83.4039     0.0607     2.2740     0.2128
  498.0000     8.0549    21.5277    10.4067     8.0331    82.5234     0.0393     2.3185     0.2038
  498.5000     7.4620    21.5277    10.4067     8.0835    81.8811     0.0306     2.3701     0.1947
  499.0000     6.8933    21.8993    10.4067     8.1338    82.0723     0.0413     2.3721     0.1938
  499.5000     6.4255    22.6697    10.4067     8.1709    82.2772     0.0574     2.3585     0.2033
  500.0000     6.2148    22.7496    10.4067     8.1390    81.9766     0.1525     2.3408     0.2060
  500.5000     6.0026    21.1154    10.2520     8.1053    81.5112     0.3285     2.3208     0.2130
  501.0000     5.7927    19.6763    10.1346     8.0882    82.8032     0.4204     2.3196     0.1453
  501.5000     5.2573    16.3731    10.0184     8.0991    84.6692     0.4450     2.4011     0.0811
  502.0000     4.4011    14.4792     9.9037     8.2042    86.5220     0.4400     2.5236     0.0469
  502.5000     3.5368    12.4605     9.8463     8.3112    86.0733     0.3699     2.5751     0.0346
  503.0000     3.4181    11.2016     9.8325     8.4171    84.9103     0.2339     2.6209     0.0729
  503.5000     3.3290    10.8992     9.8188     8.4275    85.0152     0.1890     2.6235     0.1821
  504.0000     3.2358    10.7964     9.8051     8.2744    87.0359     0.2646     2.4729     0.2302
  504.5000     3.1413    10.8955     9.7914     8.1880    89.1926     0.3417     2.3029     0.2358
  505.0000     3.0467    11.3501     9.7777     8.1886    91.3453     0.4188     2.2237     0.2346
  505.5000     2.9522    12.0127     9.7639     8.1887    93.4946     0.4442     2.2224     0.2208
  506.0000     2.8577    12.6401     9.6749     8.2151    94.7798     0.4344     2.3197     0.1994
  506.5000     2.7632    12.7621     9.5188     8.4286    93.8562     0.3064     2.3888     0.1286
  507.0000     2.6690    12.8873     9.3652     8.4326    94.3358     0.1692     2.4495     0.1458
  507.5000     2.5743    13.0116     9.2335     8.4921    95.2450     0.0328     2.4946     0.1713
  508.0000     2.4496    13.4294     9.4404     8.4954    91.4267     0.0090     2.4962     0.1750
  508.5000     2.1631    14.4820     9.6736     7.9326    89.5589     0.0091     2.3951     0.1534
  509.0000     1.8736    15.4576     9.9117     7.9370    90.9784     0.0090     2.4121     0.1505
  509.5000     1.3880    15.6005    10.1258     7.9708    92.1472     0.0092     2.4313     0.1476
  510.0000     0.5446    14.8972    10.1226     8.0046    92.1517     0.0026     2.4349     0.1462
  510.5000    -0.2773    14.1824    10.1539     8.0286    92.1966    -0.0050     2.4375     0.1466
  511.0000    -0.5401    13.4649    10.1768     8.0242    92.2806    -0.0109     2.4396     0.1469
  511.5000    -0.7773    12.2812    10.1997     8.0197    92.3517    -0.0111     2.4400     0.1473
  512.0000    -1.0172    12.2866    10.2226     8.0152    92.0256    -0.0095     2.4403     0.1445
  512.5000    -1.2584    12.2963    10.2457     8.0107    91.6464    -0.0077     2.4429     0.1334
  513.0000    -1.4928    12.3061    10.2687     8.0063    92.0599    -0.0060     2.4567     0.1326
  513.5000    -1.5854    12.3159    10.2918     8.0018    92.7461    -0.0042     2.4625     0.1338
  514.0000    -1.6717    12.3257    10.3106     7.9973    92.7172    -0.0025     2.4617     0.1370
  514.5000    -1.7587    12.3355    10.3030     7.9929    92.6661    -0.0007     2.4609     0.1308
  515.0000    -1.8467    12.3453    10.2957     7.9883    92.6158     0.0011     2.4655     0.1224
  515.5000    -1.9708    12.3551    10.2884     7.9793    92.5664     0.0028     2.4771     0.1190
  516.0000    -2.1492    12.3649    10.2811     7.9697    92.6611     0.0046     2.4843     0.1218
  516.5000    -2.3268    12.3747    10.2738     7.9601    93.5596     0.0064     2.4800     0.1234
  517.0000    -2.5046    12.3845    10.2665     7.9504    94.4257     0.0067     2.4766     0.1158
  517.5000    -2.6824    12.3946    10.2592     7.9489    94.5199     0.0052     2.4821     0.1147
  518.0000    -2.8602    12.3188    10.2519     7.9511    94.3778     0.0038     2.4877     0.1180
  518.5000    -3.0379    12.2406    10.2447     7.9534    92.7312     0.0024     2.4838     0.1240
  519.0000    -3.2157    12.1629    10.2374     7.9556    91.0378     0.0011     2.4762     0.1258
  519.5000    -3.3935    12.0858    10.2301     7.9579    90.1103     0.0021     2.4733     0.1158
  520.0000    -3.5713    12.0092    10.2229     7.9602    91.0070     0.0032     2.4824     0.1172
  520.5000    -3.7491    11.9432    10.2168     7.9624    93.5353     0.0043     2.4850     0.1226
  521.0000    -3.9265    11.9228    10.2169     7.9647    96.0905     0.0053     2.4818     0.1224
  521.5000    -4.0962    11.9024    10.2168     7.9670    98.6641     0.0064     2.4785     0.1218
  522.0000    -4.2380    11.8821    10.2254     7.9692    99.5791     0.0075     2.4807     0.1183
  522.5000    -4.3747    11.8618    10.2361     7.9715    99.4933     0.0086     2.4870     0.1140
  523.0000    -4.5130    11.8414    10.2468     7.9738    99.4061     0.0088     2.4933     0.1099
  523.5000    -4.6401    11.8375    10.2576     7.9760    99.5531     0.0084     2.4995     0.1064
  524.0000    -5.2418    11.8374    10.2683     7.9783    99.8672     0.0080     2.5046     0.1095
  524.5000    -6.0093    11.8374    10.2791     7.9806   100.1826     0.0076     2.5025     0.1134
  525.0000    -6.3019    11.8374    10.2899     7.9829   100.5082     0.0072     2.4977     0.1099
  525.5000    -6.3186    11.8374    10.3009     7.9851   100.6018     0.0060     2.4975     0.1046
  526.0000    -6.3504    11.8374    10.3106     7.9874   100.4246     0.0035     2.5168     0.0973
  526.5000    -6.3877    11.8375    10.2823     7.9897   100.2218     0.0010     2.5369     0.0870
  527.0000    -6.4248    11.8383    10.2538     7.9919   100.0358    -0.0011     2.5369     0.0870
  527.5000    -6.4619    11.8390    10.2252     7.9942    99.2949    -0.0014     2.5356     0.0918
  528.0000    -6.4990    11.6820    10.1967     7.9965    98.2856    -0.0017     2.5330     0.0962
  528.5000    -6.5361    11.4939    10.1683     7.9987    96.7829    -0.0020     2.5241     0.1001
  529.0000    -6.5732    11.3076    10.1399     8.0010    94.0145    -0.0023     2.5153     0.1038
  529.5000    -6.6103    11.1952    10.1116     8.0033    91.4566    -0.0026     2.5110     0.1037
  530.0000    -6.6473    11.1788    10.0834     8.0055    90.9377    -0.0030     2.5100     0.1037
  530.5000    -6.6863    11.1627    10.0553     8.0078    90.9686    -0.0009     2.5089     0.1053
  531.0000    -6.7654    11.1466    10.0272     8.0128    91.0544     0.0019     2.5078     0.1066
