~VERSION INFORMATION
 VERS.                2.0:   CWLS LOG ASCII STANDARD - VERSION 2.0
 WRAP.                 NO:   ONE LINE PER DEPTH STEP
~WELL INFORMATION
#MNEM.UNIT      DATA TYPE    INFORMATION
#----------   ------------   ------------------------------
 STRT.F            0.0000:   START DEPTH
 STOP.F          497.0000:   STOP DEPTH
 STEP.F            0.1000:   STEP LENGTH
 NULL.          -999.2500:   NO VALUE
 COMP.       F D SERV INC:   COMPANY
 WELL. NAVAL PETROLEUM RESERVE 3 SX-1 #81-1-10:   WELL
 FLD .             NPR #3:   FIELD
 LOC .      S10 T38N R78W:   LOCATION
 CNTY.            NATRONA:   COUNTY
 STAT.            WYOMING:   STATE
 CTRY. UNITED STATES OF AMERICA:   COUNTRY
 SRVC.     Atlas Wireline:   SERVICE COMPANY
 DATE.        14-DEC-1997:   LOGDATE
 API .       490252257400:   API NUMBER
~CURVE INFORMATION
#MNEM.UNIT       API CODE    CURVE DESCRIPTION
#----------   ------------   ------------------------------
 DEPT.F                  :   
 GRR .GAPI   07 310 01 00:   GAMMA RAY
 RILD.OHMM   07 120 46 00:   INDUCTION LOG DEEP RESISTIVITY
 RILM.OHMM   07 120 44 00:   INDUCTION LOG MEDIUM RESISTIVITY
~PARAMETER INFORMATION
#MNEM.UNIT          VALUE    DESCRIPTION
#----------   ------------   ------------------------------
 PD  .                 GL:   PERMANENT DATUM
 EPD .F              5132:   ELEVATION PERMANENT DATUM
 LMF .                 KB:   LOG MEASURED FROM
 DAPD.F                10:   FEET ABOVE PERMANENT DATUM
 DMF .                 KB:   DRILLING MEASURED FROM
 EKB .F              5142:   KELLING BUSHING
 EDF .F              5141:   DRILLING FLOOR
 EGL .F              5132:   GROUND LEVEL
 DATE.        14-DEC-1992:   RUN DATE
 RUN .                  1:   RUN NUMBER
 DD  .F               513:   DEPTH DRILLER
 DL  .F               505:   DEPTH LOGGER
 BLI .F               497:   BOTTOM LOG INTERVAL
 CS  .IN            8.625:   CASING SIZE
 CBD .F                53:   CASING BOTTOM DRILLER
 CBL .F                54:   CASING BOTTOM LOGGER
 BS  .IN            7.875:   BIT SIZE
 BSD .F               513:   BIT SIZE AT DEPTH
 DFT .           AIR FOAM:   DRILLING FLUID TYPE
 BHT .F                68:   BOTTOM HOLE TEMPERATURE
 MRT .F                68:   MAXIMUM RECORDED TEMPERATURE
 LUN .           HL- 6274:   LOGGING UNIT NUMBER
 LUL .             CASPER:   LOGGING UNIT LOCATION
 ENGI.             RAUTIO:   RECORDING ENGINEER
 WITN.          G. STRONG:   WITNESSED BY
 CLNT.            A2DTECH:   CLIENT CODE
 ORIG.           5" PRINT:   ORIGIN OF DATA
 UWI .       490252257400:   UNIQUE WELL ID
 DICO. A2D Technologies, Inc.:   DIGITIZING COMPANY
~OTHER INFORMATION
~A    DEPT      GRR      RILD       RILM   
# ...
  254.8000   123.9301     5.2909     5.5563
  254.9000   124.3600     5.3574     5.5894
  255.0000   124.8695     5.3574     5.6677
  255.1000   125.2940     5.3574     5.7215
  255.2000   125.5872     5.3574     5.7681
  255.3000   126.1090     5.3574     5.8168
  255.4000   126.3566     5.3648     5.8769
  255.5000   126.6104     5.3983     5.9095
  255.6000   126.7060     5.4703     5.9096
  255.7000   126.8169     5.4987     5.9706
  255.8000   127.0707     5.5775     6.0411
  255.9000   127.3245     5.7129     6.0944
  256.0000   127.6022     5.7033     6.1418
  256.1000   127.6006     5.7679     6.2094
  256.2000   127.7848     5.8097     6.2480
  256.3000   127.8982     5.8649     6.2829
  256.4000   127.8964     5.9345     6.3482
  256.5000   127.8454     5.9963     6.4015
  256.6000   127.5916     6.0342     6.4540
  256.7000   127.5895     6.1138     6.5301
  256.8000   127.5880     6.1784     6.6059
  256.9000   127.5861     6.2783     6.6060
  257.0000   127.4619     6.3501     6.6708
  257.1000   127.1275     6.4012     6.7240
  257.2000   126.6144     6.4703     6.7637
  257.3000   126.0728     6.5086     6.8035
  257.4000   125.5883     6.5539     6.8471
  257.5000   125.2711     6.6182     6.9360
  257.6000   125.1639     6.6712     6.9728
  257.7000   125.1620     6.7483     7.0139
  257.8000   125.1602     6.8449     7.0773
  257.9000   125.1719     6.8948     7.1463
  258.0000   125.4576     7.0257     7.1884
  258.1000   125.9030     7.0647     7.2319
  258.2000   126.2345     7.1066     7.3151
  258.3000   126.6207     7.1734     7.3334
  258.4000   127.1302     7.2411     7.3594
  258.5000   127.5575     7.2840     7.3847
  258.6000   127.5554     7.3271     7.3948
  258.7000   128.1557     7.3760     7.4384
  258.8000   128.1542     7.4142     7.4885
  258.9000   128.3124     7.4581     7.5263
  259.0000   128.4518     7.4793     7.5409
  259.1000   128.4500     7.4944     7.5410
  259.2000   128.4482     7.5387     7.5411
  259.3000   128.4462     7.5840     7.5412
  259.4000   128.4446     7.6369     7.5413
  259.5000   128.4428     7.6369     7.5414
  259.6000   128.4410     7.6654     7.5088
  259.7000   128.3425     7.6902     7.4894
  259.8000   128.1361     7.6902     7.4895
  259.9000   128.1397     7.6902     7.4896
  260.0000   128.4335     7.6902     7.4897
  260.1000   128.4319     7.6902     7.4379
  260.2000   128.4301     7.6902     7.4380
  260.3000   128.5526     7.6902     7.4108
  260.4000   128.7277     7.6902     7.3867
  260.5000   128.7259     7.6902     7.3868
  260.6000   128.7240     7.6902     7.3838
  260.7000   128.9655     7.6902     7.3358
  260.8000   129.4169     7.6902     7.3359
  260.9000   129.9263     7.6594     7.3061
  261.0000   130.6485     7.6143     7.2635
  261.1000   131.6084     7.5840     7.2211
  261.2000   132.3735     7.5840     7.1849
  261.3000   133.2293     7.5840     7.1850
  261.4000   133.4530     7.5840     7.1450
  261.5000   133.5271     7.5486     7.1355
  261.6000   133.5253     7.5042     7.1112
  261.7000   133.5235     7.4600     7.0862
  261.8000   133.5217     7.4048     7.0863
  261.9000   133.5199     7.3214     7.0864
  262.0000   133.5177     7.2742     7.0865
  262.1000   133.3088     7.2354     7.0866
  262.2000   132.8896     7.1928     7.0596
  262.3000   132.3765     7.1505     7.0377
  262.4000   131.7927     7.1084     7.0378
  262.5000   131.0240     7.0666     7.0339
  262.6000   130.1938     7.0249     6.9893
  262.7000   129.7218     6.9770     6.9894
  262.8000   129.3983     6.9425     6.9598
  262.9000   129.2849     6.9016     6.9412
  263.0000   129.2831     6.8807     6.9125
  263.1000   129.2813     6.8682     6.8387
  263.2000   129.2867     6.8331     6.7982
  263.3000   129.5786     6.8331     6.7204
  263.4000   129.7944     6.7947     6.6579
  263.5000   130.2199     6.7857     6.5997
  263.6000   130.7294     6.7857     6.5337
  263.7000   131.3194     6.7857     6.4666
  263.8000   132.0495     6.7956     6.4289
  263.9000   132.5800     6.8331     6.3865
  264.0000   133.3132     6.8331     6.3866
  264.1000   134.0783     6.8331     6.3612
  264.2000   134.6895     6.8044     6.3426
  264.3000   135.3072     6.7643     6.3311
  264.4000   136.0723     6.7245     6.2988
  264.5000   136.8032     6.6779     6.2989
  264.6000   137.0853     6.5994     6.2990
  264.7000   137.3109     6.5085     6.2713
  264.8000   137.3831     6.4143     6.2555
  264.9000   137.5173     6.3257     6.2556
  265.0000   137.7711     6.2515     6.2485
  265.1000   137.9804     6.1887     6.2120
  265.2000   137.9783     6.1523     6.1695
  265.3000   137.6750     6.1138     6.1102
  265.4000   137.6735     6.0465     6.0617
  265.5000   137.5080     6.0024     5.9946
  265.6000   137.3687     5.9671     5.9085
  265.7000   137.2944     5.9038     5.8684
  265.8000   137.0639     5.8156     5.7557
  265.9000   137.0619     5.7779     5.6659
  266.0000   136.8233     5.6638     5.5904
  266.1000   136.1832     5.5484     5.4917
  266.2000   135.8518     5.4412     5.3750
  266.3000   135.8500     5.3619     5.2673
  266.4000   135.8482     5.2884     5.0792
  266.5000   135.8464     5.2105     5.0220
  266.6000   135.8443     5.2105     4.9410
  266.7000   135.8428     5.1744     4.8888
  266.8000   136.1880     5.1497     4.8603
  266.9000   136.6975     5.1004     4.8383
  267.0000   137.2069     5.0676     4.8372
  267.1000   137.7162     5.0593     4.8049
  267.2000   138.2433     5.0325     4.8050
  267.3000   138.9819     5.0325     4.8050
  267.4000   139.3446     5.0325     4.8187
  267.5000   139.9097     5.0325     4.8471
  267.6000   140.4546     5.0157     4.8725
  267.7000   140.7085     4.9977     4.8726
  267.8000   140.9812     4.9977     4.8992
  267.9000   141.5438     4.9977     4.9495
  268.0000   141.7711     4.9977     4.9917
  268.1000   141.8416     5.0231     5.0211
  268.2000   141.9775     5.0325     5.0561
  268.3000   142.2313     5.0325     5.1160
  268.4000   142.4852     5.0422     5.1517
  268.5000   142.7380     5.0676     5.2011
  268.6000   142.7358     5.0676     5.2625
  268.7000   142.7343     5.0676     5.3109
  268.8000   142.4016     5.0676     5.3502
  268.9000   142.0084     5.0676     5.4111
  269.0000   141.7510     5.0808     5.4468
  269.1000   141.4362     5.1189     5.5322
  269.2000   140.6167     5.1770     5.6074
  269.3000   139.6601     5.2105     5.6736
  269.4000   138.4426     5.2385     5.7405
  269.5000   136.1294     5.2924     5.8083
  269.6000   133.8762     5.3377     5.8801
  269.7000   132.9648     5.3934     5.9463
  269.8000   132.4626     5.4767     6.0165
  269.9000   132.1702     5.5112     6.0876
  270.0000   131.9477     5.6638     6.1595
  270.1000   131.8657     5.7492     6.2244
  270.2000   131.7341     5.8059     6.2620
  270.3000   131.4767     5.8743     6.3480
  270.4000   131.2578     5.9681     6.4108
  270.5000   131.2560     6.0438     6.4617
  270.6000   131.2542     6.1565     6.5177
  270.7000   131.2524     6.2265     6.5837
  270.8000   131.4081     6.3005     6.6224
  270.9000   131.6619     6.3526     6.6650
  271.0000   131.8494     6.4063     6.7367
  271.1000   131.8476     6.4729     6.7873
  271.2000   131.8456     6.5139     6.8273
  271.3000   132.0747     6.5996     6.8818
  271.4000   132.1434     6.6696     6.9561
  271.5000   132.2811     6.7489     6.9979
  271.6000   132.5350     6.8290     7.0384
  271.7000   132.8372     6.9101     7.0799
  271.8000   133.3438     6.9846     7.1216
  271.9000   133.6401     7.0259     7.1636
  272.0000   134.2772     7.0747     7.1957
  272.1000   134.5404     7.1443     7.1980
  272.2000   134.5385     7.2014     7.2461
  272.3000   134.6128     7.2440     7.2831
  272.4000   134.8364     7.2742     7.3261
  272.5000   134.8342     7.2742     7.3692
  272.6000   134.8325     7.2742     7.3992
  272.7000   134.8307     7.3147     7.4047
  272.8000   134.8289     7.3249     7.4511
  272.9000   134.8271     7.3503     7.4512
