~VERSION INFORMATION
 VERS.                2.0:   CWLS LOG ASCII STANDARD - VERSION 2.0
 WRAP.                 NO:   ONE LINE PER DEPTH STEP
~WELL INFORMATION
#MNEM.UNIT      DATA TYPE    INFORMATION
#----------   ------------   ------------------------------
 STRT.F            2.0000:   START DEPTH
 STOP.F          602.0000:   STOP DEPTH
 STEP.F            0.1000:   STEP LENGTH
 NULL.          -999.2500:   NO VALUE
 COMP.       F D SERV INC:   COMPANY
 WELL.    63-1 SX-3 #63-3:   WELL
 FLD .             TEAPOT:   FIELD
 LOC .       S3 T38N R78W:   LOCATION
 CNTY.            NATRONA:   COUNTY
 STAT.            WYOMING:   STATE
 CTRY. UNITED STATES OF AMERICA:   COUNTRY
 SRVC.     Atlas Wireline:   SERVICE COMPANY
 DATE.        20-APR-1992:   LOGDATE
 API .       490252251300:   API NUMBER
~CURVE INFORMATION
#MNEM.UNIT       API CODE    CURVE DESCRIPTION
#----------   ------------   ------------------------------
 DEPT.F                  :   
 GRR .GAPI   07 310 01 00:   GAMMA RAY
 RILD.OHMM   07 120 46 00:   INDUCTION LOG DEEP RESISTIVITY
 RILM.OHMM   07 120 44 00:   INDUCTION LOG MEDIUM RESISTIVITY
~PARAMETER INFORMATION
#MNEM.UNIT          VALUE    DESCRIPTION
#----------   ------------   ------------------------------
 PD  .                 GL:   PERMANENT DATUM
 EPD .F              5176:   ELEVATION PERMANENT DATUM
 LMF .                 KB:   LOG MEASURED FROM
 DAPD.F                 5:   FEET ABOVE PERMANENT DATUM
 DMF .                 KB:   DRILLING MEASURED FROM
 EKB .F              5181:   KELLING BUSHING
 EDF .F              5180:   DRILLING FLOOR
 EGL .F              5176:   GROUND LEVEL
 DATE.        20-APR-1992:   RUN DATE
 RUN .                  1:   RUN NUMBER
 DD  .F               608:   DEPTH DRILLER
 DL  .F               608:   DEPTH LOGGER
 BLI .F               602:   BOTTOM LOG INTERVAL
 CS  .IN            8.625:   CASING SIZE
 CBD .F                48:   CASING BOTTOM DRILLER
 CBL .F                50:   CASING BOTTOM LOGGER
 BS  .IN            7.875:   BIT SIZE
 BSD .F               608:   BIT SIZE AT DEPTH
 DFT .                AIR:   DRILLING FLUID TYPE
 TCS .HRS               2:   TIME CURCULATED STOPPED
 MRT .F                85:   MAXIMUM RECORDED TEMPERATURE
 LUN .           HL- 6274:   LOGGING UNIT NUMBER
 LUL .             CASPER:   LOGGING UNIT LOCATION
 ENGI.             RAUTIO:   RECORDING ENGINEER
 WITN.        GARY STRONG:   WITNESSED BY
 CLNT.            A2DTECH:   CLIENT CODE
 ORIG.           5" PRINT:   ORIGIN OF DATA
 UWI .       490252251300:   UNIQUE WELL ID
 DICO. A2D Technologies, Inc.:   DIGITIZING COMPANY
~OTHER INFORMATION
~A    DEPT      GRR      RILD       RILM   
# ...
  147.6000   130.9919     8.0829     8.1238
  147.7000   130.7229     8.0830     8.0681
  147.8000   130.0572     8.0831     8.0679
  147.9000   129.4870     8.0832     8.0410
  148.0000   128.9960     8.0833     8.0112
  148.1000   128.4502     8.0778     8.0111
  148.2000   127.7108     8.0272     8.0108
  148.3000   127.2218     7.9860     8.0106
  148.4000   126.7309     7.9715     8.0103
  148.5000   126.5060     7.9716     8.0101
  148.6000   126.5060     7.9717     8.0099
  148.7000   126.5276     7.9718     8.0097
  148.8000   126.8072     7.9720     8.0094
  148.9000   127.2299     7.9721     8.0092
  149.0000   127.7209     7.9721     8.0090
  149.1000   128.2119     7.9723     8.0088
  149.2000   128.7029     7.9662     7.9956
  149.3000   129.2169     7.9170     7.8972
  149.4000   129.6848     7.9171     7.8970
  149.5000   130.1758     7.8858     7.8967
  149.6000   131.1567     7.8621     7.8965
  149.7000   132.4959     7.8622     7.8963
  149.8000   133.4889     7.8608     7.8961
  149.9000   134.9398     7.8077     7.8958
  150.0000   137.5504     7.8167     7.8957
  150.1000   138.5652     7.8278     7.8796
  150.2000   137.9850     7.8388     7.8527
  150.3000   137.2485     7.8499     7.8257
  150.4000   136.4458     7.8621     7.7988
  150.5000   135.9990     7.8620     7.7850
  150.6000   135.5081     7.8918     7.7964
  150.7000   134.9052     7.9367     7.8406
  150.8000   134.1125     7.9724     7.8938
  150.9000   133.1300     7.9723     7.8937
  151.0000   131.9027     8.0612     7.9453
  151.1000   130.6753     8.0843     8.0043
  151.2000   129.4479     8.1319     8.0041
  151.3000   128.4569     8.1980     8.0038
  151.4000   127.9890     8.2004     8.0441
  151.5000   127.7108     8.2553     8.0897
  151.6000   127.4980     8.2940     8.1158
  151.7000   127.4096     8.3130     8.1248
  151.8000   127.4096     8.3129     8.1723
  151.9000   127.5466     8.3128     8.2172
  152.0000   128.3132     8.3126     8.2291
  152.1000   128.3132     8.3125     8.2528
  152.2000   128.4930     8.3442     8.2864
  152.3000   128.6145     8.3706     8.2885
  152.4000   128.5462     8.3805     8.3440
  152.5000   128.3132     8.4291     8.3438
  152.6000   128.3132     8.4290     8.3436
  152.7000   128.3132     8.4289     8.3605
  152.8000   128.1667     8.4537     8.4079
  152.9000   127.9213     8.4879     8.4603
  153.0000   127.7108     8.4905     8.4601
  153.1000   127.7108     8.5471     8.4598
  153.2000   127.7108     8.5470     8.4596
  153.3000   127.7108     8.6052     8.4696
  153.4000   127.8242     8.6672     8.5184
  153.5000   128.0698     8.6671     8.5182
  153.6000   128.3132     8.6669     8.5546
  153.7000   128.3132     8.6668     8.5775
  153.8000   128.5050     8.6667     8.5772
  153.9000   128.8865     8.6666     8.5802
  154.0000   129.3775     8.6665     8.6368
  154.1000   129.8439     8.6663     8.6366
  154.2000   130.1205     8.6662     8.6364
  154.3000   130.3348     8.6661     8.6361
  154.4000   130.5803     8.6660     8.6359
  154.5000   130.6415     8.6802     8.6356
  154.6000   130.6184     8.7265     8.6354
  154.7000   130.6184     8.7264     8.6351
  154.8000   130.5155     8.7263     8.6349
  154.9000   130.3167     8.7262     8.6347
  155.0000   130.3167     8.7260     8.6345
  155.1000   130.3167     8.7259     8.6343
  155.2000   130.3167     8.7258     8.6340
  155.3000   130.3167     8.7257     8.6338
  155.4000   130.3167     8.7255     8.6335
  155.5000   130.3076     8.7254     8.6333
  155.6000   130.0151     8.7253     8.6330
  155.7000   130.2127     8.7252     8.6328
  155.8000   130.3167     8.7250     8.6325
  155.9000   130.4013     8.7249     8.6323
  156.0000   130.6466     8.7248     8.6321
  156.1000   130.9201     8.7247     8.6318
  156.2000   131.3537     8.7246     8.6316
  156.3000   131.6836     8.7244     8.6313
  156.4000   131.9288     8.6832     8.6079
  156.5000   132.1267     8.6634     8.5707
  156.6000   132.1267     8.6633     8.5705
  156.7000   131.6549     8.6632     8.5703
  156.8000   131.1647     8.6630     8.5700
  156.9000   130.6743     8.6629     8.5427
  157.0000   130.1175     8.6628     8.5098
  157.1000   129.3823     8.6186     8.5096
  157.2000   128.5068     8.5423     8.5094
  157.3000   127.9113     8.5421     8.4673
  157.4000   127.4598     8.4942     8.4496
  157.5000   127.1291     8.4459     8.4298
  157.6000   126.6968     8.4231     8.3818
  157.7000   126.6968     8.4088     8.3317
  157.8000   126.9144     8.3642     8.3315
  157.9000   127.1596     8.3641     8.3312
  158.0000   127.6140     8.3243     8.3078
  158.1000   128.3012     8.3056     8.2727
  158.2000   128.8084     8.3054     8.2709
  158.3000   129.5185     8.3053     8.2146
  158.4000   130.4345     8.3052     8.2144
  158.5000   131.2914     8.3484     8.2142
  158.6000   132.0936     8.3632     8.2140
  158.7000   133.0634     8.3631     8.2138
  158.8000   133.9366     8.3524     8.2135
  158.9000   134.3351     8.3046     8.2133
  159.0000   134.8254     8.3045     8.2130
  159.1000   135.3158     8.3044     8.2128
  159.2000   135.8356     8.3043     8.2034
  159.3000   136.6516     8.3042     8.1552
  159.4000   137.0883     8.3041     8.1103
  159.5000   137.0930     8.3039     8.0979
  159.6000   136.7425     8.2643     8.0977
  159.7000   136.2523     8.2174     8.0975
  159.8000   135.7466     8.1883     8.0973
  159.9000   135.0342     8.1882     8.0970
  160.0000   134.2986     8.1880     8.0968
  160.1000   133.5632     8.1879     8.0966
  160.2000   132.8279     8.1878     8.0963
  160.3000   132.1037     8.1665     8.0902
  160.4000   131.5234     8.1305     8.0395
  160.5000   131.1232     8.1304     8.0393
  160.6000   130.7765     8.0844     8.0390
  160.7000   130.6184     8.0735     8.0187
  160.8000   130.5878     8.0734     7.9826
  160.9000   130.3167     8.0594     7.9824
  161.0000   130.3167     8.0135     7.9822
  161.1000   130.4794     7.9609     7.9140
  161.2000   130.7246     7.9608     7.8710
  161.3000   130.9698     7.9607     7.8707
  161.4000   131.2217     7.9433     7.8705
  161.5000   131.6984     7.8982     7.8703
  161.6000   132.1887     7.8498     7.8701
  161.7000   132.6791     7.8497     7.8699
  161.8000   133.2383     7.8496     7.8696
  161.9000   133.9733     7.8290     7.8695
  162.0000   134.8416     7.7947     7.8692
  162.1000   135.4442     7.7945     7.8690
  162.2000   136.3244     7.7503     7.8076
  162.3000   137.3051     7.7400     7.7391
  162.4000   138.2226     7.7399     7.6851
  162.5000   138.7632     7.7263     7.5979
  162.6000   138.9832     7.6858     7.5547
  162.7000   138.9013     7.6856     7.4790
  162.8000   138.7632     7.6855     7.4397
  162.9000   138.6622     7.7124     7.4394
  163.0000   138.1599     7.7393     7.4393
  163.1000   137.6817     7.7460     7.4390
  163.2000   137.0089     7.7933     7.4389
  163.3000   136.2734     7.7932     7.4386
  163.4000   135.4682     7.7931     7.4384
  163.5000   134.4881     7.7930     7.4383
  163.6000   133.3333     7.7929     7.4380
  163.7000   132.5266     7.7928     7.4378
  163.8000   131.4007     7.7927     7.4376
  163.9000   129.9974     7.7585     7.4374
  164.0000   128.3139     7.7382     7.4372
  164.1000   126.6968     7.7381     7.4370
  164.2000   126.4761     7.7380     7.4368
  164.3000   126.2309     7.7378     7.4366
  164.4000   126.0935     7.7377     7.4364
  164.5000   126.0935     7.7376     7.4361
  164.6000   126.0935     7.7375     7.4360
  164.7000   126.3334     7.7374     7.4357
  164.8000   126.9455     7.7373     7.4356
  164.9000   127.8079     7.7372     7.4624
  165.0000   128.7884     7.7371     7.4872
  165.1000   129.7693     7.7576     7.4947
  165.2000   130.9201     7.7912     7.5393
  165.3000   131.3253     7.7911     7.5391
  165.4000   131.5234     7.7909     7.5389
  165.5000   131.5234     7.7908     7.5387
  165.6000   131.5234     7.7908     7.5385
  165.7000   131.5234     7.7906     7.5383
