~VERSION INFORMATION
 VERS.                2.0:   CWLS LOG ASCII STANDARD - VERSION 2.0
 WRAP.                 NO:   ONE LINE PER DEPTH STEP
~WELL INFORMATION
#MNEM.UNIT      DATA TYPE    INFORMATION
#----------   ------------   ------------------------------
 STRT.F         1304.0000:   START DEPTH
 STOP.F         2900.0000:   STOP DEPTH
 STEP.F            0.5000:   STEP LENGTH
 NULL.          -999.2500:   NO VALUE
 COMP.   FLUOR DANIEL INC:   COMPANY
 WELL. NAVAL PETROLEUM RESERVE 3 SHX- #18-14:   WELL
 FLD .             TEAPOT:   FIELD
 LOC .      S14 T38N R78W:   LOCATION
 CNTY.            NATRONA:   COUNTY
 STAT.            WYOMING:   STATE
 CTRY. UNITED STATES OF AMERICA:   COUNTRY
 SRVC.            Unknown:   SERVICE COMPANY
 DATE.        17-APR-1995:   LOGDATE
 API .       490252270800:   API NUMBER
~CURVE INFORMATION
#MNEM.UNIT       API CODE    CURVE DESCRIPTION
#----------   ------------   ------------------------------
 DEPT.F                  :   
 ROP .FT/HR  91 810 01 00:   RAT OF DRILLING PENETRATION
 TGAS.TC/CC  91 830 01 00:   TOTAL GAS UNIT
~PARAMETER INFORMATION
#MNEM.UNIT          VALUE    DESCRIPTION
#----------   ------------   ------------------------------
 EKB .F              5271:   KELLING BUSHING
 EGL .F              5281:   GROUND LEVEL
 DATE.        17-APR-1995:   RUN DATE
 RUN .                  1:   RUN NUMBER
 BLI .F              2900:   BOTTOM LOG INTERVAL
 TLI .F              1310:   TOP LOG INTERVAL
 WITN.     C.TOWER/R.HUSK:   WITNESSED BY
 CLNT.            A2DTECH:   CLIENT CODE
 ORIG.           5" PRINT:   ORIGIN OF DATA
 UWI .       490252270800:   UNIQUE WELL ID
 DICO. A2D Technologies, Inc.:   DIGITIZING COMPANY
~OTHER INFORMATION
~A  DEPT         ROP     TGAS   
# ...
 1668.5000     0.6392    56.3237
 1669.0000     0.6376    56.5068
 1669.5000     0.6361    56.3090
 1670.0000     0.6345    56.4906
 1670.5000     0.6329    56.2943
 1671.0000     0.6313    56.2868
 1671.5000     0.6298    56.2778
 1672.0000     0.6282    56.4610
 1672.5000     0.6266    56.6423
 1673.0000     0.6250    56.4445
 1673.5000     0.6235    56.6276
 1674.0000     0.6219    56.6185
 1674.5000     0.7722    56.9887
 1675.0000     0.7737    56.9811
 1675.5000     0.7751    56.9736
 1676.0000     0.7766    56.9646
 1676.5000     0.7780    56.7686
 1677.0000     0.7795    56.5726
 1677.5000     0.7809    56.5652
 1678.0000     0.7823    56.5573
 1678.5000     0.6517    56.5509
 1679.0000     0.6536    56.5434
 1679.5000     0.6555    56.5358
 1680.0000     0.6574    56.5283
 1680.5000     0.6593    56.5208
 1681.0000     0.6612    56.3245
 1681.5000     0.6631    56.5065
 1682.0000     0.6650    56.4974
 1682.5000     0.6669    56.4900
 1683.0000     0.6688    56.4827
 1683.5000     0.6707    56.4753
 1684.0000     0.5401    56.4679
 1684.5000     0.5403    56.4604
 1685.0000     0.5405    56.4515
 1685.5000     0.5407    56.4441
 1686.0000     0.5409    56.4368
 1686.5000     0.5411    56.4295
 1687.0000     0.5412    56.2334
 1687.5000     0.5414    56.0374
 1688.0000     0.5416    56.0301
 1688.5000     0.5418    56.0226
 1689.0000     0.5420    56.0151
 1689.5000     0.5422    56.0062
 1690.0000     0.5424    55.9989
 1690.5000     0.5426    55.9916
 1691.0000     0.5427    55.9842
 1691.5000     0.5429    55.9769
 1692.0000     0.5431    55.9695
 1692.5000     0.5433    56.1509
 1693.0000     0.5435    56.1434
 1693.5000     0.5437    55.9457
 1694.0000     0.5439    55.9384
 1694.5000     0.5441    55.9310
 1695.0000     0.5443    55.9237
 1695.5000     0.5444    55.9163
 1696.0000     0.5446    55.5316
 1696.5000     0.5448    55.5243
 1697.0000     0.5450    55.5170
 1697.5000     0.5452    55.5094
 1698.0000     0.5454    55.5004
 1698.5000     0.5456    55.4931
 1699.0000     0.5458    55.4858
 1699.5000     0.5460    55.4792
 1700.0000     0.7727    55.6728
 1700.5000     0.7751    55.7420
 1701.0000     0.7776    55.8112
 1701.5000     0.7801    55.8804
 1702.0000     0.9425    55.9496
 1702.5000     0.9986    56.0280
 1703.0000     0.9987    56.2153
 1703.5000     0.9988    56.4022
 1704.0000     0.6599    56.2112
 1704.5000     0.6411    56.2093
 1705.0000     0.6413    56.2075
 1705.5000     0.6319    56.0170
 1706.0000     0.5473    56.0000
 1706.5000     0.5193    55.8245
 1707.0000     0.5197    55.8223
 1707.5000     0.5200    55.8205
 1708.0000     0.5204    55.8186
 1708.5000     0.5207    55.8168
 1709.0000     0.5211    55.6262
 1709.5000     0.5215    55.6244
 1710.0000     0.5218    55.6226
 1710.5000     0.5222    55.5367
 1711.0000     0.5225    55.6189
 1711.5000     0.5229    55.6170
 1712.0000     0.5233    55.8038
 1712.5000     0.5236    55.6129
 1713.0000     0.5240    55.8002
 1713.5000     0.5243    55.7981
 1714.0000     0.5247    55.7960
 1714.5000     0.5251    55.9833
 1715.0000     0.5254    55.9810
 1715.5000     0.5258    55.9791
 1716.0000     0.5262    55.9773
 1716.5000     0.5265    55.9755
 1717.0000     0.5269    55.9623
 1717.5000     0.5272    55.7830
 1718.0000     0.5276    55.7808
 1718.5000     0.5280    55.7792
 1719.0000     0.5283    55.5491
 1719.5000     0.5287    55.3979
 1720.0000     0.5290    55.3960
 1720.5000     0.5294    55.3943
 1721.0000     0.5298    55.3924
 1721.5000     0.5301    55.3905
 1722.0000     0.5305    55.3887
 1722.5000     0.5308    55.3868
 1723.0000     0.5312    55.3849
 1723.5000     0.5316    55.1940
 1724.0000     0.6825    55.0035
 1724.5000     0.6814    54.9327
 1725.0000     0.6802    54.8134
 1725.5000     0.6791    54.6940
 1726.0000     0.6779    54.5747
 1726.5000     0.6768    54.4554
 1727.0000     0.6757    54.3361
 1727.5000     0.6745    54.2168
 1728.0000     0.6734    54.0975
 1728.5000     0.6722    53.9781
 1729.0000     0.6711    53.8588
 1729.5000     0.6699    53.7395
 1730.0000     0.6688    53.6604
 1730.5000     0.6676    53.6583
 1731.0000     0.6665    53.6566
 1731.5000     0.6653    53.4659
 1732.0000     0.5518    53.4640
 1732.5000     0.5514    53.0848
 1733.0000     0.5509    52.8943
 1733.5000     0.5504    52.7038
 1734.0000     0.5499    52.4906
 1734.5000     0.5494    52.3223
 1735.0000     0.5489    52.1321
 1735.5000     0.5484    52.1302
 1736.0000     0.5479    52.1281
 1736.5000     0.5474    52.1262
 1737.0000     0.5469    52.1245
 1737.5000     0.5464    52.1225
 1738.0000     0.5459    52.1207
 1738.5000     0.5455    51.9302
 1739.0000     0.5450    51.9283
 1739.5000     0.5445    51.9264
 1740.0000     0.6667    51.9242
 1740.5000     0.6658    51.9223
 1741.0000     0.6650    51.9205
 1741.5000     0.6643    52.1078
 1742.0000     0.6635    52.1055
 1742.5000     0.6627    51.9151
 1743.0000     0.6620    51.8434
 1743.5000     0.6612    51.5339
 1744.0000     0.6605    51.5320
 1744.5000     0.6597    51.5302
 1745.0000     0.6589    51.5283
 1745.5000     0.6582    51.5264
 1746.0000     0.6574    51.5242
 1746.5000     0.6567    51.5224
 1747.0000     0.6559    51.5642
 1747.5000     0.6551    51.8965
 1748.0000     0.6544    51.8942
 1748.5000     0.6536    51.8923
 1749.0000     0.6529    51.8905
 1749.5000     0.6521    52.0773
 1750.0000     0.6513    52.0755
 1750.5000     0.6506    52.0774
 1751.0000     0.6503    52.0792
 1751.5000     0.6506    52.0811
 1752.0000     0.6508    52.0830
 1752.5000     0.6511    52.0849
 1753.0000     0.6514    51.8983
 1753.5000     0.6517    51.9001
 1754.0000     0.6520    51.9020
 1754.5000     0.6523    51.9038
 1755.0000     0.6525    51.9057
 1755.5000     0.6528    51.9075
 1756.0000     0.6531    51.9094
 1756.5000     0.6534    51.9117
 1757.0000     0.6537    51.9135
 1757.5000     0.6540    51.9153
 1758.0000     0.6542    51.9172
 1758.5000     0.6545    51.9190
 1759.0000     0.6548    51.9209
 1759.5000     0.6551    52.0324
 1760.0000     0.6554    51.9245
 1760.5000     0.6556    51.9208
 1761.0000     0.6559    51.5509
 1761.5000     0.6562    51.5528
 1762.0000     0.6565    51.5550
 1762.5000     0.6568    51.5569
 1763.0000     0.6571    51.5587
 1763.5000     0.6573    51.5606
 1764.0000     0.6576    51.6289
 1764.5000     0.6579    51.9416
 1765.0000     0.6593    51.9434
 1765.5000     0.6608    51.9453
 1766.0000     0.6624    52.1358
 1766.5000     0.6639    52.1381
 1767.0000     0.6654    52.3286
 1767.5000     0.6670    52.3305
 1768.0000     0.6685    51.9545
 1768.5000     0.6701    51.9566
 1769.0000     0.6716    51.9586
 1769.5000     0.6731    51.9605
 1770.0000     0.6747    52.1509
 1770.5000     0.6762    51.9641
 1771.0000     0.6777    51.9660
 1771.5000     0.6793    52.1566
 1772.0000     0.6810    52.1588
 1772.5000     0.6780    52.1607
 1773.0000     0.6746    52.1625
 1773.5000     0.6711    52.1644
 1774.0000     0.6677    52.1662
 1774.5000     0.6642    52.1680
 1775.0000     0.6608    52.1699
 1775.5000     0.6573    52.1717
 1776.0000     0.6539    52.1736
 1776.5000     0.6504    52.1755
 1777.0000     0.6470    52.1774
 1777.5000     0.6461    52.1792
 1778.0000     0.6460    52.3701
 1778.5000     0.6460    52.3719
 1779.0000     0.6459    52.3736
 1779.5000     0.6458    52.3755
 1780.0000     0.6457    52.3775
 1780.5000     0.6456    52.3792
 1781.0000     0.6455    52.3811
 1781.5000     0.6454    52.3830
 1782.0000     0.6453    52.3849
 1782.5000     0.6452    52.3868
 1783.0000     0.6452    52.3887
 1783.5000     0.6451    52.3906
 1784.0000     0.6450    52.3928
 1784.5000     0.6449    52.0173
 1785.0000     0.6448    52.0191
 1785.5000     0.6447    52.0208
 1786.0000     0.6446    52.0228
 1786.5000     0.6445    52.0247
 1787.0000     0.6444    52.2152
 1787.5000     0.6444    52.2170
 1788.0000     0.6443    52.2189
 1788.5000     0.6442    52.2208
 1789.0000     0.6441    52.2230
 1789.5000     0.6440    52.2248
