~VERSION INFORMATION
 VERS.                2.0:   CWLS LOG ASCII STANDARD - VERSION 2.0
 WRAP.                 NO:   ONE LINE PER DEPTH STEP
~WELL INFORMATION
#MNEM.UNIT      DATA TYPE    INFORMATION
#----------   ------------   ------------------------------
 STRT.F           29.0000:   START DEPTH
 STOP.F          539.0000:   STOP DEPTH
 STEP.F            0.1000:   STEP LENGTH
 NULL.          -999.2500:   NO VALUE
 COMP. LAWRENCE/ALLISON INC:   COMPANY
 WELL. NPR 3 81-11 STX #10-10:   WELL
 FLD .             TEAPOT:   FIELD
 LOC .      S10 T38N R78W:   LOCATION
 CNTY.            NATRONA:   COUNTY
 STAT.            WYOMING:   STATE
 CTRY. UNITED STATES OF AMERICA:   COUNTRY
 SRVC.           Gearhart:   SERVICE COMPANY
 DATE.        01-JUN-1987:   LOGDATE
 API .       490251113000:   API NUMBER
~CURVE INFORMATION
#MNEM.UNIT       API CODE    CURVE DESCRIPTION
#----------   ------------   ------------------------------
 DEPT.F                  :   
 GRR .GAPI   07 310 01 00:   GAMMA RAY FROM RES. LOG.
 ILD .OHMM   07 120 46 00:   INDUCTION LOG DEEP RESISTIVITY
 RILM.OHMM   07 120 44 00:   INDUCTION LOG MEDIUM RESISTIVITY
~PARAMETER INFORMATION
#MNEM.UNIT          VALUE    DESCRIPTION
#----------   ------------   ------------------------------
 PD  .                 GL:   PERMANENT DATUM
 EPD .F              5156:   ELEVATION PERMANENT DATUM
 LMF .                 KB:   LOG MEASURED FROM
 DAPD.F                 8:   FEET ABOVE PERMANENT DATUM
 DMF .                 KB:   DRILLING MEASURED FROM
 EKB .F              5164:   KELLING BUSHING
 EDF .F              5162:   DRILLING FLOOR
 EGL .F              5156:   GROUND LEVEL
 DATE.             6-1-87:   RUN DATE
 RUN .                  1:   RUN NUMBER
 DD  .F               550:   DEPTH DRILLER
 DL  .F               546:   DEPTH LOGGER
 BLI .F               540:   BOTTOM LOG INTERVAL
 TLI .F                30:   TOP LOG INTERVAL
 CS  .IN            8.625:   CASING SIZE
 CBD .F                50:   CASING BOTTOM DRILLER
 CBL .F                49:   CASING BOTTOM LOGGER
 BS  .IN            7.875:   BIT SIZE
 BSD .F               550:   BIT SIZE AT DEPTH
 DFT .                AIR:   DRILLING FLUID TYPE
 TLAB.HRS            0634:   TIME LOGGER AT BOTTOM
 MRT .F                80:   MAXIMUM RECORDED TEMPERATURE
 LUN .               7597:   LOGGING UNIT NUMBER
 LUL .           GILLETTE:   LOGGING UNIT LOCATION
 ENGI. WEATHERMON/JOHNSTON:   RECORDING ENGINEER
 WITN.             STRONG:   WITNESSED BY
 CLNT.            A2DTECH:   CLIENT CODE
 ORIG.       2", 5" PRINT:   ORIGIN OF DATA
 UWI .       490251113000:   UNIQUE WELL ID
 DICO. A2D Technologies, Inc.:   DIGITIZING COMPANY
~OTHER INFORMATION
~A   DEPT       GRR       ILD       RILM   
# ...
  338.4000    73.5274    38.9869    47.4498
  338.5000    73.5371    38.8369    46.9981
  338.6000    73.6537    38.7793    46.5839
  338.7000    73.7703    38.7218    46.1697
  338.8000    73.8869    38.6642    45.7555
  338.9000    74.0035    38.6066    45.3413
  339.0000    74.1201    38.5491    44.9271
  339.1000    74.4387    38.4919    44.4989
  339.2000    74.7574    38.4348    44.0708
  339.3000    75.0761    38.3777    43.6426
  339.4000    75.3948    38.3205    43.2145
  339.5000    75.7135    38.2634    42.7864
  339.6000    76.0036    38.0964    42.6931
  339.7000    76.2938    37.9294    42.5999
  339.8000    76.5839    37.7624    42.5067
  339.9000    76.8741    37.5954    42.4135
  340.0000    77.1642    37.4284    42.3203
  340.1000    77.1921    37.2198    42.2741
  340.2000    77.2200    37.0112    42.2280
  340.3000    77.2479    36.8026    42.1819
  340.4000    77.2759    36.5940    42.1357
  340.5000    77.3038    36.3854    42.0896
  340.6000    77.3264    36.1152    42.0451
  340.7000    77.3491    35.8449    42.0005
  340.8000    77.3717    35.5747    41.9560
  340.9000    77.3944    35.3044    41.9115
  341.0000    77.4170    35.0342    41.8669
  341.1000    77.4417    34.7755    41.8275
  341.2000    77.4664    34.5168    41.7880
  341.3000    77.4911    34.2582    41.7486
  341.4000    77.5157    33.9995    41.7091
  341.5000    77.5404    33.7408    41.6697
  341.6000    77.5997    33.4925    41.0389
  341.7000    77.6590    33.2441    40.4081
  341.8000    77.7182    32.9958    39.7773
  341.9000    77.7775    32.7474    39.1465
  342.0000    77.8368    32.4991    38.5157
  342.1000    78.1322    32.2623    37.8056
  342.2000    78.4276    32.0255    37.0956
  342.3000    78.7231    31.7886    36.3856
  342.4000    79.0185    31.5518    35.6755
  342.5000    79.3139    31.3150    34.9655
  342.6000    79.6055    31.0888    34.4437
  342.7000    79.8970    30.8627    33.9218
  342.8000    80.1886    30.6365    33.4000
  342.9000    80.4801    30.4104    32.8782
  343.0000    80.7717    30.1842    32.3564
  343.1000    81.0636    29.9662    32.0457
  343.2000    81.3555    29.7483    31.7350
  343.3000    81.6475    29.5303    31.4244
  343.4000    81.9394    29.3123    31.1137
  343.5000    82.2313    29.0943    30.8030
  343.6000    82.5227    28.8823    30.5029
  343.7000    82.8142    28.6703    30.2027
  343.8000    83.1056    28.4583    29.9026
  343.9000    83.3970    28.2463    29.6024
  344.0000    83.6884    28.0342    29.3023
  344.1000    83.9438    27.8565    29.0187
  344.2000    84.1992    27.6787    28.7351
  344.3000    84.4546    27.5009    28.4515
  344.4000    84.7100    27.3231    28.1679
  344.5000    84.9653    27.1453    27.8843
  344.6000    84.9588    26.9786    27.7347
  344.7000    84.9522    26.8119    27.5850
  344.8000    84.9456    26.6452    27.4354
  344.9000    84.9391    26.4785    27.2858
  345.0000    84.9325    26.3118    27.1361
  345.1000    84.9322    26.1554    26.9905
  345.2000    84.9320    25.9989    26.8449
  345.3000    84.9317    25.8425    26.6993
  345.4000    84.9314    25.6861    26.5536
  345.5000    84.9311    25.5296    26.4080
  345.6000    84.9350    25.4456    26.3232
  345.7000    84.9389    25.3616    26.2384
  345.8000    84.9427    25.2776    26.1536
  345.9000    84.9466    25.1936    26.0688
  346.0000    84.9505    25.1096    25.9840
  346.1000    84.7965    25.0987    25.9705
  346.2000    84.6426    25.0877    25.9570
  346.3000    84.4887    25.0767    25.9435
  346.4000    84.3348    25.0657    25.9301
  346.5000    84.1809    25.0547    25.9166
  346.6000    84.0028    25.0547    25.9036
  346.7000    83.8248    25.0547    25.8906
  346.8000    83.6467    25.0547    25.8777
  346.9000    83.4686    25.0547    25.8647
  347.0000    83.2906    25.0547    25.8517
  347.1000    83.1136    25.0547    25.8355
  347.2000    82.9367    25.0547    25.8193
  347.3000    82.7597    25.0547    25.8031
  347.4000    82.5828    25.0547    25.7869
  347.5000    82.4058    25.0547    25.7707
  347.6000    82.2520    25.0547    25.7833
  347.7000    82.0983    25.0547    25.7959
  347.8000    81.9445    25.0547    25.8085
  347.9000    81.7907    25.0547    25.8211
  348.0000    81.6369    25.0547    25.8337
  348.1000    81.9303    25.0542    25.8503
  348.2000    82.2237    25.0538    25.8670
  348.3000    82.5171    25.0533    25.8837
  348.4000    82.8105    25.0528    25.9004
  348.5000    83.1039    25.0523    25.9171
  348.6000    83.5882    25.0685    25.9339
  348.7000    84.0725    25.0846    25.9506
  348.8000    84.5568    25.1007    25.9674
  348.9000    85.0411    25.1168    25.9841
  349.0000    85.5254    25.1329    26.0009
  349.1000    86.0173    25.1579    26.0177
  349.2000    86.5091    25.1829    26.0345
  349.3000    87.0010    25.2079    26.0513
  349.4000    87.4929    25.2329    26.0681
  349.5000    87.9848    25.2579    26.0849
  349.6000    88.4889    25.2832    26.1018
  349.7000    88.9930    25.3084    26.1187
  349.8000    89.4970    25.3337    26.1356
  349.9000    90.0011    25.3589    26.1526
  350.0000    90.5052    25.3842    26.1695
  350.1000    90.4679    25.4096    26.1873
  350.2000    90.4307    25.4349    26.2051
  350.3000    90.3934    25.4603    26.2228
  350.4000    90.3561    25.4857    26.2406
  350.5000    90.3189    25.5110    26.2584
  350.6000    90.1024    25.5365    26.2752
  350.7000    89.8860    25.5620    26.2920
  350.8000    89.6696    25.5875    26.3087
  350.9000    89.4532    25.6130    26.3255
  351.0000    89.2367    25.6385    26.3423
  351.1000    89.1015    25.6641    26.3599
  351.2000    88.9663    25.6898    26.3776
  351.3000    88.8311    25.7154    26.3953
  351.4000    88.6959    25.7410    26.4130
  351.5000    88.5607    25.7666    26.4307
  351.6000    88.7812    25.7924    26.4485
  351.7000    89.0018    25.8181    26.4663
  351.8000    89.2224    25.8439    26.4841
  351.9000    89.4430    25.8696    26.5019
  352.0000    89.6636    25.8954    26.5197
  352.1000    89.9201    25.9190    26.5376
  352.2000    90.1766    25.9426    26.5555
  352.3000    90.4331    25.9663    26.5734
  352.4000    90.6896    25.9899    26.5913
  352.5000    90.9461    26.0135    26.6092
  352.6000    91.1321    25.9830    26.6272
  352.7000    91.3180    25.9525    26.6452
  352.8000    91.5039    25.9220    26.6632
  352.9000    91.6899    25.8914    26.6812
  353.0000    91.8758    25.8609    26.6992
  353.1000    91.7927    25.8330    26.7108
  353.2000    91.7096    25.8051    26.7225
  353.3000    91.6265    25.7771    26.7341
  353.4000    91.5435    25.7492    26.7458
  353.5000    91.4604    25.7213    26.7574
  353.6000    91.3558    25.6935    26.7117
  353.7000    91.2512    25.6657    26.6660
  353.8000    91.1467    25.6380    26.6203
  353.9000    91.0421    25.6102    26.5746
  354.0000    90.9376    25.5824    26.5289
  354.1000    90.8298    25.5548    26.4898
  354.2000    90.7220    25.5271    26.4508
  354.3000    90.6143    25.4995    26.4117
  354.4000    90.5065    25.4719    26.3726
  354.5000    90.3988    25.4443    26.3336
  354.6000    90.3994    25.4168    26.2948
  354.7000    90.4001    25.3893    26.2560
  354.8000    90.4007    25.3618    26.2172
  354.9000    90.4014    25.3344    26.1784
  355.0000    90.4020    25.3069    26.1397
  355.1000    90.4534    25.2796    26.1012
  355.2000    90.5049    25.2522    26.0628
  355.3000    90.5563    25.2249    26.0243
  355.4000    90.6077    25.1976    25.9859
  355.5000    90.6592    25.1702    25.9475
  355.6000    90.7131    25.1431    25.9093
  355.7000    90.7671    25.1159    25.8711
  355.8000    90.8210    25.0887    25.8329
  355.9000    90.8750    25.0615    25.7947
  356.0000    90.9289    25.0343    25.7565
  356.1000    90.8788    25.0073    25.7186
  356.2000    90.8287    24.9803    25.6807
  356.3000    90.7786    24.9532    25.6428
  356.4000    90.7285    24.9262    25.6049
  356.5000    90.6784    24.8992    25.5671
