~VERSION INFORMATION
 VERS.                2.0:   CWLS LOG ASCII STANDARD - VERSION 2.0
 WRAP.                 NO:   ONE LINE PER DEPTH STEP
~WELL INFORMATION
#MNEM.UNIT      DATA TYPE    INFORMATION
#----------   ------------   ------------------------------
 STRT.F           34.0000:   START DEPTH
 STOP.F          555.0000:   STOP DEPTH
 STEP.F            0.5000:   STEP LENGTH
 NULL.          -999.2500:   NO VALUE
 COMP. FENIX & SCISSON-U.S. NAVY:   COMPANY
 WELL.    NPR #3 #17-S-11:   WELL
 FLD .             TEAPOT:   FIELD
 LOC .      S11 T38N R78W:   LOCATION
 CNTY.            NATRONA:   COUNTY
 STAT.            WYOMING:   STATE
 CTRY. UNITED STATES OF AMERICA:   COUNTRY
 SRVC.       Schlumberger:   SERVICE COMPANY
 DATE.        20-FEB-1977:   LOGDATE
 API .       490251028100:   API NUMBER
~CURVE INFORMATION
#MNEM.UNIT       API CODE    CURVE DESCRIPTION
#----------   ------------   ------------------------------
 DEPT.F                  :   
 SPR .MV     07 010 01 00:   SPONTANEOUS POTENTIAL
 ILD .OHMM   07 120 46 00:   INDUCTION LOG DEEP
 ILM .OHMM   07 120 44 00:   INDUCTION LOG MEDIUM
 LL8 .OHMM   07 220 08 00:   LATEROLOG-8 RES.
 CALD.IN     45 280 60 00:   CALIPER FROM DENSITY LOG
 GRD .GAPI   45 310 01 00:   GAMMA RAY FROM DENSITY LOG
 CORR.G/C3   45 356 01 00:   DENSITY CORRECTION
 RHOB.G/C3   45 350 01 00:   BULK DENSITY
 DPHI.DEC    45 890 12 00:   DENSITY POROSITY SANDSTONE
~PARAMETER INFORMATION
#MNEM.UNIT          VALUE    DESCRIPTION
#----------   ------------   ------------------------------
 PD  .                 GL:   PERMANENT DATUM
 EPD .F              5204:   ELEVATION PERMANENT DATUM
 LMF .                 GL:   LOG MEASURED FROM
 DMF .                 GL:   DRILLING MEASURED FROM
 EKB .F              5209:   KELLING BUSHING
 EGL .F              5204:   GROUND LEVEL
 DATE.        20-FEB-1977:   RUN DATE
 RUN .                  1:   RUN NUMBER
 DD  .F               556:   DEPTH DRILLER
 DL  .F               556:   DEPTH LOGGER
 BLI .F               555:   BOTTOM LOG INTERVAL
 TLI .F                42:   TOP LOG INTERVAL
 CS  .IN            8.625:   CASING SIZE
 CBD .F                42:   CASING BOTTOM DRILLER
 CBL .F                42:   CASING BOTTOM LOGGER
 BS  .IN            7.875:   BIT SIZE
 BSD .F               556:   BIT SIZE AT DEPTH
 DFT .            KCL MUD:   DRILLING FLUID TYPE
 DFD .                8.8:   DRILLING FLUID DENSITY
 DFV .                 33:   DRILLING FLUID VISCOSITY
 DFPH.                8.0:   DRILLING FLUID PH
 DFL .                7.6:   DRILLING FLUID LOSS
 MSS .           FLOWLINE:   MUD SAMPLE SOURCE
 RMS .OHMM            .44:   RESISTIVITY MUD SAMPLE
 MST .F                66:   MUD SAMPLE TEMPERATURE
 RMF .OHMM            .41:   RESISTIVITY MUD FILTRATE SAMPLE
 MFST.F                66:   MUD FILTRATE SAMPLE TEMPERATURE
 MFSS.               MEAS:   MUD FILTRATE SAMPLE SOURCE
 TCS .HRS               3:   TIME CURCULATED STOPPED
 LUN .               7680:   LOGGING UNIT NUMBER
 LUL .               CSPR:   LOGGING UNIT LOCATION
 ENGI.             TAYLOR:   RECORDING ENGINEER
 WITN.               JAPP:   WITNESSED BY
 CLNT.            A2DTECH:   CLIENT CODE
 ORIG.           5" PRINT:   ORIGIN OF DATA
 UWI .       490251028100:   UNIQUE WELL ID
 DICO. A2D Technologies, Inc.:   DIGITIZING COMPANY
~OTHER INFORMATION
~A   DEPT      SPR        ILD        ILM        LL8       CALD        GRD       CORR       RHOB       DPHI   
# ...
  326.0000   -53.1373     7.7121     7.4519    10.3979     8.2523    97.0411     0.0385     2.5308     0.0895
  326.5000   -52.9954     7.3958     7.2972    10.3937     8.2514    92.5052     0.0415     2.5006     0.0964
  327.0000   -53.0061     7.0924     6.9988     8.1006     8.2505    92.0461     0.0130     2.5277     0.1296
  327.5000   -53.0186     6.8963     6.6203     5.9325     8.2496    94.7500     0.0227     2.5005     0.0907
  328.0000   -53.0288     6.7523     6.3496     6.3551     8.2487    95.4221     0.0385     2.5359     0.0754
  328.5000   -52.8845     6.6571     6.1290     8.0924     8.2478    94.0535     0.0290     2.5200     0.1025
  329.0000   -53.0493     6.5629     5.9632     8.9120     8.2467    93.5922     0.0429     2.4918     0.1010
  329.5000   -53.0595     6.4704     5.9208     8.6266     8.2459    94.4883     0.0751     2.4951     0.1004
  330.0000   -53.0699     6.4236     5.8788     5.3386     8.2450    96.0632     0.0930     2.4566     0.1185
  330.5000   -52.9280     6.4666     5.9185     5.6795     8.2441    97.4237     0.0240     2.3993     0.1411
  331.0000   -52.7863     6.5094     5.9173     6.2547     8.2432    99.5475     0.0173     2.4354     0.1273
  331.5000   -52.7991     6.5519     5.9986     7.1305     8.2577   104.4055     0.0375     2.4655     0.1140
  332.0000   -52.6548     6.5952     6.1233     8.1289     8.2565   108.6953     0.0577     2.4783     0.1071
  332.5000   -52.6676     6.6849     6.2991     9.2032     8.2557   111.4014     0.0360     2.4368     0.1360
  333.0000   -52.5258     6.7759     6.4692     9.6564     8.2548   107.9989     0.0389     2.4292     0.1270
  333.5000   -52.5365     6.8675     6.5131     9.2309     8.2539   103.9176     0.0433     2.4444     0.1210
  334.0000   -52.5489     6.8652     6.5571     8.5790     8.2528   103.4563     0.0366     2.4307     0.1298
  334.5000   -52.5591     6.8629     6.5554     8.5761     8.2519   104.8049     0.0328     2.4389     0.1234
  335.0000   -52.7213     6.8606     6.5089     8.6934     8.2510   105.4748     0.0290     2.4547     0.1123
  335.5000   -52.7315     6.8110     6.4181     8.5704     8.2501   106.1447     0.0237     2.4606     0.1096
  336.0000   -52.8938     6.7145     6.2837     8.2764     8.2492   105.6712     0.0147     2.4523     0.1211
  336.5000   -53.0562     6.5289     5.9733     7.9374     8.2487   104.2836     0.0062     2.4425     0.1262
  337.0000   -53.0688     6.3484     5.5843     7.8257     8.2482   102.4961     0.0004     2.4342     0.1299
  337.5000   -53.2310     6.0042     5.3932     7.8225     8.2477   102.2632     0.0116     2.4280     0.1248
  338.0000   -53.2412     5.6396     5.2086     7.6066     8.2472   104.0621     0.0168     2.4378     0.1185
  338.5000   -53.2514     5.5988     5.1005     6.6678     8.2466   105.8632     0.0236     2.4453     0.1206
  339.0000   -53.2617     5.5969     5.0642     5.3425     8.2461   106.9856     0.0198     2.4264     0.1314
  339.5000   -53.2720     5.6731     5.0984     5.0189     8.2456   107.4314     0.0242     2.4437     0.1208
  340.0000   -53.2847     5.7498     5.1328     6.3027     8.2451   107.4204     0.0257     2.4490     0.1263
  340.5000   -53.2950     5.9917     5.2392     7.6163     8.2446   107.4115     0.0234     2.4368     0.1242
  341.0000   -53.1507     6.2438     5.4227     8.8378     8.2441   107.6289     0.0307     2.4451     0.1179
  341.5000   -53.0115     6.4616     5.8104     8.8969     8.2436   108.3167     0.0496     2.4624     0.1137
  342.0000   -53.0217     6.6870     6.1828     8.7711     8.2431   108.5162     0.0413     2.4406     0.1273
  342.5000   -52.8799     6.9684     6.5791     8.7682     8.2426   108.2789     0.0113     2.4224     0.1309
  343.0000   -52.7382     7.2158     7.0008     8.7652     8.2421   106.6864     0.0053     2.4441     0.1231
  343.5000   -52.4471     7.4625     7.1960     8.8232     8.2416   107.5825     0.0075     2.4569     0.1168
  344.0000   -52.3054     7.5124     7.0903     8.9446     8.2410   109.1596     0.0165     2.4629     0.1150
  344.5000   -52.3156     7.5093     6.9479     9.0645     8.2405   109.3770     0.0217     2.4576     0.1162
  345.0000   -52.0193     7.5596     6.8510     9.0607     8.2400   107.5560     0.0271     2.4558     0.1169
  345.5000   -51.8799     7.6095     6.8496     8.9952     8.2395   105.7372     0.0329     2.4748     0.1057
  346.0000   -51.7384     7.6593     6.8482     8.9922     8.2390   104.5971     0.0366     2.4923     0.1000
  346.5000   -51.7512     7.7099     6.8948     8.9892     8.2385   103.4540     0.0373     2.4981     0.1034
  347.0000   -51.7614     7.8141     6.9409     9.0486     8.2380   102.7451     0.0133     2.4837     0.1085
  347.5000   -51.6171     7.8664     6.9395     9.0455     8.2375   101.8534     0.0170     2.4731     0.1118
  348.0000   -51.6299     7.9185     6.9864     9.0424     8.2370   102.0730     0.0222     2.4686     0.1115
  348.5000   -51.6402     7.9708     7.0335     9.0387     8.2365   102.7407     0.0319     2.4836     0.1028
  349.0000   -51.4984     7.9675     7.0809     9.0992     8.2360   103.4106     0.0396     2.4820     0.0947
  349.5000   -51.5112     7.9648     7.1287     9.0954     8.2354   105.2117     0.0176     2.4872     0.0896
  350.0000   -51.5612     7.9072     7.1234     9.1690     8.2349   108.7349     0.0464     2.5068     0.0920
  350.5000   -51.7009     7.8532     7.0990     9.2488     8.2344   111.0812     0.0663     2.5212     0.0722
  351.0000   -51.8407     7.7973     7.0757     9.3427     8.2339   109.2668     0.0467     2.5316     0.0806
  351.5000   -52.0046     7.7968     7.0748     9.1478     8.2334   105.6425     0.0415     2.5360     0.0818
  352.0000   -52.0135     7.7963     7.0738     9.1454     8.2329   105.7104     0.0511     2.5164     0.0731
  352.5000   -52.0224     7.7957     7.0728     9.0799     8.2324   108.1224     0.0551     2.4961     0.0665
  353.0000   -52.0313     7.7413     6.9746     9.0149     8.2319   107.8907     0.0263     2.4840     0.1037
  353.5000   -52.1922     7.7408     6.8778     9.0124     8.2314   104.9451     0.0254     2.4772     0.1132
  354.0000   -52.2011     7.4768     6.6890     9.0100     8.2309   104.7155     0.0179     2.4862     0.1144
  354.5000   -52.0578     7.1226     6.5053     9.0701     8.2304   105.6150     0.0404     2.4997     0.1050
  355.0000   -52.0669     6.8797     6.3692     9.1305     8.2299   106.2904     0.0478     2.5080     0.0975
  355.5000   -52.0760     6.6913     6.2330     9.1914     8.2298   106.5113     0.0388     2.5078     0.0942
  356.0000   -52.0851     6.4185     6.0255     5.6237     8.2299   104.9231     0.0522     2.4900     0.0972
  356.5000   -52.2479     6.1569     5.8601     5.0686     8.2300   101.2548     0.0184     2.4732     0.1095
  357.0000   -52.4087     5.8643     5.6599     6.7743     8.2301   102.4245     0.0026     2.4627     0.1182
  357.5000   -52.4176     5.6651     5.4666     7.9400     8.2301   107.3974     0.0138     2.4732     0.1131
  358.0000   -52.4265     5.5482     5.2434     8.4475     8.2302   115.0853     0.0445     2.4807     0.1047
  358.5000   -52.4354     5.4338     5.0994     8.6228     8.2303   119.3807     0.0633     2.4829     0.1077
  359.0000   -52.4443     5.3587     5.0286     8.6199     8.2304   117.1127     0.0639     2.4573     0.1260
  359.5000   -52.4533     5.1759     4.9932     8.4406     8.2305   113.7147     0.0264     2.4407     0.1275
  360.0000   -52.4622     5.1044     4.9239     8.1441     8.2306   110.5428     0.0203     2.4602     0.1167
  360.5000   -52.4711     5.1041     4.8892     5.8686     8.2307   108.2760     0.0150     2.4745     0.1088
  361.0000   -52.4802     5.1749     4.8884     4.0802     8.2307   107.1403     0.0127     2.4775     0.1070
  361.5000   -52.3369     5.2467     4.9217     5.2320     8.2308   107.1349     0.0074     2.4496     0.1275
  362.0000   -52.1938     5.3565     5.0593     7.8115     8.2309   107.3567     0.0156     2.4202     0.1377
