~VERSION INFORMATION
 VERS.                2.0:   CWLS LOG ASCII STANDARD - VERSION 2.0
 WRAP.                 NO:   ONE LINE PER DEPTH STEP
~WELL INFORMATION
#MNEM.UNIT      DATA TYPE    INFORMATION
#----------   ------------   ------------------------------
 STRT.F            0.0000:   START DEPTH
 STOP.F          523.0000:   STOP DEPTH
 STEP.F            0.1000:   STEP LENGTH
 NULL.          -999.2500:   NO VALUE
 COMP.       F D SERV INC:   COMPANY
 WELL. NAVAL PETROLEUM RESERVE 3 SX-3 #87-3:   WELL
 FLD .             TEAPOT:   FIELD
 LOC .       S3 T38N R78W:   LOCATION
 CNTY.            NATRONA:   COUNTY
 STAT.            WYOMING:   STATE
 CTRY. UNITED STATES OF AMERICA:   COUNTRY
 SRVC.      Western Atlas:   SERVICE COMPANY
 DATE.        22-NOV-1992:   LOGDATE
 API .       490252254300:   API NUMBER
~CURVE INFORMATION
#MNEM.UNIT       API CODE    CURVE DESCRIPTION
#----------   ------------   ------------------------------
 DEPT.F                  :   
 GRR .GAPI   07 310 01 00:   GAMMA RAY
 RILD.OHMM   07 120 46 00:   INDUCTION LOG DEEP RESISTIVITY
 RILM.OHMM   07 120 44 00:   INDUCTION LOG MEDIUM RESISTIVITY
~PARAMETER INFORMATION
#MNEM.UNIT          VALUE    DESCRIPTION
#----------   ------------   ------------------------------
 PD  .                 GL:   PERMANENT DATUM
 EPD .F              5129:   ELEVATION PERMANENT DATUM
 LMF .                 KB:   LOG MEASURED FROM
 DAPD.F                10:   FEET ABOVE PERMANENT DATUM
 DMF .                 KB:   DRILLING MEASURED FROM
 EKB .F              5139:   KELLING BUSHING
 EDF .F              5138:   DRILLING FLOOR
 EGL .F              5129:   GROUND LEVEL
 DATE.        22-NOV-1992:   RUN DATE
 RUN .                  1:   RUN NUMBER
 DD  .F               530:   DEPTH DRILLER
 DL  .F               531:   DEPTH LOGGER
 BLI .F               530:   BOTTOM LOG INTERVAL
 TLI .F                58:   TOP LOG INTERVAL
 CS  .IN            8.625:   CASING SIZE
 CBD .F                58:   CASING BOTTOM DRILLER
 CBL .F                58:   CASING BOTTOM LOGGER
 BS  .IN            7.875:   BIT SIZE
 BSD .F               530:   BIT SIZE AT DEPTH
 DFT .           AIR FOAM:   DRILLING FLUID TYPE
 MRT .F                73:   MAXIMUM RECORDED TEMPERATURE
 LUN .            HL-6274:   LOGGING UNIT NUMBER
 LUL .             CASPER:   LOGGING UNIT LOCATION
 ENGI.       P. RASMUSSEN:   RECORDING ENGINEER
 WITN.          G. STRONG:   WITNESSED BY
 CLNT.            A2DTECH:   CLIENT CODE
 ORIG.           5" PRINT:   ORIGIN OF DATA
 UWI .       490252254300:   UNIQUE WELL ID
 DICO. A2D Technologies, Inc.:   DIGITIZING COMPANY
~OTHER INFORMATION
~A    DEPT      GRR      RILD       RILM   
# ...
  473.2000   132.5571     6.0565     6.2248
  473.3000   133.9187     5.9556     6.1702
  473.4000   135.2194     5.8759     6.1428
  473.5000   136.3681     5.8216     6.1422
  473.6000   137.3458     5.7557     6.1072
  473.7000   138.1917     5.7018     6.0204
  473.8000   138.4483     5.6729     5.9011
  473.9000   139.1399     5.6724     5.7973
  474.0000   139.6994     5.7006     5.7663
  474.1000   140.1874     5.7324     5.7657
  474.2000   140.7334     5.7645     5.7382
  474.3000   141.4670     5.7905     5.7443
  474.4000   142.4444     5.7899     5.7643
  474.5000   143.6093     5.8208     5.7683
  474.6000   145.2216     5.8775     5.8036
  474.7000   146.9626     5.9107     5.8032
  474.8000   148.1939     5.9189     5.8027
  474.9000   149.5695     5.9510     5.8311
  475.0000   150.9451     5.9505     5.8901
  475.1000   152.3207     5.9768     5.9239
  475.2000   154.8901     6.0102     5.9561
  475.3000   156.5319     6.0438     6.0146
  475.4000   157.0199     6.0775     6.1180
  475.5000   157.4938     6.1161     6.2573
  475.6000   157.7800     6.1156     6.3997
  475.7000   157.9799     6.1370     6.5736
  475.8000   158.0793     6.1853     6.6645
  475.9000   157.9056     6.2491     6.7780
  476.0000   157.3859     6.2863     6.8933
  476.1000   156.5607     6.2858     7.0060
  476.2000   153.9739     6.3355     7.0946
  476.3000   150.5597     6.4070     7.2012
  476.4000   147.3848     6.4619     7.3510
  476.5000   144.7655     6.4613     7.5186
  476.6000   141.1206     6.5720     7.6736
  476.7000   139.2823     6.6839     7.7645
  476.8000   137.3216     6.7767     7.8480
  476.9000   135.0181     6.8774     8.0020
  477.0000   132.4350     7.0337     8.1390
  477.1000   130.2191     7.2195     8.2308
  477.2000   128.2670     7.3583     8.3227
  477.3000   127.0506     7.4998     8.3692
  477.4000   126.4545     7.6438     8.4537
  477.5000   126.0666     7.8048     8.5223
  477.6000   125.3298     7.9006     8.5543
  477.7000   124.4590     8.0234     8.5579
  477.8000   124.0572     8.1600     8.6126
  477.9000   123.7081     8.2567     8.6960
  478.0000   123.4615     8.3231     8.7631
  478.1000   123.2148     8.4672     8.7925
  478.2000   122.9371     8.5136     8.7997
  478.3000   122.9355     8.5976     8.8525
  478.4000   122.9338     8.6947     8.8984
  478.5000   122.9319     8.7928     8.9481
  478.6000   122.9301     8.8918     8.9981
  478.7000   122.9282     9.0105     9.0366
  478.8000   122.9265     9.1362     9.0359
  478.9000   122.9247     9.1994     9.0863
  479.0000   122.9228     9.2171     9.1371
  479.1000   122.9763     9.2623     9.1881
  479.2000   123.2218     9.2613     9.2238
  479.3000   123.7048     9.2606     9.2265
  479.4000   124.3776     9.2598     9.2866
  479.5000   125.1104     9.2591     9.2860
  479.6000   125.9126     9.2683     9.3488
  479.7000   126.8672     9.3222     9.4148
  479.8000   127.4466     9.3214     9.4213
  479.9000   127.8427     9.3590     9.4790
  480.0000   128.1895     9.4113     9.4783
  480.1000   128.3492     9.4499     9.5136
  480.2000   128.3473     9.4491     9.5430
  480.3000   128.3453     9.4483     9.5422
  480.4000   128.3438     9.4901     9.5414
  480.5000   128.3419     9.5127     9.5406
  480.6000   128.3401     9.5120     9.5398
  480.7000   128.3383     9.5112     9.5390
  480.8000   128.3363     9.5103     9.5382
  480.9000   128.3347     9.5096     9.5375
  481.0000   128.1635     9.5429     9.5365
  481.1000   127.9167     9.5962     9.5358
  481.2000   127.5616     9.6497     9.5350
  481.3000   126.8145     9.7071     9.5529
  481.4000   126.3300     9.7063     9.6002
  481.5000   125.4714     9.7442     9.5992
  481.6000   124.6159     9.7726     9.6465
  481.7000   123.9474     9.7718     9.7004
  481.8000   123.4771     9.7710     9.7317
  481.9000   123.4750     9.8259     9.7410
  482.0000   123.2758     9.8807     9.7981
  482.1000   123.1691     9.9359     9.7973
  482.2000   123.1673     9.9914     9.7965
  482.3000   123.1655    10.0430     9.8227
  482.4000   123.1634    10.0419     9.8776
  482.5000   123.1619    10.0412     9.9327
  482.6000   123.1601    10.1101     9.9882
  482.7000   123.2547    10.2022     9.9994
  482.8000   123.4593    10.2509    10.0301
  482.9000   123.4570    10.2498    10.0676
  483.0000   123.4554    10.3021    10.0720
  483.1000   123.7902    10.3198    10.1363
  483.2000   124.0569    10.3189    10.2346
  483.3000   124.1608    10.3181    10.3135
  483.4000   124.6584    10.3172    10.3480
  483.5000   125.1368    10.4317    10.3472
  483.6000   125.9893    10.5047    10.3463
  483.7000   126.8424    10.5634    10.4000
  483.8000   127.4413    10.6052    10.4581
  483.9000   127.6751    10.6044    10.5166
  484.0000   127.6729    10.6033    10.5615
  484.1000   127.6714    10.6518    10.5606
  484.2000   127.5308    10.6758    10.6195
  484.3000   127.3652    10.6964    10.6327
  484.4000   127.3634    10.7488    10.6318
  484.5000   127.3613    10.7476    10.6309
  484.6000   127.1491    10.7468    10.6300
  484.7000   127.0554    10.7860    10.6290
  484.8000   127.0536    10.8202    10.6786
  484.9000   127.0517    10.8192    10.7383
  485.0000   127.0498    10.8183    10.7983
  485.1000   126.8234    10.8762    10.8586
  485.2000   126.7437    10.8922    10.9251
  485.3000   126.6325    10.8913    10.9243
  485.4000   126.4375    10.9065    10.9233
  485.5000   126.4357    10.9674    10.9224
  485.6000   126.1950    11.0286    10.9215
  485.7000   125.9483    11.0404    10.9206
  485.8000   125.5783    11.0395    10.9801
  485.9000   125.0211    11.0593    11.0415
  486.0000   124.2844    11.1149    11.1032
  486.1000   123.5476    11.1137    11.1653
  486.2000   122.8113    11.1129    11.2248
  486.3000   121.6624    11.1120    11.2237
  486.4000   120.5108    11.1110    11.2229
  486.5000   120.0413    11.1207    11.2219
  486.6000   119.7589    11.1868    11.2210
  486.7000   119.7573    11.1860    11.2274
  486.8000   119.9072    11.1850    11.2975
  486.9000   120.0563    11.1841    11.3532
  487.0000   120.0907    11.1983    11.3748
  487.1000   120.3551    11.2608    11.4007
  487.2000   120.3534    11.3237    11.4526
  487.3000   120.3516    11.3869    11.4514
  487.4000   120.4578    11.4155    11.5124
  487.5000   120.6505    11.4146    11.5297
  487.6000   120.6487    11.4185    11.5287
  487.7000   120.6469    11.4923    11.5278
  487.8000   120.6451    11.4915    11.5268
  487.9000   120.7655    11.4905    11.5258
  488.0000   121.0086    11.4896    11.5765
  488.1000   121.2516    11.4887    11.5681
  488.2000   121.4947    11.4876    11.5229
  488.3000   121.9318    11.4867    11.5220
  488.4000   122.5561    11.5301    11.5209
  488.5000   123.2102    11.5651    11.5201
  488.6000   123.6983    11.5782    11.5191
  488.7000   124.2593    11.6440    11.5181
  488.8000   124.6739    11.6430    11.5171
  488.9000   125.0116    11.6421    11.5161
  489.0000   125.2547    11.6411    11.5759
  489.1000   125.4629    11.6401    11.5948
  489.2000   125.4606    11.6391    11.5938
  489.3000   125.4590    11.6380    11.6081
  489.4000   125.4572    11.6372    11.6730
  489.5000   125.2414    11.6362    11.6720
  489.6000   124.6516    11.6587    11.7218
  489.7000   123.6362    11.7157    11.7517
  489.8000   122.9252    11.7145    11.7507
  489.9000   122.7249    11.7136    11.7497
  490.0000   122.4810    11.7127    11.7486
  490.1000   122.1796    11.7399    11.8035
  490.2000   122.4226    11.7927    11.8290
  490.3000   122.6656    11.7915    11.8280
  490.4000   122.7159    11.7906    11.8271
  490.5000   122.7141    11.7896    11.8259
  490.6000   122.7122    11.7886    11.8250
  490.7000   122.6708    11.7876    11.8240
  490.8000   122.1032    11.7887    11.8231
  490.9000   121.8946    11.8545    11.8221
  491.0000   121.4986    11.9208    11.8211
  491.1000   121.0072    11.9873    11.8201
  491.2000   120.4142    12.0316    11.8191
  491.3000   119.0685    12.0306    11.8181
