~VERSION INFORMATION
 VERS.                2.0:   CWLS LOG ASCII STANDARD - VERSION 2.0
 WRAP.                 NO:   ONE LINE PER DEPTH STEP
~WELL INFORMATION
#MNEM.UNIT      DATA TYPE    INFORMATION
#----------   ------------   ------------------------------
 STRT.F            0.0000:   START DEPTH
 STOP.F          663.0000:   STOP DEPTH
 STEP.F            0.1000:   STEP LENGTH
 NULL.          -999.2500:   NO VALUE
 COMP.   FLUOR DANIEL INC:   COMPANY
 WELL.     62-6 X 3 #62-3:   WELL
 FLD .             TEAPOT:   FIELD
 LOC .       S3 T38N R78W:   LOCATION
 CNTY.            NATRONA:   COUNTY
 STAT.            WYOMING:   STATE
 CTRY. UNITED STATES OF AMERICA:   COUNTRY
 SRVC.      Western Atlas:   SERVICE COMPANY
 DATE.        11-APR-1995:   LOGDATE
 API .       490252270400:   API NUMBER
~CURVE INFORMATION
#MNEM.UNIT       API CODE    CURVE DESCRIPTION
#----------   ------------   ------------------------------
 DEPT.F                  :   
 GRR .GAPI   07 310 01 00:   GAMMA RAY
 RILD.OHMM   07 120 46 00:   INDUCTION LOG DEEP RESISTIVITY
 RILM.OHMM   07 120 44 00:   INDUCTION LOG MEDIUM RESISTIVITY
~PARAMETER INFORMATION
#MNEM.UNIT          VALUE    DESCRIPTION
#----------   ------------   ------------------------------
 PD  .                 GL:   PERMANENT DATUM
 EPD .F              5157:   ELEVATION PERMANENT DATUM
 LMF .                 KB:   LOG MEASURED FROM
 DAPD.F                10:   FEET ABOVE PERMANENT DATUM
 DMF .                 KB:   DRILLING MEASURED FROM
 EKB .F              5167:   KELLING BUSHING
 EDF .F              5166:   DRILLING FLOOR
 EGL .F              5157:   GROUND LEVEL
 DATE.        11-APR-1995:   RUN DATE
 RUN .                  1:   RUN NUMBER
 DD  .F               671:   DEPTH DRILLER
 DL  .F               671:   DEPTH LOGGER
 BLI .F               663:   BOTTOM LOG INTERVAL
 TLI .F                95:   TOP LOG INTERVAL
 CS  .IN            9.625:   CASING SIZE
 CBD .F                95:   CASING BOTTOM DRILLER
 CBL .F                95:   CASING BOTTOM LOGGER
 BS  .IN             8.75:   BIT SIZE
 BSD .F               671:   BIT SIZE AT DEPTH
 DFT .                AIR:   DRILLING FLUID TYPE
 MRT .F                90:   MAXIMUM RECORDED TEMPERATURE
 LUN .            HL 6530:   LOGGING UNIT NUMBER
 LUL .             CASPER:   LOGGING UNIT LOCATION
 ENGI.      PAT RASMUSSEN:   RECORDING ENGINEER
 WITN.        GARY STRONG:   WITNESSED BY
 CLNT.            A2DTECH:   CLIENT CODE
 ORIG.           5" PRINT:   ORIGIN OF DATA
 UWI .       490252270400:   UNIQUE WELL ID
 DICO. A2D Technologies, Inc.:   DIGITIZING COMPANY
~OTHER INFORMATION
~A    DEPT      GRR      RILD       RILM   
# ...
   91.0000    84.1767  -999.2500  -999.2500
   91.1000    83.5132  -999.2500  -999.2500
   91.2000    82.8988  -999.2500  -999.2500
   91.3000    82.2627  -999.2500  -999.2500
   91.4000    81.4868  -999.2500  -999.2500
   91.5000    80.7108  -999.2500  -999.2500
   91.6000    79.9181  -999.2500  -999.2500
   91.7000    79.0173  -999.2500  -999.2500
   91.8000    78.3831  -999.2500  -999.2500
   91.9000    77.6072  -999.2500  -999.2500
   92.0000    76.9598  -999.2500  -999.2500
   92.1000    76.5301  -999.2500  -999.2500
   92.2000    76.2731  -999.2500  -999.2500
   92.3000    76.0161  -999.2500  -999.2500
   92.4000    75.7208  -999.2500  -999.2500
   92.5000    75.7229  -999.2500  -999.2500
   92.6000    75.9044  -999.2500  -999.2500
   92.7000    76.0289  -999.2500  -999.2500
   92.8000    76.2225  -999.2500  -999.2500
   92.9000    76.6900  -999.2500  -999.2500
   93.0000    76.9759  -999.2500  -999.2500
   93.1000    77.8461  -999.2500  -999.2500
   93.2000    78.0779  -999.2500  -999.2500
   93.3000    78.3398  -999.2500  -999.2500
   93.4000    78.3092  -999.2500  -999.2500
   93.5000    78.1566  -999.2500  -999.2500
   93.6000    78.0964  -999.2500  -999.2500
   93.7000    77.7976  -999.2500  -999.2500
   93.8000    76.9592  -999.2500  -999.2500
   93.9000    76.7229  -999.2500  -999.2500
   94.0000    76.4659  -999.2500  -999.2500
   94.1000    76.2088  -999.2500  -999.2500
   94.2000    76.1783  -999.2500  -999.2500
   94.3000    76.4402  -999.2500  -999.2500
   94.4000    76.7020  -999.2500  -999.2500
   94.5000    76.9760  -999.2500  -999.2500
   94.6000    77.7205  -999.2500  -999.2500
   94.7000    78.5012  -999.2500  -999.2500
   94.8000    79.7735  -999.2500  -999.2500
   94.9000    81.4546  -999.2500  -999.2500
   95.0000    83.7550  9973.2793 10078.1367
   95.1000    87.0914  9973.5576 10078.7002
   95.2000    90.2458  9973.8350 10079.2627
   95.3000    94.4655  9974.1123 10079.8262
   95.4000    97.4700  9974.4346 10080.4775
   95.5000   101.2773  9974.6680 10132.0479
   95.6000   104.3856  9974.9463 10152.1602
   95.7000   106.6337  9975.2236 10152.7266
   95.8000   108.7116  9975.5020  9032.7969
   95.9000   110.8064  9975.7793  5800.2896
   96.0000   114.0606  9976.0566   176.7150
   96.1000   115.8489  9976.3770    70.8769
   96.2000   117.2008  9976.6133    33.1912
   96.3000   117.9614  8905.6162    14.7017
   96.4000   118.4827   812.1796     8.9372
   96.5000   118.9478   147.8758     5.2510
   96.6000   119.2241    19.4161     4.1163
   96.7000   119.8003     8.9226     3.5651
   96.8000   120.0345     5.3196     3.3065
   96.9000   120.2964     3.5656     3.1112
   97.0000   120.4096     2.5188     2.9311
   97.1000   120.5189     2.3605     2.8204
   97.2000   120.7157     2.2169     2.7538
   97.3000   120.7647     2.1316     2.6979
   97.4000   121.3231     2.0813     2.6810
   97.5000   121.3253     2.0322     2.6270
   97.6000   121.5269     1.9883     2.6408
   97.7000   121.6313     1.9883     2.6906
   97.8000   121.6337     2.0441     2.7650
   97.9000   121.6361     2.1353     2.8427
   98.0000   121.6385     2.3684     2.9154
   98.1000   121.6411     2.6291     3.0047
   98.2000   121.6439     2.8307     3.1293
   98.3000   121.4378     3.1014     3.2466
   98.4000   121.3470     3.3058     3.4007
   98.5000   121.3494     3.4374     3.5443
   98.6000   121.3518     3.5516     3.7085
   98.7000   121.3542     3.6997     3.9799
   98.8000   121.3566     4.0563     4.4243
   98.9000   121.6606     4.8498     4.8603
   99.0000   121.8795     6.1086     5.0440
   99.1000   122.4916     6.6330     5.2606
   99.2000   123.2723     7.0970     5.5049
   99.3000   123.9329     7.5904     5.8028
   99.4000   124.3731     8.1372     6.2121
   99.5000   124.8133     8.7177     6.8214
   99.6000   125.2535     9.3574     7.3410
   99.7000   125.6937    10.1203     7.5799
   99.8000   126.1339    10.5770     7.9625
   99.9000   126.6290    10.2274     8.5510
  100.0000   127.4096     9.8682     9.0973
  100.1000   128.0148     9.4873     9.3358
  100.2000   128.4522     9.0754     9.4455
  100.3000   128.7976     8.6936     9.5090
  100.4000   128.9253     8.4320     9.5094
  100.5000   129.0201     8.1200     9.4687
  100.6000   129.2819     7.8939     9.3501
  100.7000   129.5438     7.5917     9.1840
  100.8000   129.8389     7.3342     9.0330
  100.9000   129.8410     7.1375     8.9191
  101.0000   129.8434     6.9926     8.6872
  101.1000   129.8458     6.9097     8.5487
  101.2000   129.8482     6.8243     8.3243
  101.3000   129.6723     6.7470     8.0791
  101.4000   128.9140     6.6671     7.8596
  101.5000   128.3496     6.5881     7.6844
  101.6000   127.8811     6.5101     7.5478
  101.7000   126.9775     6.4329     7.4011
  101.8000   126.2458     6.3566     7.2822
  101.9000   125.7293     6.2785     7.2164
  102.0000   125.1445     6.2427     7.1737
  102.1000   124.4217     6.1763     7.1488
  102.2000   124.1495     6.1261     7.1702
  102.3000   123.9076     6.0730     7.2710
  102.4000   123.6506     6.0010     7.5608
  102.5000   123.5542     5.9346     7.8146
  102.6000   123.6755     5.8984     8.1385
  102.7000   123.9373     5.9398     8.5182
  102.8000   124.1992     6.0265     8.7568
  102.9000   124.4675     6.1594     8.7442
  103.0000   125.0727     6.3085     8.6968
  103.1000   125.2859     6.4250     8.6974
  103.2000   125.5478     6.4749     8.6501
  103.3000   125.9373     6.5947     8.5989
  103.4000   126.3727     6.6873     8.5480
  103.5000   126.5904     6.7858     8.5189
  103.6000   126.5928     6.9630     8.5063
  103.7000   126.5956     7.1954     8.4606
  103.8000   126.5976     7.4211     8.4611
  103.9000   126.4217     7.5747     8.3682
  104.0000   126.1647     7.7283     8.3067
  104.1000   125.9076     7.8895     8.2871
  104.2000   125.7036     8.0886     8.2662
  104.3000   125.7173     8.5346     8.2303
  104.4000   126.0099     8.6702     8.2259
  104.5000   126.2410     8.7523     8.1740
  104.6000   126.5028     8.7763     8.1288
  104.7000   126.6193     8.7965     8.0807
  104.8000   126.7253     8.8381     8.0620
  104.9000   126.9871     8.8357     8.0624
  105.0000   127.2289     8.7773     8.0629
  105.1000   127.2315     8.7775     8.0633
  105.2000   127.2337     8.7777     8.0638
  105.3000   127.0402     8.7491     8.0642
  105.4000   126.7831     8.6575     8.0647
  105.5000   126.3012     8.5374     8.0651
  105.6000   125.5253     8.5348     8.0656
  105.7000   124.7494     8.4787     8.0660
  105.8000   123.9351     8.3893     8.0665
  105.9000   122.7044     8.3258     8.0669
  106.0000   121.2048     8.3041     8.0674
  106.1000   120.3028     8.2848     8.0678
  106.2000   119.7863     8.2246     8.0683
  106.3000   119.3494     8.1301     8.0687
  106.4000   119.1298     8.0770     8.0692
  106.5000   119.1326     8.0340     8.0638
  106.6000   119.1354     7.9864     8.0139
  106.7000   119.1374     7.9124     8.0144
  106.8000   119.3116     7.8560     7.9770
  106.9000   119.7036     7.8452     7.9298
  107.0000   120.2249     7.7955     7.8829
  107.1000   120.7927     7.6943     7.8500
  107.2000   121.5687     7.6530     7.8444
  107.3000   122.1642     7.6077     7.7962
  107.4000   122.8338     7.5885     7.7966
  107.5000   123.6145     7.5520     7.7232
  107.6000   124.3952     7.4732     7.6604
  107.7000   125.0787     7.4323     7.6363
  107.8000   125.6000     7.4325     7.6367
  107.9000   126.1076     7.4327     7.6310
  108.0000   126.3979     7.3999     7.5844
  108.1000   126.6313     7.3815     7.5849
  108.2000   127.2723     7.3817     7.5489
  108.3000   127.7574     7.3710     7.5329
  108.4000   128.0193     7.3273     7.5121
  108.5000   128.2169     7.2803     7.4676
  108.6000   128.2418     7.2805     7.4296
  108.7000   128.5231     7.2481     7.4301
  108.8000   128.5253     7.2304     7.4306
  108.9000   128.3293     7.2306     7.4309
  109.0000   128.0723     7.2308     7.4027
  109.1000   127.7004     7.2310     7.3801
