~VERSION INFORMATION
 VERS.                2.0:   CWLS LOG ASCII STANDARD - VERSION 2.0
 WRAP.                 NO:   ONE LINE PER DEPTH STEP
~WELL INFORMATION
#MNEM.UNIT      DATA TYPE    INFORMATION
#----------   ------------   ------------------------------
 STRT.F           26.0000:   START DEPTH
 STOP.F         1071.0000:   STOP DEPTH
 STEP.F            0.5000:   STEP LENGTH
 NULL.          -999.2500:   NO VALUE
 COMP. FENIX & SCISSON INC:   COMPANY
 WELL.       NRP 3 #61-14:   WELL
 FLD .        TEAPOT DOME:   FIELD
 LOC .      S14 T38N R78W:   LOCATION
 CNTY.            NATRONA:   COUNTY
 STAT.            WYOMING:   STATE
 CTRY. UNITED STATES OF AMERICA:   COUNTRY
 SRVC.            Unknown:   SERVICE COMPANY
 DATE.        09-JAN-1979:   LOGDATE
 API .       490251076300:   API NUMBER
~CURVE INFORMATION
#MNEM.UNIT       API CODE    CURVE DESCRIPTION
#----------   ------------   ------------------------------
 DEPT.F                  :   
 SPR .MV     05 010 01 00:   SPONTANEOUS POTENTIAL FROM RES.
 SN  .OHMM   05 040 16 00:   SHORT NORMAL 16"
 IL  .OHMM   05 120 00 00:   INDUCTION LOG
 CALD.IN     45 280 60 00:   CALIPER
 GRD .GAPI   45 310 01 00:   GAMMA RAY FROM DENSITY LOG
 RHOB.G/C3   45 350 01 00:   BULK DENSITY
 DPHI.DEC    45 890 12 00:   DENSITY POROSITY SANDSTONE
 CORR.G/C3   45 356 01 00:   DENSITY CORRECTION
~PARAMETER INFORMATION
#MNEM.UNIT          VALUE    DESCRIPTION
#----------   ------------   ------------------------------
 PD  .                 GL:   PERMANENT DATUM
 EPD .F              5240:   ELEVATION PERMANENT DATUM
 LMF .                 KB:   LOG MEASURED FROM
 DAPD.F                 4:   FEET ABOVE PERMANENT DATUM
 DMF .                 KB:   DRILLING MEASURED FROM
 EKB .F              5244:   KELLING BUSHING
 EGL .F              5240:   GROUND LEVEL
 DATE.             1-9-79:   RUN DATE
 RUN .                  1:   RUN NUMBER
 DD  .F              1061:   DEPTH DRILLER
 DL  .F              1071:   DEPTH LOGGER
 BLI .F              1064:   BOTTOM LOG INTERVAL
 TLI .F                50:   TOP LOG INTERVAL
 CS  .IN            8.625:   CASING SIZE
 CBD .F                40:   CASING BOTTOM DRILLER
 CBL .F                38:   CASING BOTTOM LOGGER
 BS  .IN            7.875:   BIT SIZE
 BSD .F              1061:   BIT SIZE AT DEPTH
 DFT .                KCL:   DRILLING FLUID TYPE
 DFD .                8.8:   DRILLING FLUID DENSITY
 DFV .                 36:   DRILLING FLUID VISCOSITY
 DFPH.                9.2:   DRILLING FLUID PH
 MSS .           FLOWLINE:   MUD SAMPLE SOURCE
 RMS .OHMM             .3:   RESISTIVITY MUD SAMPLE
 MST .F                58:   MUD SAMPLE TEMPERATURE
 RMF .OHMM             .3:   RESISTIVITY MUD FILTRATE SAMPLE
 MFST.F                58:   MUD FILTRATE SAMPLE TEMPERATURE
 RMC .OHMM            .34:   RESISTIVITY MUD CAKE
 MCST.F                62:   MUD CAKE SAMPLE TEMPERATURE
 MFSS.           MEASURED:   MUD FILTRATE SAMPLE SOURCE
 MCSS.           MEASURED:   MUD CAKE SAMPLE SOURCE
 RMB .OHMM            .29:   RESISTIVITY MUD AT BHT
 BHT .F                61:   BOTTOM HOLE TEMPERATURE
 TCS .HRS               4:   TIME CURCULATED STOPPED
 MRT .F                61:   MAXIMUM RECORDED TEMPERATURE
 LUN .               3006:   LOGGING UNIT NUMBER
 LUL .             CASPER:   LOGGING UNIT LOCATION
 ENGI.            ROLLINS:   RECORDING ENGINEER
 WITN.           DINSMORE:   WITNESSED BY
 CLNT.            A2DTECH:   CLIENT CODE
 ORIG.           5" PRINT:   ORIGIN OF DATA
 UWI .       490251076300:   UNIQUE WELL ID
 DICO. A2D Technologies, Inc.:   DIGITIZING COMPANY
~OTHER INFORMATION
~A   DEPT      SPR         SN         IL       CALD         GRD      RHOB       DPHI       CORR   
# ...
  633.5000   -68.0280     8.1870     9.2170     7.9140   116.4570     2.4720     0.1210     0.1890
  634.0000   -68.0280     8.1440     9.1700     7.9160   115.9260     2.4750     0.1230     0.1990
  634.5000   -68.0280     8.1250     9.0060     7.9180   115.2450     2.4720     0.1290     0.2010
  635.0000   -68.0280     8.1140     8.8350     7.9200   114.4490     2.4700     0.1310     0.2000
  635.5000   -68.0350     8.1030     8.7450     7.9210   113.9010     2.4690     0.1290     0.1960
  636.0000   -68.0750     8.0920     8.7230     7.9230   113.9220     2.4700     0.1280     0.1910
  636.5000   -68.1150     8.0810     8.7020     7.9250   114.1180     2.4710     0.1290     0.1860
  637.0000   -68.1550     8.0700     8.6810     7.9230   114.6760     2.4710     0.1290     0.1810
  637.5000   -68.1950     8.0590     8.6600     7.8960   116.5990     2.4730     0.1240     0.1790
  638.0000   -68.2350     8.0480     8.6380     7.8690   120.7350     2.4780     0.1180     0.1770
  638.5000   -68.2750     8.0370     8.6170     7.8420   123.0750     2.4840     0.1130     0.1770
  639.0000   -68.3140     8.0260     8.5960     7.8290   122.5350     2.4870     0.1150     0.1780
  639.5000   -68.3540     8.0150     8.5750     7.8310   121.7730     2.4850     0.1170     0.1790
  640.0000   -68.3940     8.0040     8.5530     7.8330   120.0820     2.4830     0.1170     0.1800
  640.5000   -68.4340     7.9930     8.5320     7.8360   118.4180     2.4810     0.1210     0.1770
  641.0000   -68.4740     7.9660     8.5110     7.8380   117.3860     2.4790     0.1240     0.1720
  641.5000   -68.5140     7.8940     8.4900     7.8410   117.1590     2.4770     0.1260     0.1710
  642.0000   -68.5530     7.8210     8.4680     7.8430   116.9230     2.4750     0.1230     0.1710
  642.5000   -68.5930     7.7480     8.4470     7.8450   116.6800     2.4760     0.1180     0.1710
  643.0000   -68.6330     7.6750     8.3440     7.8480   118.0760     2.4790     0.1200     0.1660
  643.5000   -68.6730     7.6030     8.1900     7.8500   120.1180     2.4770     0.1240     0.1610
  644.0000   -68.7130     7.5300     8.0360     7.8530   120.2950     2.4710     0.1280     0.1550
  644.5000   -68.7530     7.4570     7.8830     7.8550   120.4020     2.4670     0.1270     0.1550
  645.0000   -68.7920     7.3840     7.7290     7.8570   120.5140     2.4670     0.1260     0.1560
  645.5000   -68.8230     7.3120     7.6180     7.8600   120.6170     2.4670     0.1260     0.1590
  646.0000   -68.8070     7.2430     7.5190     7.8620   121.4890     2.4650     0.1300     0.1650
  646.5000   -68.7920     7.1770     7.4160     7.8650   122.9160     2.4590     0.1380     0.1710
  647.0000   -68.7780     7.1470     7.4160     7.8670   124.3480     2.4540     0.1420     0.1750
  647.5000   -68.7630     7.1710     7.4620     7.8690   124.7810     2.4520     0.1420     0.1760
  648.0000   -68.7480     7.2410     7.5470     7.8720   123.4500     2.4510     0.1410     0.1670
  648.5000   -68.7340     7.3100     7.6310     7.8740   121.3310     2.4530     0.1380     0.1490
  649.0000   -68.7190     7.3800     7.7160     7.8770   119.2010     2.4560     0.1330     0.1310
  649.5000   -68.7040     7.4490     7.8010     7.8790   116.6960     2.4590     0.1210     0.1180
  650.0000   -68.6900     7.5190     7.8850     7.8810   111.6290     2.4770     0.1090     0.1170
  650.5000   -68.6750     7.5880     7.9170     7.8840   106.9840     2.4970     0.0960     0.1160
  651.0000   -68.6600     7.6240     7.9260     7.8860   106.1810     2.5090     0.1020     0.1150
  651.5000   -68.6460     7.6240     7.9340     7.8890   105.7930     2.5070     0.1140     0.1150
  652.0000   -68.6300     7.6240     7.9430     7.8910   109.5180     2.4950     0.1250     0.1150
  652.5000   -68.6690     7.6240     7.9510     7.8930   113.6340     2.4770     0.1360     0.1210
  653.0000   -68.7350     7.6240     7.9600     7.8960   115.0450     2.4600     0.1380     0.1270
  653.5000   -68.8010     7.6240     7.9690     7.8980   115.4830     2.4580     0.1390     0.1330
  654.0000   -68.8680     7.6240     7.9770     7.9010   115.9500     2.4570     0.1390     0.1390
  654.5000   -68.9340     7.6280     7.9880     7.9030   116.4160     2.4560     0.1380     0.1430
  655.0000   -69.0010     7.6360     8.0090     7.9050   116.5760     2.4560     0.1330     0.1390
  655.5000   -69.0680     7.6450     8.0290     7.9030   116.3350     2.4620     0.1290     0.1340
  656.0000   -69.1340     7.6540     8.0500     7.8940   115.9810     2.4680     0.1290     0.1280
  656.5000   -69.2010     7.6630     8.0710     7.8860   112.9260     2.4730     0.1270     0.1260
  657.0000   -69.2670     7.6710     8.0910     7.8780   109.8230     2.4720     0.1190     0.1250
  657.5000   -69.3340     7.6800     8.1120     7.8710   108.0530     2.4750     0.1250     0.1250
  658.0000   -69.4030     7.6890     8.1320     7.7840   110.4160     2.4760     0.1310     0.1260
  658.5000   -69.4290     7.6980     8.1530     7.8110   112.8340     2.4650     0.1370     0.1290
  659.0000   -69.4420     7.7070     8.1740     7.8620   113.7880     2.4550     0.1420     0.1390
  659.5000   -69.4540     7.7150     8.1940     7.9140   114.3010     2.4530     0.1430     0.1500
  660.0000   -69.4650     7.7240     8.2150     7.9640   114.1940     2.4520     0.1420     0.1580
  660.5000   -69.4770     7.7330     8.2350     7.9530   114.0990     2.4520     0.1420     0.1530
  661.0000   -69.4890     7.7420     8.2560     7.9380   114.0050     2.4520     0.1410     0.1480
  661.5000   -69.5010     7.7500     8.2820     7.9240   113.9160     2.4530     0.1400     0.1380
  662.0000   -69.5120     7.7590     8.2370     7.9100   114.1280     2.4560     0.1380     0.1280
  662.5000   -69.5240     7.7660     8.1600     7.8960   115.2440     2.4630     0.1260     0.1180
  663.0000   -69.5360     7.7520     8.0830     7.8820   116.4320     2.4690     0.1200     0.1200
  663.5000   -69.5480     7.7410     8.0060     7.8670   116.4710     2.4740     0.1210     0.1240
  664.0000   -69.5590     7.7290     7.9290     7.8490   116.0390     2.4750     0.1240     0.1290
  664.5000   -69.5710     7.7180     7.9090     7.8290   114.4720     2.4740     0.1320     0.1320
  665.0000   -69.5830     7.7060     7.9060     7.8090   112.9540     2.4640     0.1410     0.1310
  665.5000   -69.5950     7.6950     7.9030     7.8070   111.4040     2.4520     0.1440     0.1250
  666.0000   -69.6060     7.6830     7.9000     7.8080   111.1460     2.4490     0.1430     0.1190
  666.5000   -69.6180     7.6720     7.8970     7.8080   110.9410     2.4490     0.1420     0.1140
  667.0000   -69.6300     7.6600     7.8940     7.8080   110.9370     2.4510     0.1410     0.1090
  667.5000   -69.6410     7.6490     7.8910     7.8080   112.7100     2.4520     0.1400     0.1120
  668.0000   -69.6530     7.6370     7.8880     7.8080   115.0510     2.4530     0.1410     0.1140
  668.5000   -69.6650     7.6260     7.8850     7.8080   115.5480     2.4540     0.1420     0.1120
  669.0000   -69.6770     7.6140     7.8820     7.8080   114.2430     2.4550     0.1400     0.1090
  669.5000   -69.6880     7.6030     7.8790     7.8080   112.8240     2.4550     0.1360     0.1080
  670.0000   -69.7000     7.5920     7.8760     7.8080   114.4070     2.4560     0.1350     0.1080
  670.5000   -69.7120     7.5800     7.8730     7.8140   117.8130     2.4570     0.1360     0.1070
  671.0000   -69.7240     7.5690     7.8700     7.8410   117.8760     2.4570     0.1380     0.1070
  671.5000   -69.7350     7.5570     7.8670     7.8930   117.4920     2.4570     0.1380     0.1080
  672.0000   -69.7470     7.5460     7.8640     7.9470   117.1110     2.4570     0.1370     0.1110
  672.5000   -69.7590     7.5340     7.8620     7.9660   116.7220     2.4570     0.1380     0.1140
  673.0000   -69.7710     7.5230     7.8590     7.9420   117.3910     2.4580     0.1390     0.1170
  673.5000   -69.7820     7.5110     7.8560     7.9040   118.8080     2.4590     0.1360     0.1190
