~VERSION INFORMATION
 VERS.                2.0:   CWLS LOG ASCII STANDARD - VERSION 2.0
 WRAP.                 NO:   ONE LINE PER DEPTH STEP
~WELL INFORMATION
#MNEM.UNIT      DATA TYPE    INFORMATION
#----------   ------------   ------------------------------
 STRT.F           22.0000:   START DEPTH
 STOP.F          654.0000:   STOP DEPTH
 STEP.F            0.5000:   STEP LENGTH
 NULL.          -999.2500:   NO VALUE
 COMP. FENIX & SCISSON INC:   COMPANY
 WELL.     54 S 34 #54-34:   WELL
 FLD .             TEAPOT:   FIELD
 LOC .      S34 T39N R78W:   LOCATION
 CNTY.            NATRONA:   COUNTY
 STAT.            WYOMING:   STATE
 CTRY. UNITED STATES OF AMERICA:   COUNTRY
 SRVC.           BIRDWELL:   SERVICE COMPANY
 DATE.        22-AUG-1978:   LOGDATE
 API .       490251070100:   API NUMBER
~CURVE INFORMATION
#MNEM.UNIT       API CODE    CURVE DESCRIPTION
#----------   ------------   ------------------------------
 DEPT.F                  :   
 SPR .MV     05 010 01 00:   SPONTANEOUS POTENTIAL FROM RES.
 SN  .OHMM   05 040 16 00:   SHORT NORMAL 16"
 ILD .OHMM   05 120 46 00:   INDUCTION LOG DEEP
 CALD.IN     45 280 60 00:   CALIPER
 GRD .GAPI   45 310 01 00:   GAMMA RAY FROM DENSITY LOG
 DPHI.DEC    45 890 12 00:   DENSITY POROSITY SANDSTONE
 RHOB.G/C3   45 350 01 00:   BULK DENSITY
 CORR.G/C3   45 356 01 00:   DENSITY CORRECTION
~PARAMETER INFORMATION
#MNEM.UNIT          VALUE    DESCRIPTION
#----------   ------------   ------------------------------
 PD  .                 GL:   PERMANENT DATUM
 EPD .F              5085:   ELEVATION PERMANENT DATUM
 LMF .                 KB:   LOG MEASURED FROM
 DAPD.F                 4:   FEET ABOVE PERMANENT DATUM
 DMF .                 KB:   DRILLING MEASURED FROM
 EKB .F              5089:   KELLING BUSHING
 EGL .F              5085:   GROUND LEVEL
 DATE.            8-22-78:   RUN DATE
 RUN .                  1:   RUN NUMBER
 DD  .F               685:   DEPTH DRILLER
 DL  .F               653:   DEPTH LOGGER
 BLI .F               646:   BOTTOM LOG INTERVAL
 TLI .F                30:   TOP LOG INTERVAL
 CS  .IN            8.625:   CASING SIZE
 CBD .F                46:   CASING BOTTOM DRILLER
 CBL .F                46:   CASING BOTTOM LOGGER
 BS  .IN            7.875:   BIT SIZE
 BSD .F               685:   BIT SIZE AT DEPTH
 DFT .                KCL:   DRILLING FLUID TYPE
 DFD .                8.7:   DRILLING FLUID DENSITY
 DFV .                 33:   DRILLING FLUID VISCOSITY
 DFPH.                  9:   DRILLING FLUID PH
 MSS .           FLOWLINE:   MUD SAMPLE SOURCE
 RMS .OHMM            .18:   RESISTIVITY MUD SAMPLE
 MST .F                86:   MUD SAMPLE TEMPERATURE
 RMF .OHMM            .16:   RESISTIVITY MUD FILTRATE SAMPLE
 MFST.F                86:   MUD FILTRATE SAMPLE TEMPERATURE
 RMC .OHMM            .52:   RESISTIVITY MUD CAKE
 MCST.F                86:   MUD CAKE SAMPLE TEMPERATURE
 MFSS.               MEAS:   MUD FILTRATE SAMPLE SOURCE
 MCSS.               MEAS:   MUD CAKE SAMPLE SOURCE
 BHT .F                70:   BOTTOM HOLE TEMPERATURE
 TCS .HRS               2:   TIME CURCULATED STOPPED
 MRT .F                70:   MAXIMUM RECORDED TEMPERATURE
 LUN .               2958:   LOGGING UNIT NUMBER
 LUL .               CASP:   LOGGING UNIT LOCATION
 ENGI.           REYNOLDS:   RECORDING ENGINEER
 WITN.              AMEND:   WITNESSED BY
 CLNT.            A2DTECH:   CLIENT CODE
 ORIG.           5" PRINT:   ORIGIN OF DATA
 UWI .       490251070100:   UNIQUE WELL ID
 DICO. A2D Technologies, Inc.:   DIGITIZING COMPANY
~OTHER INFORMATION
~A   DEPT      SPR         SN        ILD       CALD         GRD      DPHI       RHOB       CORR   
# ...
  467.5000   -41.0178     7.4197     6.9577     7.5992   112.0401     0.1124     2.4941     0.0093
  468.0000   -41.0179     7.3454     6.9582     7.5982   113.2512     0.1080     2.4957     0.0079
  468.5000   -41.0179     7.2649     6.8502     7.5973   115.3142     0.1107     2.4972     0.0064
  469.0000   -41.0191     7.1853     6.5862     7.5963   116.2294     0.1140     2.4936     0.0050
  469.5000   -41.0902     7.1065     6.2435     7.5953   118.4717     0.1172     2.4896     0.0036
  470.0000   -41.2647     7.0209     5.9234     7.5944   117.0640     0.1204     2.4856     0.0045
  470.5000   -41.4377     6.8003     5.6149     7.5933   115.6429     0.1253     2.4726     0.0132
  471.0000   -41.6126     6.5632     5.5026     7.5923   117.0736     0.1347     2.4582     0.0216
  471.5000   -41.7962     6.3345     5.4487     7.5916   115.4614     0.1442     2.4437     0.0300
  472.0000   -41.4611     6.1137     5.3795     7.5910   112.4483     0.1537     2.4293     0.0324
  472.5000   -41.0278     6.0062     5.4031     7.6555   115.3320     0.1605     2.4212     0.0237
  473.0000   -40.5981     6.0813     5.4370     7.7972   121.5427     0.1515     2.4290     0.0149
  473.5000   -40.8864     6.1398     5.4712     7.9082   122.1773     0.1431     2.4460     0.0126
  474.0000   -41.7787     6.1991     5.5056     7.5573   118.9261     0.1315     2.4629     0.0125
  474.5000   -41.4170     6.2580     5.5297     7.5435   118.2402     0.1199     2.4799     0.0143
  475.0000   -41.2374     6.2867     5.1475     7.9150   116.5458     0.1134     2.4955     0.0163
  475.5000   -41.9360     6.2914     4.8690     7.3626   113.0241     0.1125     2.4959     0.0181
  476.0000   -42.6675     5.9669     4.6841     7.5237   109.5748     0.1221     2.4712     0.0231
  476.5000   -43.0050     5.7618     4.6885     7.6733   106.1290     0.1411     2.4436     0.0327
  477.0000   -42.9954     5.5637     4.6703     7.6624   103.1436     0.1602     2.4162     0.0630
  477.5000   -42.9804     5.4291     4.6590     7.6579   102.6898     0.1792     2.3885     0.0965
  478.0000   -42.9643     5.4541     4.6478     7.6531   105.6542     0.1996     2.3454     0.0467
  478.5000   -42.9487     5.6008     4.6444     7.9352   111.3012     0.1820     2.4306     0.0207
  479.0000   -42.9331     5.8523     4.7961     8.1846   112.7981     0.1630     2.4236     0.0200
  479.5000   -42.9176     6.1150     5.2606     7.6430   109.4134     0.1440     2.4460     0.0194
  480.0000   -42.9020     6.3896     5.9640     7.6265   109.6535     0.1249     2.4886     0.0191
  480.5000   -42.8865     6.7059     6.7615     7.6296   110.9428     0.1124     2.4983     0.0186
  481.0000   -42.8709     6.7442     7.0209     7.6300   111.5771     0.1112     2.4973     0.0182
  481.5000   -42.8552     6.7870     7.0273     7.6300   110.6371     0.1082     2.5038     0.0178
  482.0000   -42.8396     6.8301     6.7043     7.6300   109.7305     0.1056     2.5070     0.0173
  482.5000   -42.8249     6.8735     6.2361     7.6300   111.0150     0.1052     2.5069     0.0169
  483.0000   -42.8556     6.9172     5.7952     7.6300   115.9920     0.1031     2.5103     0.0165
  483.5000   -42.9717     6.9567     5.3893     7.6300   118.0861     0.1018     2.5144     0.0160
  484.0000   -43.0866     6.7097     5.0401     7.6300   115.5937     0.1055     2.5078     0.0156
  484.5000   -43.2021     6.4455     5.0410     7.6300   112.9784     0.1092     2.4995     0.0151
  485.0000   -43.3192     6.1175     5.0442     7.6300   111.9358     0.1239     2.4912     0.0147
  485.5000   -43.4175     6.1739     5.0907     7.6300   112.8994     0.1419     2.4690     0.0143
  486.0000   -43.2354     6.2309     5.0888     7.6300   121.1197     0.1609     2.4372     0.0138
  486.5000   -42.0308     6.4185     5.3010     7.6300   128.7929     0.1551     2.4185     0.0134
  487.0000   -40.8539     6.6964     5.7051     7.6300   119.5730     0.1405     2.4483     0.0130
  487.5000   -40.6172     6.9863     6.1400     7.6300   110.1727     0.1259     2.4790     0.0125
  488.0000   -40.6199     7.2896     6.6080     7.6300   102.7314     0.1112     2.4999     0.0121
  488.5000   -40.6217     7.6022     7.0403     7.6300   104.7387     0.1072     2.5032     0.0116
  489.0000   -40.6089     7.9858     7.3261     7.6300   107.3634     0.1068     2.5052     0.0112
  489.5000   -40.0277     7.9841     7.6235     7.6300   108.0843     0.1092     2.5037     0.0108
  490.0000   -39.3951     8.0667     7.8388     7.6300   103.1074     0.1131     2.4967     0.0134
  490.5000   -38.7652     8.0963     7.7964     7.6300    98.9777     0.1170     2.4894     0.0204
  491.0000   -38.2077     8.1261     7.7642     7.6300    98.2400     0.1184     2.4844     0.0272
  491.5000   -38.2521     8.1560     7.7316     7.6300   102.4289     0.1093     2.5027     0.0331
  492.0000   -38.4916     8.1860     7.6994     7.6300   106.1318     0.0982     2.5214     0.0386
  492.5000   -38.7298     8.2073     7.6673     7.6300   104.7601     0.0956     2.5289     0.0405
  493.0000   -38.9688     8.1839     7.6354     7.6300   103.1789     0.0956     2.5267     0.0407
  493.5000   -39.2101     8.1660     7.6036     7.6300   105.0020     0.0956     2.5244     0.0408
  494.0000   -39.2234     8.1481     7.5719     7.6300   104.4314     0.0943     2.5252     0.0410
  494.5000   -39.2220     8.1303     7.5404     7.6300   103.4505     0.0925     2.5275     0.0411
  495.0000   -39.2216     8.1126     7.5090     7.6300   103.3700     0.0906     2.5347     0.0413
  495.5000   -39.2216     8.0948     7.4872     7.6300   103.5142     0.0888     2.5447     0.0414
  496.0000   -39.2216     8.0772     7.5871     7.6300   103.7172     0.0880     2.5362     0.0415
  496.5000   -39.2216     8.0578     7.6648     7.6300   104.0861     0.0924     2.5279     0.0417
  497.0000   -39.2215     8.1221     7.7434     7.6300   104.7590     0.0965     2.5247     0.0418
  497.5000   -39.2213     8.1941     7.8228     7.6300   107.2073     0.1006     2.5207     0.0420
  498.0000   -39.2175     8.2668     7.9031     7.6300   110.0304     0.1047     2.5119     0.0421
  498.5000   -39.4241     8.3401     7.9845     7.6300   111.4164     0.1064     2.5056     0.0423
  499.0000   -39.7081     8.4140     8.0606     7.6300   108.0084     0.1068     2.5047     0.0424
  499.5000   -39.9936     8.4363     8.0641     7.6300   103.0479     0.1068     2.5037     0.0424
  500.0000   -40.2789     8.2366     7.3769     7.6300    99.3203     0.1078     2.5020     0.0458
  500.5000   -40.5642     8.0592     6.8951     7.6300    99.0107     0.1100     2.5001     0.0510
  501.0000   -40.8496     7.8856     6.4434     7.6300    98.6438     0.1123     2.4969     0.0584
  501.5000   -41.1361     7.6819     6.2212     7.6300    98.3110     0.1144     2.4904     0.0739
  502.0000   -41.4203     7.4092     6.1893     7.6300    99.5848     0.1288     2.4691     0.0891
  502.5000   -41.5705     7.1461     6.1579     7.6296   102.2570     0.1445     2.4487     0.1036
  503.0000   -41.4237     7.0209     6.1153     7.6315   104.9210     0.1685     2.4284     0.1128
  503.5000   -41.0736     7.0857     6.1101     7.6314   111.5092     0.1606     2.4147     0.0442
  504.0000   -40.4096     7.2170     6.2379     7.6212   115.6974     0.1441     2.4473     0.0266
  504.5000   -39.7394     7.5145     6.7479     8.3390   108.3766     0.1275     2.4785     0.0265
  505.0000   -39.4401     7.8532     7.4769     7.4866    99.9034     0.0994     2.5097     0.0268
  505.5000   -39.2084     8.2072     8.2799     7.6547    93.4083     0.0901     2.5386     0.0270
  506.0000   -39.2227     8.5772     9.1691     7.6626    94.8124     0.0930     2.5337     0.0271
  506.5000   -39.2223     8.9964    10.2306     7.6728    95.7600     0.0959     2.5272     0.0273
  507.0000   -39.2245     9.0568    10.2050     7.6828    95.1184     0.0925     2.5280     0.0274
  507.5000   -39.2142     9.1405    10.1775     7.6923    94.8775     0.0909     2.5341     0.0276
