~VERSION INFORMATION
 VERS.                2.0:   CWLS LOG ASCII STANDARD - VERSION 2.0
 WRAP.                 NO:   ONE LINE PER DEPTH STEP
~WELL INFORMATION
#MNEM.UNIT      DATA TYPE    INFORMATION
#----------   ------------   ------------------------------
 STRT.F            0.0000:   START DEPTH
 STOP.F          666.0000:   STOP DEPTH
 STEP.F            0.1000:   STEP LENGTH
 NULL.          -999.2500:   NO VALUE
 COMP.   FLUOR DANIEL INC:   COMPANY
 WELL.   77-2 X 34 #77-34:   WELL
 FLD .             TEAPOT:   FIELD
 LOC .      S34 T39N R78W:   LOCATION
 CNTY.            NATRONA:   COUNTY
 STAT.            WYOMING:   STATE
 CTRY. UNITED STATES OF AMERICA:   COUNTRY
 SRVC.      Western Atlas:   SERVICE COMPANY
 DATE.        01-APR-1995:   LOGDATE
 API .       490252270000:   API NUMBER
~CURVE INFORMATION
#MNEM.UNIT       API CODE    CURVE DESCRIPTION
#----------   ------------   ------------------------------
 DEPT.F                  :   
 GRR .GAPI   07 310 01 00:   GAMMA RAY
 RILD.OHMM   07 120 46 00:   INDUCTION LOG DEEP RESISTIVITY
 RILM.OHMM   07 120 44 00:   INDUCTION LOG MEDIUM RESISTIVITY
~PARAMETER INFORMATION
#MNEM.UNIT          VALUE    DESCRIPTION
#----------   ------------   ------------------------------
 PD  .                 GL:   PERMANENT DATUM
 EPD .F              5106:   ELEVATION PERMANENT DATUM
 LMF .                 KB:   LOG MEASURED FROM
 DAPD.F                10:   FEET ABOVE PERMANENT DATUM
 DMF .                 KB:   DRILLING MEASURED FROM
 EKB .F              5116:   KELLING BUSHING
 EDF .F              5115:   DRILLING FLOOR
 EGL .F              5106:   GROUND LEVEL
 DATE.        01-APR-1995:   RUN DATE
 RUN .                  1:   RUN NUMBER
 DD  .F               674:   DEPTH DRILLER
 DL  .F               674:   DEPTH LOGGER
 BLI .F               666:   BOTTOM LOG INTERVAL
 TLI .F                52:   TOP LOG INTERVAL
 CS  .IN            9.625:   CASING SIZE
 CBD .F                52:   CASING BOTTOM DRILLER
 CBL .F                52:   CASING BOTTOM LOGGER
 BS  .IN             8.75:   BIT SIZE
 BSD .F               674:   BIT SIZE AT DEPTH
 DFT .                AIR:   DRILLING FLUID TYPE
 MRT .F                89:   MAXIMUM RECORDED TEMPERATURE
 LUN .            HL 6530:   LOGGING UNIT NUMBER
 LUL .             CASPER:   LOGGING UNIT LOCATION
 ENGI.      PAT RASMUSSEN:   RECORDING ENGINEER
 WITN.        GARY STRONG:   WITNESSED BY
 CLNT.            A2DTECH:   CLIENT CODE
 ORIG.           5" PRINT:   ORIGIN OF DATA
 UWI .       490252270000:   UNIQUE WELL ID
 DICO. A2D Technologies, Inc.:   DIGITIZING COMPANY
~OTHER INFORMATION
~A    DEPT      GRR      RILD       RILM   
# ...
  527.8000    97.8805    16.3211    16.3020
  527.9000    98.0273    16.2980    16.3020
  528.0000    98.0273    16.2750    16.3020
  528.1000    98.0273    16.2526    16.3020
  528.2000    97.7834    16.2528    16.3020
  528.3000    97.7238    16.2531    16.3020
  528.4000    97.5879    16.2533    16.3020
  528.5000    97.4203    16.2357    16.3020
  528.6000    97.4203    16.1898    16.3020
  528.7000    97.4203    16.1417    16.3020
  528.8000    97.4203    16.0981    16.2293
  528.9000    97.4203    16.0524    16.1894
  529.0000    97.4203    16.0309    16.1894
  529.1000    97.4817    16.0311    16.1894
  529.2000    97.7311    16.0313    16.1894
  529.3000    98.0273    16.0316    16.1467
  529.4000    98.2301    15.9513    16.1006
  529.5000    98.4795    15.9213    16.0776
  529.6000    98.6343    15.9215    16.0776
  529.7000    98.7155    15.9217    16.0742
  529.8000    99.2413    15.9197    16.0285
  529.9000    99.4774    15.8122    15.9827
  530.0000    99.5448    15.8124    15.9666
  530.1000    99.5448    15.8126    15.9272
  530.2000    99.4707    15.7787    15.8563
  530.3000    99.2413    15.7038    15.8563
  530.4000    99.2413    15.7041    15.8563
  530.5000    98.8102    15.7043    15.8563
  530.6000    98.4728    15.6387    15.8040
  530.7000    98.0084    15.5963    15.7468
  530.8000    97.3669    15.5965    15.7468
  530.9000    97.1168    15.5926    15.7468
  531.0000    96.3704    15.5485    15.6627
  531.1000    95.8167    15.5043    15.6381
  531.2000    95.1769    15.4896    15.6381
  531.3000    94.4286    15.4503    15.6116
  531.4000    93.7131    15.3831    15.5301
  531.5000    93.1715    15.3833    15.5301
  531.6000    92.9433    15.3836    15.4531
  531.7000    92.8680    15.3837    15.4228
  531.8000    92.8680    15.3839    15.4228
  531.9000    92.8680    15.3842    15.4228
  532.0000    92.8680    15.3844    15.4214
  532.1000    92.8680    15.3846    15.3163
  532.2000    93.0756    15.3019    15.3163
  532.3000    93.1715    15.2788    15.2650
  532.4000    93.1715    15.2340    15.2105
  532.5000    93.1715    15.1737    15.2105
  532.6000    93.1715    15.1662    15.2105
  532.7000    92.9306    15.0693    15.1284
  532.8000    92.6810    14.9945    15.1055
  532.9000    92.4315    14.9656    15.1055
  533.0000    92.0244    14.9279    15.0790
  533.1000    91.2510    14.8432    15.0011
  533.2000    90.1366    14.7602    15.0011
  533.3000    89.4754    14.7605    14.9260
  533.4000    88.8935    14.6934    14.8410
  533.5000    88.3947    14.6100    14.7565
  533.6000    87.9539    14.5579    14.6925
  533.7000    87.7044    14.5450    14.6903
  533.8000    87.4052    14.4577    14.5910
  533.9000    87.6049    14.3804    14.5910
  534.0000    88.0000    14.3583    14.5413
  534.1000    88.5905    14.3165    14.4585
  534.2000    89.3770    14.2474    14.3902
  534.3000    90.4401    14.2070    14.3902
  534.4000    91.3724    14.1614    14.3117
  534.5000    92.1913    14.1616    14.2908
  534.6000    93.0648    14.1090    14.2692
  534.7000    94.0626    14.0642    14.2285
  534.8000    95.0432    14.0462    14.1921
  534.9000    95.9029    13.9670    14.1921
  535.0000    96.3277    13.9274    14.1921
  535.1000    96.8267    13.8879    14.1921
  535.2000    97.2213    13.8716    14.1921
  535.3000    97.4203    13.8718    14.1921
  535.4000    97.4203    13.8720    14.1921
  535.5000    97.6662    13.8722    14.1921
  535.6000    98.1075    13.7983    14.1921
  535.7000    97.9175    13.7767    14.1921
  535.8000    97.2528    13.7769    14.1921
  535.9000    96.7538    13.7771    14.1921
  536.0000    96.2064    13.7773    14.1921
  536.1000    95.7560    13.7775    14.1921
  536.2000    95.2571    13.7777    14.1921
  536.3000    94.7581    13.8293    14.1921
  536.4000    94.2592    13.8739    14.1921
  536.5000    93.7695    13.8741    14.1921
  536.6000    93.4750    13.8743    14.1921
  536.7000    92.8614    13.8745    14.1921
  536.8000    92.4139    13.8746    14.1921
  536.9000    92.1644    13.8748    14.1921
  537.0000    91.8725    13.8750    14.1921
  537.1000    91.3505    13.8752    14.1930
  537.2000    91.1126    13.8754    14.2133
  537.3000    90.8631    13.9499    14.2337
  537.4000    90.7436    13.9723    14.2540
  537.5000    90.5919    13.9725    14.2743
  537.6000    90.1366    13.9727    14.2986
  537.7000    90.1366    13.9729    14.3395
  537.8000    90.1366    13.9731    14.3805
  537.9000    90.1366    13.9733    14.3902
  538.0000    90.1366    13.9735    14.3902
  538.1000    90.1366    14.0083    14.3902
  538.2000    90.1378    14.0710    14.3902
  538.3000    90.3873    14.0712    14.3902
  538.4000    90.6367    14.0714    14.3902
  538.5000    90.7436    14.0716    14.3902
  538.6000    90.8322    14.0718    14.3902
  538.7000    91.0817    14.0793    14.3902
  538.8000    91.3505    14.0996    14.3902
  538.9000    91.8106    14.1199    14.3902
  539.0000    92.1335    14.1403    14.3902
  539.1000    92.3830    14.1606    14.3902
  539.2000    92.7003    14.1708    14.3902
  539.3000    93.1715    14.1710    14.3902
  539.4000    93.1715    14.1712    14.3902
  539.5000    93.3809    14.1715    14.3902
  539.6000    93.1642    14.1420    14.3902
  539.7000    92.7666    14.1077    14.3902
  539.8000    92.5171    14.0741    14.3902
  539.9000    92.2610    14.0743    14.3902
  540.0000    92.2610    14.0745    14.3902
  540.1000    92.0722    14.0747    14.3902
  540.2000    91.9575    14.0749    14.3613
  540.3000    91.8768    14.0294    14.3203
  540.4000    91.6540    13.9781    14.2908
  540.5000    91.9575    13.9783    14.2908
  540.6000    91.9575    13.9785    14.2908
  540.7000    92.1257    13.9418    14.2908
  540.8000    92.3751    13.9023    14.2908
  540.9000    92.6847    13.8825    14.2908
  541.0000    93.1837    13.8604    14.2822
  541.1000    93.7785    13.7870    14.2416
  541.2000    94.3829    13.7873    14.2009
  541.3000    95.2790    13.7874    14.1921
  541.4000    96.0900    13.7625    14.1921
  541.5000    96.5887    13.7235    14.1825
  541.6000    97.1168    13.6928    14.1556
  541.7000    97.3517    13.6930    14.1286
  541.8000    97.4203    13.6156    14.1017
  541.9000    97.5472    13.5988    14.0654
  542.0000    97.7238    13.5990    14.0253
  542.1000    97.7238    13.5901    13.9910
  542.2000    97.7238    13.5645    13.9711
  542.3000    97.7238    13.5389    13.9512
  542.4000    97.7238    13.5133    13.9312
  542.5000    97.7238    13.4788    13.9113
  542.6000    97.7238    13.4406    13.9001
  542.7000    97.7238    13.4131    13.9001
  542.8000    97.7238    13.4133    13.9001
  542.9000    97.7238    13.4135    13.9001
  543.0000    97.8634    13.4136    13.9001
  543.1000    98.0273    13.4138    13.8772
  543.2000    98.0273    13.3819    13.8376
  543.3000    98.0273    13.3215    13.8041
  543.4000    98.0273    13.3217    13.8041
  543.5000    98.2003    13.3219    13.8041
  543.6000    98.3308    13.3221    13.8041
  543.7000    98.2658    13.2797    13.8041
  543.8000    98.0163    13.2305    13.8041
  543.9000    97.7238    13.2306    13.8041
  544.0000    97.7238    13.2308    13.8041
  544.1000    97.5714    13.2310    13.8041
  544.2000    97.4203    13.2312    13.8041
  544.3000    97.3761    13.2314    13.8041
  544.4000    97.1168    13.2316    13.8041
  544.5000    97.1168    13.2317    13.8041
  544.6000    96.9312    13.2320    13.8041
  544.7000    96.8134    13.2321    13.8041
  544.8000    96.7357    13.2323    13.8041
  544.9000    96.5099    13.2325    13.8041
  545.0000    96.5099    13.2327    13.8041
  545.1000    96.5099    13.2328    13.8041
  545.2000    96.5099    13.2330    13.8041
  545.3000    96.5099    13.2332    13.8041
  545.4000    96.5670    13.2334    13.8041
  545.5000    96.8134    13.2336    13.8041
  545.6000    96.8134    13.2338    13.8041
  545.7000    97.0118    13.2340    13.8041
  545.8000    97.2613    13.2341    13.7349
  545.9000    97.4203    13.2343    13.7087
