~VERSION INFORMATION
 VERS.                2.0:   CWLS LOG ASCII STANDARD - VERSION 2.0
 WRAP.                 NO:   ONE LINE PER DEPTH STEP
~WELL INFORMATION
#MNEM.UNIT      DATA TYPE    INFORMATION
#----------   ------------   ------------------------------
 STRT.F            2.0000:   START DEPTH
 STOP.F          500.0000:   STOP DEPTH
 STEP.F            0.1000:   STEP LENGTH
 NULL.          -999.2500:   NO VALUE
 COMP.   FLUOR DANIEL INC:   COMPANY
 WELL.   73-5 X 10 #73-10:   WELL
 FLD .             TEAPOT:   FIELD
 LOC .      S10 T38N R78W:   LOCATION
 CNTY.            NATRONA:   COUNTY
 STAT.            WYOMING:   STATE
 CTRY. UNITED STATES OF AMERICA:   COUNTRY
 SRVC.      Western Atlas:   SERVICE COMPANY
 DATE.        07-JUN-1995:   LOGDATE
 API .       490252271400:   API NUMBER
~CURVE INFORMATION
#MNEM.UNIT       API CODE    CURVE DESCRIPTION
#----------   ------------   ------------------------------
 DEPT.F                  :   
 GRR .GAPI   07 310 01 00:   GAMMA RAY
 RILD.OHMM   07 120 46 00:   INDUCTION LOG DEEP RESISTIVITY
 RILM.OHMM   07 120 44 00:   RESITIVITY LONG MEDIUM
~PARAMETER INFORMATION
#MNEM.UNIT          VALUE    DESCRIPTION
#----------   ------------   ------------------------------
 PD  .                 GL:   PERMANENT DATUM
 EPD .F              5175:   ELEVATION PERMANENT DATUM
 LMF .                 KB:   LOG MEASURED FROM
 DAPD.F                10:   FEET ABOVE PERMANENT DATUM
 DMF .                 KB:   DRILLING MEASURED FROM
 EKB .F              5185:   KELLING BUSHING
 EDF .F              5184:   DRILLING FLOOR
 EGL .F              5175:   GROUND LEVEL
 DATE.        07-JUN-1995:   RUN DATE
 RUN .                  1:   RUN NUMBER
 DD  .F               511:   DEPTH DRILLER
 DL  .F               508:   DEPTH LOGGER
 BLI .F               500:   BOTTOM LOG INTERVAL
 TLI .F                96:   TOP LOG INTERVAL
 CS  .IN            9.625:   CASING SIZE
 CBD .F                96:   CASING BOTTOM DRILLER
 CBL .F                96:   CASING BOTTOM LOGGER
 BS  .IN             8.75:   BIT SIZE
 BSD .F               511:   BIT SIZE AT DEPTH
 DFT .                AIR:   DRILLING FLUID TYPE
 MRT .F               116:   MAXIMUM RECORDED TEMPERATURE
 LUN .            HL 6530:   LOGGING UNIT NUMBER
 LUL .             CASPER:   LOGGING UNIT LOCATION
 ENGI.        VERN RAUTIO:   RECORDING ENGINEER
 WITN.        GARY STRONG:   WITNESSED BY
 CLNT.            A2DTECH:   CLIENT CODE
 ORIG.           5" PRINT:   ORIGIN OF DATA
 UWI .       490252271400:   UNIQUE WELL ID
 DICO. A2D Technologies, Inc.:   DIGITIZING COMPANY
~OTHER INFORMATION
~A    DEPT       GRR     RILD       RILM   
# ...
  420.6000   138.0164    12.4411    12.5365
  420.7000   138.2648    12.4411    12.5365
  420.8000   138.5036    12.4411    12.5365
  420.9000   138.5050    12.4411    12.5365
  421.0000   138.3032    12.4411    12.5365
  421.1000   137.9085    12.4411    12.5365
  421.2000   137.3206    12.4411    12.5365
  421.3000   136.5801    12.4411    12.5365
  421.4000   135.8001    12.4411    12.5365
  421.5000   135.0995    12.4411    12.5365
  421.6000   134.1792    12.4411    12.5365
  421.7000   133.0657    12.4411    12.5365
  421.8000   131.8309    12.4411    12.5365
  421.9000   130.6142    12.4411    12.5365
  422.0000   129.4821    12.4411    12.5365
  422.1000   129.4831    12.4411    12.5365
  422.2000   129.4843    12.4411    12.4754
  422.3000   129.5885    12.4411    12.4500
  422.4000   129.7880    12.4411    12.4500
  422.5000   129.7892    12.4411    12.4500
  422.6000   130.2746    12.4411    12.4500
  422.7000   130.7703    12.4411    12.4500
  422.8000   131.3999    12.4411    12.3962
  422.9000   132.1426    12.4411    12.3642
  423.0000   132.8855    12.4411    12.3642
  423.1000   133.7122    12.4411    12.3642
  423.2000   134.5903    12.4411    12.3642
  423.3000   135.5802    12.4411    12.3642
  423.4000   136.5702    12.4411    12.3642
  423.5000   137.5031    12.4411    12.3642
  423.6000   138.2456    12.4411    12.3642
  423.7000   138.9885    12.4225    12.3642
  423.8000   139.5349    12.3552    12.3642
  423.9000   140.0305    12.3552    12.3642
  424.0000   140.4377    12.3552    12.3642
  424.1000   140.6518    12.3552    12.3642
  424.2000   140.6531    12.3552    12.3551
  424.3000   140.8817    12.3552    12.2789
  424.4000   140.9566    12.3552    12.2789
  424.5000   140.9578    12.3552    12.2789
  424.6000   140.9590    12.3069    12.2789
  424.7000   140.9488    12.2699    12.2789
  424.8000   140.6604    12.2699    12.2789
  424.9000   140.6614    12.2685    12.2789
  425.0000   140.6627    12.1993    12.2224
  425.1000   140.6639    12.1851    12.1942
  425.2000   140.6651    12.1459    12.1942
  425.3000   140.6663    12.1010    12.1942
  425.4000   140.4317    12.1010    12.1942
  425.5000   140.3675    12.1010    12.1298
  425.6000   140.3687    12.0397    12.1101
  425.7000   140.3699    12.0174    12.1101
  425.8000   140.3711    12.0174    12.1101
  425.9000   140.3725    12.0022    12.1062
  426.0000   140.3735    11.9344    12.0266
  426.1000   140.3747    11.9344    12.0266
  426.2000   140.2711    11.8822    12.0266
  426.3000   140.0759    11.8520    12.0266
  426.4000   140.0771    11.8520    12.0145
  426.5000   139.8344    11.8452    11.9437
  426.6000   139.7783    11.7701    11.9437
  426.7000   139.6436    11.7701    11.8937
  426.8000   139.4795    11.7701    11.8613
  426.9000   139.4249    11.7417    11.8412
  427.0000   138.8797    11.6889    11.7795
  427.1000   138.2175    11.6889    11.7795
  427.2000   136.9760    11.6889    11.7795
  427.3000   135.6070    11.6889    11.7795
  427.4000   134.6084    11.6539    11.7514
  427.5000   134.3674    11.6081    11.6983
  427.6000   134.3689    11.6081    11.6983
  427.7000   134.3699    11.6081    11.6983
  427.8000   134.3711    11.5520    11.6983
  427.9000   134.3723    11.5280    11.6983
  428.0000   134.3735    11.5280    11.6768
  428.1000   134.3748    11.5160    11.6176
  428.2000   134.3759    11.4483    11.6176
  428.3000   134.3771    11.4483    11.6176
  428.4000   134.3783    11.4483    11.5738
  428.5000   134.3795    11.4483    11.5375
  428.6000   134.3807    11.4299    11.5226
  428.7000   134.3821    11.3693    11.4579
  428.8000   134.3831    11.3693    11.4579
  428.9000   134.3843    11.3156    11.4068
  429.0000   134.3855    11.2908    11.3789
  429.1000   134.3867    11.2661    11.3789
  429.2000   134.3880    11.2025    11.3706
  429.3000   134.3892    11.1353    11.3005
  429.4000   134.3904    11.1353    11.3005
  429.5000   134.3916    11.0905    11.3005
  429.6000   134.3928    11.0584    11.2703
  429.7000   134.3940    11.0584    11.2225
  429.8000   134.3953    11.0584    11.2205
  429.9000   134.3964    11.0584    11.1451
  430.0000   134.3976    11.0075    11.1451
  430.1000   134.3988    10.9821    11.1077
  430.2000   134.4000    10.9821    11.0683
  430.3000   134.4012    10.9732    11.0683
  430.4000   134.6482    10.9062    11.0683
  430.5000   134.7048    10.9062    11.0098
  430.6000   134.7060    10.9062    10.9920
  430.7000   134.7910    10.9062    10.9611
  430.8000   135.0394    10.8912    10.9162
  430.9000   135.3122    10.8309    10.9126
  431.0000   135.5361    10.8309    10.8409
  431.1000   135.7845    10.7823    10.8409
  431.2000   136.0329    10.7561    10.8030
  431.3000   136.3421    10.7561    10.7419
  431.4000   136.8309    10.7487    10.6919
  431.5000   137.1267    10.6818    10.6919
  431.6000   137.5277    10.6818    10.6339
  431.7000   138.0233    10.6412    10.5737
  431.8000   138.4269    10.6080    10.5139
  431.9000   138.7133    10.5946    10.4722
  432.0000   139.2410    10.5348    10.4674
  432.1000   139.4733    10.5348    10.4000
  432.2000   139.5446    10.4887    10.3493
  432.3000   139.5458    10.4620    10.2908
  432.4000   139.4779    10.4427    10.2325
  432.5000   139.2168    10.3898    10.1863
  432.6000   138.6460    10.3898    10.1863
  432.7000   138.2305    10.3383    10.1297
  432.8000   137.5831    10.2800    10.1161
  432.9000   136.9429    10.2467    10.0849
  433.0000   136.4035    10.2350    10.0278
  433.1000   135.6398    10.1760     9.9711
  433.2000   134.4441    10.1760     9.9082
  433.3000   133.0242    10.1326     9.8586
  433.4000   131.6736    10.0755     9.8028
  433.5000   130.2067    10.0186     9.7473
  433.6000   128.2771     9.9666     9.6922
  433.7000   126.6110     9.9666     9.6373
  433.8000   125.0969     9.9184     9.5828
  433.9000   123.2051     9.8625     9.5286
  434.0000   121.2288     9.8068     9.4747
  434.1000   119.3073     9.7514     9.4211
  434.2000   117.5782     9.6941     9.3677
  434.3000   116.0963     9.6417     9.3100
  434.4000   114.6144     9.5873     9.2620
  434.5000   113.2721     9.5332     9.1738
  434.6000   112.2084     9.4793     9.0944
  434.7000   111.4364     9.4258     9.0301
  434.8000   110.3591     9.3639     8.9297
  434.9000   109.4614     9.2759     8.8698
  435.0000   108.3031     9.1715     8.7885
  435.1000   107.3018     9.0682     8.6604
  435.2000   106.6241     8.9579     8.5320
  435.3000   106.1396     8.7977     8.4284
  435.4000   105.8484     8.6589     8.2767
  435.5000   105.8494     8.4793     8.1464
  435.6000   105.7028     8.3121     7.9450
  435.7000   105.5506     8.1600     7.7015
  435.8000   105.5915     7.9752     7.4661
  435.9000   105.8543     7.7123     7.2959
  436.0000   105.8554     7.5717     7.0589
  436.1000   105.8566     7.3538     6.8941
  436.2000   105.9827     7.1369     6.7014
  436.3000   106.1602     6.9824     6.4995
  436.4000   106.1784     6.8552     6.2876
  436.5000   106.4640     6.7494     6.1042
  436.6000   106.6751     6.6101     5.9089
  436.7000   106.9235     6.4621     5.7590
  436.8000   107.2739     6.3173     5.6297
  436.9000   107.7215     6.1762     5.4850
  437.0000   107.9759     6.0724     5.3056
  437.1000   108.4595     5.9437     5.1701
  437.2000   108.9550     5.8480     5.0704
  437.3000   109.7169     5.7709     4.9746
  437.4000   110.8652     5.6814     4.9139
  437.5000   112.4751     5.6461     4.8861
  437.6000   115.5134     5.5891     4.8580
  437.7000   117.2606     5.5683     4.8580
  437.8000   119.0753     5.5542     4.8580
  437.9000   120.6966     5.5299     4.8730
  438.0000   122.2369     5.5299     4.8917
  438.1000   123.9732     5.4987     4.8917
  438.2000   126.1991     5.4917     4.8917
  438.3000   127.8387     5.4917     4.9164
  438.4000   129.0402     5.4917     4.9444
  438.5000   129.7681     5.4917     4.9980
  438.6000   129.9830     5.4917     5.0837
  438.7000   129.6832     5.4917     5.1709
