~VERSION INFORMATION
 VERS.                2.0:   CWLS LOG ASCII STANDARD - VERSION 2.0
 WRAP.                 NO:   ONE LINE PER DEPTH STEP
~WELL INFORMATION
#MNEM.UNIT      DATA TYPE    INFORMATION
#----------   ------------   ------------------------------
 STRT.F           22.0000:   START DEPTH
 STOP.F          654.0000:   STOP DEPTH
 STEP.F            0.5000:   STEP LENGTH
 NULL.          -999.2500:   NO VALUE
 COMP. FENIX & SCISSON INC:   COMPANY
 WELL.     54 S 34 #54-34:   WELL
 FLD .             TEAPOT:   FIELD
 LOC .      S34 T39N R78W:   LOCATION
 CNTY.            NATRONA:   COUNTY
 STAT.            WYOMING:   STATE
 CTRY. UNITED STATES OF AMERICA:   COUNTRY
 SRVC.           BIRDWELL:   SERVICE COMPANY
 DATE.        22-AUG-1978:   LOGDATE
 API .       490251070100:   API NUMBER
~CURVE INFORMATION
#MNEM.UNIT       API CODE    CURVE DESCRIPTION
#----------   ------------   ------------------------------
 DEPT.F                  :   
 SPR .MV     05 010 01 00:   SPONTANEOUS POTENTIAL FROM RES.
 SN  .OHMM   05 040 16 00:   SHORT NORMAL 16"
 ILD .OHMM   05 120 46 00:   INDUCTION LOG DEEP
 CALD.IN     45 280 60 00:   CALIPER
 GRD .GAPI   45 310 01 00:   GAMMA RAY FROM DENSITY LOG
 DPHI.DEC    45 890 12 00:   DENSITY POROSITY SANDSTONE
 RHOB.G/C3   45 350 01 00:   BULK DENSITY
 CORR.G/C3   45 356 01 00:   DENSITY CORRECTION
~PARAMETER INFORMATION
#MNEM.UNIT          VALUE    DESCRIPTION
#----------   ------------   ------------------------------
 PD  .                 GL:   PERMANENT DATUM
 EPD .F              5085:   ELEVATION PERMANENT DATUM
 LMF .                 KB:   LOG MEASURED FROM
 DAPD.F                 4:   FEET ABOVE PERMANENT DATUM
 DMF .                 KB:   DRILLING MEASURED FROM
 EKB .F              5089:   KELLING BUSHING
 EGL .F              5085:   GROUND LEVEL
 DATE.            8-22-78:   RUN DATE
 RUN .                  1:   RUN NUMBER
 DD  .F               685:   DEPTH DRILLER
 DL  .F               653:   DEPTH LOGGER
 BLI .F               646:   BOTTOM LOG INTERVAL
 TLI .F                30:   TOP LOG INTERVAL
 CS  .IN            8.625:   CASING SIZE
 CBD .F                46:   CASING BOTTOM DRILLER
 CBL .F                46:   CASING BOTTOM LOGGER
 BS  .IN            7.875:   BIT SIZE
 BSD .F               685:   BIT SIZE AT DEPTH
 DFT .                KCL:   DRILLING FLUID TYPE
 DFD .                8.7:   DRILLING FLUID DENSITY
 DFV .                 33:   DRILLING FLUID VISCOSITY
 DFPH.                  9:   DRILLING FLUID PH
 MSS .           FLOWLINE:   MUD SAMPLE SOURCE
 RMS .OHMM            .18:   RESISTIVITY MUD SAMPLE
 MST .F                86:   MUD SAMPLE TEMPERATURE
 RMF .OHMM            .16:   RESISTIVITY MUD FILTRATE SAMPLE
 MFST.F                86:   MUD FILTRATE SAMPLE TEMPERATURE
 RMC .OHMM            .52:   RESISTIVITY MUD CAKE
 MCST.F                86:   MUD CAKE SAMPLE TEMPERATURE
 MFSS.               MEAS:   MUD FILTRATE SAMPLE SOURCE
 MCSS.               MEAS:   MUD CAKE SAMPLE SOURCE
 BHT .F                70:   BOTTOM HOLE TEMPERATURE
 TCS .HRS               2:   TIME CURCULATED STOPPED
 MRT .F                70:   MAXIMUM RECORDED TEMPERATURE
 LUN .               2958:   LOGGING UNIT NUMBER
 LUL .               CASP:   LOGGING UNIT LOCATION
 ENGI.           REYNOLDS:   RECORDING ENGINEER
 WITN.              AMEND:   WITNESSED BY
 CLNT.            A2DTECH:   CLIENT CODE
 ORIG.           5" PRINT:   ORIGIN OF DATA
 UWI .       490251070100:   UNIQUE WELL ID
 DICO. A2D Technologies, Inc.:   DIGITIZING COMPANY
~OTHER INFORMATION
~A   DEPT      SPR         SN        ILD       CALD         GRD      DPHI       RHOB       CORR   
# ...
  143.5000   -39.3012     7.3149     4.9528     7.7180    86.8264     0.1255     2.4762     0.0230
  144.0000   -39.1223     7.3249     4.8553     7.7185    88.9945     0.1310     2.4689     0.0227
  144.5000   -38.9457     7.3349     4.7574     7.7190    91.8889     0.1366     2.4617     0.0231
  145.0000   -38.8205     7.3450     4.6615     7.7194    92.3075     0.1376     2.4578     0.0244
  145.5000   -38.8485     7.3550     4.5674     7.7199    93.7599     0.1376     2.4573     0.0256
  146.0000   -38.9337     7.3651     4.4758     7.7203    97.2181     0.1372     2.4569     0.0269
  146.5000   -39.0182     7.3752     4.3943     7.7208   100.4459     0.1360     2.4578     0.0281
  147.0000   -39.1027     7.3853     4.3955     7.7213   100.3462     0.1298     2.4657     0.0294
  147.5000   -39.1872     7.3954     4.4268     7.7217    99.0552     0.1241     2.4745     0.0305
  148.0000   -39.2717     7.4056     4.5294     7.7222    96.8303     0.1217     2.4807     0.0305
  148.5000   -39.3562     7.4156     4.6444     7.7226    94.9893     0.1233     2.4809     0.0305
  149.0000   -39.4406     7.4669     4.6873     7.7231    99.1144     0.1248     2.4785     0.0305
  149.5000   -39.5251     7.5359     4.7305     7.7235    98.1589     0.1197     2.4794     0.0293
  150.0000   -39.6096     7.6055     4.8826     7.7240    96.6554     0.1122     2.4955     0.0269
  150.5000   -39.6938     7.6758     5.0416     7.7245    95.0884     0.1048     2.5129     0.0245
  151.0000   -39.7786     7.7467     5.2058     7.7249    94.2890     0.1000     2.5238     0.0221
  151.5000   -39.8196     7.8183     5.3741     7.7254    96.9184     0.1083     2.5078     0.0198
  152.0000   -39.8205     7.9107     5.5261     7.7258   100.3612     0.1203     2.4926     0.0185
  152.5000   -39.8201     7.9085     5.5841     7.7263   102.2431     0.1268     2.4771     0.0185
  153.0000   -39.7886     7.9047     5.5831     7.7267   102.3104     0.1276     2.4727     0.0184
  153.5000   -39.6809     7.9010     5.5777     7.7272   100.7787     0.1280     2.4720     0.0184
  154.0000   -39.5745     7.8972     5.7965     7.7277    98.1536     0.1255     2.4746     0.0184
  154.5000   -39.4681     7.8935     5.9123     7.7281    95.5249     0.1227     2.4784     0.0183
  155.0000   -39.3617     7.8898     6.0628     7.7286    92.8158     0.1199     2.4822     0.0183
  155.5000   -39.2553     7.8860     6.0610     7.7290    91.6675     0.1184     2.4853     0.0183
  156.0000   -39.1489     7.8823     6.0618     7.7295    94.2953     0.1210     2.4827     0.0182
  156.5000   -39.0424     7.8786     6.0628     7.7300    96.8951     0.1248     2.4757     0.0182
  157.0000   -38.9352     7.8749     6.0641     7.7275    98.6898     0.1276     2.4720     0.0182
  157.5000   -38.8275     7.8711     5.8973     7.7247    97.5221     0.1266     2.4722     0.0181
  158.0000   -38.8346     7.8674     5.7105     7.7220    95.1732     0.1256     2.4731     0.0181
  158.5000   -38.8493     7.8637     5.5280     7.7192    95.1295     0.1243     2.4753     0.0181
  159.0000   -38.8636     7.8600     5.3512     7.7164    95.5591     0.1225     2.4819     0.0180
  159.5000   -38.8777     7.8563     5.1807     7.7136    95.0038     0.1206     2.4849     0.0180
  160.0000   -38.8918     7.8526     5.0434     7.7105    91.3981     0.1226     2.4795     0.0180
  160.5000   -38.9059     7.8488     5.0437     7.7185    90.8088     0.1292     2.4732     0.0179
  161.0000   -38.9200     7.8451     5.2702     7.7304    92.1856     0.1341     2.4669     0.0179
  161.5000   -38.9341     7.8414     5.4792     7.7424    94.7476     0.1315     2.4650     0.0179
  162.0000   -38.9481     7.8377     5.4195     7.7544    97.2651     0.1228     2.4751     0.0178
  162.5000   -38.9622     7.8340     5.3205     7.7670    98.5715     0.1142     2.4890     0.0178
  163.0000   -38.9763     7.8303     5.1855     7.7599    93.5209     0.1056     2.5030     0.0178
  163.5000   -38.9904     7.8266     5.3075     7.7458    87.9928     0.0970     2.5169     0.0177
  164.0000   -39.0049     7.8229     5.5154     7.7315    83.8370     0.0928     2.5328     0.0177
  164.5000   -39.0210     7.8192     5.6842     7.7171    84.0193     0.1067     2.5214     0.0177
  165.0000   -39.0147     7.8155     5.6842     7.7029    85.1792     0.1201     2.4949     0.0176
  165.5000   -38.6701     7.8118     5.5332     7.6886    89.0909     0.1335     2.4684     0.0176
  166.0000   -38.2998     7.8081     5.4292     7.6738    90.0699     0.1384     2.4563     0.0176
  166.5000   -37.9312     7.8044     5.3303     7.6698    90.7885     0.1367     2.4549     0.0175
  167.0000   -37.5906     7.8007     5.3303     7.6693    92.5469     0.1349     2.4568     0.0175
  167.5000   -37.4295     7.7971     5.3927     7.6689    94.3630     0.1331     2.4649     0.0175
  168.0000   -37.2635     7.7934     5.4482     7.6685    96.1892     0.1273     2.4732     0.0174
  168.5000   -37.0968     7.7897     5.5042     7.6681    97.0556     0.1207     2.4815     0.0174
  169.0000   -36.9301     7.7860     5.5610     7.6677    96.1233     0.1168     2.4885     0.0174
  169.5000   -36.7635     7.7823     5.6182     7.6673    95.1878     0.1261     2.4822     0.0173
  170.0000   -36.5968     7.7786     5.6761     7.6669    94.0609     0.1258     2.4723     0.0173
  170.5000   -36.4297     7.7750     5.7345     7.6665    93.1860     0.1244     2.4741     0.0173
  171.0000   -36.2592     7.7714     5.7936     7.6661    97.7263     0.1250     2.4754     0.0172
  171.5000   -36.2253     7.7683     5.8532     7.6657   103.7337     0.1258     2.4725     0.0172
  172.0000   -36.3197     7.7361     5.8969     7.6653   100.5933     0.1239     2.4737     0.0172
  172.5000   -36.4374     7.7003     5.8969     7.6649    98.5353     0.1203     2.4824     0.0171
  173.0000   -36.5553     7.6650     5.8430     7.6645    98.7632     0.1204     2.4842     0.0171
  173.5000   -36.6730     7.6297     5.6465     7.6641    96.9685     0.1240     2.4802     0.0171
  174.0000   -36.7910     7.5353     5.4324     7.6637    99.1588     0.1272     2.4735     0.0170
  174.5000   -36.9099     7.4346     5.2264     7.6633   103.7067     0.1280     2.4723     0.0170
  175.0000   -37.0185     7.3352     5.0281     7.6629   103.8179     0.1292     2.4708     0.0170
  175.5000   -36.8942     7.2378     4.8379     7.6625   103.1645     0.1300     2.4679     0.0169
  176.0000   -36.7596     7.1499     4.5999     7.6621   100.4668     0.1342     2.4626     0.0169
  176.5000   -36.6259     7.1511     4.6034     7.6617    98.0823     0.1383     2.4573     0.0169
  177.0000   -36.4926     7.1511     4.6170     7.6613    97.8980     0.1412     2.4519     0.0168
  177.5000   -36.3593     7.1511     4.6273     7.6609    98.1552     0.1354     2.4523     0.0168
  178.0000   -36.2259     7.1511     4.6377     7.6605    98.6750     0.1295     2.4632     0.0168
  178.5000   -36.0926     7.1511     4.6445     7.6601    98.5618     0.1236     2.4746     0.0167
  179.0000   -35.9593     7.1511     4.6153     7.6597    98.4159     0.1196     2.4843     0.0167
  179.5000   -35.8259     7.1511     4.5896     7.6593    98.6341     0.1202     2.4840     0.0167
  180.0000   -35.6923     7.1511     4.5640     7.6589    99.9294     0.1228     2.4817     0.0166
  180.5000   -35.5579     7.1511     4.5385     7.6585   101.1777     0.1255     2.4780     0.0166
  181.0000   -35.4357     7.1511     4.5132     7.6581   102.2895     0.1281     2.4742     0.0166
  181.5000   -35.5268     7.1510     4.4881     7.6577   102.0963     0.1307     2.4704     0.0165
  182.0000   -35.6247     7.1510     4.4769     7.6573   100.6852     0.1333     2.4666     0.0165
  182.5000   -35.7218     7.1508     4.5182     7.6569    98.1641     0.1344     2.4628     0.0165
  183.0000   -35.8186     7.1750     4.6319     7.6565    98.1242     0.1348     2.4589     0.0165
  183.5000   -35.9153     7.2413     4.7630     7.6561    97.4857     0.1344     2.4597     0.0165
