~VERSION INFORMATION
 VERS.                2.0:   CWLS LOG ASCII STANDARD - VERSION 2.0
 WRAP.                 NO:   ONE LINE PER DEPTH STEP
~WELL INFORMATION
#MNEM.UNIT      DATA TYPE    INFORMATION
#----------   ------------   ------------------------------
 STRT.F            0.0000:   START DEPTH
 STOP.F          890.0000:   STOP DEPTH
 STEP.F            0.1000:   STEP LENGTH
 NULL.          -999.2500:   NO VALUE
 COMP.   FLUOR DANIEL INC:   COMPANY
 WELL.   35-1 X 14 #35-14:   WELL
 FLD .             TEAPOT:   FIELD
 LOC .      S14 T38N R78W:   LOCATION
 CNTY.            NATRONA:   COUNTY
 STAT.            WYOMING:   STATE
 CTRY. UNITED STATES OF AMERICA:   COUNTRY
 SRVC.      Western Atlas:   SERVICE COMPANY
 DATE.        23-JUL-1995:   LOGDATE
 API .       490252273300:   API NUMBER
~CURVE INFORMATION
#MNEM.UNIT       API CODE    CURVE DESCRIPTION
#----------   ------------   ------------------------------
 DEPT.F                  :   
 RILM.OHMM   07 120 44 00:   RESITIVITY LONG MEDIUM
 RILD.OHMM   07 120 46 00:   INDUCTION LOG DEEP RESISTIVITY
 GRR .GAPI   07 310 01 00:   GAMMA RAY
~PARAMETER INFORMATION
#MNEM.UNIT          VALUE    DESCRIPTION
#----------   ------------   ------------------------------
 PD  .                 GL:   PERMANENT DATUM
 EPD .F              5238:   ELEVATION PERMANENT DATUM
 LMF .                 KB:   LOG MEASURED FROM
 DAPD.F                10:   FEET ABOVE PERMANENT DATUM
 DMF .                 KB:   DRILLING MEASURED FROM
 EKB .F              5248:   KELLING BUSHING
 EDF .F              5247:   DRILLING FLOOR
 EGL .F              5238:   GROUND LEVEL
 DATE.        23-JUL-1995:   RUN DATE
 RUN .                  1:   RUN NUMBER
 DD  .F               898:   DEPTH DRILLER
 DL  .F               898:   DEPTH LOGGER
 BLI .F               890:   BOTTOM LOG INTERVAL
 CS  .IN            9.625:   CASING SIZE
 CBD .F                78:   CASING BOTTOM DRILLER
 CBL .F                80:   CASING BOTTOM LOGGER
 BS  .IN             8.75:   BIT SIZE
 BSD .F               898:   BIT SIZE AT DEPTH
 DFT .                AIR:   DRILLING FLUID TYPE
 MRT .F                94:   MAXIMUM RECORDED TEMPERATURE
 LUN .            HL 6530:   LOGGING UNIT NUMBER
 LUL .             CASPER:   LOGGING UNIT LOCATION
 ENGI.       VERRN RAUTIO:   RECORDING ENGINEER
 WITN.        GARY STRONG:   WITNESSED BY
 CLNT.            A2DTECH:   CLIENT CODE
 ORIG.           5" PRINT:   ORIGIN OF DATA
 UWI .       490252273300:   UNIQUE WELL ID
 DICO. A2D Technologies, Inc.:   DIGITIZING COMPANY
~OTHER INFORMATION
~A    DEPT    RILM       RILD         GRR  
# ...
  764.4000    10.4011    10.4116   103.9734
  764.5000    10.4017    10.4141   104.1833
  764.6000    10.4474    10.4864   104.4504
  764.7000    10.4757    10.4873   104.7174
  764.8000    10.4765    10.4883   104.8894
  764.9000    10.4772    10.5276   105.0646
  765.0000    10.4876    10.5634   105.8407
  765.1000    10.5517    10.5645   106.4074
  765.2000    10.5526    10.5767   107.1517
  765.3000    10.5532    10.6402   107.7382
  765.4000    10.5539    10.6413   108.2699
  765.5000    10.5547    10.6422   108.5317
  765.6000    10.5852    10.5950   108.3392
  765.7000    10.6298    10.5706   107.8123
  765.8000    10.6305    10.5717   107.3080
  765.9000    10.6313    10.5727   107.0309
  766.0000    10.6321    10.5620   106.7316
  766.1000    10.6327    10.5015   106.7335
  766.2000    10.6335    10.5027   106.5611
  766.3000    10.6342    10.4463   106.4363
  766.4000    10.6350    10.4319   106.4387
  766.5000    10.6126    10.4329   106.4411
  766.6000    10.5628    10.4339   106.4435
  766.7000    10.5583    10.4349   106.4460
  766.8000    10.4911    10.4238   106.4488
  766.9000    10.4192    10.3647   106.4508
  767.0000    10.4198    10.3658   106.4532
  767.1000    10.3783    10.3096   106.4556
  767.2000    10.3491    10.2960   106.4580
  767.3000    10.3252    10.2970   106.4604
  767.4000    10.2788    10.2678   106.4902
  767.5000    10.2724    10.2065   106.7675
  767.6000    10.2091    10.1455   106.7702
  767.7000    10.1391    10.0849   106.7722
  767.8000    10.1397    10.0198   107.1340
  767.9000    10.0973     9.9649   107.5235
  768.0000    10.0709     9.9523   107.8952
  768.1000    10.0456     9.9149   108.4270
  768.2000    10.0025     9.8558   108.9588
  768.3000     9.9943     9.7969   109.5058
  768.4000     9.9341     9.7384   110.1128
  768.5000     9.8666     9.6803   110.7735
  768.6000     9.8672     9.6183   111.9211
  768.7000     9.8238     9.5650   113.2279
  768.8000     9.7647     9.5535   114.5347
  768.9000     9.7330     9.5171   115.8415
  769.0000     9.7148     9.4603   117.1483
  769.1000     9.6563     9.4038   118.2709
  769.2000     9.5981     9.3353   119.0092
  769.3000     9.5348     9.2275   119.5613
  769.4000     9.4829     9.1689   120.4086
  769.5000     9.4258     9.1177   120.6586
  769.6000     9.3691     9.0197   121.1359
  769.7000     9.2851     8.9468   121.6677
  769.8000     9.1925     8.8659   122.0641
  769.9000     9.1372     8.7596   122.3312
  770.0000     9.0780     8.6544   122.5982
  770.1000     8.9615     8.5504   122.8653
  770.2000     8.9110     8.4422   123.1470
  770.3000     8.7716     8.3267   123.1492
  770.4000     8.6476     8.2867   123.1517
  770.5000     8.5185     8.2043   123.1541
  770.6000     8.3673     8.0805   123.1565
  770.7000     8.2162     7.9350   123.1589
  770.8000     8.0651     7.7921   123.1378
  770.9000     7.9165     7.6474   123.0409
  771.0000     7.7633     7.4558   122.9441
  771.1000     7.5694     7.2021   122.8154
  771.2000     7.2803     7.0274   122.5666
  771.3000     6.9963     6.8125   122.5694
  771.4000     6.7368     6.5976   122.5716
  771.5000     6.5102     6.3826   122.5740
  771.6000     6.2949     6.1677   122.5764
  771.7000     6.0796     5.9695   122.7074
  771.8000     5.8643     5.7793   122.9744
  771.9000     5.6490     5.5924   123.3485
  772.0000     5.4337     5.4957   124.1607
  772.1000     5.1820     5.4603   125.3077
  772.2000     5.0025     5.4001   126.2832
  772.3000     4.8337     5.3859   127.5501
  772.4000     4.6887     5.3657   129.0439
  772.5000     4.5824     5.3497   130.6341
  772.6000     4.5341     5.3502   132.4116
  772.7000     4.5045     5.3507   134.4754
  772.8000     4.4750     5.3513   136.2929
  772.9000     4.4455     5.3518   137.7138
  773.0000     4.4190     5.3523   139.4363
  773.1000     4.4194     5.3528   140.6665
  773.2000     4.4197     5.3534   141.5565
  773.3000     4.4651     5.3539   142.2195
  773.4000     4.5204     5.3544   142.7512
  773.5000     4.5762     5.3549   143.2245
  773.6000     4.6447     5.3554   143.4707
  773.7000     4.7308     5.3560   143.4733
  773.8000     4.8186     5.3871   143.4755
  773.9000     4.9080     5.4206   143.6886
  774.0000     5.0466     5.4542   143.7825
  774.1000     5.1549     5.5052   143.6492
  774.2000     5.2592     5.5605   143.1906
  774.3000     5.3763     5.6029   142.3382
  774.4000     5.4944     5.6689   141.2584
  774.5000     5.5963     5.7059   139.8672
  774.6000     5.7125     5.7864   137.1509
  774.7000     5.8884     5.8439   135.4480
  774.8000     6.0496     5.9161   133.5089
  774.9000     6.1844     5.9891   131.3826
  775.0000     6.3379     6.0630   129.1042
  775.1000     6.4704     6.1378   127.0522
  775.2000     6.6102     6.2173   125.2534
  775.3000     6.7596     6.3374   123.8744
  775.4000     6.8850     6.4716   120.8560
  775.5000     7.0156     6.5693   119.7804
  775.6000     7.2018     6.7188   118.6378
  775.7000     7.3262     6.8850   117.7222
  775.8000     7.4988     7.0383   117.1368
  775.9000     7.6540     7.1796   116.8091
  776.0000     7.7961     7.3521   116.3101
  776.1000     7.9594     7.4929   116.0387
  776.2000     8.1445     7.6515   115.7394
  776.3000     8.2955     7.7683   115.5234
  776.4000     8.4550     7.9123   115.4417
  776.5000     8.5741     8.0589   115.4441
  776.6000     8.6616     8.2283   115.0245
  776.7000     8.7687     8.4317   113.8324
  776.8000     8.8771     8.6462   112.3688
  776.9000     8.9868     8.9207   111.8285
  777.0000     9.0978     9.1731   111.5291
  777.1000     9.2103     9.2674   111.3108
  777.2000     9.3244     9.3423   111.2314
  777.3000     9.4556     9.4319   111.3792
  777.4000     9.5060     9.5245   111.6462
  777.5000     9.5649     9.5835   111.9133
  777.6000     9.6242     9.6429   112.1805
  777.7000     9.6838     9.7037   112.4520
  777.8000     9.7438     9.7048   112.4548
  777.9000     9.8041     9.7056   112.4568
  778.0000     9.8630     9.7065   112.4592
  778.1000     9.8638     9.7075   112.4616
  778.2000     9.8644     9.7084   112.5744
  778.3000     9.8651     9.7093   112.6956
  778.4000     9.8658     9.7103   112.4686
  778.5000     9.8665     9.7112   112.4713
  778.6000     9.8672     9.7123   112.4741
  778.7000     9.8801     9.7131   112.0258
  778.8000     9.9374     9.7141   111.3113
  778.9000     9.9381     9.7487   110.5198
  779.0000     9.9388     9.7837   109.6154
  779.1000     9.9874     9.7846   108.7097
  779.2000    10.0095     9.7941   108.2207
  779.3000    10.0102     9.8547   107.9586
  779.4000    10.0338     9.8558   107.6596
  779.5000    10.0814     9.9084   107.6616
  779.6000    10.0881     9.9699   107.6640
  779.7000    10.1532     9.9965   107.6665
  779.8000    10.1540     9.9975   107.6689
  779.9000    10.2056    10.0163   107.8269
  780.0000    10.2689    10.0784   108.3587
  780.1000    10.2981    10.1403   108.8930
  780.2000    10.3245    10.1414   109.7937
  780.3000    10.3885    10.1961   110.4857
  780.4000    10.4528    10.2139   111.8596
  780.5000    10.5181    10.2515   113.4497
  780.6000    10.5189    10.3150   114.8051
  780.7000    10.5746    10.3790   115.9467
  780.8000    10.6401    10.4331   117.2293
  780.9000    10.6683    10.4353   118.2747
  781.0000    10.6978    10.5079   118.5743
  781.1000    10.7641    10.5652   119.2736
  781.2000    10.8308    10.6307   119.6801
  781.3000    10.8961    10.6579   120.1047
  781.4000    10.8970    10.6885   120.3964
  781.5000    10.9569    10.7547   120.3988
  781.6000    10.9744    10.8102   120.3561
  781.7000    11.0163    10.8131   120.0938
  781.8000    11.0525    10.8878   119.8021
  781.9000    11.0760    10.8887   119.3345
  782.0000    11.1446    10.9393   118.8078
  782.1000    11.2136    11.0072   118.4407
  782.2000    11.2886    11.0442   118.3009
  782.3000    11.2893    11.0670   118.2183
  782.4000    11.3443    11.1234   117.9561
  782.5000    11.3696    11.1245   117.7038
