~VERSION INFORMATION
 VERS.                2.0:   CWLS LOG ASCII STANDARD - VERSION 2.0
 WRAP.                 NO:   ONE LINE PER DEPTH STEP
~WELL INFORMATION
#MNEM.UNIT      DATA TYPE    INFORMATION
#----------   ------------   ------------------------------
 STRT.F          598.0000:   START DEPTH
 STOP.F         2552.0000:   STOP DEPTH
 STEP.F            0.5000:   STEP LENGTH
 NULL.          -999.2500:   NO VALUE
 COMP. FENIX & SCISSON INC:   COMPANY
 WELL.     15-SHX-2 #15-2:   WELL
 FLD .             TEAPOT:   FIELD
 LOC .       S2 T38N R78W:   LOCATION
 CNTY.            NATRONA:   COUNTY
 STAT.            WYOMING:   STATE
 CTRY. UNITED STATES OF AMERICA:   COUNTRY
 SRVC.              Welex:   SERVICE COMPANY
 DATE.        03-JUN-1979:   LOGDATE
 API .       490251002100:   API NUMBER
~CURVE INFORMATION
#MNEM.UNIT       API CODE    CURVE DESCRIPTION
#----------   ------------   ------------------------------
 DEPT.F                  :   
 CALD.IN     45 280 60 00:   CALIPER
 GRD .GAPI   45 310 01 00:   GAMMA RAY FROM DENSITY LOG
 RHOB.G/C3   45 350 01 00:   BULK DENSITY
 DPHI.DEC    45 890 12 00:   DENSITY POROSITY SANDSTONE
 CORR.G/C3   45 356 01 00:   DENSITY CORRECTION
~PARAMETER INFORMATION
#MNEM.UNIT          VALUE    DESCRIPTION
#----------   ------------   ------------------------------
 PD  .                 GL:   PERMANENT DATUM
 EPD .F              5118:   ELEVATION PERMANENT DATUM
 LMF .                 KB:   LOG MEASURED FROM
 DAPD.F                10:   FEET ABOVE PERMANENT DATUM
 DMF .                 KB:   DRILLING MEASURED FROM
 EKB .F              5128:   KELLING BUSHING
 EGL .F              5118:   GROUND LEVEL
 DATE.             6-3-79:   RUN DATE
 RUN .                  1:   RUN NUMBER
 DD  .F              2569:   DEPTH DRILLER
 DL  .F              2554:   DEPTH LOGGER
 BLI .F              2552:   BOTTOM LOG INTERVAL
 TLI .F               622:   TOP LOG INTERVAL
 CS  .IN            9.625:   CASING SIZE
 CBD .F               622:   CASING BOTTOM DRILLER
 BS  .IN             8.75:   BIT SIZE
 BSD .F              2569:   BIT SIZE AT DEPTH
 DFT .        AIR DRILLED:   DRILLING FLUID TYPE
 TCS .HRS             2.5:   TIME CURCULATED STOPPED
 MRT .F               124:   MAXIMUM RECORDED TEMPERATURE
 ENGI.               REIN:   RECORDING ENGINEER
 WITN.              AMEND:   WITNESSED BY
 CLNT.            A2DTECH:   CLIENT CODE
 ORIG.           5" PRINT:   ORIGIN OF DATA
 UWI .       490251002100:   UNIQUE WELL ID
 DICO. A2D Technologies, Inc.:   DIGITIZING COMPANY
~OTHER INFORMATION
~A   DEPT     CALD         GRD      RHOB       DPHI       CORR   
# ...
  720.0000     9.2903    91.6075     2.5406     0.0078     0.0210
  720.5000     9.3014    92.1603     2.5484     0.0025     0.0210
  721.0000     9.3112    92.7156     2.5491     0.0019     0.0210
  721.5000     9.3210    92.8446     2.5389     0.0078     0.0210
  722.0000     9.3309    90.5589     2.5281     0.0139     0.0210
  722.5000     9.3407    89.9114     2.5172     0.0201     0.0210
  723.0000     9.3505    91.4070     2.5144     0.0239     0.0220
  723.5000     9.3604    92.1780     2.5171     0.0230     0.0236
  724.0000     9.3702    91.5558     2.5199     0.0206     0.0253
  724.5000     9.3800    90.2767     2.5222     0.0191     0.0270
  725.0000     9.3899    88.9677     2.5164     0.0221     0.0287
  725.5000     9.3997    87.6610     2.5126     0.0251     0.0303
  726.0000     9.4095    86.5883     2.5161     0.0231     0.0295
  726.5000     9.4169    87.7266     2.5216     0.0198     0.0291
  727.0000     9.3959    87.5419     2.5269     0.0165     0.0270
  727.5000     9.3674    86.6750     2.5259     0.0164     0.0246
  728.0000     9.3388    85.8833     2.5231     0.0188     0.0218
  728.5000     9.3102    85.7410     2.5236     0.0160     0.0192
  729.0000     9.2817    85.5685     2.5270     0.0147     0.0167
  729.5000     9.2531    85.4006     2.5237     0.0183     0.0141
  730.0000     9.2235    84.9324     2.5118     0.0261     0.0115
  730.5000     9.2172    81.3414     2.5027     0.0319     0.0089
  731.0000     9.2170    80.8796     2.5078     0.0285     0.0071
  731.5000     9.2171    82.0159     2.5148     0.0246     0.0091
  732.0000     9.2171    83.2960     2.5210     0.0206     0.0112
  732.5000     9.2171    84.4663     2.5267     0.0167     0.0132
  733.0000     9.2171    83.4425     2.5325     0.0131     0.0152
  733.5000     9.2171    82.1785     2.5312     0.0131     0.0170
  734.0000     9.2171    81.3025     2.5292     0.0133     0.0170
  734.5000     9.2171    82.5782     2.5297     0.0135     0.0166
  735.0000     9.2171    82.9229     2.5300     0.0151     0.0160
  735.5000     9.2171    83.4559     2.5261     0.0168     0.0155
  736.0000     9.2171    83.3845     2.5252     0.0174     0.0149
  736.5000     9.2171    83.8527     2.5277     0.0159     0.0143
  737.0000     9.2171    86.3353     2.5248     0.0178     0.0137
  737.5000     9.2171    88.7719     2.5174     0.0221     0.0132
  738.0000     9.2171    91.1556     2.5162     0.0228     0.0126
  738.5000     9.2171    93.5629     2.5218     0.0205     0.0121
  739.0000     9.2171    93.6766     2.5193     0.0204     0.0114
  739.5000     9.2190    92.0599     2.5156     0.0236     0.0094
  740.0000     9.2213    90.4550     2.5120     0.0267     0.0075
  740.5000     9.2236    88.8415     2.5090     0.0271     0.0069
  741.0000     9.2259    88.2864     2.5111     0.0271     0.0069
  741.5000     9.2282    88.8449     2.5166     0.0248     0.0104
  742.0000     9.2304    90.0833     2.5222     0.0211     0.0122
  742.5000     9.2327    89.9979     2.5315     0.0174     0.0142
  743.0000     9.2350    87.4725     2.5416     0.0110     0.0162
  743.5000     9.2373    85.5552     2.5539     0.0029     0.0182
  744.0000     9.2396    86.7275     2.5661    -0.0051     0.0203
  744.5000     9.2419    88.0364     2.5733    -0.0129     0.0223
  745.0000     9.2442    87.0944     2.5665    -0.0137     0.0243
  745.5000     9.2465    85.7607     2.5553    -0.0065     0.0251
  746.0000     9.2488    86.1714     2.5436     0.0012     0.0222
  746.5000     9.2511    88.5863     2.5319     0.0111     0.0188
  747.0000     9.2534    90.7916     2.5203     0.0210     0.0154
  747.5000     9.2557    92.1993     2.5140     0.0243     0.0121
  748.0000     9.2579    93.3634     2.5173     0.0217     0.0092
  748.5000     9.2602    93.1069     2.5242     0.0161     0.0134
  749.0000     9.2625    91.9277     2.5311     0.0105     0.0176
  749.5000     9.2648    90.7931     2.5361     0.0087     0.0218
  750.0000     9.2671    89.8031     2.5379     0.0102     0.0260
  750.5000     9.2694    91.1388     2.5306     0.0143     0.0301
  751.0000     9.2717    92.6529     2.5157     0.0221     0.0330
  751.5000     9.2739    94.1389     2.5008     0.0306     0.0303
  752.0000     9.2759    94.8583     2.4859     0.0392     0.0273
  752.5000     9.3002    93.7885     2.4849     0.0415     0.0243
  753.0000     9.3318    92.7513     2.4996     0.0297     0.0209
  753.5000     9.3636    91.6273     2.5232     0.0107     0.0228
  754.0000     9.3953    92.6853     2.5466     0.0046     0.0262
  754.5000     9.4270    93.5734     2.5650    -0.0014     0.0295
  755.0000     9.4588    93.6360     2.5692    -0.0075     0.0329
  755.5000     9.4904    94.5661     2.5691    -0.0113     0.0362
  756.0000     9.5166    93.5846     2.5665    -0.0104     0.0391
  756.5000     9.5160    92.3263     2.5619    -0.0088     0.0384
  757.0000     9.5164    91.0720     2.5601    -0.0072     0.0368
  757.5000     9.5173    90.1255     2.5608    -0.0056     0.0352
  758.0000     9.4911    90.4525     2.5551    -0.0023     0.0336
  758.5000     9.4619    90.6110     2.5420     0.0031     0.0295
  759.0000     9.4336    90.1992     2.5272     0.0139     0.0206
  759.5000     9.4056    89.8018     2.5124     0.0246     0.0119
  760.0000     9.3776    89.4071     2.4984     0.0351     0.0048
  760.5000     9.3496    89.2531     2.4962     0.0352     0.0052
  761.0000     9.3216    89.3972     2.4969     0.0355     0.0063
  761.5000     9.2934    89.6953     2.4980     0.0351     0.0074
  762.0000     9.2645    90.5533     2.5056     0.0291     0.0085
  762.5000     9.2358    90.4230     2.5135     0.0233     0.0131
  763.0000     9.2383    89.2887     2.5215     0.0175     0.0169
  763.5000     9.2443    88.3188     2.5294     0.0139     0.0192
  764.0000     9.2499    88.7708     2.5345     0.0114     0.0215
  764.5000     9.2555    89.2042     2.5383     0.0089     0.0237
  765.0000     9.2611    89.5051     2.5429     0.0064     0.0260
  765.5000     9.2666    89.4458     2.5509     0.0017     0.0283
  766.0000     9.2722    87.9786     2.5586    -0.0055     0.0290
  766.5000     9.2778    86.3337     2.5663    -0.0105     0.0290
  767.0000     9.2834    83.9921     2.5641    -0.0081     0.0290
  767.5000     9.2890    80.3120     2.5582    -0.0033     0.0290
  768.0000     9.2945    80.4916     2.5518     0.0015     0.0290
  768.5000     9.3001    82.0103     2.5443     0.0063     0.0290
  769.0000     9.3057    83.4986     2.5333     0.0102     0.0272
  769.5000     9.3114    84.3029     2.5216     0.0142     0.0239
  770.0000     9.3161    83.8594     2.5099     0.0224     0.0205
  770.5000     9.3027    83.1561     2.4982     0.0306     0.0171
  771.0000     9.2888    83.7779     2.4933     0.0363     0.0128
  771.5000     9.2749    85.1014     2.5029     0.0318     0.0130
  772.0000     9.2610    86.4459     2.5135     0.0257     0.0131
  772.5000     9.2473    87.6728     2.5188     0.0211     0.0145
  773.0000     9.2385    88.1666     2.5205     0.0198     0.0150
  773.5000     9.2462    88.8319     2.5233     0.0174     0.0149
  774.0000     9.2535    88.9493     2.5233     0.0162     0.0169
  774.5000     9.2608    88.5509     2.5187     0.0201     0.0164
  775.0000     9.2681    89.8061     2.5150     0.0239     0.0159
  775.5000     9.2754    91.1658     2.5159     0.0235     0.0154
  776.0000     9.2826    92.5303     2.5138     0.0246     0.0149
  776.5000     9.2899    93.8912     2.5109     0.0264     0.0144
  777.0000     9.2972    95.2578     2.5139     0.0258     0.0139
  777.5000     9.3045    96.6626     2.5153     0.0235     0.0134
  778.0000     9.3117    96.6506     2.5115     0.0247     0.0129
  778.5000     9.3190    94.4330     2.5078     0.0266     0.0124
  779.0000     9.3263    92.2060     2.5051     0.0285     0.0119
  779.5000     9.3336    89.9263     2.5124     0.0276     0.0114
  780.0000     9.3345    90.4855     2.5291     0.0173     0.0119
  780.5000     9.3310    92.1130     2.5457    -0.0010     0.0163
