~VERSION INFORMATION
 VERS.                2.0:   CWLS LOG ASCII STANDARD - VERSION 2.0
 WRAP.                 NO:   ONE LINE PER DEPTH STEP
~WELL INFORMATION
#MNEM.UNIT      DATA TYPE    INFORMATION
#----------   ------------   ------------------------------
 STRT.F            0.0000:   START DEPTH
 STOP.F          790.0000:   STOP DEPTH
 STEP.F            0.1000:   STEP LENGTH
 NULL.          -999.2500:   NO VALUE
 COMP.   FLUOR DANIEL INC:   COMPANY
 WELL.   72-2 X-34 #72-34:   WELL
 FLD .          N.P.R. #3:   FIELD
 LOC .      S34 T39N R78W:   LOCATION
 CNTY.            NATRONA:   COUNTY
 STAT.            WYOMING:   STATE
 CTRY. UNITED STATES OF AMERICA:   COUNTRY
 SRVC.      Western Atlas:   SERVICE COMPANY
 DATE.        25-MAR-1995:   LOGDATE
 API .       490252269300:   API NUMBER
~CURVE INFORMATION
#MNEM.UNIT       API CODE    CURVE DESCRIPTION
#----------   ------------   ------------------------------
 DEPT.F                  :   
 GRR .GAPI   07 310 01 00:   GAMMA RAY
 RILD.OHMM   07 120 46 00:   INDUCTION LOG DEEP RESISTIVITY
 RILM.OHMM   07 120 44 00:   INDUCTION LOG MEDIUM RESISTIVITY
~PARAMETER INFORMATION
#MNEM.UNIT          VALUE    DESCRIPTION
#----------   ------------   ------------------------------
 PD  .                 GL:   PERMANENT DATUM
 EPD .F              5058:   ELEVATION PERMANENT DATUM
 LMF .                 KB:   LOG MEASURED FROM
 DAPD.F                10:   FEET ABOVE PERMANENT DATUM
 DMF .                 KB:   DRILLING MEASURED FROM
 EKB .F              5068:   KELLING BUSHING
 EDF .F              5067:   DRILLING FLOOR
 EGL .F              5058:   GROUND LEVEL
 DATE.        25-MAR-1995:   RUN DATE
 RUN .                  1:   RUN NUMBER
 DD  .F               796:   DEPTH DRILLER
 DL  .F               798:   DEPTH LOGGER
 BLI .F               790:   BOTTOM LOG INTERVAL
 TLI .F                96:   TOP LOG INTERVAL
 CS  .IN            9.625:   CASING SIZE
 CBD .F                95:   CASING BOTTOM DRILLER
 CBL .F                96:   CASING BOTTOM LOGGER
 BS  .IN             8.75:   BIT SIZE
 BSD .F               796:   BIT SIZE AT DEPTH
 DFT .                AIR:   DRILLING FLUID TYPE
 MRT .F                97:   MAXIMUM RECORDED TEMPERATURE
 LUN .            HL 6530:   LOGGING UNIT NUMBER
 LUL .             CASPER:   LOGGING UNIT LOCATION
 ENGI.             RAUTIO:   RECORDING ENGINEER
 WITN.             STRONG:   WITNESSED BY
 CLNT.            A2DTECH:   CLIENT CODE
 ORIG.       2", 5" PRINT:   ORIGIN OF DATA
 UWI .       490252269300:   UNIQUE WELL ID
 DICO. A2D Technologies, Inc.:   DIGITIZING COMPANY
~OTHER INFORMATION
~A    DEPT      GRR      RILD       RILM   
# ...
  400.4000   131.4911     7.1447     7.0493
  400.5000   132.0807     7.1327     7.0354
  400.6000   132.8595     7.1294     7.0215
  400.7000   133.4501     7.1292     7.0089
  400.8000   133.4521     7.1290     7.0093
  400.9000   133.2264     7.1288     7.0095
  401.0000   132.9727     7.1286     7.0098
  401.1000   132.7188     7.1284     6.9926
  401.2000   132.4649     7.1282     6.9619
  401.3000   132.2110     7.1280     6.9623
  401.4000   131.9083     7.1278     7.0023
  401.5000   131.7035     7.1289     7.0113
  401.6000   131.7515     7.1786     7.0115
  401.7000   132.0091     7.1784     7.0118
  401.8000   132.3067     7.1782     7.0121
  401.9000   132.8505     7.1780     7.0125
  402.0000   133.0928     7.1853     7.0127
  402.1000   133.7208     7.2292     7.0130
  402.2000   134.4896     7.2290     7.0133
  402.3000   135.1840     7.2288     7.0238
  402.4000   135.6783     7.2516     7.0628
  402.5000   135.9723     7.2803     7.0631
  402.6000   135.7544     7.2848     7.0634
  402.7000   135.6647     7.3322     7.0879
  402.8000   135.5580     7.3709     7.1287
  402.9000   135.3574     7.3845     7.1697
  403.0000   135.3593     7.3843     7.2133
  403.1000   134.8541     7.3952     7.2136
  403.2000   134.3444     7.4369     7.2438
  403.3000   133.8350     7.4367     7.2855
  403.4000   133.3255     7.4365     7.3154
  403.5000   132.7836     7.4363     7.3186
  403.6000   131.9492     7.4538     7.3612
  403.7000   131.2534     7.4894     7.4038
  403.8000   130.6653     7.4891     7.4464
  403.9000   130.2776     7.4889     7.4890
  404.0000   130.0237     7.4887     7.5234
  404.1000   129.7700     7.5127     7.5237
  404.2000   129.4722     7.5569     7.5661
  404.3000   129.4737     7.5961     7.6097
  404.4000   129.3196     7.5958     7.6299
  404.5000   129.2670     7.5957     7.6442
  404.6000   129.4793     7.5954     7.6882
  404.7000   129.4812     7.6167     7.7377
  404.8000   129.4830     7.6496     7.7380
  404.9000   129.6750     7.6494     7.7383
  405.0000   129.7978     7.6491     7.7583
  405.1000   129.7997     7.6869     7.7929
  405.2000   129.8016     7.7036     7.7932
  405.3000   129.8036     7.7034     7.7935
  405.4000   129.8053     7.7033     7.7939
  405.5000   129.8071     7.7030     7.7942
  405.6000   129.6954     7.7477     7.7945
  405.7000   129.4415     7.7579     7.7888
  405.8000   129.1878     7.7577     7.7412
  405.9000   128.9339     7.7733     7.7415
  406.0000   128.4770     7.8130     7.7418
  406.1000   127.9675     7.8128     7.7422
  406.2000   127.5504     7.8126     7.7425
  406.3000   127.2967     7.8123     7.7428
  406.4000   127.0247     7.8121     7.7432
  406.5000   127.0265     7.8119     7.7435
  406.6000   127.0283     7.8117     7.7438
  406.7000   127.0301     7.8114     7.7441
  406.8000   126.9606     7.8112     7.7444
  406.9000   126.7067     7.8110     7.7447
  407.0000   126.4140     7.8108     7.7450
  407.1000   125.9831     7.8105     7.7453
  407.2000   125.4735     7.8103     7.7457
  407.3000   124.8584     7.8101     7.7460
  407.4000   124.2435     7.8099     7.7429
  407.5000   124.2458     7.8097     7.6931
  407.6000   124.2476     7.8094     7.6934
  407.7000   124.4446     7.8092     7.6658
  407.8000   124.7022     7.8090     7.6407
  407.9000   125.0441     7.8088     7.6411
  408.0000   125.6159     7.8085     7.6414
  408.1000   126.7455     7.8083     7.6417
  408.2000   127.4349     7.7951     7.6088
  408.3000   128.2039     7.7522     7.5894
  408.4000   128.9728     7.7519     7.5897
  408.5000   129.7415     7.7126     7.5853
  408.6000   130.5188     7.6961     7.5379
  408.7000   131.7335     7.6959     7.5382
  408.8000   132.5678     7.6957     7.5385
  408.9000   133.1338     7.6955     7.5387
  409.0000   133.3913     7.6953     7.5391
  409.1000   133.6068     7.6593     7.5394
  409.2000   133.6088     7.6400     7.5397
  409.3000   133.3681     7.6397     7.5401
  409.4000   133.3014     7.6395     7.5404
  409.5000   133.1716     7.6393     7.5407
  409.6000   132.8416     7.6391     7.5409
  409.7000   132.3529     7.6064     7.5413
  409.8000   132.0650     7.5841     7.5020
  409.9000   131.6238     7.5839     7.4897
  410.0000   130.9487     7.5837     7.4901
  410.1000   130.2941     7.5834     7.4904
  410.2000   129.7293     7.5833     7.4906
  410.3000   128.9636     7.5830     7.4910
  410.4000   128.1996     7.5828     7.4559
  410.5000   127.4341     7.5826     7.4398
  410.6000   126.8134     7.5824     7.4400
  410.7000   126.3933     7.5821     7.4404
  410.8000   126.1733     7.5819     7.4407
  410.9000   126.1756     7.5817     7.4410
  411.0000   126.1773     7.5649     7.4413
  411.1000   126.1792     7.5272     7.4196
  411.2000   126.3046     7.5269     7.3904
  411.3000   126.5622     7.5267     7.3907
  411.4000   126.8069     7.5265     7.3911
  411.5000   126.8090     7.5263     7.3913
  411.6000   127.2369     7.5261     7.3916
  411.7000   127.5924     7.5259     7.3919
  411.8000   127.8500     7.5256     7.3923
  411.9000   128.0603     7.5255     7.3926
  412.0000   128.0623     7.5548     7.3928
  412.1000   128.0641     7.5791     7.3932
  412.2000   128.0659     7.5789     7.4169
  412.3000   127.9312     7.5787     7.4453
  412.4000   127.6773     7.5784     7.4456
  412.5000   127.4493     7.5782     7.4460
  412.6000   127.4515     7.5780     7.4463
  412.7000   127.4532     7.5778     7.4466
  412.8000   127.4551     7.5851     7.4469
  412.9000   127.4569     7.6318     7.4472
  413.0000   127.4587     7.6316     7.4475
  413.1000   127.4606     7.6649     7.4479
  413.2000   127.4629     7.6860     7.4825
  413.3000   127.6694     7.6858     7.5003
  413.4000   127.9269     7.6901     7.5006
  413.5000   128.0902     7.7406     7.5074
  413.6000   128.0921     7.7810     7.5536
  413.7000   128.0941     7.7958     7.5539
  413.8000   128.0958     7.7956     7.5542
  413.9000   128.0977     7.7953     7.5545
  414.0000   128.0995     7.7951     7.5548
  414.1000   128.0283     7.7949     7.5551
  414.2000   127.7743     7.8325     7.5555
  414.3000   127.4833     7.8505     7.5921
  414.4000   127.2667     7.8502     7.6088
  414.5000   127.0129     7.8501     7.6090
  414.6000   126.7592     7.8498     7.6174
  414.7000   126.4531     7.8944     7.6628
  414.8000   125.9372     7.9058     7.6630
  414.9000   125.6866     7.9056     7.6633
  415.0000   125.2357     7.9204     7.6637
  415.1000   124.7264     7.9671     7.6776
  415.2000   124.3032     8.0189     7.7218
  415.3000   124.0493     8.0612     7.7719
  415.4000   123.7713     8.1087     7.7722
  415.5000   123.7729     8.1793     7.8016
  415.6000   123.7748     8.2635     7.8270
  415.7000   123.6562     8.3122     7.8371
  415.8000   123.4023     8.3695     7.8822
  415.9000   123.1389     8.4517     7.8825
  416.0000   122.5384     8.4898     7.9180
  416.1000   122.3300     8.5098     7.9382
  416.2000   121.9215     8.5599     7.9541
  416.3000   121.4121     8.6116     7.9998
  416.4000   120.9464     8.6114     8.0503
  416.5000   120.6813     8.6499     8.0923
  416.6000   119.9502     8.6728     8.1070
  416.7000   119.5629     8.6896     8.1291
  416.8000   119.4426     8.7346     8.1759
  416.9000   119.4445     8.7343     8.2214
  417.0000   119.4692     8.7341     8.2219
  417.1000   119.7595     8.7338     8.2989
  417.2000   119.7612     8.7336     8.3659
  417.3000   119.9308     8.7471     8.4140
  417.4000   120.3009     8.7959     8.4625
  417.5000   120.8139     8.7955     8.5141
  417.6000   121.3269     8.7953     8.5602
  417.7000   121.8402     8.8276     8.6095
  417.8000   122.1515     8.8581     8.6343
  417.9000   122.4091     8.8578     8.6487
  418.0000   122.5754     8.8575     8.6985
  418.1000   122.5773     8.9089     8.7562
  418.2000   122.5793     8.9614     8.7989
  418.3000   122.5810     8.9846     8.8180
  418.4000   122.5829     9.0025     8.8390
  418.5000   122.5847     9.0486     8.8899
