~VERSION INFORMATION
 VERS.                2.0:   CWLS LOG ASCII STANDARD - VERSION 2.0
 WRAP.                 NO:   ONE LINE PER DEPTH STEP
~WELL INFORMATION
#MNEM.UNIT      DATA TYPE    INFORMATION
#----------   ------------   ------------------------------
 STRT.F           30.5000:   START DEPTH
 STOP.F          674.0000:   STOP DEPTH
 STEP.F            0.5000:   STEP LENGTH
 NULL.          -999.2500:   NO VALUE
 COMP. FENIX & SCISSON INC:   COMPANY
 WELL. NPR 3 #37 SX 34-34:   WELL
 FLD .        TEAPOT DOME:   FIELD
 LOC .      S34 T39N R78W:   LOCATION
 CNTY.            NATRONA:   COUNTY
 STAT.            WYOMING:   STATE
 CTRY. UNITED STATES OF AMERICA:   COUNTRY
 SRVC.           BIRDWELL:   SERVICE COMPANY
 DATE.        21-JAN-1979:   LOGDATE
 API .       490251074400:   API NUMBER
~CURVE INFORMATION
#MNEM.UNIT       API CODE    CURVE DESCRIPTION
#----------   ------------   ------------------------------
 DEPT.F                  :   
 SPR .MV     05 010 01 00:   SPONTANEOUS POTENTIAL FROM RES.
 SN  .OHMM   05 040 16 00:   SHORT NORMAL 16"
 IL  .OHMM   05 120 00 00:   INDUCTION LOG
 CALD.IN     45 280 60 00:   CALIPER
 GRD .GAPI   45 310 01 00:   GAMMA RAY FROM DENSITY LOG
 RHOB.G/C3   45 350 01 00:   BULK DENSITY
 DPHI.DEC    45 890 12 00:   DENSITY POROSITY SANDSTONE
 CORR.G/C3   45 356 01 00:   DENSITY CORRECTION
~PARAMETER INFORMATION
#MNEM.UNIT          VALUE    DESCRIPTION
#----------   ------------   ------------------------------
 PD  .                 GL:   PERMANENT DATUM
 EPD .F              5175:   ELEVATION PERMANENT DATUM
 LMF .                 KB:   LOG MEASURED FROM
 DAPD.F                 4:   FEET ABOVE PERMANENT DATUM
 DMF .                 KB:   DRILLING MEASURED FROM
 EKB .F              5179:   KELLING BUSHING
 EGL .F              5175:   GROUND LEVEL
 DATE.            1-21-79:   RUN DATE
 RUN .                  1:   RUN NUMBER
 DD  .F               674:   DEPTH DRILLER
 DL  .F               673:   DEPTH LOGGER
 BLI .F               666:   BOTTOM LOG INTERVAL
 TLI .F                40:   TOP LOG INTERVAL
 CS  .IN            8.625:   CASING SIZE
 CBD .F                40:   CASING BOTTOM DRILLER
 CBL .F                30:   CASING BOTTOM LOGGER
 BS  .IN            7.875:   BIT SIZE
 BSD .F               674:   BIT SIZE AT DEPTH
 DFT .                KCL:   DRILLING FLUID TYPE
 DFD .                8.8:   DRILLING FLUID DENSITY
 DFV .                 60:   DRILLING FLUID VISCOSITY
 DFPH.                9.5:   DRILLING FLUID PH
 DFL .                  8:   DRILLING FLUID LOSS
 MSS .           FLOWLINE:   MUD SAMPLE SOURCE
 RMS .OHMM            .23:   RESISTIVITY MUD SAMPLE
 MST .F                56:   MUD SAMPLE TEMPERATURE
 MFSS.           MEASURED:   MUD FILTRATE SAMPLE SOURCE
 MCSS.           MEASURED:   MUD CAKE SAMPLE SOURCE
 RMB .OHMM            .22:   RESISTIVITY MUD AT BHT
 BHT .F                60:   BOTTOM HOLE TEMPERATURE
 TCS .HRS               4:   TIME CURCULATED STOPPED
 MRT .F                60:   MAXIMUM RECORDED TEMPERATURE
 LUN .               3006:   LOGGING UNIT NUMBER
 LUL .             CASPER:   LOGGING UNIT LOCATION
 ENGI.            ROLLINS:   RECORDING ENGINEER
 WITN.           DINSMORE:   WITNESSED BY
 CLNT.            A2DTECH:   CLIENT CODE
 ORIG.       2", 5" PRINT:   ORIGIN OF DATA
 UWI .       490251074400:   UNIQUE WELL ID
 DICO. A2D Technologies, Inc.:   DIGITIZING COMPANY
~OTHER INFORMATION
~A   DEPT      SPR         SN         IL       CALD        GRD       RHOB       DPHI       CORR   
# ...
  192.5000   -45.9100     9.8010     8.7930     8.1940   108.9830     2.5230     0.1010     0.0220
  193.0000   -45.9160     9.7870     8.8370     8.1950   108.8950     2.5160     0.1060     0.0200
  193.5000   -45.9220     9.7720     8.8850     8.1970   109.7680     2.5080     0.1110     0.0200
  194.0000   -45.9290     9.7580     8.7890     8.1990   114.0520     2.4990     0.1160     0.0210
  194.5000   -45.9350     9.7440     8.6500     8.2010   117.4870     2.4930     0.1210     0.0210
  195.0000   -45.9410     9.5650     8.5100     8.2030   115.2960     2.4870     0.1210     0.0210
  195.5000   -45.9480     9.3770     8.3710     8.2050   110.1140     2.4810     0.1210     0.0210
  196.0000   -45.9540     9.1890     8.2320     8.2070   106.8630     2.4790     0.1200     0.0210
  196.5000   -45.9600     9.0450     8.1030     8.2090   108.0230     2.4800     0.1200     0.0220
  197.0000   -45.9670     9.0220     8.1030     8.2100   109.3350     2.4800     0.1190     0.0220
  197.5000   -45.9730     8.9990     8.1030     8.2120   109.9560     2.4810     0.1180     0.0220
  198.0000   -45.9790     8.9760     8.1030     8.2140   111.5390     2.4830     0.1170     0.0190
  198.5000   -45.9860     8.9530     8.1030     8.2160   112.8110     2.4840     0.1160     0.0160
  199.0000   -45.9920     8.9300     8.1030     8.2190   114.4290     2.4850     0.1140     0.0140
  199.5000   -45.9990     8.9070     8.1020     8.2010   117.9750     2.4860     0.1140     0.0140
  200.0000   -46.0050     8.8840     8.1050     8.1800   119.4510     2.4870     0.1160     0.0150
  200.5000   -46.0110     8.8610     7.9910     8.1590   120.4090     2.4880     0.1170     0.0150
  201.0000   -46.0180     8.8380     7.9050     8.1580   117.0060     2.4860     0.1190     0.0160
  201.5000   -46.0240     8.8150     7.8190     8.1580   111.1220     2.4840     0.1180     0.0160
  202.0000   -46.0300     8.7920     7.7380     8.1580   108.0480     2.4850     0.1180     0.0170
  202.5000   -46.0370     8.7690     7.7440     8.1580   107.0740     2.4850     0.1170     0.0170
  203.0000   -46.0430     8.7460     7.7500     8.1580   108.0370     2.4850     0.1170     0.0170
  203.5000   -46.0490     8.7230     7.7570     8.1580   111.9860     2.4830     0.1190     0.0180
  204.0000   -46.0560     8.6530     7.7630     8.1580   116.3390     2.4810     0.1220     0.0180
  204.5000   -46.0620     8.5820     7.7690     8.1580   119.8500     2.4780     0.1230     0.0190
  205.0000   -46.0680     8.5120     7.7750     8.1580   120.2880     2.4760     0.1230     0.0200
  205.5000   -46.0750     8.4410     7.7810     8.1580   119.8310     2.4730     0.1220     0.0210
  206.0000   -46.0810     8.3700     7.7870     8.1580   119.7190     2.4720     0.1190     0.0210
  206.5000   -46.0880     8.3180     7.7930     8.1580   120.0450     2.4760     0.1170     0.0220
  207.0000   -46.0940     8.2910     7.7990     8.1580   120.3500     2.4820     0.1150     0.0230
  207.5000   -46.1000     8.2630     7.8090     8.1580   119.6940     2.4860     0.1140     0.0240
  208.0000   -46.1070     8.2360     7.7810     8.1580   118.3870     2.4870     0.1140     0.0220
  208.5000   -46.1130     8.2080     7.7000     8.1580   116.6550     2.4870     0.1140     0.0200
  209.0000   -46.1190     8.1810     7.6200     8.1580   116.4430     2.4870     0.1150     0.0170
  209.5000   -46.1260     8.1530     7.5400     8.1580   116.5440     2.4870     0.1160     0.0150
  210.0000   -46.1320     8.1260     7.4590     8.1580   115.9440     2.4870     0.1160     0.0160
  210.5000   -46.1380     8.0790     7.3790     8.1540   115.0560     2.4870     0.1210     0.0200
  211.0000   -46.1450     7.9450     7.2990     8.1500   114.1590     2.4850     0.1250     0.0220
  211.5000   -46.1510     7.8100     7.2270     8.1450   114.2860     2.4780     0.1280     0.0220
  212.0000   -46.1570     7.6760     7.1680     8.1400   117.0800     2.4710     0.1280     0.0220
  212.5000   -46.1640     7.5410     7.1080     8.1350   122.0080     2.4680     0.1280     0.0210
  213.0000   -46.1700     7.4070     7.0480     8.1300   123.2350     2.4670     0.1270     0.0210
  213.5000   -46.1770     7.2720     6.9880     8.1250   123.9400     2.4680     0.1270     0.0210
  214.0000   -46.1830     7.1380     6.9280     8.1200   123.9730     2.4690     0.1260     0.0210
  214.5000   -46.1890     7.1220     6.8640     8.1180   123.5080     2.4700     0.1240     0.0210
  215.0000   -46.1960     7.1220     6.9280     8.1180   125.8750     2.4720     0.1190     0.0210
  215.5000   -46.2020     7.1840     6.9990     8.1180   126.6200     2.4770     0.1170     0.0210
  216.0000   -46.2080     7.2910     7.0690     8.1180   124.0870     2.4830     0.1170     0.0200
  216.5000   -46.2150     7.3990     7.1390     8.1180   121.9770     2.4850     0.1170     0.0200
  217.0000   -46.2210     7.5060     7.2090     8.1180   117.6970     2.4850     0.1180     0.0200
  217.5000   -46.2270     7.5960     7.2790     8.1180   113.0560     2.4840     0.1190     0.0200
  218.0000   -46.2340     7.6330     7.3290     8.1180   108.4550     2.4810     0.1180     0.0200
  218.5000   -46.2400     7.6700     7.3490     8.1180   108.0240     2.4800     0.1150     0.0200
  219.0000   -46.2460     7.7080     7.3690     8.1180   107.6870     2.4830     0.1140     0.0200
  219.5000   -46.2530     7.7450     7.3890     8.1180   106.6360     2.4880     0.1150     0.0190
  220.0000   -46.2590     7.7830     7.4090     8.1180   105.5550     2.4880     0.1150     0.0190
  220.5000   -46.2660     7.8200     7.4290     8.1180   104.7010     2.4880     0.1150     0.0190
  221.0000   -46.2720     7.8580     7.4490     8.1180   106.4770     2.4880     0.1160     0.0190
  221.5000   -46.2780     7.8950     7.4690     8.1180   107.2960     2.4870     0.1160     0.0190
  222.0000   -46.2850     7.9330     7.4890     8.1180   104.3550     2.4870     0.1160     0.0190
  222.5000   -46.2910     7.9710     7.5090     8.1180   103.7930     2.4870     0.1140     0.0180
  223.0000   -46.2970     8.0280     7.5290     8.1180   107.3520     2.4890     0.1110     0.0180
  223.5000   -46.3040     8.0240     7.5490     8.1180   108.1580     2.4910     0.1100     0.0180
  224.0000   -46.3100     8.0140     7.5690     8.1180   107.9010     2.4930     0.1090     0.0180
  224.5000   -46.3160     8.0050     7.5890     8.1180   110.2570     2.4950     0.1090     0.0200
  225.0000   -46.3230     7.9950     7.6090     8.1230   113.3430     2.4970     0.1090     0.0230
  225.5000   -46.3290     7.9860     7.6290     8.1380   116.4440     2.4980     0.1090     0.0250
  226.0000   -46.3350     7.9760     7.6490     8.1530   117.0950     2.4980     0.1090     0.0280
  226.5000   -46.3420     7.9670     7.6650     8.1680   116.6620     2.4970     0.1080     0.0310
  227.0000   -46.3480     7.9570     7.6510     8.1780   115.6010     2.4970     0.1070     0.0310
  227.5000   -46.3550     7.9470     7.6380     8.1760   115.5290     2.4970     0.1090     0.0300
  228.0000   -46.3610     7.9380     7.6240     8.1750   115.0740     2.4960     0.1110     0.0290
  228.5000   -46.3670     7.9280     7.6100     8.1730   114.4620     2.4960     0.1130     0.0280
  229.0000   -46.3740     7.9190     7.5960     8.1710   113.8750     2.4950     0.1120     0.0260
  229.5000   -46.3800     7.9090     7.5830     8.1700   112.6260     2.4950     0.1110     0.0240
  230.0000   -46.3860     7.9000     7.5690     8.1680   111.1490     2.4950     0.1110     0.0210
  230.5000   -46.3930     7.8900     7.5550     8.1670   108.9650     2.4960     0.1110     0.0200
  231.0000   -46.3930     7.8800     7.5410     8.1650   106.8060     2.4960     0.1140     0.0200
  231.5000   -46.3930     7.8710     7.5280     8.1640   105.6840     2.4950     0.1160     0.0200
  232.0000   -46.3930     7.8610     7.5140     8.1620   107.4630     2.4900     0.1180     0.0200
  232.5000   -46.3930     7.8520     7.5000     8.1610   109.4050     2.4850     0.1190     0.0200
