~VERSION INFORMATION
 VERS.                2.0:   CWLS LOG ASCII STANDARD - VERSION 2.0
 WRAP.                 NO:   ONE LINE PER DEPTH STEP
~WELL INFORMATION
#MNEM.UNIT      DATA TYPE    INFORMATION
#----------   ------------   ------------------------------
 STRT.F           16.5000:   START DEPTH
 STOP.F          640.0000:   STOP DEPTH
 STEP.F            0.5000:   STEP LENGTH
 NULL.          -999.2500:   NO VALUE
 COMP. FENIX & SCISSON INC:   COMPANY
 WELL.     11 SX 14 #3-14:   WELL
 FLD .             TEAPOT:   FIELD
 LOC .      S14 T38N R78W:   LOCATION
 CNTY.            NATRONA:   COUNTY
 STAT.            WYOMING:   STATE
 CTRY. UNITED STATES OF AMERICA:   COUNTRY
 SRVC.            Unknown:   SERVICE COMPANY
 DATE.        18-DEC-1978:   LOGDATE
 API .       490251075700:   API NUMBER
~CURVE INFORMATION
#MNEM.UNIT       API CODE    CURVE DESCRIPTION
#----------   ------------   ------------------------------
 DEPT.F                  :   
 SPR .MV     05 010 01 00:   SPONTANEOUS POTENTIAL FROM RES.
 SN  .OHMM   05 040 16 00:   SHORT NORMAL 16"
 IL  .OHMM   05 120 00 00:   INDUCTION LOG
 GRD .GAPI   45 310 01 00:   GAMMA RAY FROM DENSITY LOG
 CALD.IN     45 280 60 00:   CALIPER
 RHOB.G/C3   45 350 01 00:   BULK DENSITY
 DPHI.DEC    45 890 12 00:   DENSITY POROSITY SANDSTONE
 CORR.G/C3   45 356 01 00:   DENSITY CORRECTION
~PARAMETER INFORMATION
#MNEM.UNIT          VALUE    DESCRIPTION
#----------   ------------   ------------------------------
 PD  .                 GL:   PERMANENT DATUM
 EPD .F              5217:   ELEVATION PERMANENT DATUM
 LMF .                 KB:   LOG MEASURED FROM
 DAPD.F                 4:   FEET ABOVE PERMANENT DATUM
 DMF .                 KB:   DRILLING MEASURED FROM
 EKB .F              5221:   KELLING BUSHING
 EGL .F              5217:   GROUND LEVEL
 DATE.           12-18-78:   RUN DATE
 RUN .                  1:   RUN NUMBER
 DD  .F               653:   DEPTH DRILLER
 DL  .F               640:   DEPTH LOGGER
 BLI .F               634:   BOTTOM LOG INTERVAL
 TLI .F                32:   TOP LOG INTERVAL
 CS  .IN            8.625:   CASING SIZE
 CBD .F                40:   CASING BOTTOM DRILLER
 CBL .F                30:   CASING BOTTOM LOGGER
 BS  .IN            7.875:   BIT SIZE
 BSD .F               653:   BIT SIZE AT DEPTH
 DFT .                KCL:   DRILLING FLUID TYPE
 DFD .                8.3:   DRILLING FLUID DENSITY
 DFV .                 36:   DRILLING FLUID VISCOSITY
 DFPH.               12.5:   DRILLING FLUID PH
 DFL .               12.3:   DRILLING FLUID LOSS
 MSS .           FLOWLINE:   MUD SAMPLE SOURCE
 MST .F                56:   MUD SAMPLE TEMPERATURE
 RMF .OHMM            .44:   RESISTIVITY MUD FILTRATE SAMPLE
 MFST.F                58:   MUD FILTRATE SAMPLE TEMPERATURE
 RMC .OHMM            .58:   RESISTIVITY MUD CAKE
 MCST.F                66:   MUD CAKE SAMPLE TEMPERATURE
 MFSS.           MEASURED:   MUD FILTRATE SAMPLE SOURCE
 MCSS.           MEASURED:   MUD CAKE SAMPLE SOURCE
 BHT .F                58:   BOTTOM HOLE TEMPERATURE
 TCS .HRS               4:   TIME CURCULATED STOPPED
 MRT .F                58:   MAXIMUM RECORDED TEMPERATURE
 LUL .             CASPER:   LOGGING UNIT LOCATION
 ENGI.         B. ROLLINS:   RECORDING ENGINEER
 WITN.              AMEND:   WITNESSED BY
 CLNT.            A2DTECH:   CLIENT CODE
 ORIG.           5" PRINT:   ORIGIN OF DATA
 UWI .       490251075700:   UNIQUE WELL ID
 DICO. A2D Technologies, Inc.:   DIGITIZING COMPANY
~OTHER INFORMATION
~A   DEPT      SPR         SN         IL         GRD      CALD       RHOB       DPHI       CORR   
# ...
  340.5000   -44.9230     7.8090     7.3870    96.4940     7.8130     2.4640     0.1290     0.0760
  341.0000   -45.2460     7.9300     7.5220    94.6540     7.8690     2.4700     0.1280     0.0750
  341.5000   -45.5710     8.0750     7.6570    94.1020     7.9360     2.4750     0.1350     0.0690
  342.0000   -45.8620     8.2210     7.7920    94.7880     8.0360     2.4680     0.1440     0.0640
  342.5000   -45.0400     8.3660     7.9260    96.2010     8.2280     2.4510     0.1540     0.0650
  343.0000   -44.2460     8.5640     8.0280    97.5700     8.2510     2.4380     0.1490     0.0710
  343.5000   -44.1400     8.5310     7.8550    98.9280     8.2270     2.4340     0.1280     0.0870
  344.0000   -44.4610     8.4800     7.7150    99.9910     8.1020     2.4560     0.1300     0.1000
  344.5000   -44.8660     8.4290     7.5750    98.8530     8.0760     2.4710     0.1320     0.1020
  345.0000   -45.2670     8.3780     7.5080    96.5400     8.1050     2.4680     0.1320     0.1030
  345.5000   -45.6680     8.3300     7.4790    94.4760     7.8540     2.4670     0.1330     0.1100
  346.0000   -45.9980     8.2700     7.4510    94.4080     7.8030     2.4670     0.1330     0.1190
  346.5000   -46.2320     8.2140     7.4220    94.6610     7.7620     2.4680     0.1210     0.1460
  347.0000   -46.4660     8.1580     7.3930    96.2930     7.7390     2.4780     0.1210     0.1660
  347.5000   -46.4230     8.1020     7.3650    97.7640     7.7310     2.4840     0.1180     0.1850
  348.0000   -46.3420     8.0460     7.3360    97.5760     7.7270     2.4850     0.1140     0.2000
  348.5000   -46.0290     7.9190     7.2490    99.6690     7.8530     2.4950     0.1240     0.1890
  349.0000   -45.4500     7.7600     7.1000   102.3940     7.8220     2.4900     0.1320     0.1730
  349.5000   -44.8550     7.6010     6.9510   102.3340     7.7860     2.4730     0.1410     0.1590
  350.0000   -44.8730     7.4580     6.8010   102.4630     8.1730     2.4540     0.1420     0.1510
  350.5000   -45.0990     7.2070     6.6520   103.0410     8.1130     2.4510     0.1310     0.1400
  351.0000   -45.3290     6.9780     6.5030   102.8560     8.0410     2.4600     0.1340     0.1260
  351.5000   -45.5580     6.7500     6.3540   101.9500     7.9020     2.4670     0.1410     0.1130
  352.0000   -45.7990     6.5220     6.2050   101.5730     7.6030     2.4560     0.1500     0.1040
  352.5000   -45.0930     6.2930     6.0550   101.6360     7.5330     2.4400     0.1520     0.1200
  353.0000   -43.7350     5.9770     5.9060   101.0000     7.8160     2.4320     0.1500     0.1490
  353.5000   -43.6330     6.0720     5.7610    98.5270     8.0790     2.4360     0.1600     0.1690
  354.0000   -43.7780     6.2980     6.0680    96.1570     8.2950     2.4310     0.1540     0.1660
  354.5000   -43.9310     6.5240     6.3680    93.6050     8.2750     2.4260     0.1420     0.1560
  355.0000   -44.0760     6.9260     6.6670    90.5670     8.1950     2.4360     0.1300     0.1420
  355.5000   -43.6840     7.3570     6.9670    88.5740     8.1110     2.4710     0.1370     0.0960
  356.0000   -43.2200     7.7570     7.2670    90.2580     8.0490     2.4610     0.1430     0.0440
  356.5000   -42.8980     7.9280     7.5410    91.3850     8.0200     2.4520     0.1360     0.0200
  357.0000   -42.9300     8.0980     7.6470    94.1120     7.9910     2.4560     0.1300     0.0130
  357.5000   -42.9570     8.2680     7.7530    96.8420     7.9750     2.4640     0.1290     0.0110
  358.0000   -42.9820     8.4230     7.8600    98.1750     7.9660     2.4710     0.1320     0.0100
  358.5000   -43.0080     8.5090     7.8950    99.9200     7.9570     2.4680     0.1340     0.0120
  359.0000   -43.0340     8.5960     7.9180   101.2630     7.9470     2.4650     0.1290     0.0130
  359.5000   -43.0610     8.6820     7.9400   101.6370     7.9380     2.4720     0.1240     0.0150
  360.0000   -43.0870     8.7680     7.9630    99.1790     7.9290     2.4780     0.1190     0.0220
  360.5000   -43.1560     8.8550     7.9850    96.2650     7.9220     2.4850     0.1210     0.0310
  361.0000   -43.2750     8.9410     8.0080    95.4100     7.9460     2.4880     0.1270     0.0410
  361.5000   -43.3910     9.0270     8.0300    94.6140     8.0080     2.4800     0.1400     0.0500
  362.0000   -43.3710     9.1140     8.0530    94.9290     8.2290     2.4610     0.1430     0.0690
  362.5000   -42.4360     9.2000     8.0750    96.2700     7.9500     2.4510     0.1390     0.0900
  363.0000   -41.4920     9.2860     8.0980    97.4880     7.7140     2.4530     0.1280     0.1020
  363.5000   -40.8910     9.3910     8.1210   101.9250     7.9020     2.4760     0.1120     0.1130
  364.0000   -40.7780     9.3590     8.1430   104.4890     8.1230     2.5020     0.1090     0.1140
  364.5000   -40.4580     9.3190     8.1660   105.7970     7.8830     2.5040     0.1140     0.1040
  365.0000   -40.1440     9.2800     8.1880   105.3220     8.0080     2.4980     0.1180     0.0940
  365.5000   -39.9680     9.2400     8.2110   104.2230     8.1790     2.4930     0.1200     0.0900
  366.0000   -40.2930     9.2000     8.2330   102.3000     7.9700     2.4870     0.1210     0.0890
  366.5000   -40.6070     9.1600     8.2540    99.0370     7.7400     2.4860     0.1180     0.0890
  367.0000   -40.9190     9.1200     8.1960    98.5090     7.6740     2.4910     0.1120     0.0890
  367.5000   -41.2290     9.0800     8.1440    98.4610     7.7510     2.5030     0.1040     0.0890
  368.0000   -41.5200     9.0400     8.0910    98.3970     7.8600     2.5150     0.0980     0.0890
  368.5000   -41.5850     9.0000     8.0380    98.5190     7.8700     2.5230     0.0970     0.0820
  369.0000   -41.6580     8.9590     7.9860    98.9540     7.8570     2.5230     0.0970     0.0750
  369.5000   -41.7330     8.9130     7.9330    99.3820     7.8440     2.5230     0.0970     0.0760
  370.0000   -41.8070     8.8660     7.8810    99.8990     7.8460     2.5220     0.1020     0.0760
  370.5000   -41.8810     8.8190     7.8280   102.3420     7.8510     2.5160     0.1080     0.0770
  371.0000   -41.9550     8.7720     7.7200   103.3270     7.8560     2.5070     0.1090     0.0770
  371.5000   -42.0290     8.7260     7.5810   103.7900     7.8430     2.5040     0.1110     0.0780
  372.0000   -42.1020     8.6790     7.4420   105.1850     7.7610     2.5000     0.1180     0.0780
  372.5000   -42.1730     8.6320     7.3040   106.6770     7.6930     2.4940     0.1210     0.0790
  373.0000   -42.2330     8.5850     7.1650   107.1620     7.6930     2.4870     0.1220     0.0790
  373.5000   -41.9650     8.3610     7.0260   103.6770     7.7000     2.4840     0.1200     0.0820
  374.0000   -40.8210     7.9840     6.7580    99.4490     7.5760     2.4880     0.1110     0.0880
  374.5000   -39.7920     7.6070     6.4470    96.9580     7.8000     2.5000     0.1140     0.0840
  375.0000   -39.3760     7.3900     6.1360    96.6770     8.0420     2.5020     0.1180     0.0750
  375.5000   -38.9390     7.1630     5.8250    98.2470     7.8230     2.4930     0.1170     0.0710
  376.0000   -38.4940     6.7390     5.4590    99.7790     7.7650     2.4910     0.1180     0.0720
  376.5000   -38.0340     6.3150     5.0610   101.1390     7.7650     2.4900     0.1320     0.0600
  377.0000   -37.9190     5.8910     4.6630   101.2950     7.6640     2.4750     0.1430     0.0450
  377.5000   -37.9330     5.4670     4.2650   101.4360     7.5320     2.4560     0.1480     0.0310
  378.0000   -37.9500     5.0430     3.8660   101.5810     7.5490     2.4420     0.1510     0.0310
  378.5000   -37.9690     4.6190     3.4680   101.7080     7.5960     2.4370     0.1660     0.0300
  379.0000   -37.9880     4.1950     3.2530   101.1190     7.6990     2.4210     0.1810     0.0300
  379.5000   -38.0070     3.7710     3.1960   100.4750     7.7990     2.3950     0.2000     0.0300
  380.0000   -38.0260     3.3470     3.1390   100.3060     7.8610     2.3600     0.2220     0.0320
  380.5000   -38.0440     2.7550     3.0490   100.2520     7.8570     2.3250     0.2460     0.0340
