~VERSION INFORMATION
 VERS.                2.0:   CWLS LOG ASCII STANDARD - VERSION 2.0
 WRAP.                 NO:   ONE LINE PER DEPTH STEP
~WELL INFORMATION
#MNEM.UNIT      DATA TYPE    INFORMATION
#----------   ------------   ------------------------------
 STRT.F           28.0000:   START DEPTH
 STOP.F          468.0000:   STOP DEPTH
 STEP.F            0.5000:   STEP LENGTH
 NULL.          -999.2500:   NO VALUE
 COMP. FENIX & SCISSON INC:   COMPANY
 WELL. NAVAL PETROLEUM RESERVE 3 SX3F #35-3:   WELL
 FLD .             TEAPOT:   FIELD
 LOC .       S3 T38N R78W:   LOCATION
 CNTY.            NATRONA:   COUNTY
 STAT.            WYOMING:   STATE
 CTRY. UNITED STATES OF AMERICA:   COUNTRY
 SRVC.              Welex:   SERVICE COMPANY
 DATE.        07-JUL-1980:   LOGDATE
 API .       490251081700:   API NUMBER
~CURVE INFORMATION
#MNEM.UNIT       API CODE    CURVE DESCRIPTION
#----------   ------------   ------------------------------
 DEPT.F                  :   
 CORR.G/C3   45 356 01 00:   DENSITY CORRECTION
 RHOB.G/C3   45 350 01 00:   BULK DENSITY
 CALD.IN     45 280 60 00:   CALIPER
 GRD .GAPI   45 310 01 00:   GAMMA RAY FROM DENSITY LOG
 DPHI.DEC    45 890 12 00:   DENSITY POROSITY SANDSTONE
~PARAMETER INFORMATION
#MNEM.UNIT          VALUE    DESCRIPTION
#----------   ------------   ------------------------------
 PD  .                 GL:   PERMANENT DATUM
 EPD .F              5162:   ELEVATION PERMANENT DATUM
 LMF .                 KB:   LOG MEASURED FROM
 DAPD.F                 5:   FEET ABOVE PERMANENT DATUM
 DMF .                 KB:   DRILLING MEASURED FROM
 EKB .F              5167:   KELLING BUSHING
 EGL .F              5162:   GROUND LEVEL
 DATE.             7-7-80:   RUN DATE
 RUN .                  1:   RUN NUMBER
 DD  .F               470:   DEPTH DRILLER
 DL  .F               470:   DEPTH LOGGER
 BLI .F               468:   BOTTOM LOG INTERVAL
 TLI .F                30:   TOP LOG INTERVAL
 BS  .IN             6.25:   BIT SIZE
 BSD .F               470:   BIT SIZE AT DEPTH
 DFT .        ARI DRILLED:   DRILLING FLUID TYPE
 TCS .HRS             1.5:   TIME CURCULATED STOPPED
 MRT .F                74:   MAXIMUM RECORDED TEMPERATURE
 ENGI.            TOTHILL:   RECORDING ENGINEER
 WITN.             AMENDS:   WITNESSED BY
 CLNT.            A2DTECH:   CLIENT CODE
 ORIG.           5" PRINT:   ORIGIN OF DATA
 UWI .       490251081700:   UNIQUE WELL ID
 DICO. A2D Technologies, Inc.:   DIGITIZING COMPANY
~OTHER INFORMATION
~A   DEPT      CORR        RHOB       CALD       GRD        DPHI 
# ...
  333.0000     0.0759     2.4717     6.0818    82.6562     0.1232
  333.5000     0.0931     2.4672     6.0831    84.6519     0.1250
  334.0000     0.0936     2.4589     6.0858    86.6433     0.1299
  334.5000     0.0854     2.4503     6.0886    88.6242     0.1357
  335.0000     0.0773     2.4417     6.0914    90.1104     0.1416
  335.5000     0.0720     2.4351     6.0941    89.6370     0.1414
  336.0000     0.0709     2.4420     6.0968    87.6542     0.1408
  336.5000     0.0648     2.4358     6.0996    86.2372     0.1442
  337.0000     0.0517     2.4297     6.1007    86.2786     0.1468
  337.5000     0.0493     2.4335     6.0995    85.5530     0.1439
  338.0000     0.0608     2.4392     6.0983    84.8323     0.1404
  338.5000     0.0632     2.4395     6.0971    85.1525     0.1407
  339.0000     0.0754     2.4476     6.0959    86.2308     0.1357
  339.5000     0.0773     2.4526     6.0947    87.7144     0.1331
  340.0000     0.0639     2.4386     6.0936    89.2614     0.1405
  340.5000     0.0512     2.4378     6.0924    90.3181     0.1420
  341.0000     0.0426     2.4416     6.0912    90.2998     0.1396
  341.5000     0.0470     2.4467     6.0900    90.4026     0.1369
  342.0000     0.0514     2.4501     6.0888    91.0317     0.1344
  342.5000     0.0518     2.4514     6.0876    92.5279     0.1337
  343.0000     0.0510     2.4533     6.0865    93.0704     0.1327
  343.5000     0.0499     2.4594     6.0853    92.7760     0.1289
  344.0000     0.0670     2.4664     6.0841    93.0246     0.1250
  344.5000     0.0805     2.4731     6.0829    93.3829     0.1210
  345.0000     0.0760     2.4717     6.0817    92.8816     0.1228
  345.5000     0.0718     2.4719     6.0808    91.2761     0.1216
  346.0000     0.0969     2.4755     6.0808    90.8216     0.1186
  346.5000     0.0780     2.4660     6.0808    91.3334     0.1267
  347.0000     0.0462     2.4514     6.0808    91.7347     0.1347
  347.5000     0.0278     2.4455     6.0808    91.3318     0.1375
  348.0000     0.0424     2.4519     6.0808    90.9099     0.1328
  348.5000     0.0608     2.4602     6.0808    91.2743     0.1291
  349.0000     0.0793     2.4642     6.0808    91.8093     0.1271
  349.5000     0.0894     2.4635     6.0808    92.3472     0.1266
  350.0000     0.0744     2.4577     6.0808    92.7357     0.1306
  350.5000     0.0597     2.4521     6.0808    92.7258     0.1343
  351.0000     0.0568     2.4468     6.0808    92.5504     0.1376
  351.5000     0.0627     2.4510     6.0808    91.9743     0.1352
  352.0000     0.0691     2.4564     6.0809    91.4031     0.1315
  352.5000     0.0704     2.4618     6.0758    90.8143     0.1278
  353.0000     0.0704     2.4635     6.0671    90.7327     0.1270
  353.5000     0.0702     2.4619     6.0583    91.7078     0.1291
  354.0000     0.0833     2.4705     6.0495    92.7414     0.1224
  354.5000     0.0970     2.4739     6.0408    93.7641     0.1212
  355.0000     0.0713     2.4659     6.0320    94.5523     0.1249
  355.5000     0.0684     2.4580     6.0230    93.8467     0.1286
  356.0000     0.0662     2.4536     6.0243    92.2559     0.1322
  356.5000     0.0615     2.4512     6.0302    90.6985     0.1350
  357.0000     0.0567     2.4488     6.0362    90.3100     0.1373
  357.5000     0.0525     2.4454     6.0448    89.8665     0.1397
  358.0000     0.0474     2.4382     6.0595    88.2868     0.1437
  358.5000     0.0418     2.4309     6.0743    88.7413     0.1479
  359.0000     0.0361     2.4226     6.0695    89.1355     0.1521
  359.5000     0.0304     2.4141     6.0492    87.5459     0.1564
  360.0000     0.0301     2.4055     6.0287    85.4939     0.1606
  360.5000     0.0314     2.3994     6.0277    84.4890     0.1646
  361.0000     0.0398     2.3993     6.0470    83.8392     0.1652
  361.5000     0.0544     2.3981     6.0660    81.6288     0.1658
  362.0000     0.0690     2.3911     6.0773    79.2177     0.1697
  362.5000     0.0840     2.3842     6.0578    76.4398     0.1742
  363.0000     0.0741     2.3772     6.0407    74.2328     0.1787
  363.5000     0.0585     2.3726     6.0403    72.7127     0.1802
  364.0000     0.0615     2.3666     6.0404    72.3490     0.1832
  364.5000     0.0642     2.3603     6.0404    73.2485     0.1878
  365.0000     0.0589     2.3541     6.0404    74.1430     0.1912
  365.5000     0.0523     2.3535     6.0404    74.1958     0.1912
  366.0000     0.0535     2.3587     6.0404    73.0390     0.1892
  366.5000     0.0580     2.3631     6.0404    72.5397     0.1872
  367.0000     0.0529     2.3654     6.0427    72.9032     0.1859
  367.5000     0.0453     2.3677     6.0466    73.6326     0.1847
  368.0000     0.0383     2.3729     6.0505    75.3654     0.1810
  368.5000     0.0521     2.3809     6.0545    77.0821     0.1763
  369.0000     0.0543     2.3793     6.0584    77.6168     0.1766
  369.5000     0.0546     2.3841     6.0590    76.4807     0.1754
  370.0000     0.0629     2.3885     6.0553    75.0950     0.1723
  370.5000     0.0563     2.3841     6.0517    74.3488     0.1748
  371.0000     0.0522     2.3799     6.0480    74.2919     0.1767
  371.5000     0.0533     2.3859     6.0443    73.2365     0.1737
  372.0000     0.0557     2.3939     6.0406    72.1680     0.1682
  372.5000     0.0582     2.4043     6.0404    72.1610     0.1630
  373.0000     0.0606     2.4180     6.0404    72.9330     0.1550
  373.5000     0.0646     2.4339     6.0404    73.7289     0.1442
  374.0000     0.0666     2.4401     6.0404    74.8892     0.1424
  374.5000     0.0501     2.4165     6.0404    76.0917     0.1554
  375.0000     0.0509     2.4045     6.0404    77.2947     0.1633
  375.5000     0.0698     2.4034     6.0404    78.4985     0.1615
  376.0000     0.0709     2.3922     6.0404    79.6253     0.1703
  376.5000     0.0654     2.3961     6.0404    80.6491     0.1661
  377.0000     0.0748     2.4050     6.0404    81.6750     0.1609
  377.5000     0.0828     2.4016     6.0404    82.6977     0.1654
  378.0000     0.0767     2.3949     6.0404    83.6141     0.1676
  378.5000     0.0665     2.3918     6.0404    83.8389     0.1706
  379.0000     0.0612     2.3926     6.0404    83.7255     0.1706
  379.5000     0.0590     2.3882     6.0419    83.5667     0.1714
  380.0000     0.0568     2.3826     6.0536    83.4406     0.1752
  380.5000     0.0547     2.3826     6.0655    84.0931     0.1755
  381.0000     0.0477     2.3858     6.0774    84.8016     0.1727
  381.5000     0.0377     2.3857     6.0894    85.5218     0.1755
  382.0000     0.0324     2.3836     6.0999    85.6599     0.1731
  382.5000     0.0475     2.3870     6.0740    85.3851     0.1735
  383.0000     0.0374     2.3844     6.0464    84.9388     0.1738
  383.5000     0.0370     2.3936     6.0205    84.4989     0.1703
  384.0000     0.0528     2.4061     6.0186    84.6286     0.1593
  384.5000     0.0689     2.4155     6.0711    85.5141     0.1573
  385.0000     0.0636     2.4106     6.1309    86.3905     0.1597
  385.5000     0.0543     2.4060     6.1614    87.2569     0.1622
  386.0000     0.0484     2.4099     6.1465    87.8904     0.1626
  386.5000     0.0463     2.4068     6.0999    87.8767     0.1622
  387.0000     0.0462     2.4048     6.1180    87.8764     0.1608
  387.5000     0.0510     2.4115     6.1379    87.8876     0.1569
  388.0000     0.0569     2.4182     6.1175    88.3627     0.1523
  388.5000     0.0604     2.4249     6.0862    88.8816     0.1496
  389.0000     0.0607     2.4233     6.0612    89.1072     0.1523
  389.5000     0.0685     2.4217     6.0689    88.2850     0.1517
  390.0000     0.0719     2.4215     6.0761    87.7579     0.1548
  390.5000     0.0617     2.4067     6.0831    87.9603     0.1638
  391.0000     0.0515     2.4015     6.0902    87.6820     0.1646
  391.5000     0.0418     2.4011     6.0971    86.7583     0.1650
  392.0000     0.0401     2.4012     6.0950    86.3283     0.1626
  392.5000     0.0464     2.4029     6.0821    86.1140     0.1638
  393.0000     0.0550     2.4076     6.0696    86.0900     0.1610
  393.5000     0.0627     2.4153     6.0643    87.3510     0.1571
