~VERSION INFORMATION
 VERS.                2.0:   CWLS LOG ASCII STANDARD - VERSION 2.0
 WRAP.                 NO:   ONE LINE PER DEPTH STEP
~WELL INFORMATION
#MNEM.UNIT      DATA TYPE    INFORMATION
#----------   ------------   ------------------------------
 STRT.F         1378.5000:   START DEPTH
 STOP.F         2344.0000:   STOP DEPTH
 STEP.F            0.5000:   STEP LENGTH
 NULL.          -999.2500:   NO VALUE
 COMP. BROWN JOHN E&C INC:   COMPANY
 WELL. NAVAL PETROLEUM RESERVE 3 STX- #26-10:   WELL
 FLD .             TEAPOT:   FIELD
 LOC .      S10 T38N R78W:   LOCATION
 CNTY.            NATRONA:   COUNTY
 STAT.            WYOMING:   STATE
 CTRY. UNITED STATES OF AMERICA:   COUNTRY
 SRVC.            Unknown:   SERVICE COMPANY
 DATE.        22-MAY-1991:   LOGDATE
 API .       490251107400:   API NUMBER
~CURVE INFORMATION
#MNEM.UNIT       API CODE    CURVE DESCRIPTION
#----------   ------------   ------------------------------
 DEPT.F                  :   
 ROP .MIN/FT 91 810 01 00:   RATE OF DRILLING PENETRATION
 TGAS.UNITS  91 830 01 00:   TOTAL GAS FROM HOTWIRE
~PARAMETER INFORMATION
#MNEM.UNIT          VALUE    DESCRIPTION
#----------   ------------   ------------------------------
 EKB .F              5231:   KELLING BUSHING
 EGL .F              5221:   GROUND LEVEL
 DATE.            5-22-91:   RUN DATE
 DD  .F              2343:   DEPTH DRILLER
 BLI .F              2343:   BOTTOM LOG INTERVAL
 TLI .F              1378:   TOP LOG INTERVAL
 CS  .IN            8.625:   CASING SIZE
 CBD .F               709:   CASING BOTTOM DRILLER
 TCS .HRS            0030:   TIME CURCULATED STOPPED
 TLAB.HRS            0415:   TIME LOGGER AT BOTTOM
 ENGI.              TOWER:   RECORDING ENGINEER
 WITN.               HUSK:   WITNESSED BY
 CLNT.            A2DTECH:   CLIENT CODE
 ORIG.           5" PRINT:   ORIGIN OF DATA
 UWI .       490251107400:   UNIQUE WELL ID
 DICO. A2D Technologies, Inc.:   DIGITIZING COMPANY
~OTHER INFORMATION
~A  DEPT         ROP       TGAS 
# ...
 2107.5000     0.3657    51.0592
 2108.0000     0.3753    51.0550
 2108.5000     0.3643    51.0507
 2109.0000     0.3749    51.0464
 2109.5000     0.3855    51.0422
 2110.0000     0.4228    51.0379
 2110.5000     0.4933    51.0337
 2111.0000     0.5363    51.0294
 2111.5000     0.5857    51.0252
 2112.0000     0.6009    51.0209
 2112.5000     0.6115    51.0166
 2113.0000     0.6113    51.0124
 2113.5000     0.6110    51.0081
 2114.0000     0.6108    51.0039
 2114.5000     0.5930    50.9996
 2115.0000     0.5713    50.9953
 2115.5000     0.5495    50.9911
 2116.0000     0.5278    50.9868
 2116.5000     0.5340    50.9826
 2117.0000     0.5314    50.9783
 2117.5000     0.5291    50.9741
 2118.0000     0.5268    50.9698
 2118.5000     0.5244    50.9655
 2119.0000     0.5221    50.9613
 2119.5000     0.5198    50.9570
 2120.0000     0.5175    50.9528
 2120.5000     0.5152    50.9485
 2121.0000     0.5129    50.9443
 2121.5000     0.5106    50.9400
 2122.0000     0.5083    50.9357
 2122.5000     0.5060    50.9315
 2123.0000     0.5037    50.9272
 2123.5000     0.5014    50.9230
 2124.0000     0.4991    50.9187
 2124.5000     0.5629    50.9144
 2125.0000     0.5743    50.9102
 2125.5000     0.6059    50.9059
 2126.0000     0.6273    50.9017
 2126.5000     0.6393    50.8974
 2127.0000     0.6445    50.8932
 2127.5000     0.6483    50.8889
 2128.0000     0.6481    50.8846
 2128.5000     0.6357    50.8804
 2129.0000     0.6043    50.8761
 2129.5000     0.6017    50.8719
 2130.0000     0.5822    50.8676
 2130.5000     0.5462    50.8634
 2131.0000     0.5060    50.8591
 2131.5000     0.4950    50.8548
 2132.0000     0.4948    50.8506
 2132.5000     0.4946    50.8463
 2133.0000     0.4944    50.8421
 2133.5000     0.4941    50.8378
 2134.0000     0.4939    50.8335
 2134.5000     0.5045    50.8293
 2135.0000     0.5043    50.8250
 2135.5000     0.5041    50.8208
 2136.0000     0.5147    50.8165
 2136.5000     0.5249    50.8123
 2137.0000     0.5359    50.8080
 2137.5000     0.5357    50.8037
 2138.0000     0.5461    50.7995
 2138.5000     0.5894    50.7952
 2139.0000     0.6108    50.7910
 2139.5000     0.6115    50.7867
 2140.0000     0.6135    50.7825
 2140.5000     0.6154    50.7782
 2141.0000     0.6174    50.7739
 2141.5000     0.6193    50.7697
 2142.0000     0.6204    50.7654
 2142.5000     0.5984    50.7612
 2143.0000     0.5941    50.7569
 2143.5000     0.5872    50.7527
 2144.0000     0.5978    50.7484
 2144.5000     0.5976    50.7441
 2145.0000     0.5974    50.7399
 2145.5000     0.5972    50.7356
 2146.0000     0.5969    50.7314
 2146.5000     0.5954    50.7271
 2147.0000     0.5932    50.7228
 2147.5000     0.5909    50.7186
 2148.0000     0.5887    50.7143
 2148.5000     0.5864    50.7101
 2149.0000     0.5632    50.7058
 2149.5000     0.5299    50.7016
 2150.0000     0.4974    50.6973
 2150.5000     0.4865    50.6378
 2151.0000     0.4784    50.5608
 2151.5000     0.4703    50.4837
 2152.0000     0.4878    50.4067
 2152.5000     0.5795    50.3296
 2153.0000     0.6186    50.2526
 2153.5000     0.6253    50.1755
 2154.0000     0.6320    50.0985
 2154.5000     0.6366    50.0214
 2155.0000     0.6582    49.9444
 2155.5000     0.6722    49.8673
 2156.0000     0.6793    49.7903
 2156.5000     0.6790    49.7132
 2157.0000     0.6788    49.6362
 2157.5000     0.6786    49.5591
 2158.0000     0.6783    49.4821
 2158.5000     0.6781    49.4050
 2159.0000     0.6671    49.3280
 2159.5000     0.6669    49.2968
 2160.0000     0.6667    49.3191
 2160.5000     0.6664    49.7654
 2161.0000     0.6838    50.2117
 2161.5000     0.7209    51.9496
 2162.0000     0.7580    54.5439
 2162.5000     0.7847    90.3580
 2163.0000     0.8254   116.0093
 2163.5000     0.8799   145.1467
 2164.0000     0.9355   166.5366
 2164.5000     0.8591   172.2133
 2165.0000     0.7812   172.7828
 2165.5000     0.7033   170.3420
 2166.0000     0.6204   162.2231
 2166.5000     0.6290   143.4620
 2167.0000     0.6382   131.0064
 2167.5000     0.6474   120.8908
 2168.0000     0.6408   111.8846
 2168.5000     0.6075   106.4232
 2169.0000     0.5742   100.5627
 2169.5000     0.5409    94.7022
 2170.0000     0.5130    88.8417
 2170.5000     0.5131    84.2497
 2171.0000     0.5392    81.5572
 2171.5000     0.5762    78.8648
 2172.0000     0.6002    76.1723
 2172.5000     0.6078    74.7779
 2173.0000     0.5970    73.6170
 2173.5000     0.5611    72.1217
 2174.0000     0.5253    71.4952
 2174.5000     0.4894    71.0193
 2175.0000     0.4535    70.5433
 2175.5000     0.4176    70.0420
 2176.0000     0.3817    69.6204
 2176.5000     0.3800    69.6242
 2177.0000     0.3904    69.6281
 2177.5000     0.4039    69.6319
 2178.0000     0.4263    69.6358
 2178.5000     0.4499    69.6397
 2179.0000     0.4658    69.6435
 2179.5000     0.4934    69.6474
 2180.0000     0.4935    69.6513
 2180.5000     0.4936    69.6551
 2181.0000     0.4937    69.6590
 2181.5000     0.4938    69.6629
 2182.0000     0.4648    69.6667
 2182.5000     0.4222    69.6706
 2183.0000     0.3795    69.6744
 2183.5000     0.3369    69.6783
 2184.0000     0.3212    69.6822
 2184.5000     0.3213    69.6860
 2185.0000     0.3214    69.6899
 2185.5000     0.3268    69.6938
 2186.0000     0.3743    69.6976
 2186.5000     0.4875    69.7015
 2187.0000     0.6007    69.7054
 2187.5000     0.7116    69.7092
 2188.0000     0.7009    69.7131
 2188.5000     0.6570    69.7169
 2189.0000     0.6074    69.7208
 2189.5000     0.5605    69.7247
 2190.0000     0.5703    69.7285
 2190.5000     0.5796    69.7324
 2191.0000     0.5956    69.7363
 2191.5000     0.6367    69.7401
 2192.0000     0.6476    69.3926
 2192.5000     0.6295    68.4459
 2193.0000     0.6045    67.6336
 2193.5000     0.5614    66.8235
 2194.0000     0.5074    65.9486
 2194.5000     0.4966    64.4635
 2195.0000     0.5292    62.9660
 2195.5000     0.5726    61.1240
 2196.0000     0.5944    59.1434
 2196.5000     0.5837    57.2467
 2197.0000     0.5838    55.8804
 2197.5000     0.5839    54.8989
 2198.0000     0.5840    53.4906
 2198.5000     0.5841    52.3576
 2199.0000     0.5842    50.2305
 2199.5000     0.5843    49.3153
 2200.0000     0.5844    48.9511
 2200.5000     0.5854    48.6893
 2201.0000     0.6182    48.5837
 2201.5000     0.6509    48.6105
 2202.0000     0.6836    48.6372
 2202.5000     0.6932    48.6639
 2203.0000     0.6825    48.6907
 2203.5000     0.6826    48.7174
 2204.0000     0.6827    48.7442
 2204.5000     0.6936    48.7709
 2205.0000     0.6721    48.7977
 2205.5000     0.6397    48.8244
 2206.0000     0.6182    48.8512
 2206.5000     0.5750    48.8779
 2207.0000     0.5751    48.9047
 2207.5000     0.5752    48.9346
 2208.0000     0.5753    49.8187
 2208.5000     0.5754    52.6222
 2209.0000     0.5755    59.7493
 2209.5000     0.5756    71.4379
 2210.0000     0.5758    91.1637
 2210.5000     0.5759   102.7876
 2211.0000     0.5760   110.5473
 2211.5000     0.6086   117.4437
 2212.0000     0.6195   121.7080
 2212.5000     0.6244   123.5083
 2213.0000     0.6429   123.5341
 2213.5000     0.6523   123.5599
 2214.0000     0.6524   123.5857
 2214.5000     0.6402   123.6115
 2215.0000     0.6235   123.6372
 2215.5000     0.6094   123.6630
 2216.0000     0.6026   123.6888
 2216.5000     0.5772   123.7146
 2217.0000     0.5340   123.7403
 2217.5000     0.5105   123.7661
 2218.0000     0.4801   123.7919
 2218.5000     0.5762   123.8177
 2219.0000     0.6469   123.8434
 2219.5000     0.7323   123.8692
 2220.0000     0.7727   123.0350
 2220.5000     0.7606   119.6713
 2221.0000     0.7264   116.6508
 2221.5000     0.6865   112.8036
 2222.0000     0.6433    98.6540
 2222.5000     0.6434    87.0799
 2223.0000     0.6472    72.0732
 2223.5000     0.6653    65.4453
 2224.0000     0.7195    57.9443
 2224.5000     0.7088    51.5125
 2225.0000     0.7089    49.8689
 2225.5000     0.7259    48.9997
 2226.0000     0.7804    48.5957
 2226.5000     0.7374    48.6215
 2227.0000     0.6877    48.6473
 2227.5000     0.6628    48.6730
 2228.0000     0.6681    48.6988
 2228.5000     0.6988    48.7246
