~VERSION INFORMATION
 VERS.                2.0:   CWLS LOG ASCII STANDARD - VERSION 2.0
 WRAP.                 NO:   ONE LINE PER DEPTH STEP
~WELL INFORMATION
#MNEM.UNIT      DATA TYPE    INFORMATION
#----------   ------------   ------------------------------
 STRT.F           14.0000:   START DEPTH
 STOP.F          449.0000:   STOP DEPTH
 STEP.F            0.5000:   STEP LENGTH
 NULL.          -999.2500:   NO VALUE
 COMP.   LAWRENCE-ALLISON:   COMPANY
 WELL. NPR 3 #51-65SX10OB2:   WELL
 FLD .             TEAPOT:   FIELD
 LOC .      S10 T38N R78W:   LOCATION
 CNTY.            NATRONA:   COUNTY
 STAT.            WYOMING:   STATE
 CTRY. UNITED STATES OF AMERICA:   COUNTRY
 SRVC.      Dresser Atlas:   SERVICE COMPANY
 DATE.        18-DEC-1984:   LOGDATE
 API .       490251100900:   API NUMBER
~CURVE INFORMATION
#MNEM.UNIT       API CODE    CURVE DESCRIPTION
#----------   ------------   ------------------------------
 DEPT.F                  :   
 PORD.DEC    45 890 12 00:   POROSITY DENSITY SANDSTONE
 CNC .DEC    42 890 03 00:   NEUTRON POROSITY SANDSTONE
 CALD.IN     45 280 60 00:   CALIPER FROM DENSITY
 CORR.G/C3   45 356 01 00:   DENSITY CORRECTION
 DEN .G/C3   45 350 01 00:   COMPENSATED BULK DENSTIY
 GRD .GAPI   45 310 01 00:   GAMMA RAY FROM DENSITY LOG
 AC  .US/F   60 520 00 00:   ACCOUSTIC
~PARAMETER INFORMATION
#MNEM.UNIT          VALUE    DESCRIPTION
#----------   ------------   ------------------------------
 PD  .                 GL:   PERMANENT DATUM
 EPD .F              5156:   ELEVATION PERMANENT DATUM
 LMF .                 GL:   LOG MEASURED FROM
 DMF .                 GL:   DRILLING MEASURED FROM
 EGL .F              5156:   GROUND LEVEL
 DATE.        18-DEC-1984:   RUN DATE
 RUN .                  1:   RUN NUMBER
 DD  .F               448:   DEPTH DRILLER
 DL  .F               451:   DEPTH LOGGER
 BLI .F               449:   BOTTOM LOG INTERVAL
 TLI .F                20:   TOP LOG INTERVAL
 CS  .IN            8.625:   CASING SIZE
 CBD .F                20:   CASING BOTTOM DRILLER
 CBL .F                20:   CASING BOTTOM LOGGER
 BS  .IN             6.25:   BIT SIZE
 BSD .F               448:   BIT SIZE AT DEPTH
 DFT .          KCL WATER:   DRILLING FLUID TYPE
 MSS .             MUDPIT:   MUD SAMPLE SOURCE
 RMS .OHMM          0.132:   RESISTIVITY MUD SAMPLE
 MST .F                95:   MUD SAMPLE TEMPERATURE
 RMF .OHMM          0.099:   RESISTIVITY MUD FILTRATE SAMPLE
 MFST.F                95:   MUD FILTRATE SAMPLE TEMPERATURE
 RMC .OHMM          0.165:   RESISTIVITY MUD CAKE
 MCST.F                95:   MUD CAKE SAMPLE TEMPERATURE
 MFSS.               CALC:   MUD FILTRATE SAMPLE SOURCE
 MCSS.               CALC:   MUD CAKE SAMPLE SOURCE
 TCS .HRS               5:   TIME CURCULATED STOPPED
 MRT .F               100:   MAXIMUM RECORDED TEMPERATURE
 LUN .               6270:   LOGGING UNIT NUMBER
 ENGI.        TOM GAUGHAN:   RECORDING ENGINEER
 WITN.             GROOMS:   WITNESSED BY
 CLNT.            A2DTECH:   CLIENT CODE
 ORIG.           5" PRINT:   ORIGIN OF DATA
 UWI .       490251100900:   UNIQUE WELL ID
 DICO. A2D Technologies, Inc.:   DIGITIZING COMPANY
~OTHER INFORMATION
~A   DEPT     PORD        CNC       CALD       CORR        DEN        GRD         AC   
# ...
  287.0000     0.1865     0.2416     6.5420     0.0096     2.3677    85.3528    98.2725
  287.5000     0.1892     0.2341     6.5432     0.0143     2.3618    86.5529    97.7503
  288.0000     0.1910     0.2247     6.5444     0.0099     2.3580    88.7916    97.2281
  288.5000     0.1888     0.2319     6.5455     0.0055     2.3598    90.1401    96.7811
  289.0000     0.1851     0.2411     6.5467    -0.0003     2.3644    91.0434    96.5593
  289.5000     0.1851     0.2486     6.5479    -0.0017     2.3703    91.6501    96.3359
  290.0000     0.1854     0.2441     6.5339     0.0000     2.3712    91.0698    96.3481
  290.5000     0.1872     0.2386     6.5354     0.0062     2.3667    89.1542    96.8889
  291.0000     0.1917     0.2346     6.5217     0.0108     2.3585    86.2000    97.4999
  291.5000     0.1933     0.2319     6.5229     0.0050     2.3519    82.8007    97.7109
  292.0000     0.1882     0.2325     6.5240     0.0021     2.3609    82.0687    97.0574
  292.5000     0.1761     0.2373     6.5252     0.0038     2.3805    83.5689    95.8399
  293.0000     0.1713     0.2456     6.5264     0.0069     2.3896    83.4332    95.1671
  293.5000     0.1730     0.2440     6.5276     0.0071     2.3927    82.2599    94.7954
  294.0000     0.1754     0.2361     6.5290     0.0103     2.3830    81.9723    94.8751
  294.5000     0.1729     0.2373     6.5302     0.0240     2.3891    84.4021    95.0301
  295.0000     0.1702     0.2466     6.5313     0.0236     2.3929    89.4660    95.1098
  295.5000     0.1699     0.2556     6.5325     0.0098     2.3923    93.2918    95.1895
  296.0000     0.1716     0.2574     6.5337    -0.0042     2.3908    91.2311    94.8178
  296.5000     0.1695     0.2555     6.5348     0.0305     2.3932    89.4638    94.4449
  297.0000     0.1643     0.2500     6.5360     0.0322     2.4015    87.1031    94.6010
  297.5000     0.1631     0.2440     6.5372     0.0308     2.4069    83.8522    95.0570
  298.0000     0.1636     0.2439     6.5384     0.0325     2.4045    81.0431    95.5882
  298.5000     0.1618     0.2367     6.5395     0.0386     2.4032    83.4334    94.4640
  299.0000     0.1560     0.2372     6.5407     0.0358     2.4161    85.5237    93.6408
  299.5000     0.1515     0.2432     6.5419     0.0254     2.4252    85.9787    92.8176
  300.0000     0.1496     0.2510     6.5430     0.0210     2.4298    83.8537    92.4447
  300.5000     0.1499     0.2491     6.5332     0.0231     2.4298    82.5902    92.2231
  301.0000     0.1504     0.2431     6.5306     0.0213     2.4284    83.3450    92.0011
  301.5000     0.1513     0.2397     6.5171     0.0139     2.4270    85.5809    92.0810
  302.0000     0.1513     0.2409     6.5188     0.0351     2.4278    89.3004    92.4610
  302.5000     0.1494     0.2429     6.5201     0.0382     2.4309    87.6787    92.6905
  303.0000     0.1458     0.2408     6.5215     0.0309     2.4332    86.9446    92.3932
  303.5000     0.1403     0.2404     6.5228     0.0220     2.4385    88.7380    91.7197
  304.0000     0.1342     0.2416     6.5241     0.0251     2.4476    92.3092    91.2720
  304.5000     0.1309     0.2428     6.5255     0.0328     2.4622    92.0228    91.1243
  305.0000     0.1293     0.2445     6.5268     0.0449     2.4645    90.9946    91.1290
  305.5000     0.1302     0.2451     6.5281     0.0480     2.4631    88.4827    91.1327
  306.0000     0.1353     0.2357     6.5294     0.0317     2.4504    88.0929    91.1364
  306.5000     0.1437     0.2366     6.5308     0.0363     2.4369    90.2838    91.5916
  307.0000     0.1499     0.2473     6.5321     0.0349     2.4272    90.1458    92.0468
  307.5000     0.1520     0.2575     6.5185     0.0261     2.4227    88.9800    92.3515
  308.0000     0.1514     0.2539     6.5199     0.0142     2.4258    86.6074    92.6563
  308.5000     0.1501     0.2409     6.5064     0.0113     2.4288    87.6563    92.7352
  309.0000     0.1504     0.2366     6.5078     0.0084     2.4259    89.0020    92.5131
  309.5000     0.1515     0.2393     6.5091     0.0040     2.4230    89.7542    92.2912
  310.0000     0.1533     0.2419     6.5104     0.0072     2.4200    89.9129    92.2197
  310.5000     0.1567     0.2470     6.4969     0.0179     2.4156    89.9232    92.4492
  311.0000     0.1619     0.2509     6.4983     0.0255     2.4081    89.9336    92.6085
  311.5000     0.1628     0.2511     6.4996     0.0196     2.4074    89.7956    92.7576
  312.0000     0.1615     0.2433     6.5009     0.0123     2.4142    89.3608    92.5257
  312.5000     0.1564     0.2432     6.5023     0.0034     2.4278    91.7450    92.0629
  313.0000     0.1491     0.2498     6.4887     0.0065     2.4362    93.9809    91.5649
  313.5000     0.1443     0.2558     6.4901     0.0217     2.4400    95.7717    91.3429
  314.0000     0.1433     0.2521     6.4914     0.0308     2.4408    96.5239    91.1971
  314.5000     0.1451     0.2509     6.4927     0.0340     2.4386    95.9408    91.0503
  315.0000     0.1450     0.2535     6.4941     0.0311     2.4371    94.7642    91.2798
  315.5000     0.1441     0.2619     6.5102     0.0282     2.4380    94.3268    91.8855
  316.0000     0.1435     0.2688     6.5116     0.0329     2.4418    92.7077    92.3407
  316.5000     0.1422     0.2660     6.5129     0.0345     2.4448    89.7507    92.2682
  317.0000     0.1398     0.2482     6.5142     0.0346     2.4494    89.7611    92.1967
  317.5000     0.1376     0.2307     6.5007     0.0288     2.4525    90.6616    92.1252
  318.0000     0.1367     0.2301     6.4872     0.0169     2.4518    93.6393    92.1299
  318.5000     0.1411     0.2448     6.4737    -0.0010     2.4421    93.5013    93.7137
  319.0000     0.1522     0.2655     6.4751    -0.0039     2.4218    91.8796    96.1253
  319.5000     0.1645     0.2835     6.4764     0.0078     2.4054    88.7742    98.2359
  320.0000     0.1843     0.2822     6.4777     0.0204     2.3633    81.8113   101.2494
  320.5000     0.2001     0.2786     6.4791     0.0341     2.3363    74.8484   102.3065
  321.0000     0.2120     0.2713     6.4804     0.0372     2.3221    75.3038   102.9875
  321.5000     0.2134     0.2683     6.4817     0.0282     2.3221    77.5397   102.9912
  322.0000     0.2115     0.2736     6.4831     0.0195     2.3237    83.9299   102.6939
  322.5000     0.2099     0.2760     6.4844     0.0347     2.3275    85.5697   102.3214
  323.0000     0.2096     0.2690     6.4857     0.0408     2.3261    83.7350   101.9489
  323.5000     0.2129     0.2687     6.4871     0.0424     2.3216    80.6977   101.6517
  324.0000     0.2174     0.2735     6.4884     0.0380     2.3164    79.5211   101.5049
  324.5000     0.2149     0.2797     6.4897     0.0364     2.3163    79.2321   101.3582
  325.0000     0.2110     0.2887     6.4911     0.0413     2.3241    79.5418   101.1362
  325.5000     0.2082     0.2899     6.4925     0.0489     2.3339    80.1456   100.9894
  326.0000     0.2076     0.2835     6.4938     0.0191     2.3287    81.0436   101.1537
  326.5000     0.2172     0.2853     6.5100     0.0011     2.3212    79.2761   102.0053
  327.0000     0.2237     0.2864     6.5115     0.0053     2.3055    75.5773   102.8167
  327.5000     0.2264     0.2867     6.5150     0.0089     2.2988    74.8432   102.6975
  328.0000     0.2209     0.2845     6.5290     0.0151     2.3109    76.1914   100.8585
  328.5000     0.2056     0.2798     6.5304     0.0212     2.3380    78.4273   100.0346
  329.0000     0.1998     0.2731     6.5317     0.0289     2.3433    79.1795    99.8116
  329.5000     0.2016     0.2649     6.5330     0.0410     2.3426    79.6349    99.7401
  330.0000     0.2024     0.2618     6.5344     0.0487     2.3412    80.8322   100.0458
  330.5000     0.2033     0.2630     6.5505     0.0473     2.3398    83.5132   100.5010
  331.0000     0.2051     0.2740     6.5519     0.0339     2.3353    82.6334   100.8809
  331.5000     0.2089     0.2863     6.5532     0.0220     2.3256    79.6764   101.1104
  332.0000     0.2143     0.2974     6.5545     0.0102     2.3181    75.2357   100.8884
