~VERSION INFORMATION
 VERS.                2.0:   CWLS LOG ASCII STANDARD - VERSION 2.0
 WRAP.                 NO:   ONE LINE PER DEPTH STEP
~WELL INFORMATION
#MNEM.UNIT      DATA TYPE    INFORMATION
#----------   ------------   ------------------------------
 STRT.F          750.0000:   START DEPTH
 STOP.F         1490.0000:   STOP DEPTH
 STEP.F            0.5000:   STEP LENGTH
 NULL.          -999.2500:   NO VALUE
 COMP.    FENIX & SCISSON:   COMPANY
 WELL.  53 STX 15 #53 -15:   WELL
 FLD .             TEAPOT:   FIELD
 LOC .      S15 T38N R78W:   LOCATION
 CNTY.            NATRONA:   COUNTY
 STAT.            WYOMING:   STATE
 CTRY. UNITED STATES OF AMERICA:   COUNTRY
 SRVC.              Welex:   SERVICE COMPANY
 DATE.        01-JUN-1980:   LOGDATE
 API .       490251082000:   API NUMBER
~CURVE INFORMATION
#MNEM.UNIT       API CODE    CURVE DESCRIPTION
#----------   ------------   ------------------------------
 DEPT.F                  :   
 CALD.IN     45 280 60 00:   CALIPER
 GRD .GAPI   45 310 01 00:   GAMMA RAY FROM DENSITY LOG
 CORR.G/C3   45 356 01 00:   DENSITY CORRECTION
 RHOB.G/C3   45 350 01 00:   BULK DENSITY
 DPHI.DEC    45 890 12 00:   DENSITY POROSITY SANDSTONE
~PARAMETER INFORMATION
#MNEM.UNIT          VALUE    DESCRIPTION
#----------   ------------   ------------------------------
 PD  .                 GL:   PERMANENT DATUM
 EPD .F              5257:   ELEVATION PERMANENT DATUM
 LMF .                 KB:   LOG MEASURED FROM
 DAPD.F                10:   FEET ABOVE PERMANENT DATUM
 DMF .                 KB:   DRILLING MEASURED FROM
 EKB .F              5267:   KELLING BUSHING
 EGL .F              5257:   GROUND LEVEL
 DATE.             6-1-80:   RUN DATE
 RUN .                  1:   RUN NUMBER
 DD  .F              1498:   DEPTH DRILLER
 DL  .F              1492:   DEPTH LOGGER
 BLI .F              1490:   BOTTOM LOG INTERVAL
 TLI .F               750:   TOP LOG INTERVAL
 CS  .IN            9.625:   CASING SIZE
 CBD .F               772:   CASING BOTTOM DRILLER
 BS  .IN             8.75:   BIT SIZE
 BSD .F              1498:   BIT SIZE AT DEPTH
 DFT .        AIR DRILLED:   DRILLING FLUID TYPE
 TCS .HRS               4:   TIME CURCULATED STOPPED
 MRT .F                88:   MAXIMUM RECORDED TEMPERATURE
 ENGI.               REIN:   RECORDING ENGINEER
 WITN.            RHOADES:   WITNESSED BY
 CLNT.            A2DTECH:   CLIENT CODE
 ORIG.           5" PRINT:   ORIGIN OF DATA
 UWI .       490251082000:   UNIQUE WELL ID
 DICO. A2D Technologies, Inc.:   DIGITIZING COMPANY
~OTHER INFORMATION
~A   DEPT     CALD         GRD      CORR       RHOB       DPHI   
# ...
 1421.0000     9.1692    74.5397     0.0935     2.5265     0.0158
 1421.5000     9.1690    74.8833     0.1088     2.5258     0.0092
 1422.0000     9.1690    75.2782     0.0868     2.5046     0.0191
 1422.5000     9.1690    74.3635     0.0660     2.4815     0.0332
 1423.0000     9.1691    73.4740     0.0404     2.4562     0.0421
 1423.5000     9.1686    72.6144     0.0215     2.4435     0.0630
 1424.0000     9.1560    72.6895     0.0289     2.4531     0.0576
 1424.5000     9.1428    73.1819     0.0374     2.4499     0.0605
 1425.0000     9.1297    73.5214     0.0443     2.4890     0.0473
 1425.5000     9.1167    72.8730     0.0510     2.4970     0.0315
 1426.0000     9.1080    72.9738     0.0578     2.4896     0.0286
 1426.5000     9.0898    73.5510     0.0586     2.4873     0.0345
 1427.0000     9.0708    73.7831     0.0576     2.4920     0.0312
 1427.5000     9.0514    73.5608     0.0575     2.4954     0.0278
 1428.0000     9.0561    72.9711     0.0684     2.4780     0.0345
 1428.5000     9.0685    72.3804     0.0610     2.4794     0.0431
 1429.0000     9.0812    72.2919     0.0533     2.4653     0.0437
 1429.5000     9.0938    72.5454     0.0514     2.4547     0.0556
 1430.0000     9.1065    72.8088     0.0498     2.4483     0.0576
 1430.5000     9.1189    73.0701     0.0354     2.4373     0.0655
 1431.0000     9.1224    73.3317     0.0281     2.4543     0.0693
 1431.5000     9.0879    73.5916     0.0416     2.4824     0.0513
 1432.0000     9.0679    73.7934     0.0675     2.5101     0.0316
 1432.5000     9.0802    73.5364     0.0939     2.5357     0.0144
 1433.0000     9.0889    72.9272     0.1158     2.5229     0.0060
 1433.5000     9.0634    72.3261     0.1328     2.5017     0.0177
 1434.0000     9.0245    71.9786     0.0931     2.4807     0.0314
 1434.5000     8.9850    71.9820     0.0632     2.4713     0.0508
 1435.0000     8.9498    71.9858     0.0568     2.4863     0.0403
 1435.5000     8.9258    72.2233     0.0790     2.4792     0.0338
 1436.0000     8.9450    72.7754     0.0759     2.4762     0.0425
 1436.5000     8.9712    73.2040     0.0718     2.4709     0.0441
 1437.0000     8.9978    72.9885     0.0712     2.4650     0.0471
 1437.5000     9.0242    72.7488     0.0726     2.4522     0.0552
 1438.0000     9.0141    72.5087     0.0740     2.4395     0.0617
 1438.5000     8.9824    72.2884     0.0759     2.4382     0.0701
 1439.0000     8.9511    72.2769     0.0915     2.4575     0.0597
 1439.5000     8.9267    72.1514     0.1070     2.4515     0.0540
 1440.0000     8.9192    72.0218     0.1008     2.4227     0.0666
 1440.5000     8.9109    71.9719     0.0827     2.4358     0.0794
 1441.0000     8.9132    72.3474     0.0794     2.4409     0.0661
 1441.5000     9.0313    72.7725     0.0761     2.4309     0.0642
 1442.0000     9.0130    73.1990     0.0589     2.4230     0.0782
 1442.5000     8.9390    73.6247     0.0401     2.4396     0.0800
 1443.0000     8.9385    74.0482     0.0226     2.4530     0.0560
 1443.5000     9.0720    74.4712     0.0321     2.4488     0.0633
 1444.0000     9.0600    74.7899     0.0432     2.4589     0.0587
 1444.5000     9.0921    74.4505     0.0514     2.4673     0.0524
 1445.0000     9.0709    73.8429     0.0564     2.4670     0.0467
 1445.5000     8.9887    73.2214     0.0614     2.4629     0.0516
 1446.0000     8.9152    72.6030     0.0665     2.4644     0.0523
 1446.5000     8.8645    72.3056     0.0712     2.4501     0.0548
 1447.0000     8.9225    72.3541     0.0802     2.4441     0.0641
 1447.5000     8.9690    72.4007     0.0885     2.4682     0.0664
 1448.0000     8.9413    72.4484     0.1072     2.4882     0.0400
 1448.5000     8.9040    72.4958     0.1295     2.4888     0.0330
 1449.0000     8.8670    72.5447     0.1210     2.4794     0.0395
 1449.5000     8.8386    72.5955     0.1090     2.4820     0.0415
 1450.0000     9.0299    72.2461     0.1063     2.4750     0.0395
 1450.5000     9.3149    71.8658     0.1117     2.4917     0.0395
 1451.0000     9.2521    71.4817     0.1348     2.5180     0.0281
 1451.5000     9.0934    71.0904     0.1645     2.5416     0.0272
 1452.0000     8.9363    71.2954     0.1908     2.5159     0.0265
 1452.5000     8.9032    71.6086     0.1789     2.5050     0.0248
 1453.0000     8.9082    71.5358     0.1663     2.5073     0.0223
 1453.5000     8.8501    71.0958     0.1770     2.5001     0.0248
 1454.0000     8.9445    70.6494     0.1714     2.4795     0.0361
 1454.5000     8.7970    70.1362     0.1401     2.4579     0.0511
 1455.0000     8.8229    70.9047     0.1103     2.4369     0.0633
 1455.5000     8.8833    71.8700     0.0946     2.4450     0.0713
 1456.0000     9.0186    72.8407     0.1052     2.4493     0.0639
 1456.5000     9.1901    73.7417     0.1164     2.4676     0.0584
 1457.0000     9.2738    73.0465     0.1315     2.4909     0.0415
 1457.5000     9.1928    72.2665     0.1460     2.4948     0.0278
 1458.0000     9.0347    72.3087     0.1671     2.4605     0.0450
 1458.5000     8.9462    72.8225     0.0778     2.4605     0.0548
 1459.0000     8.8427    72.3786     0.0601     2.4625     0.0508
 1459.5000     8.8578    71.8577     0.0494     2.4643     0.0528
 1460.0000     8.9347    71.6823     0.0431     2.4673     0.0491
 1460.5000     9.0073    71.6795     0.0345     2.4752     0.0508
 1461.0000     9.0218    71.6798     0.0424     2.4827     0.0427
 1461.5000     9.0285    71.6804     0.0496     2.4801     0.0350
 1462.0000     9.0270    71.6784     0.0452     2.4616     0.0407
 1462.5000     9.0032    71.6439     0.0291     2.4400     0.0633
 1463.0000     8.9799    71.6098     0.0190     2.4339     0.0657
 1463.5000     8.9631    71.5760     0.0115     2.4451     0.0648
 1464.0000     8.9495    71.5423     0.0217     2.4499     0.0599
 1464.5000     8.9318    71.5085     0.0324     2.4441     0.0629
 1465.0000     8.9634    71.4752     0.0354     2.4722     0.0521
 1465.5000     8.9954    71.4440     0.0393     2.4748     0.0422
 1466.0000     9.0268    71.4052     0.0537     2.4658     0.0456
 1466.5000     9.0338    71.1286     0.0377     2.4359     0.0615
 1467.0000     8.9874    69.7951     0.0268     2.4263     0.0744
 1467.5000     8.9557    68.4418     0.0287     2.4358     0.0759
 1468.0000     8.8842    67.0966     0.0349     2.4418     0.0689
 1468.5000     8.9498    66.2619     0.0424     2.4495     0.0632
 1469.0000     9.0306    67.3075     0.0514     2.4629     0.0548
 1469.5000     9.1130    68.3936     0.0634     2.4780     0.0480
 1470.0000     9.1025    69.2866     0.0750     2.4678     0.0427
 1470.5000     9.0271    69.1876     0.0698     2.4518     0.0604
 1471.0000     8.9514    68.9808     0.0633     2.4754     0.0592
 1471.5000     8.9521    68.7791     0.0606     2.4836     0.0386
 1472.0000     8.9645    68.6609     0.0570     2.4797     0.0435
 1472.5000     8.9765  -999.2500     0.0608     2.4935     0.0354
 1473.0000     8.9885  -999.2500     0.0667     2.4921     0.0278
 1473.5000     9.0004  -999.2500     0.0708     2.4554     0.0444
 1474.0000     9.0123  -999.2500     0.0605     2.4749     0.0608
 1474.5000     9.0245  -999.2500     0.0509     2.4594     0.0471
 1475.0000     9.0238  -999.2500     0.0473     2.4543     0.0562
 1475.5000     9.0176  -999.2500     0.0510     2.4594     0.0587
 1476.0000     9.0113  -999.2500     0.0545     2.4667     0.0488
 1476.5000     9.0049  -999.2500     0.0423     2.4644     0.0544
 1477.0000     8.9986  -999.2500     0.0424     2.4639     0.0494
 1477.5000     8.9924  -999.2500     0.0496     2.4539     0.0536
 1478.0000     8.9919  -999.2500     0.0535     2.4483     0.0644
 1478.5000     9.0054  -999.2500     0.0549     2.4361     0.0710
 1479.0000     9.0186  -999.2500     0.0430     2.4141     0.0788
 1479.5000     9.0318  -999.2500     0.0311     2.4092     0.0871
 1480.0000     9.0453  -999.2500     0.0199     2.4153     0.0869
 1480.5000     9.0360  -999.2500     0.0097     2.4263     0.0777
 1481.0000     9.0002  -999.2500     0.0063     2.4310     0.0713
 1481.5000     8.9648  -999.2500     0.0126     2.4298     0.0782
