~VERSION INFORMATION
 VERS.                2.0:   CWLS LOG ASCII STANDARD - VERSION 2.0
 WRAP.                 NO:   ONE LINE PER DEPTH STEP
~WELL INFORMATION
#MNEM.UNIT      DATA TYPE    INFORMATION
#----------   ------------   ------------------------------
 STRT.F         1304.0000:   START DEPTH
 STOP.F         2900.0000:   STOP DEPTH
 STEP.F            0.5000:   STEP LENGTH
 NULL.          -999.2500:   NO VALUE
 COMP.   FLUOR DANIEL INC:   COMPANY
 WELL. NAVAL PETROLEUM RESERVE 3 SHX- #18-14:   WELL
 FLD .             TEAPOT:   FIELD
 LOC .      S14 T38N R78W:   LOCATION
 CNTY.            NATRONA:   COUNTY
 STAT.            WYOMING:   STATE
 CTRY. UNITED STATES OF AMERICA:   COUNTRY
 SRVC.            Unknown:   SERVICE COMPANY
 DATE.        17-APR-1995:   LOGDATE
 API .       490252270800:   API NUMBER
~CURVE INFORMATION
#MNEM.UNIT       API CODE    CURVE DESCRIPTION
#----------   ------------   ------------------------------
 DEPT.F                  :   
 ROP .FT/HR  91 810 01 00:   RAT OF DRILLING PENETRATION
 TGAS.TC/CC  91 830 01 00:   TOTAL GAS UNIT
~PARAMETER INFORMATION
#MNEM.UNIT          VALUE    DESCRIPTION
#----------   ------------   ------------------------------
 EKB .F              5271:   KELLING BUSHING
 EGL .F              5281:   GROUND LEVEL
 DATE.        17-APR-1995:   RUN DATE
 RUN .                  1:   RUN NUMBER
 BLI .F              2900:   BOTTOM LOG INTERVAL
 TLI .F              1310:   TOP LOG INTERVAL
 WITN.     C.TOWER/R.HUSK:   WITNESSED BY
 CLNT.            A2DTECH:   CLIENT CODE
 ORIG.           5" PRINT:   ORIGIN OF DATA
 UWI .       490252270800:   UNIQUE WELL ID
 DICO. A2D Technologies, Inc.:   DIGITIZING COMPANY
~OTHER INFORMATION
~A  DEPT         ROP     TGAS   
# ...
 2519.0000     0.7873    39.7660
 2519.5000     0.7895    39.5811
 2520.0000     0.7918    39.3960
 2520.5000     1.0002    39.2110
 2521.0000     1.0017    39.2156
 2521.5000     1.0031    39.4079
 2522.0000     1.0046    39.4116
 2522.5000     1.0060    39.4153
 2523.0000     1.0074    39.2303
 2523.5000     1.0089    39.2340
 2524.0000     0.9263    39.0489
 2524.5000     0.5309    39.2422
 2525.0000     0.5310    39.2459
 2525.5000     0.5311    39.2496
 2526.0000     0.5312    39.6306
 2526.5000     0.5313    39.2569
 2527.0000     0.5314    39.1496
 2527.5000     0.5315    39.1572
 2528.0000     0.5316    39.2679
 2528.5000     0.5317    39.2717
 2529.0000     0.5318    39.2762
 2529.5000     0.5319    39.2799
 2530.0000     0.5320    39.2877
 2530.5000     0.5320    39.6646
 2531.0000     0.5321    39.6683
 2531.5000     0.5322    39.4824
 2532.0000     0.5323    39.4869
 2532.5000     0.5324    39.4906
 2533.0000     0.5325    39.3056
 2533.5000     0.5326    39.3094
 2534.0000     0.5327    39.1243
 2534.5000     0.5328    39.3176
 2535.0000     0.5329    39.3212
 2535.5000     0.5330    39.3249
 2536.0000     0.5331    39.1390
 2536.5000     0.5332    39.3321
 2537.0000     0.5333    39.3358
 2537.5000     0.5334    39.3396
 2538.0000     0.5335    39.3434
 2538.5000     0.5336    39.3479
 2539.0000     0.5336    39.1620
 2539.5000     0.5337    38.9770
 2540.0000     0.5338    38.6033
 2540.5000     0.5339    38.4183
 2541.0000     0.5340    38.2333
 2541.5000     0.5341    38.2379
 2542.0000     0.5342    38.2415
 2542.5000     0.7794    38.2453
 2543.0000     0.7820    38.2491
 2543.5000     0.7846    38.2535
 2544.0000     0.7872    38.0676
 2544.5000     0.6379    38.1183
 2545.0000     0.6354    38.2645
 2545.5000     0.6329    38.2682
 2546.0000     0.6304    38.2719
 2546.5000     0.6279    38.2755
 2547.0000     0.6254    38.2792
 2547.5000     0.6229    38.2830
 2548.0000     0.6199    38.4762
 2548.5000     0.7894    38.6685
 2549.0000     0.7909    38.6722
 2549.5000     0.7924    39.0532
 2550.0000     0.7939    39.0332
 2550.5000     0.7954    38.8930
 2551.0000     0.7969    38.7527
 2551.5000     0.7983    38.6125
 2552.0000     0.7998    38.4723
 2552.5000     0.9889    38.3321
 2553.0000     0.9907    38.1918
 2553.5000     0.9925    37.8981
 2554.0000     0.9943    37.8943
 2554.5000     0.9961    37.8899
 2555.0000     0.9979    38.0758
 2555.5000     0.9997    37.8825
 2556.0000     0.6813    37.8789
 2556.5000     0.6816    37.8752
 2557.0000     0.6820    38.0611
 2557.5000     0.6823    38.0565
 2558.0000     0.6827    38.0528
 2558.5000     0.6831    38.0491
 2559.0000     0.6835    37.8559
 2559.5000     0.6838    37.8522
 2560.0000     0.6842    37.8485
 2560.5000     0.6846    37.8453
 2561.0000     0.6850    37.8415
 2561.5000     0.6853    37.8375
 2562.0000     0.6857    38.0234
 2562.5000     0.6861    38.0189
 2563.0000     0.6865    38.0151
 2563.5000     0.6868    38.0113
 2564.0000     0.6872    38.1955
 2564.5000     0.6876    38.1925
 2565.0000     0.6880    38.1882
 2565.5000     0.6883    38.1845
 2566.0000     0.6887    38.1808
 2566.5000     0.6891    37.9884
 2567.0000     0.6895    37.7961
 2567.5000     0.6899    37.6037
 2568.0000     0.8030    37.5951
 2568.5000     0.8034    37.4075
 2569.0000     0.8038    37.4031
 2569.5000     0.8041    37.4000
 2570.0000     1.0019    37.3962
 2570.5000     1.0001    37.5807
 2571.0000     0.9980    37.5771
 2571.5000     0.9960    37.5736
 2572.0000     0.9462    37.5697
 2572.5000     0.5620    37.5660
 2573.0000     0.5624    37.7510
 2573.5000     0.5628    37.7472
 2574.0000     0.5632    37.7427
 2574.5000     0.5635    37.7391
 2575.0000     0.5639    37.5467
 2575.5000     0.5643    37.5430
 2576.0000     0.6963    37.5394
 2576.5000     0.6945    37.3472
 2577.0000     0.6924    37.3434
 2577.5000     0.6904    37.3396
 2578.0000     0.6883    37.3358
 2578.5000     0.6862    37.5978
 2579.0000     0.6842    37.7057
 2579.5000     0.6821    37.7014
 2580.0000     0.6801    37.6977
 2580.5000     0.6780    37.6943
 2581.0000     0.6760    37.6906
 2581.5000     0.6739    37.6866
 2582.0000     0.8136    37.6830
 2582.5000     0.8158    37.6792
 2583.0000     0.8185    37.6755
 2583.5000     0.8213    37.6710
 2584.0000     0.8245    37.6673
 2584.5000     1.0128    37.6637
 2585.0000     1.0132    37.4713
 2585.5000     1.0135    37.2789
 2586.0000     1.0139    37.0138
 2586.5000     1.0143    36.8943
 2587.0000     1.0147    36.8905
 2587.5000     1.0150    36.6979
 2588.0000     1.0154    36.6943
 2588.5000     0.5556    36.6906
 2589.0000     0.5566    36.8090
 2589.5000     0.5576    36.8722
 2590.0000     0.5586    36.8679
 2590.5000     0.5596    36.8639
 2591.0000     0.5606    36.8602
 2591.5000     0.5615    36.8566
 2592.0000     0.5625    36.8528
 2592.5000     0.5635    36.9544
 2593.0000     0.5645    37.1386
 2593.5000     0.5655    37.2192
 2594.0000     0.5665    37.4032
 2594.5000     0.5675    37.4000
 2595.0000     0.5685    37.3962
 2595.5000     0.5695    37.3924
 2596.0000     0.6457    37.3885
 2596.5000     0.6482    37.3849
 2597.0000     0.6508    37.5699
 2597.5000     0.6533    37.3774
 2598.0000     0.6559    37.3729
 2598.5000     0.6565    37.3692
 2599.0000     0.6566    37.3655
 2599.5000     0.6566    37.3619
 2600.0000     0.6567    37.3591
 2600.5000     0.6567    37.3976
 2601.0000     0.6568    37.4308
 2601.5000     0.6568    37.4639
 2602.0000     0.6569    37.4971
 2602.5000     0.6569    37.5302
 2603.0000     0.6570    37.5587
 2603.5000     0.6571    37.3714
 2604.0000     0.6571    37.1849
 2604.5000     0.6572    37.1868
 2605.0000     0.6572    37.3774
 2605.5000     0.6573    37.1577
 2606.0000     0.6573    37.1928
 2606.5000     0.6574    37.1946
 2607.0000     0.6574    37.1965
 2607.5000     0.6575    37.1983
 2608.0000     0.6575    37.2001
 2608.5000     0.6576    37.2020
 2609.0000     0.6576    37.2038
 2609.5000     0.6577    37.2057
 2610.0000     0.6577    37.0189
 2610.5000     0.6578    36.8320
 2611.0000     0.6578    37.0229
 2611.5000     0.6579    37.0248
 2612.0000     0.6575    37.2153
 2612.5000     0.6571    37.2171
 2613.0000     0.6567    37.2190
 2613.5000     0.6564    37.2208
 2614.0000     0.6560    37.2226
 2614.5000     0.6556    37.2245
 2615.0000     0.6552    37.2268
 2615.5000     0.6549    36.8508
 2616.0000     0.6545    36.8531
 2616.5000     0.6541    36.8549
 2617.0000     0.6537    36.8568
 2617.5000     0.6534    36.8586
 2618.0000     0.6530    37.0491
 2618.5000     0.6526    37.1403
 2619.0000     0.6523    37.2415
 2619.5000     0.6519    37.2435
 2620.0000     0.6515    37.2456
 2620.5000     0.6511    37.2475
 2621.0000     0.6508    37.2493
 2621.5000     0.6504    37.2511
 2622.0000     0.6500    37.4417
 2622.5000     0.6496    37.4435
 2623.0000     0.6493    37.4453
 2623.5000     0.6489    37.2585
 2624.0000     0.6485    37.2604
 2624.5000     0.6496    37.2626
 2625.0000     0.6509    36.8866
 2625.5000     0.6522    37.0776
 2626.0000     0.6535    37.2681
 2626.5000     0.6547    37.2700
 2627.0000     0.6560    37.0831
 2627.5000     0.6573    36.8963
 2628.0000     0.8271    36.8981
 2628.5000     0.8271    36.7113
 2629.0000     0.8271    36.7132
 2629.5000     0.8271    36.5267
 2630.0000     0.8271    36.5286
 2630.5000     0.8271    36.5304
 2631.0000     0.8271    36.3431
 2631.5000     0.8271    36.3454
 2632.0000     1.0150    36.1585
 2632.5000     1.0158    35.9717
 2633.0000     1.0166    35.7773
 2633.5000     1.0174    35.2207
 2634.0000     1.0182    35.0338
 2634.5000     1.0190    35.0361
 2635.0000     1.0198    35.0380
 2635.5000     1.0206    35.0398
 2636.0000     1.0214    34.8525
 2636.5000     1.0222    34.6657
 2637.0000     1.0230    34.4793
 2637.5000     1.0238    34.2925
 2638.0000     0.8721    33.9169
 2638.5000     0.6579    33.9192
 2639.0000     0.6579    33.7319
 2639.5000     0.6579    33.5050
 2640.0000     0.6579    33.1696
