~VERSION INFORMATION
 VERS.                2.0:   CWLS LOG ASCII STANDARD - VERSION 2.0
 WRAP.                 NO:   ONE LINE PER DEPTH STEP
~WELL INFORMATION
#MNEM.UNIT      DATA TYPE    INFORMATION
#----------   ------------   ------------------------------
 STRT.F            8.0000:   START DEPTH
 STOP.F          970.0000:   STOP DEPTH
 STEP.F            0.1000:   STEP LENGTH
 NULL.          -999.2500:   NO VALUE
 COMP.       F D SERV INC:   COMPANY
 WELL. N P R 3 STX-35 #15-35:   WELL
 FLD .             TEAPOT:   FIELD
 LOC .      S35 T39N R78W:   LOCATION
 CNTY.            NATRONA:   COUNTY
 STAT.            WYOMING:   STATE
 CTRY. UNITED STATES OF AMERICA:   COUNTRY
 SRVC.     Atlas Wireline:   SERVICE COMPANY
 DATE.        02-FEB-1992:   LOGDATE
 API .       490252250100:   API NUMBER
~CURVE INFORMATION
#MNEM.UNIT       API CODE    CURVE DESCRIPTION
#----------   ------------   ------------------------------
 DEPT.F                  :   
 GRR .GAPI   07 310 01 00:   GAMMA RAY
 RILD.OHMM   07 120 46 00:   INDUCTION LOG DEEP RESISTIVITY
 RILM.OHMM   07 120 44 00:   INDUCTION LOG MEDIUM RESISTIVITY
~PARAMETER INFORMATION
#MNEM.UNIT          VALUE    DESCRIPTION
#----------   ------------   ------------------------------
 PD  .                 GL:   PERMANENT DATUM
 EPD .F              5084:   ELEVATION PERMANENT DATUM
 LMF .                 KB:   LOG MEASURED FROM
 DAPD.F                10:   FEET ABOVE PERMANENT DATUM
 DMF .                 KB:   DRILLING MEASURED FROM
 EKB .F              5094:   KELLING BUSHING
 EDF .F              5093:   DRILLING FLOOR
 EGL .F              5084:   GROUND LEVEL
 DATE.        02-FEB-1982:   RUN DATE
 RUN .                  1:   RUN NUMBER
 DD  .F               980:   DEPTH DRILLER
 CS  .IN            8.625:   CASING SIZE
 BSD .F               980:   BIT SIZE AT DEPTH
 DFT .                AIR:   DRILLING FLUID TYPE
 LUN .            HL-6272:   LOGGING UNIT NUMBER
 LUL .             CASPER:   LOGGING UNIT LOCATION
 ENGI.       R. RASMLSSEN:   RECORDING ENGINEER
 WITN.          G. STRONG:   WITNESSED BY
 CLNT.            A2DTECH:   CLIENT CODE
 ORIG.           5" PRINT:   ORIGIN OF DATA
 UWI .       490252250100:   UNIQUE WELL ID
 DICO. A2D Technologies, Inc.:   DIGITIZING COMPANY
~OTHER INFORMATION
~A    DEPT      GRR      RILD       RILM   
# ...
  790.6000    97.2028    11.5838    11.1883
  790.7000    96.9521    11.5835    11.1889
  790.8000    96.8024    11.5833    11.1895
  790.9000    96.7538    11.5829    11.1903
  791.0000    96.5030    11.5826    11.1908
  791.1000    96.2022    11.5823    11.1914
  791.2000    96.0018    11.5819    11.1921
  791.3000    95.7510    11.5816    11.1927
  791.4000    95.5002    11.5897    11.1933
  791.5000    95.3505    11.6617    11.1940
  791.6000    95.6050    11.6614    11.1945
  791.7000    95.9101    11.6611    11.1951
  791.8000    96.5175    11.6607    11.1958
  791.9000    97.5797    11.6604    11.1964
  792.0000    98.8442    11.6698    11.1970
  792.1000   100.0078    11.7410    11.1977
  792.2000   100.7673    11.7407    11.2559
  792.3000   101.2741    11.7403    11.2768
  792.4000   101.9830    11.7400    11.2774
  792.5000   102.7424    11.7397    11.2781
  792.6000   103.6029    11.7393    11.2787
  792.7000   104.5138    11.7390    11.2794
  792.8000   105.0207    11.7388    11.2799
  792.9000   105.9319    11.7911    11.2806
  793.0000   105.9334    11.8199    11.2812
  793.1000   105.7836    11.8196    11.2818
  793.2000   105.6339    11.8192    11.2825
  793.3000   105.5349    11.8189    11.2831
  793.4000   105.0315    11.8186    11.2837
  793.5000   104.7809    11.8182    11.2843
  793.6000   104.3282    11.8179    11.3206
  793.7000   103.8249    11.8176    11.3641
  793.8000   103.3216    11.8172    11.3648
  793.9000   102.8184    11.8169    11.3654
  794.0000   102.3152    11.8166    11.3660
  794.1000   102.0143    11.8163    11.3666
  794.2000   101.6117    11.8160    11.3673
  794.3000   101.2600    11.8157    11.3679
  794.4000   101.1103    11.8305    11.3685
  794.5000   101.0616    11.8973    11.3692
  794.6000   100.8109    11.8969    11.3698
  794.7000   100.8131    11.8966    11.3704
  794.8000   100.8146    11.8963    11.3710
  794.9000   100.9678    11.8960    11.3978
  795.0000   101.1212    11.8957    11.4514
  795.1000   101.1735    11.8954    11.4521
  795.2000   101.4279    11.8950    11.4529
  795.3000   101.9347    11.8947    11.4534
  795.4000   102.2396    11.8944    11.4949
  795.5000   102.6454    11.9255    11.5344
  795.6000   103.0513    11.9766    11.5501
  795.7000   103.2552    11.9763    11.6159
  795.8000   103.2570    11.9759    11.6167
  795.9000   103.2591    12.0361    11.6736
  796.0000   103.2606    12.0588    11.7421
  796.1000   103.1108    12.0584    11.7808
  796.2000   102.8602    12.0581    11.7815
  796.3000   102.6095    12.0577    11.7857
  796.4000   102.3588    12.0573    11.8649
  796.5000   101.8557    12.1192    11.8654
  796.6000   101.5544    12.1408    11.8660
  796.7000   101.3037    12.1404    11.8667
  796.8000   101.0530    12.1401    11.8674
  796.9000   100.8524    12.1398    11.8681
  797.0000   100.8545    12.1394    11.8688
  797.1000   100.8567    12.1391    11.8694
  797.2000   100.6561    12.1388    11.8701
  797.3000   100.4054    12.1384    11.8707
  797.4000   100.2557    12.1381    11.8713
  797.5000   100.2576    12.1378    11.8720
  797.6000   100.2594    12.1374    11.8727
  797.7000    99.9585    12.1371    11.8733
  797.8000   100.1620    12.1367    11.8740
  797.9000   100.5678    12.1363    11.8746
  798.0000   101.0746    12.1360    11.8974
  798.1000   101.6824    12.1357    11.9586
  798.2000   102.6945    12.1353    11.9593
  798.3000   103.6058    12.1350    11.9599
  798.4000   104.2136    12.1347    11.9606
  798.5000   104.6697    12.1343    11.9613
  798.6000   104.8230    12.1340    11.9619
  798.7000   104.8249    12.1336    11.9626
  798.8000   104.8267    12.1333    11.9633
  798.9000   104.5258    12.1330    11.9639
  799.0000   103.9210    12.1326    11.9646
  799.1000   103.3168    12.1323    11.9264
  799.2000   102.8137    12.1320    11.8832
  799.3000   102.2097    12.1316    11.8839
  799.4000   101.2012    12.1313    11.8845
  799.5000   100.1932    12.1310    11.8852
  799.6000    99.1848    12.1306    11.8322
  799.7000    98.3275    12.1303    11.7644
  799.8000    97.6727    12.1300    11.6970
  799.9000    97.1194    12.1296    11.6299
  800.0000    96.3636    12.1293    11.5632
  800.1000    96.1174    12.1182    11.5640
  800.2000    95.4774    12.1070    11.5648
  800.3000    95.1624    12.0959    11.5656
  800.4000    95.2566    12.0847    11.5664
  800.5000    95.6227    12.0736    11.5028
  800.6000    96.6887    12.0624    11.5388
  800.7000    98.3306    12.0513    11.5688
  800.8000    99.9029    12.0440    11.5696
  800.9000   101.6619    12.0439    11.5609
  801.0000   103.6648    12.0437    11.4913
  801.1000   105.6465    12.0435    11.4921
  801.2000   107.6199    12.0433    11.4928
  801.3000   108.9329    12.0431    11.4936
  801.4000   110.1059    12.0429    11.4945
  801.5000   111.2215    12.0428    11.4953
  801.6000   112.4153    12.0426    11.4961
  801.7000   113.4134    12.0424    11.4968
  801.8000   114.3086    12.0423    11.4976
  801.9000   114.3115    12.0421    11.4667
  802.0000   114.0162    12.0420    11.4197
  802.1000   113.6165    12.0418    11.4205
  802.2000   113.4127    12.0416    11.4214
  802.3000   113.4171    12.0415    11.3661
  802.4000   113.1805    12.0413    11.3440
  802.5000   112.9342    12.0411    11.3160
  802.6000   112.6879    12.0234    11.2671
  802.7000   112.4417    11.9575    11.2679
  802.8000   112.2226    11.9573    11.2688
  802.9000   112.2270    11.9572    11.2695
  803.0000   112.4544    11.9570    11.2308
  803.1000   112.8791    11.9274    11.1931
  803.2000   113.2648    11.8739    11.1939
  803.3000   113.5833    11.8737    11.1947
  803.4000   114.0864    11.8735    11.1321
  803.5000   114.6733    11.8734    11.0692
  803.6000   114.8849    11.8322    11.0428
  803.7000   115.2936    11.7908    11.0436
  803.8000   115.5927    11.7907    11.0343
  803.9000   115.6454    11.7905    10.9688
  804.0000   115.9031    11.7240    10.9695
  804.1000   115.6609    11.7086    10.9703
  804.2000   115.6073    11.7084    10.9710
  804.3000   115.3316    11.6840    10.9512
  804.4000   114.9221    11.6271    10.8966
  804.5000   114.6758    11.6269    10.8975
  804.6000   114.4100    11.6267    10.8982
  804.7000   113.9531    11.6266    10.8990
  804.8000   113.6340    11.5908    10.8998
  804.9000   113.2640    11.5457    10.9005
  805.0000   112.7677    11.5456    10.9013
  805.1000   112.2892    11.5455    10.9021
  805.2000   112.0078    11.5453    10.9028
  805.3000   112.0109    11.5452    10.9035
  805.4000   112.0145    11.5450    10.9042
  805.5000   112.1262    11.5449    10.9050
  805.6000   112.4898    11.5389    10.9057
  805.7000   113.2393    11.4646    10.9067
  805.8000   113.4930    11.4680    10.9073
  805.9000   113.9452    11.4719    10.9081
  806.0000   114.3030    11.4758    10.9088
  806.1000   114.4642    11.4797    10.9096
  806.2000   114.5070    11.4836    10.9103
  806.3000   114.7747    11.4875    10.9110
  806.4000   114.7782    11.4914    10.9118
  806.5000   114.7819    11.4953    10.9126
  806.6000   114.7855    11.4992    10.9373
  806.7000   114.7891    11.5030    10.9900
  806.8000   114.7927    11.5069    10.9908
  806.9000   114.7968    11.5108    10.9916
  807.0000   114.8000    11.5147    10.9924
  807.1000   114.6365    11.5186    10.9931
  807.2000   114.2762    11.5225    10.9939
  807.3000   113.8408    11.5264    10.9946
  807.4000   113.5947    11.5303    10.9954
  807.5000   113.3037    11.5342    10.9962
  807.6000   113.1024    11.5381    10.9969
  807.7000   112.7048    11.5413    11.0300
  807.8000   112.2085    11.5411    11.0750
  807.9000   111.7125    11.5409    11.0758
  808.0000   111.2001    11.5408    11.0766
  808.1000   110.7200    11.5407    11.0773
  808.2000   110.2238    11.5405    11.0781
  808.3000   109.7276    11.5314    11.0789
  808.4000   109.2315    11.4603    11.0796
  808.5000   108.7647    11.4601    11.0803
  808.6000   108.4949    11.4600    11.0813
  808.7000   108.0460    11.4598    11.0819
