~VERSION INFORMATION
 VERS.                2.0:   CWLS LOG ASCII STANDARD - VERSION 2.0
 WRAP.                 NO:   ONE LINE PER DEPTH STEP
~WELL INFORMATION
#MNEM.UNIT      DATA TYPE    INFORMATION
#----------   ------------   ------------------------------
 STRT.F           27.0000:   START DEPTH
 STOP.F          992.0000:   STOP DEPTH
 STEP.F            0.5000:   STEP LENGTH
 NULL.          -999.2500:   NO VALUE
 COMP. FENIX & SCISSON INC:   COMPANY
 WELL. NPR 3  77- S -27 #77-27:   WELL
 FLD .             TEAPOT:   FIELD
 LOC .      S27 T39N R78W:   LOCATION
 CNTY.            NATRONA:   COUNTY
 STAT.            WYOMING:   STATE
 CTRY. UNITED STATES OF AMERICA:   COUNTRY
 SRVC.            Unknown:   SERVICE COMPANY
 DATE.        09-SEP-1978:   LOGDATE
 API .       490251069700:   API NUMBER
~CURVE INFORMATION
#MNEM.UNIT       API CODE    CURVE DESCRIPTION
#----------   ------------   ------------------------------
 DEPT.F                  :   
 SPR .MV     05 010 01 00:   SPONTANEOUS POTENTIAL FROM RES.
 SN  .OHMM   05 040 16 00:   SHORT NORMAL 16"
 ILD .OHMM   05 120 46 00:   INDUCTION LOG DEEP
 CALD.IN     45 280 60 00:   CALIPER
 GRD .GAPI   45 310 01 00:   GAMMA RAY FROM DENSITY LOG
 RHOB.G/C3   45 350 01 00:   BULK DENSITY
 CORR.G/C3   45 356 01 00:   DENSITY CORRECTION
 DPHI.DEC    45 890 12 00:   DENSITY POROSITY SANDSTONE
~PARAMETER INFORMATION
#MNEM.UNIT          VALUE    DESCRIPTION
#----------   ------------   ------------------------------
 PD  .                 GL:   PERMANENT DATUM
 EPD .F              5069:   ELEVATION PERMANENT DATUM
 LMF .                 KB:   LOG MEASURED FROM
 DAPD.F                 4:   FEET ABOVE PERMANENT DATUM
 DMF .                 KB:   DRILLING MEASURED FROM
 EKB .F              5073:   KELLING BUSHING
 EGL .F              5069:   GROUND LEVEL
 DATE.           9-9-1978:   RUN DATE
 RUN .                  1:   RUN NUMBER
 DD  .F               990:   DEPTH DRILLER
 DL  .F               998:   DEPTH LOGGER
 BLI .F               992:   BOTTOM LOG INTERVAL
 TLI .F                50:   TOP LOG INTERVAL
 CS  .IN            8.625:   CASING SIZE
 CBD .F                40:   CASING BOTTOM DRILLER
 BS  .IN            7.875:   BIT SIZE
 BSD .F               990:   BIT SIZE AT DEPTH
 DFT .                KCL:   DRILLING FLUID TYPE
 DFD .                8.7:   DRILLING FLUID DENSITY
 DFV .                 34:   DRILLING FLUID VISCOSITY
 DFPH.                  9:   DRILLING FLUID PH
 DFL .                  8:   DRILLING FLUID LOSS
 MSS .          FLOW LINE:   MUD SAMPLE SOURCE
 RMS .OHMM             .4:   RESISTIVITY MUD SAMPLE
 MST .F                79:   MUD SAMPLE TEMPERATURE
 RMF .OHMM            .12:   RESISTIVITY MUD FILTRATE SAMPLE
 MFST.F                84:   MUD FILTRATE SAMPLE TEMPERATURE
 RMC .OHMM            .34:   RESISTIVITY MUD CAKE
 MCST.F                84:   MUD CAKE SAMPLE TEMPERATURE
 MFSS.               MEAS:   MUD FILTRATE SAMPLE SOURCE
 MCSS.               MEAS:   MUD CAKE SAMPLE SOURCE
 TCS .HRS               3:   TIME CURCULATED STOPPED
 LUN .               2958:   LOGGING UNIT NUMBER
 LUL .               CASP:   LOGGING UNIT LOCATION
 ENGI.             MILLER:   RECORDING ENGINEER
 WITN.              AMEND:   WITNESSED BY
 CLNT.            A2DTECH:   CLIENT CODE
 ORIG.           5" PRINT:   ORIGIN OF DATA
 UWI .       490251069700:   UNIQUE WELL ID
 DICO. A2D Technologies, Inc.:   DIGITIZING COMPANY
~OTHER INFORMATION
~A   DEPT      SPR         SN        ILD       CALD        GRD       RHOB       CORR       DPHI   
# ...
  148.5000   -64.3248     6.9958     7.8405     7.7663   120.2875     2.5127     0.0019     0.1199
  149.0000   -64.3186     6.8830     7.7430     7.7698   117.2881     2.4951     0.0018     0.1320
  149.5000   -64.3161     6.7718     7.6466     7.7732   114.2631     2.4774     0.0024     0.1332
  150.0000   -64.3249     6.6540     7.5514     7.7767   111.1056     2.4596     0.0030     0.1332
  150.5000   -64.3332     6.6280     7.4575     7.7801   110.9934     2.4570     0.0036     0.1306
  151.0000   -64.3416     6.6014     7.4307     7.7836   116.7441     2.4580     0.0042     0.1277
  151.5000   -64.3499     6.5745     7.4307     7.7870   121.9937     2.4619     0.0049     0.1249
  152.0000   -64.3583     6.5475     7.4309     7.7905   126.9295     2.4676     0.0055     0.1220
  152.5000   -64.3666     6.5207     7.4307     7.7939   126.8291     2.4731     0.0046     0.1212
  153.0000   -64.3750     6.4940     7.3490     7.7974   125.6539     2.4771     0.0036     0.1230
  153.5000   -64.3833     6.4603     7.2641     7.8008   123.7162     2.4771     0.0026     0.1252
  154.0000   -64.3917     6.3920     7.1801     7.8043   121.9812     2.4751     0.0016     0.1294
  154.5000   -64.4000     6.3244     7.0971     7.8078   122.7180     2.4669     0.0006     0.1340
  155.0000   -64.4084     6.2575     7.0150     7.8113   125.0077     2.4582    -0.0004     0.1380
  155.5000   -64.4167     6.1913     6.9339     7.8151   127.3326     2.4489    -0.0014     0.1368
  156.0000   -64.4251     6.1259     6.8538     7.8006   128.5257     2.4471    -0.0025     0.1376
  156.5000   -64.4334     6.0611     6.7769     7.7801   127.7929     2.4471    -0.0023     0.1423
  157.0000   -64.4418     6.0121     6.7520     7.7594   126.2059     2.4441    -0.0021     0.1448
  157.5000   -64.4501     6.0304     6.7278     7.7387   124.8192     2.4385    -0.0018     0.1452
  158.0000   -64.4585     6.0452     6.7039     7.7180   126.0476     2.4361    -0.0016     0.1408
  158.5000   -64.4668     6.0606     6.6797     7.6971   127.4614     2.4385    -0.0013     0.1362
  159.0000   -64.4752     6.0674     6.6570     7.6764   128.9079     2.4455    -0.0011     0.1324
  159.5000   -64.4835     5.9702     6.5672     7.6861   129.3862     2.4524    -0.0009     0.1316
  160.0000   -64.4919     5.9046     6.4720     7.7201   128.1580     2.4590    -0.0006     0.1320
  160.5000   -64.5002     5.8399     6.3775     7.7536   126.1293     2.4591    -0.0004     0.1365
  161.0000   -64.5085     5.7759     6.2845     7.7871   124.1137     2.4548    -0.0002     0.1419
  161.5000   -64.5107     5.7126     6.1929     7.8210   124.2311     2.4420     0.0001     0.1472
  162.0000   -64.5060     5.6497     6.1026     7.8530   125.8109     2.4291     0.0003     0.1520
  162.5000   -64.5013     5.5851     6.0136     7.8746   127.3751     2.4234     0.0005     0.1514
  163.0000   -64.4966     5.5778     5.9555     7.8537   127.3019     2.4248     0.0008     0.1488
  163.5000   -64.4920     5.5702     5.9512     7.8346   125.8835     2.4288     0.0010     0.1462
  164.0000   -64.4873     5.5626     5.9468     7.8154   123.5362     2.4327     0.0012     0.1436
  164.5000   -64.4826     5.5550     5.9425     7.7962   121.1233     2.4366     0.0015     0.1410
  165.0000   -64.4779     5.5473     5.9382     7.8039   120.7677     2.4405     0.0012     0.1384
  165.5000   -64.4732     5.5398     5.9339     7.8152   121.8516     2.4444     0.0009     0.1370
  166.0000   -64.4685     5.5345     5.9296     7.8264   123.6535     2.4467     0.0006     0.1398
  166.5000   -64.4639     5.5638     5.9253     7.8359   124.8423     2.4447     0.0003     0.1425
  167.0000   -64.4592     5.5885     5.9210     7.8357   124.6312     2.4380     0.0000     0.1453
  167.5000   -64.4545     5.6133     5.9167     7.8357   123.9284     2.4363    -0.0003     0.1480
  168.0000   -64.4498     5.6368     5.9123     7.8357   123.0525     2.4355    -0.0005     0.1508
  168.5000   -64.4451     5.5942     5.9083     7.8357   122.1773     2.4284    -0.0005     0.1532
  169.0000   -64.4404     5.5452     5.9033     7.8357   121.4876     2.4241    -0.0005     0.1514
  169.5000   -64.4358     5.4966     5.8516     7.8357   121.1439     2.4245    -0.0005     0.1488
  170.0000   -64.4311     5.4485     5.7763     7.8355   120.7932     2.4264    -0.0005     0.1500
  170.5000   -64.4264     5.4007     5.7027     7.8343   120.4451     2.4271    -0.0005     0.1532
  171.0000   -64.4217     5.3534     5.6300     7.8332   120.0905     2.4223    -0.0005     0.1565
  171.5000   -64.4170     5.3065     5.5582     7.8320   120.2320     2.4154    -0.0005     0.1571
  172.0000   -64.4124     5.2852     5.4832     7.8309   120.3877     2.4120    -0.0005     0.1564
  172.5000   -64.4077     5.2885     5.4859     7.8298   122.0706     2.4145    -0.0005     0.1557
  173.0000   -64.4030     5.2914     5.4888     7.8286   123.9145     2.4179    -0.0005     0.1541
  173.5000   -64.3983     5.2941     5.4918     7.8275   125.7559     2.4214    -0.0005     0.1505
  174.0000   -64.3936     5.2969     5.4947     7.8263   127.3758     2.4249    -0.0005     0.1468
  174.5000   -64.3889     5.2997     5.4977     7.8252   127.4177     2.4286    -0.0005     0.1432
  175.0000   -64.3843     5.3025     5.5006     7.8241   126.7465     2.4379    -0.0005     0.1392
  175.5000   -64.3796     5.3053     5.5035     7.8229   126.0508     2.4466    -0.0005     0.1392
  176.0000   -64.3749     5.3082     5.5065     7.8218   125.5988     2.4452    -0.0005     0.1431
  176.5000   -64.3702     5.3110     5.5094     7.8206   125.5293     2.4381    -0.0005     0.1470
  177.0000   -64.3655     5.3138     5.5124     7.8195   125.4712     2.4308    -0.0005     0.1508
  177.5000   -64.3608     5.3166     5.5153     7.8183   124.3476     2.4235    -0.0005     0.1524
  178.0000   -64.3562     5.3194     5.5183     7.8172   122.6071     2.4241    -0.0005     0.1493
  178.5000   -64.3515     5.3222     5.5212     7.8161   121.0045     2.4262    -0.0005     0.1462
  179.0000   -64.3468     5.3250     5.5242     7.8116   120.7544     2.4330    -0.0005     0.1434
  179.5000   -64.3421     5.3278     5.5271     7.8051   121.0655     2.4400    -0.0005     0.1421
  180.0000   -64.3374     5.3307     5.5301     7.7985   121.3781     2.4395    -0.0005     0.1409
  180.5000   -64.3327     5.3335     5.5337     7.7920   121.6309     2.4369    -0.0005     0.1396
  181.0000   -64.3281     5.3245     5.5285     7.7854   121.6454     2.4416    -0.0005     0.1384
  181.5000   -64.3233     5.3142     5.5209     7.7789   120.7979     2.4479    -0.0005     0.1384
  182.0000   -64.3182     5.3040     5.5134     7.7723   120.1980     2.4473     0.0005     0.1439
  182.5000   -64.3168     5.2939     5.5058     7.7658   120.6919     2.4395     0.0016     0.1468
  183.0000   -64.3902     5.2837     5.4983     7.7593   122.5495     2.4329     0.0027     0.1456
  183.5000   -64.4658     5.2736     5.4908     7.7581   124.4444     2.4331     0.0037     0.1445
  184.0000   -64.5411     5.2635     5.4830     7.7642   126.3618     2.4343     0.0048     0.1426
  184.5000   -64.6162     5.2534     5.4668     7.7702   125.5344     2.4373     0.0054     0.1373
  185.0000   -64.6914     5.2433     5.4503     7.7762   123.8234     2.4445     0.0050     0.1320
  185.5000   -64.7666     5.2333     5.4338     7.7822   123.1995     2.4527     0.0046     0.1284
  186.0000   -64.8419     5.2233     5.4173     7.7882   124.5767     2.4608     0.0042     0.1308
  186.5000   -64.9099     5.2133     5.4009     7.7943   126.1878     2.4611     0.0038     0.1339
  187.0000   -64.9109     5.2033     5.3846     7.8003   127.7938     2.4578     0.0034     0.1395
  187.5000   -64.9106     5.1933     5.3683     7.8063   128.2552     2.4492     0.0030     0.1470
  188.0000   -64.9105     5.1833     5.3520     7.8124   128.2296     2.4367     0.0026     0.1543
  188.5000   -64.9105     5.1734     5.3358     7.8179   125.9849     2.4242     0.0023     0.1617
