~VERSION INFORMATION
 VERS.                2.0:   CWLS LOG ASCII STANDARD - VERSION 2.0
 WRAP.                 NO:   ONE LINE PER DEPTH STEP
~WELL INFORMATION
#MNEM.UNIT      DATA TYPE    INFORMATION
#----------   ------------   ------------------------------
 STRT.F            0.0000:   START DEPTH
 STOP.F          562.0000:   STOP DEPTH
 STEP.F            0.1000:   STEP LENGTH
 NULL.          -999.2500:   NO VALUE
 COMP. BROWN JOHN E&C INC:   COMPANY
 WELL.    73-1 SX-3 #73-3:   WELL
 FLD .             TEAPOT:   FIELD
 LOC .       S3 T38N R78W:   LOCATION
 CNTY.            NATRONA:   COUNTY
 STAT.            WYOMING:   STATE
 CTRY. UNITED STATES OF AMERICA:   COUNTRY
 SRVC.      Western Atlas:   SERVICE COMPANY
 DATE.        23-APR-1992:   LOGDATE
 API .       490252251200:   API NUMBER
~CURVE INFORMATION
#MNEM.UNIT       API CODE    CURVE DESCRIPTION
#----------   ------------   ------------------------------
 DEPT.F                  :   
 GRR .GAPI   07 310 01 00:   GAMMA RAY
 RILD.OHMM   07 120 46 00:   INDUCTION LOG DEEP RESISTIVITY
 RILM.OHMM   07 120 44 00:   INDUCTION LOG MEDIUM RESISTIVITY
 CILD.MMHO   07 110 46 00:   CONDUCTIVITY INDUCTION LOG DEEP
~PARAMETER INFORMATION
#MNEM.UNIT          VALUE    DESCRIPTION
#----------   ------------   ------------------------------
 PD  .                 GL:   PERMANENT DATUM
 EPD .F              5164:   ELEVATION PERMANENT DATUM
 LMF .                 KB:   LOG MEASURED FROM
 DAPD.F                 5:   FEET ABOVE PERMANENT DATUM
 DMF .                 KB:   DRILLING MEASURED FROM
 EKB .F              5169:   KELLING BUSHING
 EDF .F              5168:   DRILLING FLOOR
 EGL .F              5164:   GROUND LEVEL
 DATE.        23-APR-1992:   RUN DATE
 RUN .                  1:   RUN NUMBER
 DD  .F               561:   DEPTH DRILLER
 DL  .F               564:   DEPTH LOGGER
 BLI .F               562:   BOTTOM LOG INTERVAL
 CS  .IN            8.625:   CASING SIZE
 CBD .F                48:   CASING BOTTOM DRILLER
 CBL .F                49:   CASING BOTTOM LOGGER
 BS  .IN            7.875:   BIT SIZE
 BSD .F               561:   BIT SIZE AT DEPTH
 DFT .                AIR:   DRILLING FLUID TYPE
 TCS .HRS               2:   TIME CURCULATED STOPPED
 LUN .           HL- 6272:   LOGGING UNIT NUMBER
 LUL .             CASPER:   LOGGING UNIT LOCATION
 ENGI.            LEBSOCK:   RECORDING ENGINEER
 WITN.        GARY STRONG:   WITNESSED BY
 CLNT.            A2DTECH:   CLIENT CODE
 ORIG.       2", 5" PRINT:   ORIGIN OF DATA
 UWI .       490252251200:   UNIQUE WELL ID
 DICO. A2D Technologies, Inc.:   DIGITIZING COMPANY
~OTHER INFORMATION
~A    DEPT      GRR      RILD       RILM       CILD   
# ...
  452.6000    86.3828    19.5857    20.2030    50.9262
  452.7000    86.5886    19.5857    20.1325    50.9300
  452.8000    86.9766    19.5857    20.1176    50.9337
  452.9000    87.3688    19.5857    19.9919    50.9620
  453.0000    87.6383    19.5857    19.8934    51.2111
  453.1000    88.1780    19.5857    19.7822    51.4603
  453.2000    88.6016    19.5857    19.7140    51.7094
  453.3000    89.0831    19.5857    19.6986    51.9585
  453.4000    89.5646    19.5857    19.5764    52.2077
  453.5000    90.0110    19.5857    19.5761    52.4663
  453.6000    90.2745    19.5857    19.5758    52.4699
  453.7000    90.2723    19.5857    19.5326    52.4737
  453.8000    90.2699    19.5857    19.4076    52.4778
  453.9000    90.1681    19.5857    19.1695    52.7003
  454.0000    89.9237    19.5857    19.1693    52.9494
  454.1000    89.6600    19.5408    19.1690    53.2424
  454.2000    89.2121    19.4495    19.1687    53.2455
  454.3000    88.7256    19.4495    19.1685    53.2492
  454.4000    88.2392    19.4495    19.1682    53.2530
  454.5000    87.7528    19.4495    19.1679    53.2567
  454.6000    87.2384    19.4495    18.9700    53.2605
  454.7000    86.5524    19.4495    19.1926    53.2643
  454.8000    86.1615    19.4495    19.2957    53.2681
  454.9000    86.0265    19.3544    19.4041    53.2718
  455.0000    85.9740    19.2471    19.4631    53.2756
  455.1000    85.7204    19.1404    19.4862    53.2793
  455.2000    85.9510    19.0343    19.5999    53.2831
  455.3000    86.0169    18.9142    19.6002    53.2869
  455.4000    86.0145    18.9142    19.6005    53.2907
  455.5000    86.0672    18.8506    19.6007    53.2944
  455.6000    86.3108    18.7461    19.6011    53.2982
  455.7000    86.3084    18.6521    19.6013    53.3020
  455.8000    86.4848    18.7827    19.6015    53.3057
  455.9000    86.8439    18.8708    19.6804    53.3095
  456.0000    87.2650    18.9142    19.7393    53.3132
  456.1000    87.5045    18.9142    19.7637    53.3170
  456.2000    87.7441    18.9142    19.8781    53.3208
  456.3000    88.1675    18.9142    19.9863    53.3246
  456.4000    88.5245    18.9142    20.0986    53.3283
  456.5000    88.7641    18.9142    20.1583    53.3321
  456.6000    89.0097    18.9142    20.1835    53.3358
  456.7000    89.4912    18.9142    20.3000    53.3396
  456.8000    89.7839    18.9142    20.4109    53.3434
  456.9000    89.8940    18.9142    20.4427    53.3967
  457.0000    89.9618    18.9142    20.4430    53.6458
  457.1000    90.1905    18.9142    20.4177    53.8949
  457.2000    90.1875    18.9107    20.3015    54.1114
  457.3000    90.1856    18.8060    20.3017    54.1152
  457.4000    90.1832    18.7827    20.3020    54.1190
  457.5000    90.1055    18.7827    20.2482    54.1227
  457.6000    89.8771    18.7548    20.1614    54.1265
  457.7000    89.8743    18.6508    20.1617    54.1303
  457.8000    89.6734    18.5474    20.0519    54.1341
  457.9000    89.1499    18.5224    19.8594    54.3820
  458.0000    88.5824    18.5224    19.7449    54.6311
  458.1000    88.3380    18.5224    19.7194    54.8986
  458.2000    88.0550    18.5224    19.6081    55.1293
  458.3000    87.8491    18.4207    19.5008    55.3784
  458.4000    87.7494    18.3936    19.3133    55.6632
  458.5000    87.7469    18.3936    19.1507    55.6664
  458.6000    87.7707    18.3706    19.0442    55.6702
  458.7000    88.0430    18.2657    18.9372    55.6739
  458.8000    88.0409    18.2657    18.7296    55.6777
  458.9000    88.1880    18.1214    18.5983    55.6815
  459.0000    88.3373    18.0126    18.4949    55.6852
  459.1000    88.3662    18.0126    18.3675    55.6890
  459.2000    88.6335    18.0126    18.1620    55.6928
  459.3000    88.8452    17.9178    18.0618    55.6966
  459.4000    89.0848    17.8873    17.9615    55.8596
  459.5000    89.3243    17.8438    17.8617    56.1088
  459.6000    89.5638    17.7448    17.7624    56.3580
  459.7000    89.8263    17.6394    17.6633    56.4646
  459.8000    90.4809    17.5487    17.6635    56.4684
  459.9000    91.3640    17.5168    17.5902    56.4721
  460.0000    92.3293    17.4762    17.5412    56.4759
  460.1000    93.2946    17.3793    17.5171    56.4797
  460.2000    94.3324    17.2740    17.4198    56.4834
  460.3000    95.2253    17.2740    17.4200    56.5956
  460.4000    96.0265    17.1494    17.4203    56.8447
  460.5000    96.7502    17.0346    17.3716    57.0939
  460.6000    97.4735    17.0212    17.2996    57.3430
  460.7000    98.2360    16.9162    17.3004    57.5921
  460.8000    98.9203    16.9162    17.3977    57.8413
  460.9000    99.4741    16.9162    17.4215    58.0904
  461.0000    99.7349    16.8809    17.4714    58.3395
  461.1000    99.7325    16.7986    17.5440    58.5886
  461.2000    99.7300    16.7986    17.5442    58.7801
  461.3000    99.7277    16.7180    17.5444    58.7839
  461.4000    99.5506    16.6253    17.5447    58.7876
  461.5000    99.1909    16.5658    17.5449    58.8322
  461.6000    98.6484    16.5658    17.5195    59.0813
  461.7000    97.9108    16.5658    17.4221    59.3304
  461.8000    96.9524    16.4882    17.3253    59.6033
  461.9000    95.8025    16.4506    17.2290    60.0978
  462.0000    94.7109    16.4506    17.1333    60.5923
  462.1000    93.6796    16.4506    17.0381    61.0799
  462.2000    92.4751    16.4506    16.9416    61.3290
  462.3000    92.2308    16.4506    16.7539    61.5781
  462.4000    92.1711    16.4506    16.5681    61.8375
  462.5000    92.2942    16.4220    16.3842    62.0764
  462.6000    92.4674    16.3362    16.2267    62.3256
  462.7000    92.4790    16.3362    16.1364    62.6021
  462.8000    92.9605    16.1914    16.0468    62.6054
  462.9000    93.4420    16.1098    15.9576    62.6092
  463.0000    94.0542    16.1098    15.8689    62.6136
  463.1000    94.7066    16.1064    15.8050    62.8181
  463.2000    95.2001    16.0172    15.8029    63.0673
  463.3000    96.0646    15.9978    15.7151    63.3164
  463.4000    96.6469    15.9978    15.6957    63.3810
  463.5000    97.2348    15.9978    15.6497    63.3848
  463.6000    97.7163    15.9963    15.5870    63.3885
  463.7000    98.1810    15.9077    15.5845    63.3923
  463.8000    98.4622    15.8866    15.4980    63.3961
  463.9000    98.4602    15.7978    15.4119    63.3998
  464.0000    98.3172    15.6664    15.3719    63.5543
  464.1000    98.0729    15.6664    15.3478    63.8034
  464.2000    97.7844    15.6664    15.2654    64.0525
  464.3000    96.9442    15.6021    15.2656    64.3016
  464.4000    96.5324    15.5575    15.2658    64.5508
  464.5000    96.0460    15.5575    15.2660    64.7999
  464.6000    95.6462    15.5575    15.2418    64.9322
  464.7000    95.3748    15.4734    15.1570    64.9360
  464.8000    94.8238    15.3877    15.0729    64.9398
  464.9000    94.8217    15.3024    14.9892    65.0434
  465.0000    94.9699    15.2176    14.9509    65.2925
  465.1000    95.2095    15.1293    14.9268    65.5417
  465.2000    95.4812    15.1293    14.8438    65.8737
  465.3000    96.0166    15.0708    14.7613    66.3682
  465.4000    96.4441    14.9506    14.6793    66.8626
  465.5000    96.9255    14.8159    14.5978    67.4230
  465.6000    97.5035    14.8159    14.5166    68.1626
  465.7000    98.2274    14.7393    14.4359    68.9023
  465.8000    99.0166    14.6575    14.3557    69.6420
  465.9000    99.6742    14.5423    14.2127    70.3821
  466.0000   100.3976    14.3947    14.1411    71.1221
  466.1000   101.2224    14.3079    14.1177    71.7979
  466.2000   102.1457    14.3079    14.0392    72.0470
  466.3000   102.9203    14.2558    13.9458    72.2960
  466.4000   103.8179    14.1454    13.9459    72.5601
  466.5000   104.4519    14.0002    13.9031    73.0546
  466.6000   104.9333    13.9141    13.8494    73.5490
  466.7000   105.3210    13.8454    13.8453    74.0475
  466.8000   105.3180    13.7203    13.7535    74.2946
  466.9000   105.5455    13.5685    13.7536    74.5437
  467.0000   105.6145    13.4183    13.7111    74.8120
  467.1000   105.5006    13.2508    13.6584    75.4949
