~VERSION INFORMATION
 VERS.                2.0:   CWLS LOG ASCII STANDARD - VERSION 2.0
 WRAP.                 NO:   ONE LINE PER DEPTH STEP
~WELL INFORMATION
#MNEM.UNIT      DATA TYPE    INFORMATION
#----------   ------------   ------------------------------
 STRT.F           30.0000:   START DEPTH
 STOP.F          562.0000:   STOP DEPTH
 STEP.F            0.5000:   STEP LENGTH
 NULL.          -999.2500:   NO VALUE
 COMP. LAWRENCE/ALLISON INC:   COMPANY
 WELL. NPR 3 #53-16-SX-10:   WELL
 FLD .             TEAPOT:   FIELD
 LOC .      S10 T38N R78W:   LOCATION
 CNTY.            NATRONA:   COUNTY
 STAT.            WYOMING:   STATE
 CTRY. UNITED STATES OF AMERICA:   COUNTRY
 SRVC.      Dresser Atlas:   SERVICE COMPANY
 DATE.        27-AUG-1984:   LOGDATE
 API .       490251098200:   API NUMBER
~CURVE INFORMATION
#MNEM.UNIT       API CODE    CURVE DESCRIPTION
#----------   ------------   ------------------------------
 DEPT.F                  :   
 RILD.OHMM   07 120 46 00:   INDUCTION LOG DEEP RESISTIVITY
 RILM.OHMM   07 120 44 00:   INDUCTION LOG MEDIUM RESISTIVITY
 RFOC.OHMM   07 220 04 00:   RESISTIVITY FOCUSED LOG
 SPR .MV     07 010 01 00:   SPONTANEOUS POTENTIAL
 AC  .US/F   60 520 00 00:   ACOUSTIC SONIC
 DEN .G/C3   45 350 01 00:   COMPENSATED BULK DENSTIY
 CORR.G/C3   45 356 01 00:   DENSITY CORRECTION
 CNC .DEC    42 890 01 00:   NEUTRON POROSITY LIMESTONE
 CALD.IN     45 280 60 00:   CALIPER
 GRD .GAPI   45 310 01 00:   GAMMA RAY FROM DENSITY LOG
 PORD.DEC    45 890 10 00:   POROSITY DENSITY LIMESTONE
~PARAMETER INFORMATION
#MNEM.UNIT          VALUE    DESCRIPTION
#----------   ------------   ------------------------------
 PD  .                 GL:   PERMANENT DATUM
 EPD .F              5199:   ELEVATION PERMANENT DATUM
 LMF .                 GL:   LOG MEASURED FROM
 DMF .                 GL:   DRILLING MEASURED FROM
 EGL .F              5199:   GROUND LEVEL
 DATE.            8-27-84:   RUN DATE
 RUN .                  1:   RUN NUMBER
 DD  .F               550:   DEPTH DRILLER
 DL  .F               549:   DEPTH LOGGER
 BLI .F               547:   BOTTOM LOG INTERVAL
 TLI .F                30:   TOP LOG INTERVAL
 CS  .IN            9.625:   CASING SIZE
 CBD .F                40:   CASING BOTTOM DRILLER
 CBL .F                44:   CASING BOTTOM LOGGER
 BS  .IN            7.875:   BIT SIZE
 BSD .F               550:   BIT SIZE AT DEPTH
 DFT .          KCL/WATER:   DRILLING FLUID TYPE
 MSS .           MUD TANK:   MUD SAMPLE SOURCE
 RMS .OHMM            .28:   RESISTIVITY MUD SAMPLE
 MST .F                78:   MUD SAMPLE TEMPERATURE
 TCS .HRS               4:   TIME CURCULATED STOPPED
 LUN .               4082:   LOGGING UNIT NUMBER
 LUL .          ROOSEVELT:   LOGGING UNIT LOCATION
 ENGI.            FRANCIS:   RECORDING ENGINEER
 WITN.              FIVAS:   WITNESSED BY
 CLNT.            A2DTECH:   CLIENT CODE
 ORIG.       2", 5" PRINT:   ORIGIN OF DATA
 UWI .       490251098200:   UNIQUE WELL ID
 DICO. A2D Technologies, Inc.:   DIGITIZING COMPANY
~OTHER INFORMATION
~A   DEPT     RILD       RILM       RFOC        SPR         AC        DEN       CORR          CNC     CALD         GRD      PORD   
# ...
  304.5000    19.7749    20.9179    19.9472    -5.0312    97.9164     2.3741     0.0312     0.1887     8.5257    85.8931     0.1794
  305.0000    19.6912    20.6668    20.3730    -5.1087    98.2053     2.3658     0.0311     0.1927     8.5253    87.0670     0.1859
  305.5000    19.6080    20.4186    20.2840    -4.8691    98.6397     2.3649     0.0311     0.1959     8.5245    86.7342     0.1875
  306.0000    19.5250    20.3602    20.1315    -4.6325    99.0722     2.3716     0.0372     0.1954     8.5237    86.0507     0.1845
  306.5000    19.4424    20.3397    19.9801    -4.3960    98.9835     2.3779     0.0414     0.1887     8.5228    85.3615     0.1816
  307.0000    19.3602    20.3192    19.8298    -4.1596    97.8636     2.3794     0.0333     0.1895     8.5219    84.6031     0.1790
  307.5000    19.2784    20.2988    19.6807    -3.9233    97.5423     2.3778     0.0257     0.1952     8.5211    82.4589     0.1796
  308.0000    19.1968    20.2784    19.5327    -3.6869    97.6735     2.3713     0.0180     0.1975     8.5202    81.4742     0.1814
  308.5000    19.1156    20.2580    19.4533    -3.4506    97.8013     2.3608     0.0130     0.1962     8.5194    84.1720     0.1866
  309.0000    19.0348    20.2378    19.5106    -3.2143    97.9293     2.3548     0.0194     0.1932     8.5185    85.7972     0.1927
  309.5000    18.9543    20.2177    19.5499    -2.9776    98.0557     2.3562     0.0397     0.1903     8.5176    83.3057     0.1931
  310.0000    18.8498    20.1969    19.5892    -2.7396    98.1313     2.3682     0.0578     0.1875     8.5168    83.2987     0.1897
  310.5000    18.6720    20.0524    19.6329    -2.5152    97.8677     2.3798     0.0651     0.1880     8.5159    84.1690     0.1833
  311.0000    18.4960    19.7565    19.4776    -2.7761    97.6042     2.3910     0.0605     0.1887     8.5151    83.8166     0.1769
  311.5000    18.3216    19.4649    19.3013    -3.0743    97.1492     2.3980     0.0489     0.1894     8.5142    80.7723     0.1705
  312.0000    18.1488    19.1777    19.1260    -3.3719    96.9044     2.4048     0.0434     0.1901     8.5133    77.6010     0.1651
  312.5000    17.9777    18.8947    18.9522    -3.6686    96.6598     2.4117     0.0443     0.1907     8.5125    77.9357     0.1613
  313.0000    17.8082    18.6159    18.7800    -3.9651    96.4150     2.4141     0.0452     0.1907     8.5116    81.6071     0.1582
  313.5000    17.6403    18.3412    18.6094    -4.2716    96.1703     2.4153     0.0484     0.1881     8.5108    85.0759     0.1578
  314.0000    17.4740    18.0705    18.4404    -4.2518    95.8838     2.4190     0.0516     0.1850     8.5099    86.2071     0.1574
  314.5000    17.3092    17.8037    18.2728    -4.1059    95.3567     2.4265     0.0549     0.1882     8.5091    87.2552     0.1548
  315.0000    17.1334    17.5410    18.1068    -3.9579    94.8297     2.4228     0.0582     0.1916     8.5082    88.2965     0.1518
  315.5000    16.9526    17.3322    17.9424    -3.8106    94.8156     2.4103     0.0615     0.1923     8.5073    87.8824     0.1568
  316.0000    16.7738    17.1751    17.7794    -3.6635    95.3427     2.3960     0.0606     0.1915     8.5065    85.5237     0.1662
  316.5000    16.5968    17.0193    17.6178    -3.5162    95.8617     2.3941     0.0401     0.1906     8.5056    84.3371     0.1714
  317.0000    16.4217    16.8648    17.4578    -3.3687    95.5270     2.3993     0.0187     0.1898     8.5052    83.7605     0.1687
  317.5000    16.2484    16.7118    17.2992    -3.2235    95.0000     2.4042     0.0050     0.1860     8.5058    82.2126     0.1644
  318.0000    16.0770    16.5601    17.1420    -3.1397    94.4730     2.4099     0.0140     0.1808     8.5063    79.8431     0.1601
  318.5000    15.9072    16.4098    16.9863    -3.1904    94.1838     2.4193     0.0372     0.1766     8.5069    79.9145     0.1558
  319.0000    15.7846    16.2609    16.8320    -3.2387    94.3036     2.4221     0.0492     0.1787     8.5075    83.4878     0.1534
  319.5000    15.6732    16.1133    16.7230    -3.2876    94.4234     2.4169     0.0369     0.1822     8.5080    86.9915     0.1569
  320.0000    15.5625    15.9660    16.6023    -3.3362    94.5432     2.4110     0.0236     0.1859     8.5086    88.2780     0.1604
  320.5000    15.4526    15.8761    16.4824    -3.3849    94.6593     2.4051     0.0262     0.1905     8.5091    88.0180     0.1638
  321.0000    15.3435    15.9090    16.3217    -3.4336    94.6593     2.4019     0.0294     0.1954     8.5097    87.1039     0.1658
  321.5000    15.2352    15.9342    16.3643    -3.4822    94.6321     2.4028     0.0268     0.2002     8.5103    85.8287     0.1647
  322.0000    15.1276    15.9592    16.4304    -3.5309    94.4212     2.4052     0.0181     0.2039     8.5108    84.5452     0.1606
  322.5000    15.0208    15.9844    16.4967    -3.5796    94.2104     2.4078     0.0107     0.2015     8.5114    83.5017     0.1627
  323.0000    14.9147    16.0226    16.5632    -3.6282    93.9996     2.4045     0.0346     0.1929     8.5119    83.7067     0.1646
  323.5000    14.8094    15.8935    16.6261    -3.6773    93.7563     2.4045     0.0445     0.1813     8.5125    83.8906     0.1622
  324.0000    14.7048    15.6148    16.2437    -3.7275    93.4463     2.4182     0.0215     0.1802     8.5131    83.4964     0.1546
  324.5000    14.6010    15.3379    15.8909    -3.7303    93.1363     2.4316     0.0114     0.1846     8.5136    83.0758     0.1467
  325.0000    14.4979    15.0659    15.5457    -3.7299    92.8557     2.4450     0.0181     0.1900     8.5142    85.1360     0.1413
  325.5000    14.3955    14.7984    15.1589    -3.7298    92.8555     2.4478     0.0257     0.1907     8.5147    88.6144     0.1394
  326.0000    14.2603    14.6090    15.2252    -3.7299    92.8549     2.4443     0.0359     0.1902     8.5153    89.4255     0.1396
  326.5000    14.0891    14.6693    15.3258    -3.7306    92.7474     2.4355     0.0514     0.1903     8.5159    88.8618     0.1432
  327.0000    13.9199    14.7180    15.4271    -3.7271    92.5705     2.4267     0.0492     0.1915     8.5164    88.3695     0.1482
  327.5000    13.7528    14.7438    15.5291    -3.6152    92.3948     2.4233     0.0459     0.1927     8.5170    93.0560     0.1530
  328.0000    13.5683    14.4522    15.5849    -3.4974    92.2191     2.4319     0.0367     0.1873     8.5175    99.7730     0.1522
  328.5000    13.6173    14.2480    15.0745    -3.3802    92.1398     2.4508     0.0232     0.1851     8.5181   104.5276     0.1417
  329.0000    13.6886    14.0790    14.7334    -3.2630    92.1169     2.4607     0.0095     0.1907     8.5187    98.2113     0.1328
  329.5000    13.7603    14.1835    14.3416    -3.1458    92.0940     2.4612     0.0127     0.1975     8.5192    92.3090     0.1309
  330.0000    13.8323    14.2919    14.4465    -3.0286    92.0711     2.4522     0.0239     0.1966     8.5198    88.3350     0.1335
  330.5000    13.9047    14.4016    14.6144    -2.9109    92.0814     2.4427     0.0350     0.1943     8.5203    88.6421     0.1387
  331.0000    13.9774    14.5119    14.7842    -2.7948    92.2429     2.4346     0.0462     0.1913     8.5209    89.4114     0.1438
  331.5000    14.0508    14.6230    14.9560    -2.7442    92.5303     2.4374     0.0608     0.1873     8.5215    90.2170     0.1465
  332.0000    14.1598    14.7350    15.1298    -2.8834    92.8178     2.4401     0.0771     0.1832     8.5220    88.8379     0.1449
  332.5000    14.2920    14.8478    15.3056    -3.0195    93.1053     2.4381     0.0743     0.1814     8.5226    86.8506     0.1437
  333.0000    14.4254    14.9615    15.4835    -3.1558    93.3435     2.4358     0.0459     0.1937     8.5232    84.8348     0.1447
  333.5000    14.5600    15.0765    15.6634    -3.2924    93.2379     2.4354     0.0158     0.2051     8.5237    82.7921     0.1465
  334.0000    14.6959    15.1932    15.8756    -3.4279    93.1330     2.4460     0.0108     0.2046     8.5243    83.0370     0.1433
  334.5000    14.7446    15.2996    15.8045    -3.5077    93.0275     2.4526     0.0230     0.1903     8.5248    83.4528     0.1378
