~VERSION INFORMATION
 VERS.                2.0:   CWLS LOG ASCII STANDARD - VERSION 2.0
 WRAP.                 NO:   ONE LINE PER DEPTH STEP
~WELL INFORMATION
#MNEM.UNIT      DATA TYPE    INFORMATION
#----------   ------------   ------------------------------
 STRT.F           28.0000:   START DEPTH
 STOP.F          563.0000:   STOP DEPTH
 STEP.F            0.1000:   STEP LENGTH
 NULL.          -999.2500:   NO VALUE
 COMP.       F D SERV INC:   COMPANY
 WELL.    SX-3 62-4 #62-3:   WELL
 FLD .          N.P.R. #3:   FIELD
 LOC .       S3 T38N R78W:   LOCATION
 CNTY.            NATRONA:   COUNTY
 STAT.            WYOMING:   STATE
 CTRY. UNITED STATES OF AMERICA:   COUNTRY
 SRVC.     Atlas Wireline:   SERVICE COMPANY
 DATE.        03-MAY-1992:   LOGDATE
 API .       490252252100:   API NUMBER
~CURVE INFORMATION
#MNEM.UNIT       API CODE    CURVE DESCRIPTION
#----------   ------------   ------------------------------
 DEPT.F                  :   
 RILD.OHMM   07 120 46 00:   INDUCTION LOG DEEP RESISTIVITY
 RILM.OHMM   07 120 44 00:   INDUCTION LOG MEDIUM RESISTIVITY
 CALD.IN     45 280 60 00:   CALIPER FROM DENSITY LOG
 CORR.G/C3   45 356 01 00:   DENSITY CORRECTION
 DEN .G/C3   45 350 01 00:   COMPENSATED BULK DENSTIY
 GRD .GAPI   45 310 01 00:   GAMMA RAY FROM DENSITY LOG
 PORD.DEC    45 890 12 00:   POROSITY DENSITY SANDSTONE
~PARAMETER INFORMATION
#MNEM.UNIT          VALUE    DESCRIPTION
#----------   ------------   ------------------------------
 PD  .                 GL:   PERMANENT DATUM
 EPD .F              5156:   ELEVATION PERMANENT DATUM
 LMF .                 KB:   LOG MEASURED FROM
 DAPD.F                 5:   FEET ABOVE PERMANENT DATUM
 DMF .                 KB:   DRILLING MEASURED FROM
 EKB .F              5161:   KELLING BUSHING
 EGL .F              5156:   GROUND LEVEL
 DATE.        03-MAY-1992:   RUN DATE
 RUN .                  1:   RUN NUMBER
 DD  .F               565:   DEPTH DRILLER
 DL  .F               566:   DEPTH LOGGER
 BLI .F               564:   BOTTOM LOG INTERVAL
 TLI .F                50:   TOP LOG INTERVAL
 CS  .IN            8.625:   CASING SIZE
 CBD .F                49:   CASING BOTTOM DRILLER
 CBL .F                50:   CASING BOTTOM LOGGER
 BS  .IN            7.875:   BIT SIZE
 BSD .F               565:   BIT SIZE AT DEPTH
 DFT .        AIR DRILLED:   DRILLING FLUID TYPE
 LUN .             HL 632:   LOGGING UNIT NUMBER
 LUL .           RK. SPGS:   LOGGING UNIT LOCATION
 ENGI.               RALL:   RECORDING ENGINEER
 WITN.             STRONG:   WITNESSED BY
 CLNT.            A2DTECH:   CLIENT CODE
 ORIG.           5" PRINT:   ORIGIN OF DATA
 UWI .       490252252100:   UNIQUE WELL ID
 DICO. A2D Technologies, Inc.:   DIGITIZING COMPANY
~OTHER INFORMATION
~A   DEPT     RILD       RILM       CALD       CORR        DEN        GRD       PORD   
# ...
  483.0000     9.9516    10.5927     8.2159    -0.0065     2.4857   146.9840     0.0982
  483.1000     9.9512    10.5921     8.2079    -0.0065     2.4861   146.6755     0.0980
  483.2000     9.9506    10.5915     8.2007    -0.0065     2.4862   146.1783     0.0980
  483.3000     9.9500    10.5546     8.2005    -0.0050     2.4868   145.5827     0.0974
  483.4000     9.9495    10.5171     8.2004    -0.0050     2.4868   145.1839     0.0972
  483.5000     9.9489    10.5166     8.2003    -0.0050     2.4868   144.2529     0.0970
  483.6000     9.9483    10.5160     8.2002    -0.0050     2.4868   143.2859     0.0967
  483.7000     9.9478    10.5153     8.2001    -0.0049     2.4868   142.8630     0.0965
  483.8000     9.9473    10.5148     8.1999    -0.0035     2.4868   143.1613     0.0962
  483.9000     9.9467    10.5558     8.1998    -0.0035     2.4868   143.1590     0.0960
  484.0000     9.9462    10.5868     8.1997    -0.0036     2.4868   143.3333     0.0957
  484.1000     9.9541    10.5862     8.1996    -0.0036     2.4868   143.5783     0.0956
  484.2000    10.0143    10.5856     8.1995    -0.0036     2.4870   143.7542     0.0955
  484.3000    10.0137    10.5850     8.1993    -0.0035     2.4877   143.7976     0.0953
  484.4000    10.0132    10.6430     8.1992    -0.0021     2.4883   144.6526     0.0950
  484.5000    10.0468    10.6575     8.1991    -0.0010     2.4883   145.0683     0.0952
  484.6000    10.0818    10.6929     8.1990    -0.0006     2.4883   146.0258     0.0955
  484.7000    10.0812    10.7305     8.1989    -0.0001     2.4879   146.9566     0.0958
  484.8000    10.0818    10.7431     8.1987     0.0012     2.4875   147.4016     0.0961
  484.9000    10.1501    10.8040     8.1986     0.0024     2.4874   147.6529     0.0963
  485.0000    10.1991    10.8033     8.1985     0.0024     2.4867   147.8916     0.0969
  485.1000    10.2583    10.8563     8.1984     0.0024     2.4867   147.9494     0.0969
  485.2000    10.3178    10.9196     8.1983     0.0031     2.4867   148.0804     0.0971
  485.3000    10.3776    10.9832     8.1981     0.0043     2.4867   148.2458     0.0972
  485.4000    10.4378    11.0281     8.1980     0.0055     2.4867   148.2434     0.0973
  485.5000    10.5048    11.0346     8.1979     0.0069     2.4867   148.2407     0.0975
  485.6000    10.5593    11.1036     8.1978     0.0069     2.4867   148.2386     0.0975
  485.7000    10.6206    11.1636     8.1976     0.0077     2.4862   147.9053     0.0975
  485.8000    10.6822    11.2286     8.1975     0.0084     2.4859   147.4081     0.0975
  485.9000    10.7650    11.2940     8.1974     0.0084     2.4859   146.9687     0.0976
  486.0000    10.8816    11.3598     8.1973     0.0084     2.4859   146.7149     0.0978
  486.1000    10.9476    11.4259     8.1972     0.0084     2.4859   146.2176     0.0978
  486.2000    11.0082    11.4933     8.1971     0.0084     2.4859   145.7205     0.0978
  486.3000    11.0721    11.6513     8.1969     0.0084     2.4855   145.3671     0.0980
  486.4000    11.1743    11.6508     8.1968     0.0079     2.4852   144.5772     0.0981
  486.5000    11.2789    11.7391     8.1967     0.0068     2.4850   142.8070     0.0982
  486.6000    11.3443    11.8769     8.1966     0.0068     2.4843   140.6842     0.0984
  486.7000    11.4112    12.0162     8.1965     0.0068     2.4836   140.2224     0.0987
  486.8000    11.5676    12.1572     8.1963     0.0059     2.4836   139.7254     0.0989
  486.9000    11.6232    12.3120     8.1962     0.0047     2.4832   139.4723     0.0993
  487.0000    11.7347    12.4444     8.1961     0.0035     2.4826   139.4699     0.0999
  487.1000    11.8720    12.5905     8.1960     0.0023     2.4818   139.4675     0.1007
  487.2000    12.0107    12.7798     8.1958     0.0023     2.4806   139.4647     0.1017
  487.3000    12.1453    13.0057     8.1957     0.0012     2.4799   139.4626     0.1029
  487.4000    12.2235    13.2211     8.1956     0.0000     2.4783   139.4603     0.1040
  487.5000    12.4156    13.3762     8.1955    -0.0018     2.4772   139.4578     0.1056
  487.6000    12.5306    13.5621     8.1954    -0.0038     2.4761   139.4554     0.1072
  487.7000    12.7188    13.6923     8.1952    -0.0038     2.4740   139.4529     0.1086
  487.8000    13.0183    13.9575     8.1951    -0.0050     2.4708   139.2104     0.1099
  487.9000    13.3248    14.2115     8.1950    -0.0062     2.4660   138.7742     0.1113
  488.0000    13.6536    14.4011     8.1949    -0.0075     2.4597   138.2770     0.1128
  488.1000    13.9609    14.6629     8.1948    -0.0083     2.4535   137.7011     0.1144
  488.2000    14.2904    15.0441     8.1946    -0.0083     2.4481   137.0064     0.1168
  488.3000    14.6274    15.2845     8.1945    -0.0083     2.4426   136.7274     0.1205
  488.4000    14.9721    15.5550     8.1944    -0.0083     2.4308   136.0699     0.1259
  488.5000    15.3062    15.8302     8.1943    -0.0083     2.4182   135.3253     0.1348
  488.6000    15.5755    16.1441     8.1942    -0.0083     2.4031   134.6916     0.1413
  488.7000    15.8979    16.5770     8.1940    -0.0084     2.3812   134.1375     0.1465
  488.8000    16.0517    17.2768     8.1939    -0.0083     2.3529   133.3960     0.1509
  488.9000    16.3622    18.1351     8.1938    -0.0071     2.3297   132.8989     0.1536
  489.0000    16.7479    18.6583     8.1937    -0.0069     2.3238   132.2048     0.1570
  489.1000    17.1424    19.2542     8.1936    -0.0062     2.3163   131.3173     0.1602
  489.2000    17.5458    19.8256     8.1934    -0.0049     2.3041   130.4145     0.1644
  489.3000    18.0058    20.4768     8.1933    -0.0039     2.2900   129.6698     0.1727
  489.4000    18.3838    21.3117     8.1932    -0.0039     2.2759   128.8697     0.1864
  489.5000    18.7400    22.0148     8.1931    -0.0027     2.2582   128.1806     0.2021
  489.6000    19.1281    22.4792     8.1930    -0.0015     2.2518   127.6112     0.2181
  489.7000    19.6169    22.9159     8.1928    -0.0003     2.2472   126.9927     0.2370
  489.8000    20.1461    23.1774     8.1927     0.0013     2.2416   126.2480     0.2466
  489.9000    20.3933    23.3124     8.1926     0.0038     2.2360   125.5172     0.2488
  490.0000    20.8510    23.4481     8.1925     0.0066     2.2348   124.9394     0.2500
  490.1000    21.3432    23.5881     8.1924     0.0087     2.2348   124.3157     0.2503
  490.2000    21.8467    23.7220     8.1922     0.0119     2.2359   123.2643     0.2508
  490.3000    22.3102    23.9716     8.1921     0.0151     2.2383   121.1285     0.2513
  490.4000    22.7028    24.1662     8.1993     0.0176     2.2425   117.9833     0.2506
  490.5000    23.1038    24.3070     8.2069     0.0202     2.2487   116.1927     0.2487
  490.6000    23.7454    24.4836     8.2068     0.0237     2.2574   115.9510     0.2463
  490.7000    24.0908    24.7620     8.2067     0.0265     2.2680   116.0723     0.2416
  490.8000    24.4237    24.9240     8.2066     0.0290     2.2770   116.4490     0.2384
  490.9000    24.7748    25.1808     8.2064     0.0311     2.2839   116.8635     0.2344
  491.0000    25.2109    25.3727     8.2063     0.0324     2.2895   117.1325     0.2306
  491.1000    25.6432    25.5204     8.2062     0.0352     2.2953   117.6840     0.2265
  491.2000    25.9773    25.7188     8.2061     0.0352     2.3026   118.1173     0.2207
  491.3000    26.1109    25.9982     8.2059     0.0327     2.3106   118.6097     0.2126
  491.4000    26.2624    26.1553     8.2058     0.0290     2.3215   119.4322     0.2041
  491.5000    26.4147    26.4509     8.2135     0.0258     2.3323   120.5541     0.1894
  491.6000    26.5679    26.6393     8.2206     0.0246     2.3417   121.2891     0.1785
  491.7000    26.7220    26.8888     8.2205     0.0221     2.3496   121.5341     0.1772
  491.8000    26.8850    27.1381     8.2204     0.0206     2.3561   121.5831     0.1767
  491.9000    26.8836    27.2961     8.2203     0.0186     2.3566   121.4386     0.1767
  492.0000    27.0019    27.4550     8.2201     0.0162     2.3568   121.1888     0.1765
