~VERSION INFORMATION
 VERS.                2.0:   CWLS LOG ASCII STANDARD - VERSION 2.0
 WRAP.                 NO:   ONE LINE PER DEPTH STEP
~WELL INFORMATION
#MNEM.UNIT      DATA TYPE    INFORMATION
#----------   ------------   ------------------------------
 STRT.F          372.0000:   START DEPTH
 STOP.F         1845.0000:   STOP DEPTH
 STEP.F            0.5000:   STEP LENGTH
 NULL.          -999.2500:   NO VALUE
 COMP.             T.H.E.:   COMPANY
 WELL. 63-1-STX-29 #63-29:   WELL
 FLD .             TEAPOT:   FIELD
 LOC .      S29 T39N R78W:   LOCATION
 CNTY.            NATRONA:   COUNTY
 STAT.            WYOMING:   STATE
 CTRY. UNITED STATES OF AMERICA:   COUNTRY
 SRVC.            Unknown:   SERVICE COMPANY
 DATE.        20-MAY-1996:   LOGDATE
 API .       490252279200:   API NUMBER
~CURVE INFORMATION
#MNEM.UNIT       API CODE    CURVE DESCRIPTION
#----------   ------------   ------------------------------
 DEPT.F                  :   
 ROP .MIN/FT 91 810 01 00:   RATE OF DRILLING PENETRATION
 TGAS.UNITS  91 830 01 00:   TOTAL GAS FROM HOTWIRE
~PARAMETER INFORMATION
#MNEM.UNIT          VALUE    DESCRIPTION
#----------   ------------   ------------------------------
 EKB .F              4983:   KELLING BUSHING
 EGL .F              4973:   GROUND LEVEL
 DATE.          5-20-1996:   RUN DATE
 RUN .                  1:   RUN NUMBER
 BLI .F              1845:   BOTTOM LOG INTERVAL
 TLI .F               372:   TOP LOG INTERVAL
 CS  .IN                7:   CASING SIZE
 CBD .F               354:   CASING BOTTOM DRILLER
 ENGI.   C. TOWER/R. HUSK:   RECORDING ENGINEER
 CLNT.            A2DTECH:   CLIENT CODE
 ORIG.           5" PRINT:   ORIGIN OF DATA
 UWI .       490252279200:   UNIQUE WELL ID
 DICO. A2D Technologies, Inc.:   DIGITIZING COMPANY
~OTHER INFORMATION
~A   DEPT        ROP     TGAS   
# ...
 1344.0000     0.8467     0.4586
 1344.5000     0.8468     0.4711
 1345.0000     0.8468     0.4859
 1345.5000     0.8469     0.5007
 1346.0000     0.8469     0.5172
 1346.5000     0.8470     0.5303
 1347.0000     0.8488     0.5451
 1347.5000     0.8682     0.5599
 1348.0000     0.8682     0.5758
 1348.5000     0.7872     0.5894
 1349.0000     0.6262     0.6042
 1349.5000     0.6368     0.6190
 1350.0000     0.6474     0.6344
 1350.5000     0.6524     0.6511
 1351.0000     0.6580     0.6634
 1351.5000     0.6581     0.6782
 1352.0000     0.6581     0.6930
 1352.5000     0.6476     0.7098
 1353.0000     0.6477     0.7225
 1353.5000     0.6475     0.7373
 1354.0000     0.6373     0.7521
 1354.5000     0.6478     0.7684
 1355.0000     0.6479     0.7817
 1355.5000     0.6479     0.7965
 1356.0000     0.6375     0.8113
 1356.5000     0.6375     0.8270
 1357.0000     0.7849     0.8437
 1357.5000     0.7850     0.8556
 1358.0000     0.7851     0.8704
 1358.5000     0.7851     0.8856
 1359.0000     0.7852     0.9023
 1359.5000     0.7957     0.9148
 1360.0000     0.7958     0.9296
 1360.5000     0.7009     0.9444
 1361.0000     0.6380     0.9609
 1361.5000     0.6381     0.9739
 1362.0000     0.6592     0.9887
 1362.5000     0.6592     1.0035
 1363.0000     0.6698     1.0195
 1363.5000     0.6678     1.0331
 1364.0000     0.6594     1.0479
 1364.5000     0.8489     1.0627
 1365.0000     0.8384     1.0781
 1365.5000     0.8279     1.0949
 1366.0000     0.8280     1.1070
 1366.5000     0.8175     1.1218
 1367.0000     0.8176     1.1367
 1367.5000     0.8176     1.1535
 1368.0000     0.8220     1.1662
 1368.5000     1.0072     1.1810
 1369.0000     1.0073     1.1958
 1369.5000     1.0073     1.2121
 1370.0000     1.0074     1.2254
 1370.5000     1.4811     1.2401
 1371.0000     1.4751     1.2549
 1371.5000     1.4707     1.2707
 1372.0000     1.4698     1.2874
 1372.5000     1.4603     1.2993
 1373.0000     1.4667     1.3141
 1373.5000     1.4709     1.3293
 1374.0000     1.4590     1.3460
 1374.5000     1.2815     1.3585
 1375.0000     1.2711     1.3732
 1375.5000     1.2711     1.3903
 1376.0000     1.2712     1.4046
 1376.5000     1.2712     1.4176
 1377.0000     1.2818     1.4324
 1377.5000     1.2924     1.4472
 1378.0000     1.2494     1.4620
 1378.5000     0.6714     1.4768
 1379.0000     0.6715     1.4915
 1379.5000     0.6715     1.5063
 1380.0000     0.6716     1.5218
 1380.5000     0.5032     1.5359
 1381.0000     0.5033     1.5507
 1381.5000     0.5033     1.5655
 1382.0000     0.5477     1.5804
 1382.5000     0.6718     1.5972
 1383.0000     0.6719     1.6099
 1383.5000     0.6719     1.6246
 1384.0000     0.7346     1.6394
 1384.5000     0.9773     1.6558
 1385.0000     0.9774     1.6690
 1385.5000     0.9774     1.6838
 1386.0000     0.9775     1.6986
 1386.5000     0.9775     1.7144
 1387.0000     0.9776     1.7282
 1387.5000     0.9840     1.7430
 1388.0000     0.9757     1.7577
 1388.5000     0.7106     1.7730
 1389.0000     0.6831     1.7898
 1389.5000     0.6831     1.8021
 1390.0000     0.6832     1.8169
 1390.5000     0.6832     1.6203
 1391.0000     0.6833     1.6371
 1391.5000     0.6833     1.7646
 1392.0000     0.7030     1.8761
 1392.5000     1.3150     1.8908
 1393.0000     1.3151     1.9070
 1393.5000     1.3151     1.7092
 1394.0000     1.3152     1.7239
 1394.5000     0.7425     1.7387
 1395.0000     0.6205     1.7543
 1395.5000     0.6311     1.7710
 1396.0000     0.6365     1.7831
 1396.5000     1.0102     1.7979
 1397.0000     0.9889     1.8129
 1397.5000     0.9787     1.8296
 1398.0000     0.9949     1.6948
 1398.5000     0.7472     1.6988
 1399.0000     0.7473     1.7027
 1399.5000     0.7578     1.7067
 1400.0000     0.7579     1.7106
 1400.5000     0.7735     1.7146
 1401.0000     0.7759     1.7185
 1401.5000     0.7591     1.7225
 1402.0000     0.7596     1.7264
 1402.5000     0.7600     1.7304
 1403.0000     0.7604     1.7343
 1403.5000     0.7625     1.7383
 1404.0000     0.7823     1.7422
 1404.5000     0.6460     1.7462
 1405.0000     0.6358     1.7501
 1405.5000     0.6362     1.7541
 1406.0000     0.6366     1.7580
 1406.5000     0.6371     1.7620
 1407.0000     0.6326     1.7659
 1407.5000     0.6273     1.7699
 1408.0000     0.6278     1.7738
 1408.5000     0.6283     1.7778
 1409.0000     0.6286     1.7817
 1409.5000     0.6291     1.7857
 1410.0000     0.6336     1.7896
 1410.5000     0.9060     1.7936
 1411.0000     0.8935     1.7975
 1411.5000     0.8939     1.8015
 1412.0000     0.9016     1.8054
 1412.5000     1.0527     1.8094
 1413.0000     1.0531     1.8133
 1413.5000     1.0535     1.8173
 1414.0000     1.0539     1.8212
 1414.5000     0.6123     1.8252
 1415.0000     0.6126     1.8293
 1415.5000     0.6131     1.8546
 1416.0000     0.6240     1.8812
 1416.5000     0.6245     1.9078
 1417.0000     0.6354     1.9344
 1417.5000     0.6358     1.9610
 1418.0000     0.6362     1.9876
 1418.5000     0.6367     2.0141
 1419.0000     0.6371     2.0407
 1419.5000     0.6269     2.0673
 1420.0000     0.6256     2.0939
 1420.5000     0.6173     2.1205
 1421.0000     0.6178     2.1471
 1421.5000     0.6181     2.1736
 1422.0000     0.6080     2.2002
 1422.5000     0.6190     2.2268
 1423.0000     0.6194     2.2534
 1423.5000     0.6303     2.2800
 1424.0000     0.6332     2.3066
 1424.5000     0.9154     2.3331
 1425.0000     0.8948     2.3597
 1425.5000     0.8952     2.3863
 1426.0000     0.9061     2.4129
 1426.5000     1.0223     2.4395
 1427.0000     1.0228     2.4661
 1427.5000     1.0232     2.4926
 1428.0000     1.0236     2.5192
 1428.5000     1.0240     2.5458
 1429.0000     1.0245     2.5724
 1429.5000     1.0188     2.5990
 1430.0000     1.0113     2.6078
 1430.5000     1.0046     2.6051
 1431.0000     1.0051     2.6030
 1431.5000     1.0055     2.6010
 1432.0000     1.0164     2.5989
 1432.5000     0.7852     2.8072
 1433.0000     0.7857     2.8048
 1433.5000     0.7794     2.8028
 1434.0000     0.7925     2.8007
 1434.5000     1.0290     2.7987
 1435.0000     1.0189     2.5860
 1435.5000     1.0088     2.5840
 1436.0000     1.0093     2.3717
 1436.5000     0.9991     1.9491
 1437.0000     0.9996     1.7368
 1437.5000     1.0001     1.5244
 1438.0000     1.0961     1.5221
 1438.5000     1.2114     1.5204
 1439.0000     1.2118     1.5372
 1439.5000     1.2123     1.5537
 1440.0000     1.2126     1.5702
 1440.5000     0.5183     1.5867
 1441.0000     0.5293     1.6032
 1441.5000     0.5403     1.6197
 1442.0000     0.5406     1.6362
 1442.5000     0.5439     1.6527
 1443.0000     0.5520     1.6691
 1443.5000     0.5525     1.6856
 1444.0000     0.5528     1.7021
 1444.5000     0.5638     1.7186
 1445.0000     0.5642     1.7351
 1445.5000     0.5647     1.7516
 1446.0000     0.5589     1.7681
 1446.5000     0.5549     1.7846
 1447.0000     0.5544     1.8011
 1447.5000     0.5453     1.8176
 1448.0000     0.5457     1.8341
 1448.5000     0.5461     1.8506
 1449.0000     0.5465     1.8671
 1449.5000     0.5364     1.8835
 1450.0000     0.5301     1.8616
 1450.5000     0.7857     1.7830
 1451.0000     0.7798     1.7043
 1451.5000     0.7908     1.6257
 1452.0000     0.7912     1.5471
 1452.5000     1.0126     1.4446
 1453.0000     1.0131     1.4556
 1453.5000     1.0135     1.4694
 1454.0000     1.0140     1.4836
 1454.5000     1.0248     1.4992
 1455.0000     1.0253     1.5106
 1455.5000     1.0257     1.5243
 1456.0000     1.0262     1.5382
 1456.5000     1.0213     1.5538
 1457.0000     1.0164     1.5655
 1457.5000     1.0168     1.5792
 1458.0000     0.9963     1.5939
 1458.5000     0.9861     1.6084
 1459.0000     0.9865     1.6204
 1459.5000     0.9869     1.6342
 1460.0000     0.7558     1.6479
 1460.5000     0.7667     1.6630
 1461.0000     0.7672     1.6754
 1461.5000     0.7684     1.6891
 1462.0000     0.7786     1.7028
 1462.5000     0.7895     1.7177
 1463.0000     0.8004     1.7303
 1463.5000     0.8019     1.7440
 1464.0000     0.8118     1.7577
 1464.5000     0.8122     1.7723
 1465.0000     0.8126     1.7879
