~VERSION INFORMATION
 VERS.                2.0:   CWLS LOG ASCII STANDARD - VERSION 2.0
 WRAP.                 NO:   ONE LINE PER DEPTH STEP
~WELL INFORMATION
#MNEM.UNIT      DATA TYPE    INFORMATION
#----------   ------------   ------------------------------
 STRT.F           18.0000:   START DEPTH
 STOP.F          647.0000:   STOP DEPTH
 STEP.F            0.5000:   STEP LENGTH
 NULL.          -999.2500:   NO VALUE
 COMP. FENIX & SCISSON INC:   COMPANY
 WELL. NAVAL PETROLEUM RESERVE 3 SX-1 #82-15:   WELL
 FLD .        TEAPOT DOME:   FIELD
 LOC .      S15 T38N R78W:   LOCATION
 CNTY.            NATRONA:   COUNTY
 STAT.            WYOMING:   STATE
 CTRY. UNITED STATES OF AMERICA:   COUNTRY
 SRVC.            Unknown:   SERVICE COMPANY
 DATE.        15-MAR-1979:   LOGDATE
 API .       490251076500:   API NUMBER
~CURVE INFORMATION
#MNEM.UNIT       API CODE    CURVE DESCRIPTION
#----------   ------------   ------------------------------
 DEPT.F                  :   
 SPR .MV     05 010 01 00:   SPONTANEOUS POTENTIAL FROM RES.
 SN  .OHMM   05 040 16 00:   SHORT NORMAL 16"
 IL  .OHMM   05 120 00 00:   INDUCTION LOG
 CALD.IN     45 280 60 00:   CALIPER
 GRD .GAPI   45 310 01 00:   GAMMA RAY FROM DENSITY LOG
 RHOB.G/C3   45 350 01 00:   BULK DENSITY
 DPHI.DEC    45 890 12 00:   DENSITY POROSITY SANDSTONE
 CORR.G/C3   45 356 01 00:   DENSITY CORRECTION
~PARAMETER INFORMATION
#MNEM.UNIT          VALUE    DESCRIPTION
#----------   ------------   ------------------------------
 PD  .                 GL:   PERMANENT DATUM
 EPD .F              5249:   ELEVATION PERMANENT DATUM
 LMF .                 KB:   LOG MEASURED FROM
 DAPD.F                 4:   FEET ABOVE PERMANENT DATUM
 DMF .                 KB:   DRILLING MEASURED FROM
 EKB .F              5253:   KELLING BUSHING
 EGL .F              5249:   GROUND LEVEL
 DATE.            1-15-79:   RUN DATE
 RUN .                  1:   RUN NUMBER
 DD  .F               670:   DEPTH DRILLER
 DL  .F               647:   DEPTH LOGGER
 BLI .F               640:   BOTTOM LOG INTERVAL
 TLI .F                30:   TOP LOG INTERVAL
 CS  .IN            8.625:   CASING SIZE
 CBD .F                40:   CASING BOTTOM DRILLER
 CBL .F                34:   CASING BOTTOM LOGGER
 BS  .IN            7.875:   BIT SIZE
 BSD .F               670:   BIT SIZE AT DEPTH
 DFT .                KCL:   DRILLING FLUID TYPE
 DFD .                8.9:   DRILLING FLUID DENSITY
 DFV .                 44:   DRILLING FLUID VISCOSITY
 DFPH.                8.5:   DRILLING FLUID PH
 DFL .               14.8:   DRILLING FLUID LOSS
 MSS .           FLOWLINE:   MUD SAMPLE SOURCE
 RMS .OHMM            .26:   RESISTIVITY MUD SAMPLE
 MST .F                61:   MUD SAMPLE TEMPERATURE
 RMF .OHMM            .25:   RESISTIVITY MUD FILTRATE SAMPLE
 MFST.F                60:   MUD FILTRATE SAMPLE TEMPERATURE
 RMC .OHMM             .2:   RESISTIVITY MUD CAKE
 MCST.F                60:   MUD CAKE SAMPLE TEMPERATURE
 MFSS.           MEASURED:   MUD FILTRATE SAMPLE SOURCE
 MCSS.           MEASURED:   MUD CAKE SAMPLE SOURCE
 RMB .OHMM            .27:   RESISTIVITY MUD AT BHT
 BHT .F                58:   BOTTOM HOLE TEMPERATURE
 TCS .HRS               5:   TIME CURCULATED STOPPED
 MRT .F                58:   MAXIMUM RECORDED TEMPERATURE
 LUN .               3006:   LOGGING UNIT NUMBER
 LUL .             CASPER:   LOGGING UNIT LOCATION
 ENGI.            ROLLINS:   RECORDING ENGINEER
 WITN.              AMEND:   WITNESSED BY
 CLNT.            A2DTECH:   CLIENT CODE
 ORIG.         2.5" PRINT:   ORIGIN OF DATA
 UWI .       490251076500:   UNIQUE WELL ID
 DICO. A2D Technologies, Inc.:   DIGITIZING COMPANY
~OTHER INFORMATION
~A   DEPT      SPR         SN         IL       CALD         GRD      RHOB       DPHI       CORR   
# ...
  342.0000   -70.6590     6.4440     6.2100     8.2900   105.0500     2.4510     0.1490     0.0340
  342.5000   -70.6760     6.4510     6.2420     8.2900   105.8170     2.4440     0.1550     0.0340
  343.0000   -70.6920     6.4590     6.2730     8.2910   105.5480     2.4360     0.1570     0.0350
  343.5000   -70.7080     6.4660     6.3050     8.2910   105.5070     2.4360     0.1480     0.0360
  344.0000   -70.7250     6.4730     6.3370     8.2920   107.3890     2.4430     0.1410     0.0360
  344.5000   -70.7400     6.4840     6.3680     8.2920   107.9110     2.4530     0.1370     0.0370
  345.0000   -70.7580     6.4550     6.2560     8.2930   106.9720     2.4620     0.1430     0.0380
  345.5000   -70.7620     6.3290     6.1440     8.2930   106.2480     2.4540     0.1510     0.0400
  346.0000   -70.7480     6.2000     6.0310     8.2940   105.4650     2.4440     0.1560     0.0430
  346.5000   -70.7360     6.0710     5.9190     8.2940   106.1680     2.4340     0.1600     0.0470
  347.0000   -70.7240     5.9420     5.8070     8.2950   105.8230     2.4250     0.1660     0.0500
  347.5000   -70.7120     5.8140     5.6950     8.2950   106.5840     2.4150     0.1730     0.0540
  348.0000   -70.7000     5.6850     5.5820     8.2960   107.9540     2.4050     0.1810     0.0710
  348.5000   -70.6880     5.5560     5.4700     8.2960   109.2840     2.3950     0.1880     0.0900
  349.0000   -70.6760     5.4280     5.3580     8.2970   108.6250     2.3850     0.1920     0.1100
  349.5000   -70.6640     5.3940     5.1980     8.2970   108.3040     2.3760     0.1780     0.1240
  350.0000   -70.6520     5.4690     5.2810     8.2980   108.8290     2.3720     0.1610     0.1100
  350.5000   -70.6390     5.5990     5.4250     8.2980   108.4730     2.3930     0.1440     0.0860
  351.0000   -70.6270     5.7290     5.5680     8.2990   106.8540     2.4320     0.1240     0.0640
  351.5000   -70.6150     5.8580     5.7110     8.2990   106.4230     2.4820     0.1310     0.0410
  352.0000   -70.6030     5.9880     5.8540     8.3000   108.4460     2.4770     0.1480     0.0330
  352.5000   -70.5910     6.1180     5.9980     8.3000   113.2720     2.4560     0.1560     0.0320
  353.0000   -70.5790     6.2520     6.1410     8.3010   115.8000     2.4370     0.1540     0.0310
  353.5000   -70.5670     6.3430     6.2840     8.3010   111.1540     2.4380     0.1500     0.0300
  354.0000   -70.5550     6.4370     6.3940     8.3020   108.2960     2.4400     0.1510     0.0290
  354.5000   -70.5430     6.5310     6.4550     8.3020   107.1400     2.4400     0.1530     0.0280
  355.0000   -70.5300     6.6250     6.5160     8.3030   105.7650     2.4390     0.1530     0.0260
  355.5000   -70.5180     6.7200     6.5770     8.3030   105.7920     2.4410     0.1470     0.0250
  356.0000   -70.5060     6.8140     6.6380     8.3040   106.4340     2.4460     0.1430     0.0240
  356.5000   -70.4940     6.9080     6.6990     8.3040   107.0260     2.4510     0.1420     0.0230
  357.0000   -70.4820     6.9840     6.7600     8.3050   107.5950     2.4560     0.1410     0.0220
  357.5000   -70.4700     7.0450     6.8210     8.3050   108.2380     2.4610     0.1380     0.0220
  358.0000   -70.4580     7.0960     6.8820     8.3060   108.7170     2.4660     0.1310     0.0220
  358.5000   -70.4460     7.1470     6.9430     8.3060   109.0020     2.4710     0.1290     0.0220
  359.0000   -70.4340     7.1980     7.0040     8.3070   107.9450     2.4770     0.1320     0.0220
  359.5000   -70.4220     7.2490     7.0650     8.3070   107.5650     2.4730     0.1350     0.0220
  360.0000   -70.4090     7.3000     7.1260     8.3080   109.9390     2.4710     0.1380     0.0230
  360.5000   -70.4000     7.3510     7.1870     8.3080   111.8880     2.4670     0.1390     0.0270
  361.0000   -70.3840     7.3820     7.2470     8.3090   113.7570     2.4670     0.1370     0.0300
  361.5000   -70.3750     7.3820     7.2280     8.3090   112.4810     2.4670     0.1330     0.0330
  362.0000   -70.3810     7.3820     7.2090     8.3100   108.3680     2.4670     0.1240     0.0370
  362.5000   -70.5820     7.3820     7.1900     8.3110   107.3330     2.4780     0.1160     0.0400
  363.0000   -70.7570     7.3820     7.1710     8.3110   107.3720     2.5030     0.1160     0.0440
  363.5000   -70.9460     7.3820     7.1520     8.3120   106.1220     2.5050     0.1120     0.0460
  364.0000   -71.1270     7.3820     7.1330     8.3120   104.5660     2.5080     0.1050     0.0460
  364.5000   -71.3110     7.3820     7.1140     8.3130   103.0760     2.5150     0.0960     0.0390
  365.0000   -71.4950     7.3820     7.0880     8.3130   102.4610     2.5280     0.1030     0.0310
  365.5000   -71.6780     7.3820     7.0620     8.3140   103.9510     2.5280     0.1120     0.0230
  366.0000   -71.8610     7.3830     7.0370     8.3140   106.6820     2.5170     0.1170     0.0260
  366.5000   -72.0450     7.3850     7.0110     8.3150   109.3050     2.5040     0.1200     0.0340
  367.0000   -72.2260     7.3780     6.9850     8.3150   110.9850     2.4960     0.1180     0.0370
  367.5000   -72.4140     7.2820     6.9020     8.3160   110.5040     2.4970     0.1160     0.0340
  368.0000   -72.5920     7.1800     6.8150     8.3160   109.6730     2.4960     0.1220     0.0310
  368.5000   -72.7630     7.0750     6.7250     8.3170   108.9230     2.4890     0.1280     0.0290
  369.0000   -72.6810     6.9710     6.6370     8.3170   108.1250     2.4810     0.1330     0.0260
  369.5000   -72.5870     6.8560     6.4870     8.3180   107.4470     2.4730     0.1380     0.0280
  370.0000   -72.4840     6.5760     6.2290     8.3180   107.5330     2.4650     0.1410     0.0300
  370.5000   -72.3870     6.2840     5.9540     8.3190   109.5220     2.4560     0.1410     0.0320
  371.0000   -72.2880     6.0360     5.6780     8.3190   112.1080     2.4520     0.1420     0.0340
  371.5000   -72.1880     5.7880     5.4030     8.3190   112.8060     2.4510     0.1460     0.0330
  372.0000   -72.0920     5.5400     5.1270     8.3240   115.7960     2.4490     0.1520     0.0330
  372.5000   -71.9830     5.2910     4.8520     8.3350   116.2500     2.4420     0.1570     0.0320
  373.0000   -71.9270     5.0430     4.5800     8.3460   114.3250     2.4330     0.1610     0.0310
  373.5000   -71.8660     4.7950     4.3180     8.3570   113.0190     2.4240     0.1620     0.0300
  374.0000   -71.8090     4.5460     4.0560     8.3680   112.2400     2.4170     0.1640     0.0300
  374.5000   -71.7490     4.2980     3.7940     8.3790   111.2660     2.4140     0.1680     0.0300
  375.0000   -71.6910     4.0700     3.5310     8.3890   110.3760     2.4110     0.1800     0.0300
  375.5000   -71.6320     3.8490     3.2690     8.3990   109.4560     2.3980     0.1960     0.0300
  376.0000   -71.5730     3.6270     3.0070     8.3990   108.5500     2.3860     0.2190     0.0360
  376.5000   -71.5140     3.4050     2.7450     8.3980   107.6200     2.3500     0.2420     0.0420
  377.0000   -71.4550     3.1830     2.4830     8.3970   106.2410     2.2990     0.2660     0.0500
  377.5000   -71.3960     2.9610     2.2650     8.3960   103.9470     2.2510     0.2820     0.0530
  378.0000   -71.3370     2.7750     2.2650     8.3950   101.6500     2.2140     0.2840     0.0460
  378.5000   -71.2780     2.9000     2.3960     8.3950    99.7590     2.2290     0.2480     0.0410
  379.0000   -71.2190     3.2240     2.6240     8.3940   100.6160     2.2650     0.2170     0.0340
  379.5000   -71.1610     3.5480     2.8520     8.3930   102.6820     2.3020     0.1940     0.0310
  380.0000   -71.1020     3.8710     3.0800     8.3920   107.8460     2.3390     0.1800     0.0270
  380.5000   -71.0430     4.1950     3.3090     8.3910   113.7890     2.3720     0.1660     0.0230
  381.0000   -70.9840     4.5190     3.5370     8.3900   118.3230     2.4030     0.1530     0.0200
  381.5000   -70.9250     4.8430     3.7290     8.3890   116.9330     2.4340     0.1460     0.0160
  382.0000   -70.8670     5.1670     4.0930     8.3880   114.1570     2.4530     0.1440     0.0120
