~VERSION INFORMATION
 VERS.                2.0:   CWLS LOG ASCII STANDARD - VERSION 2.0
 WRAP.                 NO:   ONE LINE PER DEPTH STEP
~WELL INFORMATION
#MNEM.UNIT      DATA TYPE    INFORMATION
#----------   ------------   ------------------------------
 STRT.F           20.0000:   START DEPTH
 STOP.F         2420.0000:   STOP DEPTH
 STEP.F            0.5000:   STEP LENGTH
 NULL.          -999.2500:   NO VALUE
 COMP. FENIX & SCISSON INC:   COMPANY
 WELL.    SHX 15 #71-1-15:   WELL
 FLD .             TEAPOT:   FIELD
 LOC .      S15 T38N R78W:   LOCATION
 CNTY.            NATRONA:   COUNTY
 STAT.            WYOMING:   STATE
 CTRY. UNITED STATES OF AMERICA:   COUNTRY
 SRVC.           BIRDWELL:   SERVICE COMPANY
 DATE.        03-SEP-1978:   LOGDATE
 API .       490251081800:   API NUMBER
~CURVE INFORMATION
#MNEM.UNIT       API CODE    CURVE DESCRIPTION
#----------   ------------   ------------------------------
 DEPT.F                  :   
 CALD.IN     45 280 60 00:   CALIPER
 GRD .GAPI   45 310 01 00:   GAMMA RAY FROM DENSITY LOG
 RHOB.G/C3   45 350 01 00:   BULK DENSITY
 DPHI.DEC    45 890 12 00:   DENSITY POROSITY SANDSTONE
 CORR.G/C3   45 356 01 00:   DENSITY CORRECTION
 NPHI.DEC    42 890 03 00:   NEUTRON POROSITY
~PARAMETER INFORMATION
#MNEM.UNIT          VALUE    DESCRIPTION
#----------   ------------   ------------------------------
 PD  .                 GL:   PERMANENT DATUM
 EPD .F              5249:   ELEVATION PERMANENT DATUM
 LMF .                 KB:   LOG MEASURED FROM
 DAPD.F                10:   FEET ABOVE PERMANENT DATUM
 DMF .                 KB:   DRILLING MEASURED FROM
 EKB .F              5259:   KELLING BUSHING
 EGL .F              5249:   GROUND LEVEL
 DATE.             9-3-78:   RUN DATE
 RUN .                  1:   RUN NUMBER
 DD  .F              2450:   DEPTH DRILLER
 DL  .F              2422:   DEPTH LOGGER
 BLI .F              2420:   BOTTOM LOG INTERVAL
 TLI .F                50:   TOP LOG INTERVAL
 CS  .IN            9.625:   CASING SIZE
 CBD .F               650:   CASING BOTTOM DRILLER
 CBL .F               676:   CASING BOTTOM LOGGER
 BS  .IN             8.75:   BIT SIZE
 BSD .F              2450:   BIT SIZE AT DEPTH
 DFT .           AIR MIST:   DRILLING FLUID TYPE
 LUN .               2958:   LOGGING UNIT NUMBER
 LUL .               CASP:   LOGGING UNIT LOCATION
 ENGI.             MILLER:   RECORDING ENGINEER
 WITN.           MCGINLEY:   WITNESSED BY
 CLNT.            A2DTECH:   CLIENT CODE
 ORIG.         2.5" PRINT:   ORIGIN OF DATA
 UWI .       490251081800:   UNIQUE WELL ID
 DICO. A2D Technologies, Inc.:   DIGITIZING COMPANY
~OTHER INFORMATION
~A   DEPT     CALD        GRD       RHOB       DPHI       CORR         NPHI 
# ...
 1372.0000    13.4694   119.5977     2.4087     0.1474     0.1456  -999.2500
 1372.5000    13.3619   120.3835     2.3881     0.1260     0.1439  -999.2500
 1373.0000    13.3434   119.7463     2.4163     0.0884     0.1449  -999.2500
 1373.5000    13.3010   119.0805     2.5173     0.0892     0.1120  -999.2500
 1374.0000    13.2462   119.3344     2.5104     0.0900     0.0528  -999.2500
 1374.5000    13.2126   123.4984     2.5064     0.0906     0.0543  -999.2500
 1375.0000    13.2016   129.8666     2.4960     0.0901     0.0641  -999.2500
 1375.5000    13.1878   130.2925     2.5094     0.0897     0.0808  -999.2500
 1376.0000    13.1744   128.5295     2.5137     0.0892     0.0779  -999.2500
 1376.5000    13.1614   125.6364     2.5031     0.0891     0.0726  -999.2500
 1377.0000    13.1479   122.3007     2.4994     0.0900     0.0716  -999.2500
 1377.5000    13.1347   121.6338     2.4990     0.0910     0.0772  -999.2500
 1378.0000    13.1214   121.1814     2.5005     0.0920     0.0820  -999.2500
 1378.5000    13.1080   120.2389     2.5006     0.0930     0.0878  -999.2500
 1379.0000    13.0947   119.3535     2.4991     0.0940     0.0861  -999.2500
 1379.5000    13.0814   115.7188     2.4983     0.0952     0.0755  -999.2500
 1380.0000    13.0679   112.9509     2.4932     0.0972     0.0665  -999.2500
 1380.5000    13.0520   112.7424     2.4916     0.0992     0.0662  -999.2500
 1381.0000    13.0321   113.5418     2.4965     0.1012     0.0659  -999.2500
 1381.5000    13.0120   114.9593     2.4871     0.1032     0.0660  -999.2500
 1382.0000    12.9929   117.0539     2.4699     0.1108     0.0660  -999.2500
 1382.5000    12.9538   119.1159     2.4746     0.1091     0.0661  -999.2500
 1383.0000    12.8865   118.7692     2.4791     0.1066     0.0689  -999.2500
 1383.5000    12.8198   118.4436     2.4845     0.1037     0.0722  -999.2500
 1384.0000    12.7535   118.1008     2.4895     0.0964     0.0756  -999.2500
 1384.5000    12.6870   118.9168     2.4981     0.0869     0.0778  -999.2500
 1385.0000    12.6166   119.7406     2.5110     0.0855     0.0765  -999.2500
 1385.5000    12.5671   118.8912     2.5187     0.0838     0.0753  -999.2500
 1386.0000    12.5454   115.6327     2.5209     0.0822     0.0751  -999.2500
 1386.5000    12.5196   112.5161     2.5226     0.0805     0.0655  -999.2500
 1387.0000    12.5000   110.6886     2.5242     0.0857     0.0507  -999.2500
 1387.5000    12.5003   109.9439     2.5122     0.0942     0.0362  -999.2500
 1388.0000    12.4997   109.0246     2.5001     0.0976     0.0294  -999.2500
 1388.5000    12.5000   109.7920     2.4938     0.1011     0.0280  -999.2500
 1389.0000    12.5000   112.3025     2.4998     0.1011     0.0262  -999.2500
 1389.5000    12.5000   115.9906     2.5045     0.1011     0.0243  -999.2500
 1390.0000    12.5000   117.3453     2.5044     0.1003     0.0225  -999.2500
 1390.5000    12.5000   116.3099     2.4995     0.1017     0.0252  -999.2500
 1391.0000    12.5000   115.1990     2.4944     0.1027     0.0298  -999.2500
 1391.5000    12.5000   114.1339     2.5029     0.1009     0.0344  -999.2500
 1392.0000    12.5000   113.6865     2.5087     0.0995     0.0394  -999.2500
 1392.5000    12.5000   114.1914     2.5009     0.0934     0.0412  -999.2500
 1393.0000    12.5000   114.8885     2.4962     0.0905     0.0374  -999.2500
 1393.5000    12.5000   115.6513     2.5076     0.0898     0.0342  -999.2500
 1394.0000    12.5000   119.3162     2.5178     0.0892     0.0309  -999.2500
 1394.5000    12.5000   124.6799     2.5164     0.0900     0.0273  -999.2500
 1395.0000    12.4999   127.3509     2.5109     0.0896     0.0259  -999.2500
 1395.5000    12.5000   130.9808     2.5023     0.0875     0.0261  -999.2500
 1396.0000    12.5004   134.8903     2.5071     0.0854     0.0257  -999.2500
 1396.5000    12.5056   131.9750     2.5116     0.0832     0.0312  -999.2500
 1397.0000    12.5099   129.6390     2.5147     0.0811     0.0466  -999.2500
 1397.5000    12.5146   126.9623     2.5171     0.0789     0.0489  -999.2500
 1398.0000    12.5191   124.4379     2.5191     0.0819     0.0472  -999.2500
 1398.5000    12.5236   121.8498     2.5340     0.0850     0.0427  -999.2500
 1399.0000    12.5282   120.4256     2.5293     0.0880     0.0341  -999.2500
 1399.5000    12.5327   119.8768     2.5188     0.0911     0.0253  -999.2500
 1400.0000    12.5373   119.6590     2.5108     0.0941     0.0218  -999.2500
 1400.5000    12.5418   120.1092     2.5059     0.0972     0.0252  -999.2500
 1401.0000    12.5464   120.6145     2.5013     0.0985     0.0288  -999.2500
 1401.5000    12.5509   120.7506     2.5008     0.0980     0.0345  -999.2500
 1402.0000    12.5553   120.6246     2.5069     0.0964     0.0473  -999.2500
 1402.5000    12.5599   120.4293     2.5130     0.0877     0.0540  -999.2500
 1403.0000    12.5641   120.9843     2.5115     0.0913     0.0584  -999.2500
 1403.5000    12.5685   122.0339     2.5045     0.0950     0.0639  -999.2500
 1404.0000    12.5740   123.0584     2.4933     0.0980     0.0683  -999.2500
 1404.5000    12.5757   124.0271     2.4815     0.1050     0.0750  -999.2500
 1405.0000    12.6208   124.7358     2.4731     0.1098     0.0890  -999.2500
 1405.5000    12.7189   123.9282     2.4594     0.1139     0.1027  -999.2500
 1406.0000    12.7997   123.1613     2.4426     0.1177     0.1166  -999.2500
 1406.5000    13.0573   122.1753     2.4080     0.1306     0.1304  -999.2500
 1407.0000    13.2945   115.2504     2.3843     0.1442     0.1446  -999.2500
 1407.5000    13.4753   110.9608     2.3704     0.1515     0.1576  -999.2500
 1408.0000    13.5980   109.8537     2.3763     0.1570     0.1687  -999.2500
 1408.5000    13.3746   109.8227     2.2055     0.2183     0.1215  -999.2500
 1409.0000    13.0085   110.0012     2.1843     0.2115     0.1173  -999.2500
 1409.5000    12.8884   109.4704     2.2746     0.1907     0.1990  -999.2500
 1410.0000    12.6419   108.4191     2.3351     0.1379     0.1778  -999.2500
 1410.5000    12.3049   109.2078     2.5512     0.0837     0.0133  -999.2500
 1411.0000    12.1283   112.5025     2.5272     0.0866     0.0286  -999.2500
 1411.5000    12.0983   115.4104     2.4998     0.0893     0.0177  -999.2500
 1412.0000    12.1009   119.2702     2.5062     0.0927     0.0210  -999.2500
 1412.5000    12.1003   120.7496     2.5131     0.0929     0.0239  -999.2500
 1413.0000    12.1019   119.3613     2.5113     0.0916     0.0235  -999.2500
 1413.5000    12.1026   117.2118     2.5086     0.0900     0.0252  -999.2500
 1414.0000    12.1033   116.0013     2.5054     0.0905     0.0313  -999.2500
 1414.5000    12.1044   115.7965     2.5262     0.0903     0.0452  -999.2500
 1415.0000    12.1052   116.2993     2.5238     0.0885     0.0458  -999.2500
 1415.5000    12.1059   116.7028     2.5135     0.0895     0.0461  -999.2500
 1416.0000    12.1066   117.2098     2.5142     0.0880     0.0465  -999.2500
 1416.5000    12.1074   116.9661     2.5135     0.0836     0.0524  -999.2500
 1417.0000    12.1081   116.9437     2.5078     0.0813     0.0573  -999.2500
 1417.5000    12.1088   117.1221     2.5261     0.0813     0.0526  -999.2500
 1418.0000    12.1096   117.2171     2.5252     0.0834     0.0477  -999.2500
 1418.5000    12.1103   116.8099     2.5238     0.0846     0.0472  -999.2500
 1419.0000    12.1110   115.8414     2.5211     0.0821     0.0540  -999.2500
 1419.5000    12.1118   114.8911     2.5287     0.0795     0.0582  -999.2500
 1420.0000    12.1125   113.7357     2.5352     0.0766     0.0747  -999.2500
 1420.5000    12.1132   113.3829     2.5557     0.0728     0.0955  -999.2500
 1421.0000    12.1140   112.8348     2.5578     0.0672     0.1059  -999.2500
 1421.5000    12.1147   112.1064     2.5454     0.0640     0.0870  -999.2500
 1422.0000    12.1154   111.4320     2.5316     0.0685     0.0683  -999.2500
 1422.5000    12.1162   113.4050     2.5266     0.0731     0.0657  -999.2500
 1423.0000    12.1169   115.6303     2.5278     0.0765     0.0742  -999.2500
 1423.5000    12.1177   117.0384     2.5514     0.0747     0.0772  -999.2500
