~VERSION INFORMATION
 VERS.                2.0:   CWLS LOG ASCII STANDARD - VERSION 2.0
 WRAP.                 NO:   ONE LINE PER DEPTH STEP
~WELL INFORMATION
#MNEM.UNIT      DATA TYPE    INFORMATION
#----------   ------------   ------------------------------
 STRT.F           30.0000:   START DEPTH
 STOP.F          510.0000:   STOP DEPTH
 STEP.F            0.5000:   STEP LENGTH
 NULL.          -999.2500:   NO VALUE
 COMP. FENIX & SCISSON INC:   COMPANY
 WELL.    66-SX 3FP #54-3:   WELL
 FLD .             TEAPOT:   FIELD
 LOC .       S3 T38N R78W:   LOCATION
 CNTY.            NATRONA:   COUNTY
 STAT.            WYOMING:   STATE
 CTRY. UNITED STATES OF AMERICA:   COUNTRY
 SRVC.              Welex:   SERVICE COMPANY
 DATE.        25-JUN-1980:   LOGDATE
 API .       490251081400:   API NUMBER
~CURVE INFORMATION
#MNEM.UNIT       API CODE    CURVE DESCRIPTION
#----------   ------------   ------------------------------
 DEPT.F                  :   
 SGRD.OHMM   07 220 05 00:   SHALLOW GUARD RESISTIVITY
 ILD .OHMM   07 120 46 00:   INDUCTION LOG DEEP RESISTIVITY
 ILM .OHMM   07 120 44 00:   INDUCTION LOG MEDIUM
 CALD.IN     45 280 60 00:   CALIPER
 GRD .GAPI   45 310 01 00:   GAMMA RAY FROM DENSITY LOG
 CORR.G/C3   45 356 01 00:   DENSITY CORRECTION
 NPHI.DEC    42 890 03 00:   NEUTRON POROSITY SANDSTONE
 DPHI.DEC    45 890 12 00:   DENSITY POROSITY SANDSTONE
 SPR .MV     07 010 01 00:   SPONTANEOUS POTENTIAL
 RHOB.G/C3   45 350 01 00:   BULK DENSITY
~PARAMETER INFORMATION
#MNEM.UNIT          VALUE    DESCRIPTION
#----------   ------------   ------------------------------
 PD  .                 GL:   PERMANENT DATUM
 EPD .F              5158:   ELEVATION PERMANENT DATUM
 LMF .                 KB:   LOG MEASURED FROM
 DAPD.F                 5:   FEET ABOVE PERMANENT DATUM
 DMF .                 KB:   DRILLING MEASURED FROM
 EKB .F              5163:   KELLING BUSHING
 EGL .F              5158:   GROUND LEVEL
 DATE.            6-25-80:   RUN DATE
 RUN .                  1:   RUN NUMBER
 DD  .F               516:   DEPTH DRILLER
 DL  .F               512:   DEPTH LOGGER
 BLI .F               510:   BOTTOM LOG INTERVAL
 TLI .F                30:   TOP LOG INTERVAL
 BS  .IN            9.875:   BIT SIZE
 BSD .F               516:   BIT SIZE AT DEPTH
 DFT .            KCL MUD:   DRILLING FLUID TYPE
 DFD .                9.2:   DRILLING FLUID DENSITY
 DFV .                 52:   DRILLING FLUID VISCOSITY
 DFPH.                 12:   DRILLING FLUID PH
 DFL .                  6:   DRILLING FLUID LOSS
 MSS .           FLOWLINE:   MUD SAMPLE SOURCE
 RMB .OHMM            .35:   RESISTIVITY MUD AT BHT
 BHT .F                75:   BOTTOM HOLE TEMPERATURE
 TCS .HRS               1:   TIME CURCULATED STOPPED
 MRT .F                75:   MAXIMUM RECORDED TEMPERATURE
 LUN .               1892:   LOGGING UNIT NUMBER
 LUL .             CASPER:   LOGGING UNIT LOCATION
 ENGI.            TOTHILL:   RECORDING ENGINEER
 WITN.              AMEND:   WITNESSED BY
 CLNT.            A2DTECH:   CLIENT CODE
 ORIG.           5" PRINT:   ORIGIN OF DATA
 UWI .       490251081400:   UNIQUE WELL ID
 DICO. A2D Technologies, Inc.:   DIGITIZING COMPANY
~OTHER INFORMATION
~A   DEPT       SGRD        ILD        ILM     CALD        GRD       CORR       NPHI       DPHI        SPR       RHOB   
# ...
  264.5000     4.2194     3.7383     4.4311    10.1227   116.4483     0.0910     0.3209     0.1290   -57.8383     2.4779
  265.0000     3.9486     3.7164     4.2119    10.1223   115.7257     0.1065     0.3237     0.1362   -57.6461     2.4783
  265.5000     4.0979     3.7025     4.3966    10.1219   114.9879     0.0968     0.3255     0.1459   -57.3770     2.4552
  266.0000     4.6203     3.7675     4.7552    10.1215   114.2565     0.0750     0.3220     0.1544   -56.5228     2.4392
  266.5000     5.1129     3.8160     5.1570    10.1210   113.5247     0.0531     0.3207     0.1593   -55.9171     2.4231
  267.0000     5.1119     3.8652     5.3163    10.1206   112.8616     0.0314     0.3186     0.1511   -55.5690     2.4167
  267.5000     5.0683     3.9960     5.4052    10.1202   112.4513     0.0245     0.3146     0.1434   -55.2209     2.4358
  268.0000     4.9633     4.1569     5.4973    10.1198   111.6845     0.0309     0.3126     0.1338   -54.9542     2.4494
  268.5000     4.8781     4.3243     5.6358    10.1194   109.8892     0.0473     0.3150     0.1297   -55.3405     2.4630
  269.0000     4.7077     4.4984     5.7559    10.1189   107.9515     0.0475     0.3144     0.1290   -55.7362     2.4723
  269.5000     4.5388     4.5798     5.6700    10.1185   107.2707     0.0402     0.3126     0.1310   -56.1329     2.4692
  270.0000     4.3760     4.5949     5.5979    10.1181   109.4296     0.0329     0.3098     0.1298   -56.5591     2.4658
  270.5000     4.2191     4.6164     5.5267    10.1177   110.2302     0.0438     0.3054     0.1282   -56.6785     2.4648
  271.0000     4.0678     4.5192     5.3449    10.1173   108.0826     0.0553     0.3038     0.1266   -56.6799     2.4694
  271.5000     3.8766     4.3571     5.0932    10.1168   105.8909     0.0596     0.3056     0.1240   -56.6790     2.4749
  272.0000     3.6298     4.2008     4.8533    10.1164   106.0199     0.0641     0.3084     0.1230   -56.7107     2.4764
  272.5000     3.3960     4.0502     4.6247    10.1160   108.3530     0.0686     0.3103     0.1290   -57.0028     2.4686
  273.0000     3.1777     3.9049     4.4908    10.1156   108.9652     0.0733     0.3122     0.1278   -57.2934     2.4631
  273.5000     3.0497     3.7648     4.4908    10.1152   109.4824     0.0861     0.3113     0.1266   -57.5399     2.4725
  274.0000     3.7825     3.7367     4.6695    10.1147   110.9794     0.0982     0.3069     0.1268   -57.7919     2.4715
  274.5000     4.2927     3.7367     4.9047    10.1143   112.5233     0.0810     0.3018     0.1279   -57.6738     2.4639
  275.0000     4.5131     3.7712     5.1515    10.1139   111.8864     0.0708     0.2988     0.1239   -57.4143     2.4641
  275.5000     4.7426     3.9094     5.4110    10.1135   109.5534     0.0656     0.2937     0.1138   -57.1562     2.4829
  276.0000     4.9467     4.0426     5.6834    10.1131   107.8157     0.0600     0.2880     0.1095   -56.6481     2.4990
  276.5000     5.1501     4.2219     5.9696    10.1126   108.9190     0.0610     0.2834     0.1055   -56.0448     2.5024
  277.0000     5.3618     4.4379     6.1707    10.1122   108.8059     0.0669     0.2812     0.1039   -55.4642     2.5061
  277.5000     5.5142     4.6649     6.3542    10.1118   106.6329     0.0649     0.2827     0.1022   -55.0844     2.5114
  278.0000     5.6265     4.9036     6.4607    10.1114   104.7891     0.0609     0.2841     0.0997   -54.7072     2.5187
  278.5000     5.7410     5.1544     6.5386    10.1110   104.9614     0.0853     0.2855     0.0974   -54.4832     2.5260
  279.0000     5.8627     5.2514     6.6188    10.1105   106.1478     0.0984     0.2870     0.0970   -54.4133     2.5267
  279.5000     5.9273     5.3122     6.7000    10.1101   106.6741     0.0891     0.2911     0.0988   -54.3353     2.5179
  280.0000     5.9930     5.3737     6.7822    10.1097   107.0981     0.0779     0.2954     0.1020   -54.6677     2.5090
  280.5000     6.0587     5.4359     6.8655    10.1093   107.9040     0.0670     0.2986     0.1109   -54.9114     2.5003
  281.0000     6.1252     5.4690     6.9496    10.1088   108.6504     0.0590     0.2988     0.1170   -54.9400     2.4920
  281.5000     6.1924     5.4959     6.9936    10.1084   109.4087     0.0508     0.2985     0.1221   -55.0380     2.4837
  282.0000     6.2603     5.5229     7.0132    10.1080   109.9658     0.0426     0.2946     0.1197   -55.0266     2.4754
  282.5000     6.3294     5.5500     7.0328    10.1076   109.7932     0.0343     0.2955     0.1179   -54.7460     2.4724
  283.0000     6.3683     5.5773     7.0524    10.1072   109.4310     0.0306     0.2975     0.1203   -54.9591     2.4782
  283.5000     6.3404     5.6046     7.0721    10.1067   109.0753     0.0401     0.2969     0.1176   -55.2328     2.4838
  284.0000     6.3210     5.6322     7.0919    10.1063   109.4252     0.0505     0.2960     0.1142   -55.5060     2.4911
  284.5000     6.3016     5.6598     7.1110    10.1059   110.4967     0.0608     0.2972     0.1156   -55.7299     2.4986
  285.0000     6.2823     5.6876     7.0589    10.1058   111.5347     0.0566     0.2984     0.1182   -55.8241     2.4916
  285.5000     6.2630     5.7032     7.0090    10.1055   111.7682     0.0483     0.2986     0.1229   -55.8109     2.4806
  286.0000     6.2525     5.6892     6.9814    10.1049   110.1458     0.0397     0.2982     0.1278   -55.5111     2.4698
  286.5000     6.3218     5.6795     7.0877    10.1044   108.9810     0.0409     0.2952     0.1289   -55.2162     2.4655
  287.0000     6.3709     5.6699     7.1623    10.1038   109.0026     0.0468     0.2926     0.1304   -54.9213     2.4722
  287.5000     6.4208     5.6602     7.2376    10.1033   108.9955     0.0347     0.2888     0.1317   -54.6264     2.4637
  288.0000     6.4851     5.6510     7.3098    10.1027   108.6255     0.0267     0.2844     0.1287   -54.3326     2.4582
  288.5000     6.2801     5.4892     7.1834    10.1021   107.4710     0.0431     0.2810     0.1233   -54.0952     2.4676
  289.0000     5.9697     5.3396     7.0459    10.1016   106.2030     0.0550     0.2824     0.1178   -54.0079     2.4778
  289.5000     5.4766     5.2024     6.3929    10.1010   104.9320     0.0591     0.2858     0.1174   -53.9708     2.4878
  290.0000     4.8140     4.9113     5.8304    10.1005   103.6613     0.0634     0.2870     0.1206   -54.3601     2.4938
  290.5000     4.2316     4.6511     5.3742    10.0999   103.1955     0.0676     0.2865     0.1345   -54.7560     2.4643
  291.0000     3.7197     4.4048     5.0155    10.0994   104.6799     0.0719     0.2856     0.1406   -55.1082     2.4533
  291.5000     3.3982     4.1714     4.8335    10.0988   107.6129     0.0762     0.2846     0.1442   -55.0739     2.4455
  292.0000     3.3464     4.0964     5.5227    10.0983   110.8651     0.0808     0.2788     0.1476   -54.7629     2.4376
  292.5000     5.5557     4.1242     6.2611    10.0977   108.6514     0.0737     0.2715     0.1502   -54.2303     2.4296
  293.0000     7.1806     4.2001     6.7338    10.0971   105.6393     0.0615     0.2646     0.1431   -53.7084     2.4325
  293.5000     8.0135     4.4516     7.1749    10.0966   102.5780     0.0484     0.2621     0.1264   -53.3561     2.4428
  294.0000     7.9721     4.7183     7.5171    10.0960    99.7366     0.0616     0.2602     0.0993   -53.4458     2.4881
  294.5000     7.9112     5.0009     7.7095    10.0955    99.4102     0.0771     0.2639     0.0877   -53.5281     2.5297
  295.0000     7.8507     5.3437     7.8971    10.0949   100.6756     0.0804     0.2685     0.0862   -53.6104     2.5370
  295.5000     7.7956     5.7607     8.0885    10.0944   101.8960     0.0823     0.2738     0.0848   -53.6912     2.5437
  296.0000     7.7956     6.2102     8.2845    10.0938   103.0769     0.0904     0.2701     0.0834   -53.6582     2.5481
  296.5000     7.9359     6.6947     8.4702    10.0933   103.0315     0.0979     0.2632     0.0900   -53.3935     2.5377
  297.0000     8.4492     6.9312     8.7825    10.0927   101.0254     0.0896     0.2562     0.0969   -53.1286     2.5251
  297.5000     8.8896     7.0448     9.0832    10.0921   100.5410     0.0694     0.2493     0.1022   -52.6820     2.5076
