~VERSION INFORMATION
 VERS.                2.0:   CWLS LOG ASCII STANDARD - VERSION 2.0
 WRAP.                 NO:   ONE LINE PER DEPTH STEP
~WELL INFORMATION
#MNEM.UNIT      DATA TYPE    INFORMATION
#----------   ------------   ------------------------------
 STRT.F           20.0000:   START DEPTH
 STOP.F          468.0000:   STOP DEPTH
 STEP.F            0.1000:   STEP LENGTH
 NULL.          -999.2500:   NO VALUE
 COMP. LAWRENCE/ALLISON INC:   COMPANY
 WELL.    63-51 SX #10-10:   WELL
 FLD .             TEAPOT:   FIELD
 LOC .      S10 T38N R78W:   LOCATION
 CNTY.            NATRONA:   COUNTY
 STAT.            WYOMING:   STATE
 CTRY. UNITED STATES OF AMERICA:   COUNTRY
 SRVC.           Gearhart:   SERVICE COMPANY
 DATE.        01-OCT-1988:   LOGDATE
 API .       490251125100:   API NUMBER
~CURVE INFORMATION
#MNEM.UNIT       API CODE    CURVE DESCRIPTION
#----------   ------------   ------------------------------
 DEPT.F                  :   
 GRR .GAPI   07 310 01 00:   GAMMA RAY
 RILD.OHMM   07 120 46 00:   INDUCTION LOG DEEP RESISTIVITY
 RILM.OHMM   07 120 44 00:   INDUCTION LOG MEDIUM RESISTIVITY
~PARAMETER INFORMATION
#MNEM.UNIT          VALUE    DESCRIPTION
#----------   ------------   ------------------------------
 PD  .                 GL:   PERMANENT DATUM
 EPD .F              5157:   ELEVATION PERMANENT DATUM
 LMF .                 KB:   LOG MEASURED FROM
 DAPD.F                 5:   FEET ABOVE PERMANENT DATUM
 DMF .                 KB:   DRILLING MEASURED FROM
 EKB .F              5162:   KELLING BUSHING
 EGL .F              5157:   GROUND LEVEL
 DATE.        01-OCT-1988:   RUN DATE
 RUN .                  1:   RUN NUMBER
 DD  .F               475:   DEPTH DRILLER
 DL  .F               476:   DEPTH LOGGER
 BLI .F               468:   BOTTOM LOG INTERVAL
 TLI .F                20:   TOP LOG INTERVAL
 CS  .IN            9.625:   CASING SIZE
 CBD .F                45:   CASING BOTTOM DRILLER
 CBL .F                46:   CASING BOTTOM LOGGER
 BS  .IN             7.87:   BIT SIZE
 BSD .F               475:   BIT SIZE AT DEPTH
 TLAB.HRS            1630:   TIME LOGGER AT BOTTOM
 MRT .F                75:   MAXIMUM RECORDED TEMPERATURE
 LUN .               7597:   LOGGING UNIT NUMBER
 LUL .           GILLETTE:   LOGGING UNIT LOCATION
 ENGI.              BENCK:   RECORDING ENGINEER
 WITN.             STRONG:   WITNESSED BY
 CLNT.            A2DTECH:   CLIENT CODE
 ORIG.           5" PRINT:   ORIGIN OF DATA
 UWI .       490251125100:   UNIQUE WELL ID
 DICO. A2D Technologies, Inc.:   DIGITIZING COMPANY
~OTHER INFORMATION
~A   DEPT       GRR      RILD       RILM   
# ...
  456.8000  -999.2500     3.2704     2.4591
  456.9000  -999.2500     3.2491     2.4329
  457.0000  -999.2500     3.2648     2.4174
  457.1000  -999.2500     3.2721     2.4173
  457.2000  -999.2500     3.2789     2.4172
  457.3000  -999.2500     3.2975     2.4172
  457.4000  -999.2500     3.3186     2.4190
  457.5000  -999.2500     3.3186     2.4341
  457.6000  -999.2500     3.3186     2.4464
  457.7000  -999.2500     3.3261     2.4602
  457.8000  -999.2500     3.3480     2.4798
  457.9000  -999.2500     3.3896     2.5080
  458.0000  -999.2500     3.4072     2.5388
  458.1000  -999.2500     3.4397     2.5786
  458.2000  -999.2500     3.4790     2.6328
  458.3000  -999.2500     3.5188     2.6997
  458.4000  -999.2500     3.5613     2.7769
  458.5000  -999.2500     3.6191     2.8614
  458.6000  -999.2500     3.6813     2.9230
  458.7000  -999.2500     3.7545     3.0018
  458.8000  -999.2500     3.8406     3.0878
  458.9000  -999.2500     3.9311     3.1837
  459.0000  -999.2500     4.0193     3.3172
  459.1000  -999.2500     4.1119     3.4087
  459.2000  -999.2500     4.2183     3.5066
  459.3000  -999.2500     4.3458     3.6071
  459.4000  -999.2500     4.4959     3.7103
  459.5000  -999.2500     4.6524     3.8186
  459.6000  -999.2500     4.8354     3.9262
  459.7000  -999.2500     5.0316     4.0389
  459.8000  -999.2500     5.2182     4.1548
  459.9000  -999.2500     5.3670     4.2737
  460.0000  -999.2500     5.4906     4.3958
  460.1000  -999.2500     5.6171     4.5222
  460.2000  -999.2500     5.7280     4.6521
  460.3000  -999.2500     5.8264     4.8140
  460.4000  -999.2500     5.9241     4.9925
  460.5000  -999.2500     6.0038     5.1357
  460.6000  -999.2500     6.0604     5.3136
  460.7000  -999.2500     6.1296     5.4486
  460.8000  -999.2500     6.1876     5.5904
  460.9000  -999.2500     6.2263     5.7409
  461.0000  -999.2500     6.3078     5.8704
  461.1000  -999.2500     6.3386     5.9709
  461.2000  -999.2500     6.3971     6.1008
  461.3000  -999.2500     6.4701     6.2206
  461.4000  -999.2500     6.5392     6.3268
  461.5000  -999.2500     6.5807     6.4347
  461.6000  -999.2500     6.6474     6.5650
  461.7000  -999.2500     6.6987     6.6881
  461.8000  -999.2500     6.7524     6.8186
  461.9000  -999.2500     6.8295     6.9220
  462.0000  -999.2500     6.9140     7.0005
  462.1000  -999.2500     7.0232     7.0929
  462.2000  -999.2500     7.0891     7.1264
  462.3000  -999.2500     7.1649     7.1666
  462.4000  -999.2500     7.2720     7.1928
  462.5000  -999.2500     7.3156     7.1884
  462.6000  -999.2500     7.3551     7.1418
  462.7000  -999.2500     7.3971     7.1415
  462.8000  -999.2500     7.4196     7.1413
  462.9000  -999.2500     7.4196     7.1410
  463.0000  -999.2500     7.4196     7.1408
  463.1000  -999.2500     7.4196     7.1405
  463.2000  -999.2500     7.4196     7.1403
  463.3000  -999.2500     7.3988     7.1400
  463.4000  -999.2500     7.3674     7.1398
  463.5000  -999.2500     7.3674     7.1396
  463.6000  -999.2500     7.3674     7.1393
  463.7000  -999.2500     7.3997     7.1390
  463.8000  -999.2500     7.4196     7.1387
  463.9000  -999.2500     7.4437     7.1385
  464.0000  -999.2500     7.5783     7.1450
  464.1000  -999.2500  -999.2500     7.1885
  464.2000  -999.2500  -999.2500     7.2259
  464.3000  -999.2500  -999.2500     7.2388
  464.4000  -999.2500  -999.2500     7.2564
  464.5000  -999.2500  -999.2500     7.2973
  464.6000  -999.2500  -999.2500     7.3408
  464.7000  -999.2500  -999.2500     7.3406
  464.8000  -999.2500  -999.2500     7.3693
  464.9000  -999.2500  -999.2500     7.4109
  465.0000  -999.2500  -999.2500     7.4527
  465.1000  -999.2500  -999.2500     7.4963
  465.2000  -999.2500  -999.2500     7.5371
  465.3000  -999.2500  -999.2500     7.5796
  465.4000  -999.2500  -999.2500     7.6223
  465.5000  -999.2500  -999.2500     7.6653
  465.6000  -999.2500  -999.2500     7.7093
  465.7000  -999.2500  -999.2500     7.7520
  465.8000  -999.2500  -999.2500     7.7632
  465.9000  -999.2500  -999.2500     7.7848
  466.0000  -999.2500  -999.2500     7.8287
  466.1000  -999.2500  -999.2500     7.8728
  466.2000  -999.2500  -999.2500     7.9172
  466.3000  -999.2500  -999.2500     7.9277
  466.4000  -999.2500  -999.2500     7.9506
  466.5000  -999.2500  -999.2500     7.9832
  466.6000  -999.2500  -999.2500     7.9829
  466.7000  -999.2500  -999.2500     7.9827
  466.8000  -999.2500  -999.2500     7.9823
  466.9000  -999.2500  -999.2500     7.9821
  467.0000  -999.2500  -999.2500     7.9818
  467.1000  -999.2500  -999.2500     7.9795
  467.2000  -999.2500  -999.2500     7.9251
  467.3000  -999.2500  -999.2500     7.9249
  467.4000  -999.2500  -999.2500     7.9246
  467.5000  -999.2500  -999.2500     7.9243
  467.6000  -999.2500  -999.2500     7.9211
  467.7000  -999.2500  -999.2500     7.8681
  467.8000  -999.2500  -999.2500     7.8679
  467.9000  -999.2500  -999.2500     7.8676
  468.0000  -999.2500  -999.2500     7.8671
