~VERSION INFORMATION
 VERS.                2.0:   CWLS LOG ASCII STANDARD - VERSION 2.0
 WRAP.                 NO:   ONE LINE PER DEPTH STEP
~WELL INFORMATION
#MNEM.UNIT      DATA TYPE    INFORMATION
#----------   ------------   ------------------------------
 STRT.F           42.0000:   START DEPTH
 STOP.F         3140.0000:   STOP DEPTH
 STEP.F            0.5000:   STEP LENGTH
 NULL.          -999.2500:   NO VALUE
 COMP. LAWRENCE-ALLISON & AS:   COMPANY
 WELL.     88 X 33 #88-33:   WELL
 FLD .             NPR #3:   FIELD
 LOC .      S33 T39N R78W:   LOCATION
 CNTY.            NATRONA:   COUNTY
 STAT.            WYOMING:   STATE
 CTRY. UNITED STATES OF AMERICA:   COUNTRY
 SRVC.       Schlumberger:   SERVICE COMPANY
 DATE.        13-DEC-1987:   LOGDATE
 API .       490251120300:   API NUMBER
~CURVE INFORMATION
#MNEM.UNIT       API CODE    CURVE DESCRIPTION
#----------   ------------   ------------------------------
 DEPT.F                  :   
 GRR .GAPI   07 310 01 00:   GAMMA RAY FROM RES
 SPR .MV     07 010 01 00:   SPONTANEOUS POTENTIAL
 ILD .OHMM   07 120 46 00:   INDUCTION LOG DEEP RES
 ILM .OHMM   07 120 44 00:   INDUCTION LOG MEDIUM RES
 SFLU.OHMM   07 220 01 00:   SPHERICALLY FOCUSED LOG UNAVERAGED RES
 DPHI.DEC    45 890 12 00:   DENSITY POROSITY SANDSTONE
 NPHI.DEC    42 890 03 00:   NEUTRON POROSITY SANDSTONE
 CALD.IN     45 280 60 00:   CALIPER FROM DENSITY LOG
 DRHO.G/C3   45 356 01 00:   DENSITY CORRECTION
 RHOB.G/C3   45 350 01 00:   BULK DENSITY
~PARAMETER INFORMATION
#MNEM.UNIT          VALUE    DESCRIPTION
#----------   ------------   ------------------------------
 PD  .                 GL:   PERMANENT DATUM
 EPD .F              5746:   ELEVATION PERMANENT DATUM
 LMF .                 KB:   LOG MEASURED FROM
 DAPD.F                11:   FEET ABOVE PERMANENT DATUM
 DMF .                 KB:   DRILLING MEASURED FROM
 EKB .F              5157:   KELLING BUSHING
 EGL .F              5146:   GROUND LEVEL
 DATE.        13-DEC-1987:   RUN DATE
 RUN .                  1:   RUN NUMBER
 DD  .F              3155:   DEPTH DRILLER
 DL  .F              3140:   DEPTH LOGGER
 BLI .F              3132:   BOTTOM LOG INTERVAL
 TLI .F               614:   TOP LOG INTERVAL
 CS  .IN            9.625:   CASING SIZE
 CBD .F               608:   CASING BOTTOM DRILLER
 CBL .F               614:   CASING BOTTOM LOGGER
 BS  .IN            7.875:   BIT SIZE
 BSD .F              3155:   BIT SIZE AT DEPTH
 DFT .       KCL DIS. PAC:   DRILLING FLUID TYPE
 DFD .                  9:   DRILLING FLUID DENSITY
 DFV .                 41:   DRILLING FLUID VISCOSITY
 DFPH.                9.5:   DRILLING FLUID PH
 DFL .                8.4:   DRILLING FLUID LOSS
 MSS .           FLOWLINE:   MUD SAMPLE SOURCE
 RMS .OHMM          0.523:   RESISTIVITY MUD SAMPLE
 MST .F                63:   MUD SAMPLE TEMPERATURE
 RMF .OHMM          0.435:   RESISTIVITY MUD FILTRATE SAMPLE
 MFST.F                63:   MUD FILTRATE SAMPLE TEMPERATURE
 RMC .OHMM          0.489:   RESISTIVITY MUD CAKE
 MCST.F                63:   MUD CAKE SAMPLE TEMPERATURE
 MFSS.              PRESS:   MUD FILTRATE SAMPLE SOURCE
 MCSS.               CALC:   MUD CAKE SAMPLE SOURCE
 RMB .OHMM          0.288:   RESISTIVITY MUD AT BHT
 BHT .F               120:   BOTTOM HOLE TEMPERATURE
 TCS .HRS            0600:   TIME CURCULATED STOPPED
 TLAB.HRS            1430:   TIME LOGGER AT BOTTOM
 MRT .F               120:   MAXIMUM RECORDED TEMPERATURE
 LUN .               8198:   LOGGING UNIT NUMBER
 LUL .             CASPER:   LOGGING UNIT LOCATION
 ENGI.          W. BENSON:   RECORDING ENGINEER
 WITN.        GARY STRONG:   WITNESSED BY
 CLNT.            A2DTECH:   CLIENT CODE
 ORIG.           5" PRINT:   ORIGIN OF DATA
 UWI .       490251120300:   UNIQUE WELL ID
 DICO. A2D Technologies, Inc.:   DIGITIZING COMPANY
~OTHER INFORMATION
~A   DEPT      GRR        SPR        ILD        ILM       SFLU       DPHI       NPHI       CALD       DRHO       RHOB   
# ...
 1616.5000   118.9020   -47.6404     7.2969     7.1135     8.4354     0.0513     0.2722     9.0286    -0.0349     2.5560
 1617.0000   115.5089   -47.1901     7.2954     7.1622     8.7921     0.0532     0.2767     9.0291    -0.0334     2.5552
 1617.5000   105.1128   -47.1916     7.2435     7.2110     8.7909     0.0543     0.2752     9.0295    -0.0334     2.5538
 1618.0000   103.6870   -47.6449     7.2420     7.2098     8.6688     0.0528     0.2725     9.0300    -0.0326     2.5539
 1618.5000   108.9441   -47.9476     7.2405     7.2592     8.8495     0.0495     0.2707     9.0304    -0.0319     2.5584
 1619.0000   115.0390   -48.2503     7.2390     7.2579     8.8483     0.0483     0.2815     9.0309    -0.0311     2.5636
 1619.5000   118.1971   -48.4024     7.2374     7.2068     8.7253     0.0531     0.2969     9.0314    -0.0311     2.5562
 1620.0000   116.6112   -48.5843     7.2359     7.2058     8.3113     0.0603     0.2996     9.0318    -0.0318     2.5315
 1620.5000   114.5735   -48.7063     7.2847     7.2048     8.0831     0.0660     0.2914     9.0329    -0.0332     2.5345
 1621.0000   114.1183   -48.7078     7.2832     7.1540     8.2517     0.0663     0.2803     9.0341    -0.0354     2.5353
 1621.5000   115.4681   -48.7093     7.2817     7.1530     8.4822     0.0672     0.2779     9.0353    -0.0384     2.5324
 1622.0000   116.1424   -48.7108     7.2802     7.2018     8.9642     0.0705     0.2794     9.0514    -0.0376     2.5226
 1622.5000   114.7825   -48.5617     7.2284     7.1510     8.5981     0.0726     0.2803     9.0676    -0.0361     2.5234
 1623.0000   116.1322   -48.4126     7.2269     7.1500     8.1901     0.0711     0.2806     9.0988    -0.0338     2.5310
 1623.5000   117.4831   -48.4142     7.2254     7.1491     8.3032     0.0657     0.2803     9.1150    -0.0323     2.5392
 1624.0000   115.2195   -48.4418     7.2239     7.1481     8.7144     0.0594     0.2800     9.1162    -0.0301     2.5468
 1624.5000   111.3746   -48.5678     7.2224     7.1471     8.8350     0.0579     0.2788     9.1323    -0.0293     2.5476
 1625.0000   107.7556   -48.5693     7.2208     7.0477     8.4155     0.0603     0.2758     9.1182    -0.0293     2.5454
 1625.5000   108.2029   -48.5708     7.2696     7.0467     8.1280     0.0642     0.2749     9.1197    -0.0337     2.5349
 1626.0000   111.1351   -48.4128     7.3187     6.9971     8.1268     0.0675     0.2803     9.1209    -0.0366     2.5297
 1626.5000   112.2601   -48.1926     7.3683     6.9961     8.2963     0.0699     0.2866     9.1221    -0.0351     2.5267
 1627.0000   113.6551   -47.9723     7.4180     7.0440     8.4108     0.0714     0.2869     9.1233    -0.0321     2.5291
 1627.5000   114.9623   -47.7521     7.3649     7.0428     8.5865     0.0687     0.2839     9.1245    -0.0291     2.5329
 1628.0000   116.3132   -47.5318     7.3633     6.9934     8.7050     0.0663     0.2785     9.1257    -0.0261     2.5368
 1628.5000   112.4683   -47.3749     7.3109     7.0411     8.7038     0.0636     0.2797     9.1269    -0.0224     2.5419
 1629.0000   107.9457   -47.5482     7.3606     7.0399     8.6322     0.0615     0.2848     9.1280    -0.0194     2.5449
 1629.5000   102.9713   -48.3022     7.4103     7.1371     8.4547     0.0575     0.2899     9.1292    -0.0164     2.5502
 1630.0000   102.4849   -48.7349     7.4602     7.1860     8.4040     0.0536     0.2911     9.1304    -0.0165     2.5562
 1630.5000   105.4471   -48.7168     7.5106     7.2350     8.4679     0.0515     0.2869     9.1316    -0.0241     2.5585
 1631.0000   108.6052   -48.4367     7.6134     7.3437     8.5781     0.0543     0.2799     9.1328    -0.0282     2.5571
 1631.5000   110.8597   -48.2876     7.6651     7.4363     8.6965     0.0573     0.2685     9.1340    -0.0289     2.5511
 1632.0000   111.7590   -48.1385     7.7164     7.4352     8.8811     0.0572     0.2580     9.1355    -0.0288     2.5496
 1632.5000   110.6248   -48.1401     7.7148     7.4342     9.1280     0.0557     0.2541     9.1366    -0.0281     2.5534
 1633.0000   108.8130   -48.1416     7.7132     7.4332     9.2519     0.0545     0.2522     9.1378    -0.0273     2.5542
 1633.5000   106.7753   -48.1431     7.7116     7.4321     9.2507     0.0542     0.2516     9.1237    -0.0273     2.5535
 1634.0000   104.5118   -48.3113     7.6567     7.3288     9.0592     0.0545     0.2522     9.1099    -0.0272     2.5528
 1634.5000   106.3156   -48.7485     7.6551     7.2772     8.7497     0.0554     0.2546     9.0961    -0.0272     2.5528
 1635.0000   107.2136   -48.7500     7.6007     7.2762     8.7444     0.0563     0.2646     9.0976    -0.0287     2.5513
 1635.5000   109.0163   -48.7515     7.5991     7.2752     8.7473     0.0578     0.2835     9.0988    -0.0309     2.5491
 1636.0000   112.6262   -48.7530     7.5450     7.2742     8.6257     0.0602     0.3022     9.1000    -0.0338     2.5454
 1636.5000   115.7843   -48.7545     7.4914     7.2229     8.4472     0.0623     0.3040     9.1012    -0.0338     2.5415
 1637.0000   115.3279   -48.6054     7.4381     7.2219     8.2153     0.0641     0.2986     9.1024    -0.0337     2.5373
 1637.5000   112.3867   -48.1425     7.4365     7.1710     8.2141     0.0644     0.2871     9.1035    -0.0330     2.5365
 1638.0000   111.7056   -47.7048     7.3836     7.0714     8.3276     0.0641     0.2784     9.1047    -0.0322     2.5373
 1638.5000   114.8625   -47.4051     7.3821     7.0215     8.7399     0.0671     0.2748     9.0909    -0.0344     2.5359
 1639.0000   114.4062   -47.5682     7.3296     7.0206     8.7997     0.0680     0.2745     9.0921    -0.0366     2.5314
 1639.5000   111.6908   -48.0211     7.3280     7.0196     8.7375     0.0641     0.2760     9.0933    -0.0373     2.5337
 1640.0000   109.4284   -48.1726     7.3265     7.0674     8.4390     0.0542     0.2814     9.0795    -0.0365     2.5450
 1640.5000   117.5553   -48.3148     7.3250     7.0176     8.2643     0.0530     0.2877     9.0657    -0.0357     2.5578
 1641.0000   120.2616   -48.3163     7.3235     7.0167     8.3206     0.0596     0.2904     9.0519    -0.0342     2.5556
 1641.5000   118.6757   -48.3178     7.3219     6.9672     8.4354     0.0647     0.2937     9.0381    -0.0319     2.5413
 1642.0000   114.8308   -48.3272     7.3204     6.9181     8.7314     0.0659     0.2949     9.0393    -0.0305     2.5324
 1642.5000   109.4046   -48.3208     7.3189     6.9172     8.7302     0.0623     0.2901     9.0405    -0.0290     2.5369
 1643.0000   111.6591   -48.3223     7.3173     6.9644     8.4319     0.0569     0.2793     9.0267    -0.0289     2.5452
 1643.5000   115.4949   -48.1732     7.3671     7.0118     8.3151     0.0496     0.2723     9.0279    -0.0289     2.5557
 1644.0000   119.3307   -48.0241     7.3757     7.0596     8.4296     0.0481     0.2720     9.0140    -0.0296     2.5625
 1644.5000   120.6828   -48.0256     7.4246     7.1077     8.6651     0.0490     0.2717     9.0002    -0.0311     2.5641
 1645.0000   119.5476   -48.0271     7.5258     7.2059     8.7848     0.0505     0.2699     9.0017    -0.0318     2.5639
 1645.5000   118.1876   -48.0286     7.6284     7.3562     8.8449     0.0517     0.2678     9.0029    -0.0332     2.5588
 1646.0000   117.0536   -48.0301     7.7252     7.4579     9.0290     0.0517     0.2663     9.0041    -0.0310     2.5567
 1646.5000   113.8864   -48.0352     7.7173     7.4053     9.1536     0.0514     0.2696     9.0053    -0.0250     2.5582
 1647.0000   111.3969   -48.0331     7.6157     7.3532     9.0265     0.0515     0.2732     9.0065    -0.0213     2.5583
 1647.5000   113.8773   -47.8840     7.5571     7.3014     8.9011     0.0524     0.2756     9.0077    -0.0227     2.5575
 1648.0000   118.6168   -47.5843     7.5077     7.2499     8.6567     0.0559     0.2753     9.0088    -0.0301     2.5546
 1648.5000   120.4195   -47.4352     7.5061     7.2489     8.4190     0.0616     0.2744     9.0100    -0.0375     2.5456
 1649.0000   119.7372   -47.5884     7.4528     7.2986     8.4766     0.0634     0.2741     9.0112    -0.0404     2.5412
 1649.5000   116.7959   -48.0411     7.4512     7.2973     8.5937     0.0646     0.2750     9.0124    -0.0419     2.5397
