~VERSION INFORMATION
 VERS.                2.0:   CWLS LOG ASCII STANDARD - VERSION 2.0
 WRAP.                 NO:   ONE LINE PER DEPTH STEP
~WELL INFORMATION
#MNEM.UNIT      DATA TYPE    INFORMATION
#----------   ------------   ------------------------------
 STRT.F           14.0000:   START DEPTH
 STOP.F          513.0000:   STOP DEPTH
 STEP.F            0.1000:   STEP LENGTH
 NULL.          -999.2500:   NO VALUE
 COMP.       F D SERV INC:   COMPANY
 WELL.    52-1 SX-3 #52-3:   WELL
 FLD .             TEAPOT:   FIELD
 LOC .       S3 T38N R78W:   LOCATION
 CNTY.            NATRONA:   COUNTY
 STAT.            WYOMING:   STATE
 CTRY. UNITED STATES OF AMERICA:   COUNTRY
 SRVC.     Atlas Wireline:   SERVICE COMPANY
 DATE.        21-APR-1992:   LOGDATE
 API .       490252251400:   API NUMBER
~CURVE INFORMATION
#MNEM.UNIT       API CODE    CURVE DESCRIPTION
#----------   ------------   ------------------------------
 DEPT.F                  :   
 GRR .GAPI   07 310 01 00:   GAMMA RAY
 RILD.OHMM   07 120 46 00:   INDUCTION LOG DEEP RESISTIVITY
 RILM.OHMM   07 120 44 00:   INDUCTION LOG MEDIUM RESISTIVITY
~PARAMETER INFORMATION
#MNEM.UNIT          VALUE    DESCRIPTION
#----------   ------------   ------------------------------
 PD  .                 GL:   PERMANENT DATUM
 EPD .F              5115:   ELEVATION PERMANENT DATUM
 LMF .                 KB:   LOG MEASURED FROM
 DAPD.F                 5:   FEET ABOVE PERMANENT DATUM
 DMF .                 KB:   DRILLING MEASURED FROM
 EKB .F              5120:   KELLING BUSHING
 EDF .F              5119:   DRILLING FLOOR
 EGL .F              5115:   GROUND LEVEL
 DATE.        21-APR-1992:   RUN DATE
 RUN .                  1:   RUN NUMBER
 DD  .F               515:   DEPTH DRILLER
 DL  .F               520:   DEPTH LOGGER
 BLI .F               517:   BOTTOM LOG INTERVAL
 TLI .F                50:   TOP LOG INTERVAL
 CS  .IN            9.625:   CASING SIZE
 CBD .F                45:   CASING BOTTOM DRILLER
 CBL .F                50:   CASING BOTTOM LOGGER
 BS  .IN            7.875:   BIT SIZE
 BSD .F               515:   BIT SIZE AT DEPTH
 DFT .                AIR:   DRILLING FLUID TYPE
 LUN .            HL-6272:   LOGGING UNIT NUMBER
 LUL .             CASPER:   LOGGING UNIT LOCATION
 ENGI.       P. RASMUSSEN:   RECORDING ENGINEER
 WITN.          G. STRONG:   WITNESSED BY
 CLNT.            A2DTECH:   CLIENT CODE
 ORIG.           5" PRINT:   ORIGIN OF DATA
 UWI .       490252251400:   UNIQUE WELL ID
 DICO. A2D Technologies, Inc.:   DIGITIZING COMPANY
~OTHER INFORMATION
~A   DEPT      GRR       RILD       RILM   
# ...
  105.0000   121.9940     7.7436     7.8140
  105.1000   121.9926     7.7432     7.8133
  105.2000   121.9915     7.7428     7.8126
  105.3000   121.9903     7.7074     7.8118
  105.4000   122.3166     7.6883     7.8018
  105.5000   123.0010     7.6878     7.7562
  105.6000   123.4973     7.6874     7.7554
  105.7000   124.9595     7.6869     7.7547
  105.8000   126.4362     7.6865     7.7301
  105.9000   127.9130     7.6861     7.6995
  106.0000   129.4663     7.6857     7.6945
  106.1000   131.2307     7.6853     7.6446
  106.2000   133.7617     7.6848     7.6439
  106.3000   135.4510     7.6844     7.6432
  106.4000   137.2648     7.6840     7.6238
  106.5000   138.8882     7.6835     7.5887
  106.6000   140.7601     7.6831     7.5880
  106.7000   144.6320     7.6827     7.5873
  106.8000   145.5686     7.6822     7.5865
  106.9000   146.3740     7.6818     7.5858
  107.0000   146.9889     7.7107     7.5850
  107.1000   147.4133     7.7346     7.5843
  107.2000   147.6472     7.7342     7.5835
  107.3000   147.0415     7.7337     7.5828
  107.4000   146.4350     7.7333     7.6102
  107.5000   145.5488     7.7671     7.6342
  107.6000   144.2917     7.7864     7.6424
  107.7000   142.6006     7.8006     7.6860
  107.8000   140.9933     7.8400     7.6852
  107.9000   139.4173     7.8394     7.6845
  108.0000   137.6918     7.8784     7.7073
  108.1000   136.1932     7.8933     7.7366
  108.2000   135.0755     7.8929     7.7358
  108.3000   134.3390     7.8924     7.7350
  108.4000   134.0914     7.8920     7.7727
  108.5000   133.8439     7.9360     7.7875
  108.6000   133.3233     7.9462     7.7868
  108.7000   132.5831     7.9458     7.7860
  108.8000   131.8179     7.9453     7.7852
  108.9000   130.7080     7.9449     7.8280
  109.0000   129.8449     7.9444     7.8380
  109.1000   128.8584     7.9440     7.8373
  109.2000   127.9758     7.9728     7.8505
  109.3000   127.2838     7.9986     7.8905
  109.4000   126.7746     8.0072     7.8895
  109.5000   125.8187     8.0535     7.9279
  109.6000   125.3809     8.0531     7.9431
  109.7000   125.2604     8.0872     7.9424
  109.8000   125.2592     8.1084     7.9507
  109.9000   125.2735     8.1220     7.9962
  110.0000   125.5587     8.1641     7.9954
  110.1000   126.3819     8.1635     7.9946
  110.2000   127.5162     8.1631     7.9939
  110.3000   128.8411     8.1627     8.0072
  110.4000   130.3564     8.1814     8.0481
  110.5000   132.1993     8.2276     8.0472
  110.6000   133.5734     8.2757     8.0862
  110.7000   135.2236     8.2752     8.1316
  110.8000   136.4761     8.3097     8.1771
  110.9000   137.1521     8.3321     8.2138
  111.0000   137.6374     8.3455     8.2128
  111.1000   137.8826     8.3893     8.2121
  111.2000   137.9311     8.3887     8.2465
  111.3000   137.7891     8.3883     8.3180
  111.4000   137.6266     8.3879     8.3827
  111.5000   137.6254     8.4065     8.3859
  111.6000   137.6240     8.4456     8.4394
  111.7000   137.6230     8.4450     8.4802
  111.8000   137.1299     8.4905     8.5278
  111.9000   136.1734     8.5030     8.5755
  112.0000   135.0453     8.5026     8.6236
  112.1000   134.2948     8.5158     8.6732
  112.2000   134.0508     8.5610     8.6724
  112.3000   133.9903     8.5604     8.6715
  112.4000   133.9891     8.5600     8.6968
  112.5000   134.1390     8.5595     8.7303
  112.6000   134.6107     8.5591     8.7336
  112.7000   134.8917     8.5586     8.7894
  112.8000   135.3112     8.5581     8.8318
  112.9000   135.8026     8.5576     8.8491
  113.0000   136.2941     8.5571     8.8482
  113.1000   136.8713     8.5567     8.8474
  113.2000   137.9069     8.5562     8.8465
  113.3000   138.6060     8.5557     8.8456
  113.4000   138.2780     8.5552     8.8448
  113.5000   137.6596     8.5548     8.8439
  113.6000   137.0997     8.5543     8.8431
  113.7000   136.3698     8.5538     8.8422
  113.8000   135.7847     8.5533     8.8412
  113.9000   135.3821     8.5528     8.8405
  114.0000   135.1782     8.5524     8.8396
  114.1000   135.0878     8.5519     8.8181
  114.2000   134.8737     8.5514     8.7767
  114.3000   134.8724     8.5510     8.7758
  114.4000   134.8713     8.5505     8.7750
  114.5000   135.0383     8.5499     8.7741
  114.6000   135.3958     8.5495     8.7473
  114.7000   135.8306     8.5491     8.7116
  114.8000   136.0773     8.5486     8.7108
  114.9000   136.8151     8.5481     8.7098
  115.0000   137.5529     8.5476     8.7091
  115.1000   138.2906     8.5027     8.7083
  115.2000   139.3932     8.4874     8.7074
  115.3000   142.3220     8.4870     8.6973
  115.4000   143.8272     8.4865     8.6454
  115.5000   144.3374     8.4860     8.6446
  115.6000   144.5245     8.4854     8.6437
  115.7000   144.5233     8.4851     8.6429
  115.8000   144.5221     8.4568     8.6420
  115.9000   144.1354     8.4253     8.6412
  116.0000   143.6415     8.4248     8.6402
  116.1000   143.0665     8.4243     8.6395
  116.2000   142.3263     8.4239     8.6387
  116.3000   141.4947     8.4234     8.6378
  116.4000   140.6300     8.4230     8.6370
  116.5000   139.9638     8.4225     8.6361
  116.6000   139.2612     8.4220     8.5882
  116.7000   138.3232     8.4216     8.5747
  116.8000   137.5613     8.4211     8.5738
  116.9000   136.6039     8.4206     8.5730
  117.0000   135.8006     8.4202     8.5722
  117.1000   134.8054     8.4197     8.5712
  117.2000   133.6443     8.4192     8.5705
  117.3000   132.6100     8.4187     8.5392
  117.4000   130.6052     8.4183     8.5095
  117.5000   130.1914     8.4178     8.5086
  117.6000   129.6975     8.4173     8.5078
  117.7000   129.2985     8.4169     8.5070
  117.8000   129.0900     8.4164     8.4706
  117.9000   129.0887     8.4159     8.4464
  118.0000   129.3172     8.4155     8.4456
  118.1000   129.9100     8.4150     8.4448
  118.2000   130.8838     8.4145     8.4438
  118.3000   132.1142     8.4140     8.4025
  118.4000   133.3510     8.4136     8.3838
  118.5000   134.8278     8.4131     8.3830
  118.6000   136.8955     8.4127     8.3822
  118.7000   138.8288     8.4122     8.3813
  118.8000   140.1248     8.4117     8.3806
  118.9000   140.5572     8.4113     8.3797
  119.0000   140.5558     8.4108     8.3789
  119.1000   140.7748     8.4103     8.3781
  119.2000   140.6912     8.4099     8.3773
  119.3000   140.3351     8.4094     8.3764
  119.4000   139.7358     8.4089     8.3757
  119.5000   138.7371     8.4084     8.3749
  119.6000   138.0060     8.4080     8.3740
  119.7000   137.4534     8.4075     8.3732
  119.8000   137.2230     8.4070     8.3724
  119.9000   137.2977     8.4066     8.3716
  120.0000   137.5428     8.4061     8.3708
  120.1000   137.8234     8.4056     8.3700
  120.2000   138.2437     8.4052     8.3691
  120.3000   138.5803     8.4047     8.3683
  120.4000   138.8254     8.4042     8.3674
  120.5000   139.0274     8.4037     8.3667
  120.6000   139.0259     8.4033     8.3659
  120.7000   138.7909     8.4028     8.3841
  120.8000   138.5434     8.4024     8.4228
  120.9000   138.1736     8.4110     8.4218
  121.0000   137.7462     8.4601     8.4210
  121.1000   137.4880     8.4596     8.4553
  121.2000   136.9037     8.4591     8.4781
  121.3000   136.5003     8.4587     8.4772
  121.4000   136.0064     8.4582     8.4795
  121.5000   135.5126     8.4613     8.5346
  121.6000   135.0526     8.5162     8.5339
  121.7000   134.7830     8.5158     8.5330
  121.8000   134.5575     8.5153     8.5515
  121.9000   134.3100     8.5149     8.5910
  122.0000   134.0624     8.5231     8.5900
  122.1000   133.8719     8.5733     8.5892
  122.2000   133.8707     8.5729     8.5884
  122.3000   134.1170     8.5724     8.5876
  122.4000   134.3621     8.5719     8.6006
  122.5000   134.6073     8.5854     8.6458
  122.6000   134.9325     8.6339     8.6448
  122.7000   135.4727     8.6905     8.6854
  122.8000   136.5823     8.7317     8.7341
  122.9000   138.0856     8.7810     8.7634
  123.0000   139.9677     8.8109     8.7711
  123.1000   141.4205     8.8188     8.8228
