~VERSION INFORMATION
 VERS.                2.0:   CWLS LOG ASCII STANDARD - VERSION 2.0
 WRAP.                 NO:   ONE LINE PER DEPTH STEP
~WELL INFORMATION
#MNEM.UNIT      DATA TYPE    INFORMATION
#----------   ------------   ------------------------------
 STRT.F           23.0000:   START DEPTH
 STOP.F         2536.0000:   STOP DEPTH
 STEP.F            0.5000:   STEP LENGTH
 NULL.          -999.2500:   NO VALUE
 COMP. FENIX & SCISSON INC:   COMPANY
 WELL.     14 SHX 3 #14-3:   WELL
 FLD .             TEAPOT:   FIELD
 LOC .       S3 T38N R78W:   LOCATION
 CNTY.            NATRONA:   COUNTY
 STAT.            WYOMING:   STATE
 CTRY. UNITED STATES OF AMERICA:   COUNTRY
 SRVC.           BIRDWELL:   SERVICE COMPANY
 DATE.        20-MAR-1979:   LOGDATE
 API .       490251073900:   API NUMBER
~CURVE INFORMATION
#MNEM.UNIT       API CODE    CURVE DESCRIPTION
#----------   ------------   ------------------------------
 DEPT.F                  :   
 SPR .MV     07 010 01 00:   SPONTANEOUS POTENTIAL
 SN  .OHMM   07 040 16 00:   SHORT NORMAL 16'
 IL  .OHMM   07 120 00 00:   INDUCTION LOG
 GRD .GAPI   45 310 01 00:   GAMMA RAY FROM DENSITY LOG
 CALD.IN     45 280 60 00:   CALIPER
 CORR.G/C3   45 356 01 00:   DENSITY CORRECTION
 DEN .G/C3   45 350 01 00:   
 DPHI.DEC    45 890 12 00:   DENSITY POROSITY SANDSTONE
~PARAMETER INFORMATION
#MNEM.UNIT          VALUE    DESCRIPTION
#----------   ------------   ------------------------------
 PD  .                 GL:   PERMANENT DATUM
 EPD .F              5208:   ELEVATION PERMANENT DATUM
 LMF .                 KB:   LOG MEASURED FROM
 DAPD.F                10:   FEET ABOVE PERMANENT DATUM
 DMF .                 KB:   DRILLING MEASURED FROM
 EKB .F              5218:   KELLING BUSHING
 EGL .F              5208:   GROUND LEVEL
 DATE.            3-20-79:   RUN DATE
 RUN .                  1:   RUN NUMBER
 DD  .F              2580:   DEPTH DRILLER
 DL  .F              2536:   DEPTH LOGGER
 BLI .F              2536:   BOTTOM LOG INTERVAL
 TLI .F               400:   TOP LOG INTERVAL
 CS  .IN            9.625:   CASING SIZE
 CBL .F               680:   CASING BOTTOM LOGGER
 BS  .IN             8.75:   BIT SIZE
 BSD .F              2580:   BIT SIZE AT DEPTH
 DFT .                AIR:   DRILLING FLUID TYPE
 TCS .HRS               6:   TIME CURCULATED STOPPED
 LUN .               2959:   LOGGING UNIT NUMBER
 LUL .             CASPER:   LOGGING UNIT LOCATION
 ENGI.            ROLLINS:   RECORDING ENGINEER
 WITN.           DINSMORE:   WITNESSED BY
 CLNT.            A2DTECH:   CLIENT CODE
 ORIG. 1", 2", 2.5", 5" PRINT:   ORIGIN OF DATA
 UWI .       490251073900:   UNIQUE WELL ID
 DICO. A2D Technologies, Inc.:   DIGITIZING COMPANY
~OTHER INFORMATION
~A   DEPT      SPR         SN         IL        GRD       CALD       CORR        DEN       DPHI   
# ...
  833.0000  -999.2500  -999.2500  -999.2500   178.8999    10.3981     0.1121     2.5079     0.0200
  833.5000  -999.2500  -999.2500  -999.2500   178.8303    10.3905     0.1394     2.5315     0.0118
  834.0000  -999.2500  -999.2500  -999.2500   177.7325    10.3831     0.1435     2.5421     0.0047
  834.5000  -999.2500  -999.2500  -999.2500   176.3924    10.3756     0.1305     2.5170     0.0152
  835.0000  -999.2500  -999.2500  -999.2500   176.9836    10.3681     0.1394     2.5223     0.0134
  835.5000  -999.2500  -999.2500  -999.2500   179.1091    10.3607     0.1459     2.5208     0.0120
  836.0000  -999.2500  -999.2500  -999.2500   175.9044    10.3532     0.1329     2.5041     0.0216
  836.5000  -999.2500  -999.2500  -999.2500   177.7154    10.3457     0.1226     2.4928     0.0234
  837.0000  -999.2500  -999.2500  -999.2500   175.4339    10.3383     0.1345     2.5173     0.0153
  837.5000  -999.2500  -999.2500  -999.2500   170.7629    10.3308     0.1370     2.5313     0.0063
  838.0000  -999.2500  -999.2500  -999.2500   165.5169    10.3233     0.1266     2.5389     0.0063
  838.5000  -999.2500  -999.2500  -999.2500   165.3451    10.3159     0.1085     2.5364     0.0101
  839.0000  -999.2500  -999.2500  -999.2500   168.2628    10.3084     0.0924     2.5219     0.0175
  839.5000  -999.2500  -999.2500  -999.2500   169.9733    10.3009     0.0750     2.5083     0.0257
  840.0000  -999.2500  -999.2500  -999.2500   169.5335    10.2935     0.0716     2.4963     0.0265
  840.5000  -999.2500  -999.2500  -999.2500   168.9080    10.2860     0.0658     2.4915     0.0273
  841.0000  -999.2500  -999.2500  -999.2500   170.0722    10.2785     0.0736     2.5009     0.0235
  841.5000  -999.2500  -999.2500  -999.2500   173.5865    10.2711     0.0761     2.5147     0.0160
  842.0000  -999.2500  -999.2500  -999.2500   170.6772    10.2636     0.0688     2.5071     0.0208
  842.5000  -999.2500  -999.2500  -999.2500   166.8499    10.2561     0.0663     2.5005     0.0249
  843.0000  -999.2500  -999.2500  -999.2500   168.8209    10.2487     0.0711     2.4937     0.0273
  843.5000  -999.2500  -999.2500  -999.2500   170.4169    10.2412     0.0938     2.4867     0.0297
  844.0000  -999.2500  -999.2500  -999.2500   171.9151    10.2337     0.1207     2.5031     0.0230
  844.5000  -999.2500  -999.2500  -999.2500   173.5664    10.2263     0.1483     2.5268     0.0159
  845.0000  -999.2500  -999.2500  -999.2500   173.4662    10.2188     0.1742     2.5334     0.0088
  845.5000  -999.2500  -999.2500  -999.2500   173.3701    10.2113     0.1659     2.5392     0.0055
  846.0000  -999.2500  -999.2500  -999.2500   173.3692    10.2038     0.1393     2.5330     0.0055
  846.5000  -999.2500  -999.2500  -999.2500   170.6225    10.1964     0.1127     2.5217     0.0132
  847.0000  -999.2500  -999.2500  -999.2500   163.7477    10.1889     0.0974     2.5111     0.0197
  847.5000  -999.2500  -999.2500  -999.2500   154.6774    10.1813     0.0905     2.5006     0.0265
  848.0000  -999.2500  -999.2500  -999.2500   155.8785    10.1715     0.0920     2.4924     0.0265
  848.5000  -999.2500  -999.2500  -999.2500   159.8661    10.1617     0.0938     2.4964     0.0232
  849.0000  -999.2500  -999.2500  -999.2500   163.2517    10.1518     0.0960     2.4997     0.0232
  849.5000  -999.2500  -999.2500  -999.2500   166.4418    10.1419     0.0977     2.5035     0.0218
  850.0000  -999.2500  -999.2500  -999.2500   167.6409    10.1320     0.0961     2.5071     0.0201
  850.5000  -999.2500  -999.2500  -999.2500   172.3199    10.1221     0.0951     2.5108     0.0184
  851.0000  -999.2500  -999.2500  -999.2500   177.4939    10.1122     0.0884     2.5109     0.0176
  851.5000  -999.2500  -999.2500  -999.2500   183.1467    10.1023     0.0774     2.5047     0.0204
  852.0000  -999.2500  -999.2500  -999.2500   182.3193    10.0924     0.0676     2.4987     0.0239
  852.5000  -999.2500  -999.2500  -999.2500   180.2148    10.0826     0.0584     2.4926     0.0273
  853.0000  -999.2500  -999.2500  -999.2500   182.9311    10.0726     0.0629     2.4878     0.0273
  853.5000  -999.2500  -999.2500  -999.2500   178.9228    10.0628     0.0677     2.4959     0.0229
  854.0000  -999.2500  -999.2500  -999.2500   165.6149    10.0529     0.0729     2.5101     0.0176
  854.5000  -999.2500  -999.2500  -999.2500   159.2186    10.0429     0.0779     2.5244     0.0123
  855.0000  -999.2500  -999.2500  -999.2500   162.5554    10.0332     0.0834     2.5387     0.0070
  855.5000  -999.2500  -999.2500  -999.2500   165.9601    10.0231     0.0847     2.5530    -0.0002
  856.0000  -999.2500  -999.2500  -999.2500   170.8068    10.0198     0.0809     2.5481     0.0035
  856.5000  -999.2500  -999.2500  -999.2500   169.5988    10.0203     0.0780     2.5329     0.0091
  857.0000  -999.2500  -999.2500  -999.2500   165.4169    10.0198     0.0778     2.5284     0.0109
  857.5000  -999.2500  -999.2500  -999.2500   161.3105    10.0198     0.0777     2.5264     0.0105
  858.0000  -999.2500  -999.2500  -999.2500   159.2458    10.0215     0.0779     2.5252     0.0108
  858.5000  -999.2500  -999.2500  -999.2500   160.4378    10.0161     0.0773     2.5239     0.0129
  859.0000  -999.2500  -999.2500  -999.2500   161.3268    10.0537     0.0823     2.5219     0.0136
  859.5000  -999.2500  -999.2500  -999.2500   159.0703    10.0795     0.0896     2.5322     0.0095
  860.0000  -999.2500  -999.2500  -999.2500   156.6764    10.1007     0.0971     2.5586     0.0010
  860.5000  -999.2500  -999.2500  -999.2500   154.0762    10.1197     0.0915     2.5529    -0.0034
  861.0000  -999.2500  -999.2500  -999.2500   151.5895    10.1403     0.0838     2.5451     0.0020
  861.5000  -999.2500  -999.2500  -999.2500   149.1847    10.1612     0.0763     2.5365     0.0070
  862.0000  -999.2500  -999.2500  -999.2500   146.8336    10.1832     0.0706     2.5210     0.0163
  862.5000  -999.2500  -999.2500  -999.2500   149.6729    10.2403     0.0608     2.4890     0.0355
  863.0000  -999.2500  -999.2500  -999.2500   155.6491    10.2983     0.1198     2.4560     0.0491
  863.5000  -999.2500  -999.2500  -999.2500   154.1900    10.3580     0.2009     2.4405     0.0444
  864.0000  -999.2500  -999.2500  -999.2500   149.2517    10.4172     0.2857     2.4567     0.0392
  864.5000  -999.2500  -999.2500  -999.2500   144.3578    10.4742     0.3744     2.4732     0.0345
  865.0000  -999.2500  -999.2500  -999.2500   137.8943    10.5361     0.4297     2.4801     0.0337
  865.5000  -999.2500  -999.2500  -999.2500   140.1001    10.5946     0.4097     2.4722     0.0219
  866.0000  -999.2500  -999.2500  -999.2500   145.8730    10.6159     0.3027     2.5500     0.0030
  866.5000  -999.2500  -999.2500  -999.2500   148.1234    10.4312     0.1628     2.5032     0.0337
  867.0000  -999.2500  -999.2500  -999.2500   143.6122    10.2579     0.0012     2.4753     0.0316
  867.5000  -999.2500  -999.2500  -999.2500   138.3834    10.0643     0.0122     2.4890     0.0253
  868.0000  -999.2500  -999.2500  -999.2500   139.9000     9.9719     0.0254     2.5030     0.0190
  868.5000  -999.2500  -999.2500  -999.2500   143.0234     9.9817     0.0453     2.5179     0.0111
  869.0000  -999.2500  -999.2500  -999.2500   146.0528     9.9796     0.0477     2.5264     0.0130
  869.5000  -999.2500  -999.2500  -999.2500   149.4330     9.9788     0.0279     2.5117     0.0182
  870.0000  -999.2500  -999.2500  -999.2500   148.2005     9.9799     0.0101     2.5045     0.0206
  870.5000  -999.2500  -999.2500  -999.2500   145.5631     9.9795     0.0117     2.5080     0.0178
  871.0000  -999.2500  -999.2500  -999.2500   142.8019     9.9797     0.0163     2.5129     0.0160
  871.5000  -999.2500  -999.2500  -999.2500   141.4011     9.9798     0.0116     2.5094     0.0199
  872.0000  -999.2500  -999.2500  -999.2500   144.2029     9.9798     0.0058     2.4995     0.0239
  872.5000  -999.2500  -999.2500  -999.2500   146.3513     9.9798     0.0008     2.4929     0.0273
  873.0000  -999.2500  -999.2500  -999.2500   144.6469     9.9798     0.0042     2.5043     0.0225
