~VERSION INFORMATION
 VERS.                2.0:   CWLS LOG ASCII STANDARD - VERSION 2.0
 WRAP.                 NO:   ONE LINE PER DEPTH STEP
~WELL INFORMATION
#MNEM.UNIT      DATA TYPE    INFORMATION
#----------   ------------   ------------------------------
 STRT.F            0.0000:   START DEPTH
 STOP.F          666.0000:   STOP DEPTH
 STEP.F            0.1000:   STEP LENGTH
 NULL.          -999.2500:   NO VALUE
 COMP.   FLUOR DANIEL INC:   COMPANY
 WELL.   77-2 X 34 #77-34:   WELL
 FLD .             TEAPOT:   FIELD
 LOC .      S34 T39N R78W:   LOCATION
 CNTY.            NATRONA:   COUNTY
 STAT.            WYOMING:   STATE
 CTRY. UNITED STATES OF AMERICA:   COUNTRY
 SRVC.      Western Atlas:   SERVICE COMPANY
 DATE.        01-APR-1995:   LOGDATE
 API .       490252270000:   API NUMBER
~CURVE INFORMATION
#MNEM.UNIT       API CODE    CURVE DESCRIPTION
#----------   ------------   ------------------------------
 DEPT.F                  :   
 GRR .GAPI   07 310 01 00:   GAMMA RAY
 RILD.OHMM   07 120 46 00:   INDUCTION LOG DEEP RESISTIVITY
 RILM.OHMM   07 120 44 00:   INDUCTION LOG MEDIUM RESISTIVITY
~PARAMETER INFORMATION
#MNEM.UNIT          VALUE    DESCRIPTION
#----------   ------------   ------------------------------
 PD  .                 GL:   PERMANENT DATUM
 EPD .F              5106:   ELEVATION PERMANENT DATUM
 LMF .                 KB:   LOG MEASURED FROM
 DAPD.F                10:   FEET ABOVE PERMANENT DATUM
 DMF .                 KB:   DRILLING MEASURED FROM
 EKB .F              5116:   KELLING BUSHING
 EDF .F              5115:   DRILLING FLOOR
 EGL .F              5106:   GROUND LEVEL
 DATE.        01-APR-1995:   RUN DATE
 RUN .                  1:   RUN NUMBER
 DD  .F               674:   DEPTH DRILLER
 DL  .F               674:   DEPTH LOGGER
 BLI .F               666:   BOTTOM LOG INTERVAL
 TLI .F                52:   TOP LOG INTERVAL
 CS  .IN            9.625:   CASING SIZE
 CBD .F                52:   CASING BOTTOM DRILLER
 CBL .F                52:   CASING BOTTOM LOGGER
 BS  .IN             8.75:   BIT SIZE
 BSD .F               674:   BIT SIZE AT DEPTH
 DFT .                AIR:   DRILLING FLUID TYPE
 MRT .F                89:   MAXIMUM RECORDED TEMPERATURE
 LUN .            HL 6530:   LOGGING UNIT NUMBER
 LUL .             CASPER:   LOGGING UNIT LOCATION
 ENGI.      PAT RASMUSSEN:   RECORDING ENGINEER
 WITN.        GARY STRONG:   WITNESSED BY
 CLNT.            A2DTECH:   CLIENT CODE
 ORIG.           5" PRINT:   ORIGIN OF DATA
 UWI .       490252270000:   UNIQUE WELL ID
 DICO. A2D Technologies, Inc.:   DIGITIZING COMPANY
~OTHER INFORMATION
~A    DEPT      GRR      RILD       RILM   
# ...
  655.2000  -999.2500     9.0712     9.4396
  655.3000  -999.2500     9.1223     9.4638
  655.4000  -999.2500     9.1764     9.4829
  655.5000  -999.2500     9.2308     9.5375
  655.6000  -999.2500     9.2856     9.5979
  655.7000  -999.2500     9.3407     9.6479
  655.8000  -999.2500     9.3960     9.6659
  655.9000  -999.2500     9.4600     9.6666
  656.0000  -999.2500     9.5079     9.6807
  656.1000  -999.2500     9.5643     9.7365
  656.2000  -999.2500     9.6210     9.8037
  656.3000  -999.2500     9.6608     9.8042
  656.4000  -999.2500     9.6682     9.8376
  656.5000  -999.2500     9.7291     9.8944
  656.6000  -999.2500     9.7832     9.9431
  656.7000  -999.2500     9.8413     9.9439
  656.8000  -999.2500     9.8665     9.9971
  656.9000  -999.2500     9.8896    10.0144
  657.0000  -999.2500     9.9482    10.0429
  657.1000  -999.2500    10.0072    10.0854
  657.2000  -999.2500    10.0761    10.0889
  657.3000  -999.2500    10.1263    10.1571
  657.4000  -999.2500    10.1472    10.2057
  657.5000  -999.2500    10.1760    10.2290
  657.6000  -999.2500    10.2189    10.2525
  657.7000  -999.2500    10.2260    10.3016
  657.8000  -999.2500    10.2912    10.3023
  657.9000  -999.2500    10.2917    10.3589
  658.0000  -999.2500    10.3372    10.4187
  658.1000  -999.2500    10.3985    10.4788
  658.2000  -999.2500    10.4371    10.5216
  658.3000  -999.2500    10.4495    10.5268
  658.4000  -999.2500    10.5109    10.5964
  658.5000  -999.2500    10.5115    10.5970
  658.6000  -999.2500    10.5631    10.6361
  658.7000  -999.2500    10.5857    10.6722
  658.8000  -999.2500    10.6150    10.6848
  658.9000  -999.2500    10.6779    10.7479
  659.0000  -999.2500    10.7352    10.8084
  659.1000  -999.2500    10.7359    10.8241
  659.2000  -999.2500    10.7364    10.8580
  659.3000  -999.2500    10.7830    10.9009
  659.4000  -999.2500    10.8123    10.9077
  659.5000  -999.2500    10.8359    10.9783
  659.6000  -999.2500    10.8887    10.9790
  659.7000  -999.2500    10.8893    11.0210
  659.8000  -999.2500    10.9657    11.0846
  659.9000  -999.2500    10.9662    11.1346
  660.0000  -999.2500    11.0075    11.1353
  660.1000  -999.2500    11.0437    11.1361
  660.2000  -999.2500    11.0443    11.1865
  660.3000  -999.2500    11.0476    11.2151
  660.4000  -999.2500    11.0807    11.2159
  660.5000  -999.2500    11.1138    11.2245
  660.6000  -999.2500    11.1236    11.2955
  660.7000  -999.2500    11.1591    11.2962
  660.8000  -999.2500    11.2022    11.3410
  660.9000  -999.2500    11.2084    11.4064
  661.0000  -999.2500    11.2419    11.4563
  661.1000  -999.2500    11.2821    11.4571
  661.2000  -999.2500    11.3358    11.4580
  661.3000  -999.2500    11.3617    11.5113
  661.4000  -999.2500    11.3623    11.5391
  661.5000  -999.2500    11.3714    11.5399
  661.6000  -999.2500    11.4054    11.5504
  661.7000  -999.2500    11.4433    11.6219
  661.8000  -999.2500    11.4439    11.6226
  661.9000  -999.2500    11.4919    11.6703
  662.0000  -999.2500    11.5248    11.7051
  662.1000  -999.2500    11.5254    11.7238
  662.2000  -999.2500    11.5365    11.7881
  662.3000  -999.2500    11.6069    11.7891
  662.4000  -999.2500    11.6075    11.7897
  662.5000  -999.2500    11.6619    11.8316
  662.6000  -999.2500    11.6895    11.8734
  662.7000  -999.2500    11.6901    11.8742
  662.8000  -999.2500    11.6908    11.8751
  662.9000  -999.2500    11.6914    11.9403
  663.0000  -999.2500    11.6921    11.9593
  663.1000  -999.2500  -999.2500    11.9950
  663.2000  -999.2500  -999.2500    12.0441
  663.3000  -999.2500  -999.2500    12.0499
  663.4000  -999.2500  -999.2500    12.1297
  663.5000  -999.2500  -999.2500    12.1304
  663.6000  -999.2500  -999.2500    12.1312
  663.7000  -999.2500  -999.2500    12.1608
  663.8000  -999.2500  -999.2500    12.2173
  663.9000  -999.2500  -999.2500    12.2181
  664.0000  -999.2500  -999.2500    12.2190
  664.1000  -999.2500  -999.2500    12.2198
  664.2000  -999.2500  -999.2500    12.2580
  664.3000  -999.2500  -999.2500    12.3065
  664.4000  -999.2500  -999.2500    12.3074
  664.5000  -999.2500  -999.2500    12.3083
  664.6000  -999.2500  -999.2500    12.3091
  664.7000  -999.2500  -999.2500    12.3561
  664.8000  -999.2500  -999.2500    12.3964
  664.9000  -999.2500  -999.2500    12.3972
  665.0000  -999.2500  -999.2500    12.3981
  665.1000  -999.2500  -999.2500    12.3990
  665.2000  -999.2500  -999.2500    12.3998
  665.3000  -999.2500  -999.2500    12.4007
  665.4000  -999.2500  -999.2500    12.4257
  665.5000  -999.2500  -999.2500    12.4886
  665.6000  -999.2500  -999.2500    12.4896
  665.7000  -999.2500  -999.2500    12.4904
  665.8000  -999.2500  -999.2500    12.4912
  665.9000  -999.2500  -999.2500    12.4921
  666.0000  -999.2500  -999.2500    12.4930
