~VERSION INFORMATION
 VERS.                2.0:   CWLS LOG ASCII STANDARD - VERSION 2.0
 WRAP.                 NO:   ONE LINE PER DEPTH STEP
~WELL INFORMATION
#MNEM.UNIT      DATA TYPE    INFORMATION
#----------   ------------   ------------------------------
 STRT.F           33.5000:   START DEPTH
 STOP.F          680.0000:   STOP DEPTH
 STEP.F            0.5000:   STEP LENGTH
 NULL.          -999.2500:   NO VALUE
 COMP. FENIX & SCISSON INC:   COMPANY
 WELL.       NPR 3 #66-34:   WELL
 FLD .             TEAPOT:   FIELD
 LOC .      S34 T39N R78W:   LOCATION
 CNTY.            NATRONA:   COUNTY
 STAT.            WYOMING:   STATE
 CTRY. UNITED STATES OF AMERICA:   COUNTRY
 SRVC.           BIRDWELL:   SERVICE COMPANY
 DATE.        12-AUG-1978:   LOGDATE
 API .       490251068400:   API NUMBER
~CURVE INFORMATION
#MNEM.UNIT       API CODE    CURVE DESCRIPTION
#----------   ------------   ------------------------------
 DEPT.F                  :   
 SPR .MV     05 010 01 00:   SPONTANEOUS POTENTIAL FROM RES.
 SN  .OHMM   05 040 16 00:   SHORT NORMAL 16"
 IL  .OHMM   05 120 00 00:   INDUCTION LOG
 CORR.G/C3   45 356 01 00:   DENSITY CORRECTION
 GRD .GAPI   45 310 01 00:   GAMMA RAY FROM DENSITY LOG
 RHOB.G/C3   45 350 01 00:   BULK DENSITY
 DPHI.DEC    45 890 12 00:   DENSITY POROSITY SANDSTONE
 CALD.IN     45 280 60 00:   CALIPER
~PARAMETER INFORMATION
#MNEM.UNIT          VALUE    DESCRIPTION
#----------   ------------   ------------------------------
 PD  .                 GL:   PERMANENT DATUM
 EPD .F              5078:   ELEVATION PERMANENT DATUM
 LMF .                 KB:   LOG MEASURED FROM
 DAPD.F                 4:   FEET ABOVE PERMANENT DATUM
 DMF .                 KB:   DRILLING MEASURED FROM
 EKB .F              5082:   KELLING BUSHING
 EGL .F              5078:   GROUND LEVEL
 DATE.            8-12-78:   RUN DATE
 RUN .                  1:   RUN NUMBER
 DD  .F               675:   DEPTH DRILLER
 DL  .F               686:   DEPTH LOGGER
 BLI .F               680:   BOTTOM LOG INTERVAL
 TLI .F                50:   TOP LOG INTERVAL
 CS  .IN            8.625:   CASING SIZE
 CBD .F                40:   CASING BOTTOM DRILLER
 BS  .IN            7.875:   BIT SIZE
 BSD .F               675:   BIT SIZE AT DEPTH
 DFT .                KCL:   DRILLING FLUID TYPE
 DFL .               10.4:   DRILLING FLUID LOSS
 MSS .          FLOW LINE:   MUD SAMPLE SOURCE
 RMS .OHMM            .18:   RESISTIVITY MUD SAMPLE
 MST .F                90:   MUD SAMPLE TEMPERATURE
 RMF .OHMM            .16:   RESISTIVITY MUD FILTRATE SAMPLE
 MFST.F                90:   MUD FILTRATE SAMPLE TEMPERATURE
 RMC .OHMM            .32:   RESISTIVITY MUD CAKE
 MCST.F                90:   MUD CAKE SAMPLE TEMPERATURE
 MFSS.               MEAS:   MUD FILTRATE SAMPLE SOURCE
 TCS .HRS               3:   TIME CURCULATED STOPPED
 LUN .               3006:   LOGGING UNIT NUMBER
 LUL .               CASP:   LOGGING UNIT LOCATION
 ENGI.             MILLER:   RECORDING ENGINEER
 WITN.           MCGINLEY:   WITNESSED BY
 CLNT.            A2DTECH:   CLIENT CODE
 ORIG.           5" PRINT:   ORIGIN OF DATA
 UWI .       490251068400:   UNIQUE WELL ID
 DICO. A2D Technologies, Inc.:   DIGITIZING COMPANY
~OTHER INFORMATION
~A   DEPT      SPR         SN         IL       CORR         GRD      RHOB       DPHI       CALD   
# ...
   74.0000   -58.1918     5.0616     4.8445     0.0206    84.6111     2.3966     0.1750     7.6550
   74.5000   -58.4310     5.1203     4.9209     0.0223    82.8843     2.3915     0.1730     7.6334
   75.0000   -58.6699     5.1796     4.9985     0.0246    82.0593     2.3913     0.1752     7.5954
   75.5000   -58.9087     5.2397     5.0911     0.0269    80.5388     2.3960     0.1749     7.5377
   76.0000   -59.1477     5.3004     5.0760     0.0285    77.4511     2.4010     0.1698     7.4807
   76.5000   -59.4402     5.3618     5.0577     0.0238    75.0575     2.4016     0.1666     7.4390
   77.0000   -59.8318     5.4240     5.0446     0.0179    73.9446     2.3911     0.1794     7.4257
   77.5000   -60.2228     5.4869     5.1481     0.0144    71.8224     2.3889     0.1760     7.4543
   78.0000   -60.6118     5.5297     5.2425     0.0152    69.5388     2.3951     0.1707     7.4922
   78.5000   -60.9063     5.5297     5.3386     0.0160    67.8605     2.4033     0.1654     7.5149
   79.0000   -60.9003     5.5143     5.4365     0.0131    68.2967     2.4073     0.1641     7.3288
   79.5000   -60.9796     5.4254     5.5361     0.0066    68.8571     2.4027     0.1666     7.2676
   80.0000   -61.1368     5.3380     5.6376     0.0020    68.8899     2.3964     0.1712     7.4816
   80.5000   -61.2943     5.2520     5.7366     0.0007    67.6313     2.3905     0.1756     7.7107
   81.0000   -61.4520     5.1674     5.7895     0.0036    67.0872     2.3869     0.1787     7.9045
   81.5000   -61.6100     5.0911     5.7895     0.0064    68.0671     2.3828     0.1846     8.0490
   82.0000   -61.7698     4.9558     5.7083     0.0056    69.0291     2.3680     0.1921     8.1400
   82.5000   -61.9337     4.8342     5.4291     0.0050    69.2944     2.3529     0.2011     8.2231
   83.0000   -62.0977     4.7156     4.7146     0.0063    68.9206     2.3366     0.2131     8.3050
   83.5000   -62.2611     4.4598     4.0518     0.0120    68.5030     2.3125     0.2251     8.3482
   84.0000   -62.4261     4.1762     3.4822     0.0192    68.8980     2.2955     0.2373     8.3719
   84.5000   -62.4382     3.7895     2.9927     0.0344    69.8428     2.2805     0.2498     8.3912
   85.0000   -62.3412     3.4117     2.5719     0.0481    72.7418     2.2482     0.2615     8.4127
   85.5000   -61.5421     3.0716     2.2104     0.0443    76.3610     2.2018     0.2605     8.4399
   86.0000   -60.5757     2.7654     1.9234     0.0355    80.7750     2.1558     0.2596     8.4673
   86.5000   -59.6067     2.6043     1.8700     0.0267    90.0365     2.1094     0.2587     8.4695
   87.0000   -58.6393     2.6043     1.8906     0.0321    96.0722     2.1077     0.2577     8.4504
   87.5000   -57.6721     2.6043     1.9286     0.0386    95.6448     2.1308     0.2522     8.4310
   88.0000   -56.7044     2.6525     2.0829     0.0384    94.8283     2.1539     0.2456     8.4109
   88.5000   -55.7073     2.7949     2.3239     0.0535    90.7221     2.2127     0.2226     8.3373
   89.0000   -55.4547     2.9542     2.6048     0.0690    82.9830     2.3446     0.2025     8.2127
   89.5000   -55.3734     3.2502     3.0256     0.0376    79.2839     2.3679     0.1879     8.9715
   90.0000   -55.2953     3.6631     3.7560     0.0385    74.5677     2.3861     0.1787     7.8233
   90.5000   -55.5035     4.1284     4.6571     0.0458    69.8934     2.3890     0.1802     7.6557
   91.0000   -55.7500     4.6528     5.7707     0.0530    66.5028     2.3912     0.1698     7.5219
   91.5000   -55.9921     5.2455     6.6333     0.0505    64.0745     2.3938     0.1744     7.4651
   92.0000   -56.2396     5.9079     6.7677     0.0412    61.8680     2.3847     0.1820     7.4474
   92.5000   -56.4482     6.3471     6.8840     0.0318    60.5599     2.3729     0.1890     7.4591
   93.0000   -56.6534     6.4070     6.9567     0.0225    61.4671     2.3692     0.1879     7.4692
   93.5000   -56.8591     6.4049     6.7212     0.0138    62.8369     2.3684     0.1861     7.4792
   94.0000   -57.0374     6.4049     6.2244     0.0106    62.8207     2.3672     0.1905     7.5296
   94.5000   -57.0275     6.1508     5.7644     0.0104    62.7240     2.3664     0.1897     7.6121
   95.0000   -56.7380     5.9149     5.3383     0.0077    63.3483     2.3670     0.1913     7.6949
   95.5000   -56.0031     5.6881     4.9075     0.0008    63.6150     2.3466     0.2021     7.7776
   96.0000   -55.4931     5.4700     4.8668    -0.0055    65.8133     2.3226     0.2245     7.8601
   96.5000   -55.5077     5.2602     4.9991    -0.0038    71.7593     2.2975     0.2396     7.8977
   97.0000   -55.2711     5.0780     4.9620     0.0208    81.5490     2.2919     0.2359     7.8889
   97.5000   -53.2686     4.9985     4.9075     0.0475    93.9093     2.3265     0.2075     7.9057
   98.0000   -51.1210     5.0569     4.9533     0.0387    86.5395     2.3577     0.1874     7.9749
   98.5000   -49.8868     5.1936     4.9985     0.0284    74.4799     2.3886     0.1698     8.0206
   99.0000   -49.3695     5.6546     5.3755     0.0346    62.9908     2.4126     0.1649     8.0520
   99.5000   -48.9036     6.2891     5.7366     0.0404    61.1740     2.4142     0.1630     8.0844
  100.0000   -48.8979     6.9934     6.1220     0.0434    62.8173     2.4130     0.1637     8.1549
  100.5000   -48.9035     7.9918     6.5227     0.0463    65.9289     2.4118     0.1646     8.2242
  101.0000   -48.9091     7.9841     6.7172     0.0530    69.0459     2.4140     0.1633     8.2933
  101.5000   -48.4064     7.8467     6.7373     0.0693    70.4941     2.4189     0.1575     8.3602
  102.0000   -46.8200     7.6258     6.7575     0.0856    70.3920     2.4238     0.1511     8.3963
  102.5000   -45.2846     7.6854     6.8408     0.0961    68.8684     2.4283     0.1574     8.3846
  103.0000   -44.5227     7.7725     6.9900     0.0855    67.1995     2.4240     0.1593     8.3615
  103.5000   -44.1157     7.8607     7.1424     0.0814    65.5232     2.4187     0.1573     8.3694
  104.0000   -44.1894     7.9111     7.3508     0.0722    63.9064     2.4009     0.1676     8.3794
  104.5000   -44.2521     7.8930     7.3173     0.0624    63.1056     2.3973     0.1698     8.3456
  105.0000   -44.2408     7.8785     7.2674     0.0582    63.5826     2.3966     0.1738     8.2930
  105.5000   -43.9703     7.8640     7.2170     0.0542    64.1404     2.3893     0.1778     8.1782
  106.0000   -43.7104     7.8495     7.3394     0.0473    64.3516     2.3796     0.1817     8.0681
  106.5000   -43.4537     7.8388     7.5476     0.0378    63.3755     2.3696     0.1890     7.9791
  107.0000   -43.3645     7.9581     7.7297     0.0286    62.4023     2.3598     0.1966     7.9228
  107.5000   -43.5286     8.0541     7.8417     0.0219    62.0376     2.3522     0.1988     7.8531
  108.0000   -43.6908     8.1512     7.9275     0.0200    61.9027     2.3508     0.1984     7.7332
  108.5000   -43.5377     8.2828     7.9841     0.0188    62.1214     2.3511     0.2013     7.6174
  109.0000   -43.3553     8.2478     7.9744     0.0221    63.6981     2.3521     0.1998     7.5038
  109.5000   -43.1742     8.1953     7.9597     0.0253    66.0104     2.3531     0.1985     7.4112
  110.0000   -42.9945     8.1321     7.9450     0.0247    68.0907     2.3519     0.2005     7.3485
  110.5000   -42.9259     8.3087     7.9305     0.0225    67.0271     2.3496     0.2033     7.3235
  111.0000   -42.9809     8.6129     7.9111     0.0236    64.9385     2.3491     0.2031     7.3247
  111.5000   -43.0358     8.9281     7.9457     0.0246    63.6092     2.3517     0.1985     7.3296
  112.0000   -43.0951     9.2553     7.9966     0.0256    64.0558     2.3581     0.1938     7.3557
  112.5000   -42.9459     9.5938     8.0578     0.0259    64.9116     2.3645     0.1892     7.4082
  113.0000   -42.7541     9.8762     8.0458     0.0234    65.7318     2.3683     0.1881     7.4717
  113.5000   -42.7409     9.9305     8.0309     0.0209    65.9617     2.3655     0.1915     7.5360
  114.0000   -42.7979     9.9867     8.0162     0.0185    63.5925     2.3612     0.1953     7.5998
