~VERSION INFORMATION
 VERS.                2.0:   CWLS LOG ASCII STANDARD - VERSION 2.0
 WRAP.                 NO:   ONE LINE PER DEPTH STEP
~WELL INFORMATION
#MNEM.UNIT      DATA TYPE    INFORMATION
#----------   ------------   ------------------------------
 STRT.F            4.0000:   START DEPTH
 STOP.F          508.0000:   STOP DEPTH
 STEP.F            0.5000:   STEP LENGTH
 NULL.          -999.2500:   NO VALUE
 COMP. LAWRENCE-ALLISON &AS:   COMPANY
 WELL. NPR ##3 58-65-SX-3-UPI:   WELL
 FLD .             TEAPOT:   FIELD
 LOC .       S3 T38N R78W:   LOCATION
 CNTY.            NATRONA:   COUNTY
 STAT.            WYOMING:   STATE
 CTRY. UNITED STATES OF AMERICA:   COUNTRY
 SRVC.      Dresser Atlas:   SERVICE COMPANY
 DATE.        07-DEC-1984:   LOGDATE
 API .       490251102500:   API NUMBER
~CURVE INFORMATION
#MNEM.UNIT       API CODE    CURVE DESCRIPTION
#----------   ------------   ------------------------------
 DEPT.F                  :   
 SPR .MV     07 010 01 00:   SPONTANEOUS POTENTIAL
 RILD.OHMM   07 120 46 00:   INDUCTION LOG DEEP RESISTIVITY
 RILM.OHMM   07 120 44 00:   INDUCTION LOG MEDIUM RESISTIVITY
 RFOC.OHMM   07 220 04 00:   RESISTIVITY FOCUSED LOG
 CALS.IN     60 280 50 00:   CALIPER FROM SONIC LOG
 GRS .GAPI   60 310 01 00:   GAMMA RAY FROM SONIC LOG
 AC  .US/F   60 520 00 00:   ACCOUSTIC SONIC
~PARAMETER INFORMATION
#MNEM.UNIT          VALUE    DESCRIPTION
#----------   ------------   ------------------------------
 PD  .                 GL:   PERMANENT DATUM
 EPD .F              5184:   ELEVATION PERMANENT DATUM
 LMF .                 GL:   LOG MEASURED FROM
 DMF .                 GL:   DRILLING MEASURED FROM
 EGL .F              5184:   GROUND LEVEL
 DATE.        07-DEC-1984:   RUN DATE
 RUN .                  1:   RUN NUMBER
 DD  .F               510:   DEPTH DRILLER
 DL  .F               510:   DEPTH LOGGER
 BLI .F               508:   BOTTOM LOG INTERVAL
 TLI .F                20:   TOP LOG INTERVAL
 CS  .IN            8.625:   CASING SIZE
 CBD .F                20:   CASING BOTTOM DRILLER
 CBL .F                20:   CASING BOTTOM LOGGER
 BS  .IN            7.875:   BIT SIZE
 BSD .F               510:   BIT SIZE AT DEPTH
 DFT .          KCL WATER:   DRILLING FLUID TYPE
 MSS .            MUD PIT:   MUD SAMPLE SOURCE
 RMS .OHMM            .14:   RESISTIVITY MUD SAMPLE
 MST .F                55:   MUD SAMPLE TEMPERATURE
 RMF .OHMM             .1:   RESISTIVITY MUD FILTRATE SAMPLE
 MFST.F                55:   MUD FILTRATE SAMPLE TEMPERATURE
 RMC .OHMM            .17:   RESISTIVITY MUD CAKE
 MCST.F                55:   MUD CAKE SAMPLE TEMPERATURE
 MFSS.               CALC:   MUD FILTRATE SAMPLE SOURCE
 MCSS.               CALC:   MUD CAKE SAMPLE SOURCE
 RMB .OHMM            .08:   RESISTIVITY MUD AT BHT
 BHT .F                86:   BOTTOM HOLE TEMPERATURE
 TCS .HRS               3:   TIME CURCULATED STOPPED
 MRT .F               100:   MAXIMUM RECORDED TEMPERATURE
 LUN .               6270:   LOGGING UNIT NUMBER
 LUL .                 FM:   LOGGING UNIT LOCATION
 ENGI.          E. GOVETT:   RECORDING ENGINEER
 WITN.      GROOMS, LUERS:   WITNESSED BY
 CLNT.            A2DTECH:   CLIENT CODE
 ORIG.           5" PRINT:   ORIGIN OF DATA
 UWI .       490251102500:   UNIQUE WELL ID
 DICO. A2D Technologies, Inc.:   DIGITIZING COMPANY
~OTHER INFORMATION
~A    DEPT     SPR       RILD       RILM       RFOC       CALS         GRS        AC   
# ...
  413.5000   -53.0695     7.6181     6.0913    10.3987     7.4121    90.2068    96.0751
  414.0000   -53.5341     6.7746     5.9305    10.2627     7.3981    93.3377    97.1240
  414.5000   -54.1118     6.0663     5.2755    10.0492     7.3994    95.2799    97.9467
  415.0000   -54.5405     5.6240     4.6604     9.4565     7.4004    96.6277    98.6954
  415.5000   -54.9672     5.2868     4.4431     8.0121     7.4015   101.3931   100.6781
  416.0000   -55.1058     4.9354     4.4775     6.0753     7.3877   110.4676   106.5403
  416.5000   -55.2444     4.8026     4.7694     5.1118     7.3887   111.5156   108.8589
  417.0000   -55.2336     5.2238     5.1117     4.8722     7.3898   107.0711   108.8491
  417.5000   -54.9250     5.7606     5.9862     5.4867     7.3908    99.9494   104.2419
  418.0000   -54.7654     6.1148     6.6248     9.1729     7.3946    91.6390    97.8248
  418.5000   -54.4567     6.6010     7.0026    11.7013     7.4075    87.3405    93.5946
  419.0000   -54.2971     7.1613     7.2551    11.4684     7.4086    85.1222    92.2303
  419.5000   -53.9885     7.6751     7.5168    11.1625     7.4097    84.5357    92.0726
  420.0000   -53.8289     8.3470     7.6806    11.0165     7.4256    85.3788    92.2919
  420.5000   -53.5202     9.0150     7.9026    10.9462     7.4267    87.1704    92.7375
  421.0000   -53.2116     9.4698     8.1311    10.9543     7.4277    91.3233    93.3339
  421.5000   -52.7539     9.7426     8.3661    10.9619     7.4288    95.0091    93.7041
  422.0000   -52.2963     9.8850     8.6079    11.0458     7.4298    96.3309    93.7744
  422.5000   -51.9876     9.8213     8.8567    11.1304     7.4157    95.2974    93.6904
  423.0000   -51.6790     9.8291     9.1127    11.2939     7.4170    95.3079    93.4572
  423.5000   -51.5216     9.9038     9.3762    11.4597     7.4181    95.9128    93.3009
  424.0000   -51.3621    10.1186     9.6472    11.7089     7.4192    95.1804    93.6802
  424.5000   -51.0537    10.3381     9.8575    12.0467     7.4202    91.4762    93.9706
  425.0000   -50.8942    10.5623    10.0012    12.3944     7.4213    88.3664    93.9593
  425.5000   -50.7346    10.7167    10.1485    12.7520     7.4223    86.1481    92.1424
  426.0000   -50.5750    10.8734    10.2980    13.0293     7.4234    85.8588    90.3256
  426.5000   -50.4154    11.0428    10.3776    13.1292     7.4244    88.3980    88.8858
  427.0000   -50.4048    11.2774    10.4578    13.0477     7.4255    90.9346    88.2756
  427.5000   -50.3942    11.5170    10.5387    12.9644     7.4265    90.4994    88.9474
  428.0000   -50.3837    11.6827    10.3299    13.1570     7.4274    89.4698    90.2980
  428.5000   -50.5248    11.9361    10.1252    13.4600     7.4284    89.6289    89.5370
  429.0000   -50.5115    12.1106     9.9245    13.7461     7.4294    91.8683    87.4185
  429.5000   -50.6526    12.2877     9.7936    13.9347     7.4305    95.3959    86.1295
  430.0000   -50.7911    12.4673     9.6681    13.4692     7.4315    97.5331    87.1030
  430.5000   -50.7779    12.6496     9.6088    13.1100     7.4326    94.8099    88.6044
  431.0000   -50.7673    12.7458     9.6163    13.2105     7.4188    90.2416    89.6534
  431.5000   -50.7567    12.8427     9.5554    13.4045     7.4198    86.2720    90.7777
  432.0000   -50.7462    12.9404     9.4986    13.6013     7.4209    83.7565    91.6259
  432.5000   -50.7377    12.9486     9.5060    13.7056     7.4219    82.5784    91.8214
  433.0000   -50.5782    12.9568     9.3806    13.8108     7.4230    82.4398    91.0512
  433.5000   -50.5678    12.9650     9.3230    13.6277     7.4241    83.0452    89.9977
  434.0000   -50.5574    12.8815     9.2002    13.2665     7.4251    86.6219    89.2367
  434.5000   -50.5469    12.8900     8.9571    13.0025     7.4110    89.1584    89.0041
  435.0000   -50.5363    12.8086     8.5990    12.8302     7.4123    89.0204    89.2333
  435.5000   -50.5258    12.7281     8.1981    12.9309     7.4134    86.9507    89.4482
  436.0000   -50.5152    12.6469     7.9802    13.1189     7.4144    85.0296    89.7376
  436.5000   -50.6563    12.4816     7.8749    13.2317     7.4155    84.0000    89.8815
  437.0000   -50.6431    12.3174     7.9925    13.4134     7.4017    84.7535    89.8746
  437.5000   -50.6325    12.0712     8.3383    13.5160     7.4027    85.9527    89.8677
  438.0000   -50.6219    11.8299     8.6991    13.5256     7.4036    86.1119    89.9380
  438.5000   -50.7604    11.5935     8.8888    13.5351     7.4046    86.1224    90.1573
  439.0000   -50.7498    11.3618     9.0198    13.4505     7.3907    86.4538    90.3767
  439.5000   -50.8909    11.1347     9.0268    13.3652     7.3918    87.0684    90.6697
  440.0000   -51.0294    10.9882     8.9697    13.1015     7.3929    88.0932    90.9645
  440.5000   -51.1678    10.8419     8.9769    12.8408     7.3939    89.2884    91.3347
  441.0000   -51.3036    10.6269     8.9215    12.4119     7.3950    91.0759    91.7803
  441.5000   -51.2931    10.4870     8.9285    11.9973     7.3960    92.5723    92.8292
  442.0000   -51.4342    10.3490     8.9354    11.8383     7.3971    94.5145    94.2552
  442.5000   -51.5921    10.2128     8.9423    11.8487     7.3981    96.4567    95.2304
  443.0000   -51.8601    10.1470     8.9492    11.8571     7.3992    96.0215    94.8954
  443.5000   -51.9986    10.0832     8.8943    11.7814     7.4002    93.5060    94.2274
  444.0000   -52.1371    10.0198     8.8380    11.6977     7.4013    91.8794    93.9276
  444.5000   -52.4247    10.0262     8.7838    11.3959     7.4024    96.3503    93.9208
  445.0000   -52.7120    10.0326     8.7299    11.2468     7.4034    97.1038    94.0648
  445.5000   -52.9995    10.0389     8.7991    11.0230     7.3893    96.8171    94.6612
  446.0000   -53.1406     9.9758     8.8671    10.9542     7.3906    95.7875    96.3134
  446.5000   -53.2791     9.9821     8.9357    10.8113     7.3917    94.7580    96.9870
  447.0000   -53.4175     9.9885     9.0048    10.8189     7.3927    94.4687    96.2996
  447.5000   -53.2553     9.9948     9.0745    10.9019     7.3938    97.0079    95.8402
  448.0000   -53.2447    10.0011     9.0815    10.9855     7.3947    99.3958    95.4563
  448.5000   -53.2341    10.0075     9.0752    11.0698     7.4105   100.3195    95.2231
  449.0000   -53.2236    10.0138     8.9611    11.1547     7.4116   100.6191    94.9900
  449.5000   -53.2130     9.9509     8.8483    11.2402     7.3978   100.9108    94.9831
  450.0000   -53.2039     9.9556     8.7695    11.2469     7.3989   100.7231    95.0613
  450.5000   -53.1891     9.8827     8.6232    11.2546     7.3983   100.0420    95.3852
  451.0000   -53.1717     9.8154     8.1638    11.1847     7.3977    98.8638    95.6450
  451.5000   -53.3094     9.7709     7.6756    10.8863     7.3971    96.4800    95.9413
  452.0000   -53.4435     9.6446     7.3681    10.6696     7.3964    94.2760    96.3130
  452.5000   -53.6065     9.3621     7.3210    10.5297     7.3958    93.9648    96.4599
  453.0000   -53.8606     8.9374     7.3784    10.3918     7.3952    92.5042    96.5299
  453.5000   -54.1436     8.7005     7.2316    10.2558     7.3945    92.0788    96.6754
  454.0000   -54.4267     8.4699     7.1358    10.1219     7.3939    94.6153    96.8950
  454.5000   -54.5742     8.3606     7.1420    10.0572     7.3932    99.0835    97.4175
  455.0000   -54.8438     8.2547     7.1470     9.9947     7.3927    99.4155    97.8205
  455.5000   -55.1268     8.2034     7.1520    10.0034     7.3788    97.4701    98.4115
  456.0000   -55.2629     8.1523     7.1063     9.9395     7.3799    96.4379    99.0025
  456.5000   -55.3950     8.1016     7.0146     9.8794     7.3808    97.9369    99.6645
  457.0000   -55.6779     8.0511     6.9217     9.8863     7.3817    99.2848   100.1835
  457.5000   -55.8120     7.8362     6.7384     9.8932     7.3826   100.1868   100.4788
  458.0000   -55.7970     7.4698     6.4958     9.9001     7.3835   100.3433    99.7948
  458.5000   -55.9314     7.1701     6.1098     9.9070     7.3842    99.4650    99.4878
