~VERSION INFORMATION
 VERS.                2.0:   CWLS LOG ASCII STANDARD - VERSION 2.0
 WRAP.                 NO:   ONE LINE PER DEPTH STEP
~WELL INFORMATION
#MNEM.UNIT      DATA TYPE    INFORMATION
#----------   ------------   ------------------------------
 STRT.F          438.0000:   START DEPTH
 STOP.F         2175.0000:   STOP DEPTH
 STEP.F            0.5000:   STEP LENGTH
 NULL.          -999.2500:   NO VALUE
 COMP.   FLUOR DANIEL INC:   COMPANY
 WELL. NAVAL PETROLEUM RESERVE 3 X29 #74-29:   WELL
 FLD .            WLIDCAT:   FIELD
 LOC .      S29 T39N R78W:   LOCATION
 CNTY.            NATRONA:   COUNTY
 STAT.            WYOMING:   STATE
 CTRY. UNITED STATES OF AMERICA:   COUNTRY
 SRVC.            Unknown:   SERVICE COMPANY
 DATE.        05-JUN-1995:   LOGDATE
 API .       490252272900:   API NUMBER
~CURVE INFORMATION
#MNEM.UNIT       API CODE    CURVE DESCRIPTION
#----------   ------------   ------------------------------
 DEPT.F                  :   
 ROP .FT/HR  91 810 01 00:   RAT OF DRILLING PENETRATION
 TGAS.TC/CC  91 830 01 00:   TOTAL GAS UNIT
~PARAMETER INFORMATION
#MNEM.UNIT          VALUE    DESCRIPTION
#----------   ------------   ------------------------------
 EKB .F              5036:   KELLING BUSHING
 EGL .F              5026:   GROUND LEVEL
 DATE.        05-JUN-1995:   RUN DATE
 RUN .                  1:   RUN NUMBER
 BLI .F              2160:   BOTTOM LOG INTERVAL
 TLI .F               440:   TOP LOG INTERVAL
 ENGI.     R.HUSK/C.TOWER:   RECORDING ENGINEER
 CLNT.            A2DTECH:   CLIENT CODE
 ORIG.           5" PRINT:   ORIGIN OF DATA
 UWI .       490252272900:   UNIQUE WELL ID
 DICO. A2D Technologies, Inc.:   DIGITIZING COMPANY
~OTHER INFORMATION
~A   DEPT        ROP       TGAS 
# ...
 1410.0000     0.5154     1.6226
 1410.5000     0.5165     1.6094
 1411.0000     0.5177     1.5941
 1411.5000     0.5189     1.7717
 1412.0000     0.5200     1.7571
 1412.5000     0.5212     1.5555
 1413.0000     0.5224     1.5427
 1413.5000     0.5236     1.5302
 1414.0000     0.5247     1.5170
 1414.5000     0.5259     1.5038
 1415.0000     0.5271     1.4880
 1415.5000     0.5282     1.4774
 1416.0000     0.5296     1.4642
 1416.5000     0.5290     1.4494
 1417.0000     0.5282     1.4365
 1417.5000     0.5274     1.4245
 1418.0000     0.5266     1.4108
 1418.5000     0.5258     1.3979
 1419.0000     0.5250     1.3849
 1419.5000     0.5243     1.3717
 1420.0000     0.5235     1.3561
 1420.5000     0.5227     1.5352
 1421.0000     0.5219     1.7110
 1421.5000     0.5211     1.6949
 1422.0000     0.5203     1.8717
 1422.5000     0.5195     2.0497
 1423.0000     0.5188     2.2223
 1423.5000     0.5180     2.3982
 1424.0000     0.5172     2.3853
 1424.5000     0.5164     2.5611
 1425.0000     0.5156     2.7369
 1425.5000     0.5148     2.5322
 1426.0000     0.5141     2.5208
 1426.5000     0.5133     2.5075
 1427.0000     0.5125     2.4936
 1427.5000     0.5117     2.4811
 1428.0000     0.5109     2.6587
 1428.5000     0.5101     2.6434
 1429.0000     0.5093     2.6276
 1429.5000     0.5086     2.6170
 1430.0000     0.5078     2.6038
 1430.5000     0.5070     2.5890
 1431.0000     0.5062     2.5774
 1431.5000     0.5054     2.5642
 1432.0000     0.5046     2.5509
 1432.5000     0.5037     2.5375
 1433.0000     0.5040     2.5245
 1433.5000     0.4949     2.5113
 1434.0000     0.4661     2.4981
 1434.5000     0.4635     2.4828
 1435.0000     0.4610     2.4717
 1435.5000     0.4584     2.4585
 1436.0000     0.4559     2.4453
 1436.5000     0.4533     2.4314
 1437.0000     0.4508     2.4189
 1437.5000     0.4482     2.4057
 1438.0000     0.4457     2.2038
 1438.5000     0.4431     2.1880
 1439.0000     0.4406     2.3639
 1439.5000     0.4380     2.3528
 1440.0000     0.4354     2.3381
 1440.5000     0.4329     2.3253
 1441.0000     0.4303     2.3124
 1441.5000     0.4278     2.2995
 1442.0000     0.4256     2.2867
 1442.5000     0.4249     2.2736
 1443.0000     0.4241     2.2604
 1443.5000     0.4234     2.2449
 1444.0000     0.4226     2.2320
 1444.5000     0.4218     1.8418
 1445.0000     0.4211     1.8302
 1445.5000     0.4203     1.8160
 1446.0000     0.4196     1.8038
 1446.5000     0.4188     1.7903
 1447.0000     0.4180     1.7764
 1447.5000     0.4173     1.7642
 1448.0000     0.4165     1.7509
 1448.5000     0.4158     1.7356
 1449.0000     0.4150     1.7245
 1449.5000     0.4142     1.8997
 1450.0000     0.4135     1.8868
 1450.5000     0.4112     1.8736
 1451.0000     0.4063     1.8604
 1451.5000     0.4013     1.8450
 1452.0000     0.3963     2.0229
 1452.5000     0.3933     2.0094
 1453.0000     0.3931     1.9940
 1453.5000     0.3929     1.9830
 1454.0000     0.3927     1.9698
 1454.5000     0.3925     1.9566
 1455.0000     0.3923     1.9434
 1455.5000     0.3921     1.9302
 1456.0000     0.3919     1.9170
 1456.5000     0.3917     1.9038
 1457.0000     0.3915     1.8889
 1457.5000     0.3883     1.8774
 1458.0000     0.4054     1.8642
 1458.5000     0.4055     1.8493
 1459.0000     0.4152     1.8364
 1459.5000     0.4153     1.8245
 1460.0000     0.4250     1.8113
 1460.5000     0.4251     1.7981
 1461.0000     0.4252     1.7849
 1461.5000     0.4253     1.7717
 1462.0000     0.4254     1.7560
 1462.5000     0.4159     1.7453
 1463.0000     0.4063     1.7303
 1463.5000     0.3968     1.5302
 1464.0000     0.3873     1.5148
 1464.5000     0.3874     1.5038
 1465.0000     0.3875     1.4901
 1465.5000     0.3972     1.4774
 1466.0000     0.5608     1.4641
 1466.5000     0.5513     1.1338
 1467.0000     0.5513     1.1282
 1467.5000     0.5611     1.2186
 1468.0000     0.5612     1.4945
 1468.5000     0.5612     1.5047
 1469.0000     0.5517     1.8607
 1469.5000     0.5518     1.8547
 1470.0000     0.5519     2.0383
 1470.5000     0.5520     2.0313
 1471.0000     0.5425     2.0258
 1471.5000     0.5426     2.2103
 1472.0000     0.5427     2.2038
 1472.5000     0.5428     2.1978
 1473.0000     0.5429     2.1923
 1473.5000     0.5430     2.1868
 1474.0000     0.5431     2.1811
 1474.5000     0.5432     2.1755
 1475.0000     0.5433     2.1698
 1475.5000     0.5434     2.1631
 1476.0000     0.5435     2.1585
 1476.5000     0.5436     2.1520
 1477.0000     0.5533     2.1464
 1477.5000     0.5534     2.1415
 1478.0000     0.5438     2.1358
 1478.5000     0.5439     2.1302
 1479.0000     0.5440     2.3129
 1479.5000     0.5538     2.3075
 1480.0000     0.5538     2.3018
 1480.5000     0.5636     2.4849
 1481.0000     0.5540     2.4789
 1481.5000     0.5541     2.4736
 1482.0000     0.5542     2.4679
 1482.5000     0.5543     2.4623
 1483.0000     0.5544     2.4558
 1483.5000     0.5545     2.4502
 1484.0000     0.5546     2.4447
 1484.5000     0.5547     2.4396
 1485.0000     0.5548     2.4340
 1485.5000     0.5524     2.4280
 1486.0000     0.5454     2.4224
 1486.5000     0.5455     2.4169
 1487.0000     0.5456     2.2226
 1487.5000     0.5457     2.2170
 1488.0000     0.5458     2.1384
 1488.5000     0.5459     2.0170
 1489.0000     0.5460     2.0104
 1489.5000     0.5461     2.0048
 1490.0000     0.5462     2.0000
 1490.5000     0.5463     1.9937
 1491.0000     0.5464     1.9882
 1491.5000     0.5464     1.9826
 1492.0000     0.5465     1.9770
 1492.5000     0.5562     1.9715
 1493.0000     0.5563     1.9659
 1493.5000     0.5564     1.9604
 1494.0000     0.5565     1.9547
 1494.5000     0.5566     1.9786
 1495.0000     0.5567     2.1324
 1495.5000     0.5472     2.1255
 1496.0000     0.5281     2.1199
 1496.5000     0.5089     2.3044
 1497.0000     0.4994     2.2981
 1497.5000     0.4995     2.2919
 1498.0000     0.4996     2.2864
 1498.5000     0.4997     2.2811
 1499.0000     0.4998     2.2755
 1499.5000     0.5095     2.2697
 1500.0000     0.5096     2.2642
 1500.5000     0.5097     2.0695
 1501.0000     0.5098     2.0642
 1501.5000     0.5099     2.2472
 1502.0000     0.5100     2.2405
 1502.5000     0.5101     2.2350
 1503.0000     0.5102     2.2294
 1503.5000     0.5103     2.2245
 1504.0000     0.5104     2.2189
 1504.5000     0.5105     2.2128
 1505.0000     0.5106     2.2075
 1505.5000     0.5107     2.2019
 1506.0000     0.5108     2.1961
 1506.5000     0.5109     2.3792
 1507.0000     0.5110     2.5624
 1507.5000     0.5111     2.5566
 1508.0000     0.5016     2.5499
 1508.5000     0.5017     2.7344
 1509.0000     0.5017     2.9146
 1509.5000     0.5018     2.9018
 1510.0000     0.5115     2.8890
 1510.5000     0.5116     2.8763
 1511.0000     0.5117     2.8635
 1511.5000     0.5118     2.8508
 1512.0000     0.5119     2.8380
 1512.5000     0.5120     2.8252
 1513.0000     0.5121     2.8138
 1513.5000     0.5080     2.8062
 1514.0000     0.5039     2.7987
 1514.5000     0.4998     2.7908
 1515.0000     0.4957     2.7830
 1515.5000     0.4934     2.7736
 1516.0000     0.4838     2.7659
 1516.5000     0.4743     2.7594
 1517.0000     0.4648     2.7506
 1517.5000     0.4649     2.7437
 1518.0000     0.4554     2.7358
 1518.5000     0.4555     2.9163
 1519.0000     0.4460     3.0975
 1519.5000     0.4461     3.0896
 1520.0000     0.4462     3.0818
 1520.5000     0.4463     3.0940
 1521.0000     0.4463     3.2547
 1521.5000     0.4561     3.2457
 1522.0000     0.4562     3.2381
 1522.5000     0.4563     3.0417
 1523.0000     0.4563     3.0341
 1523.5000     0.4661     2.8377
 1524.0000     0.4662     2.8175
 1524.5000     0.4663     3.0111
 1525.0000     0.4760     3.0031
 1525.5000     0.4761     2.9938
 1526.0000     0.4858     2.9862
 1526.5000     0.4955     2.7898
 1527.0000     0.4956     2.7822
 1527.5000     0.5032     2.7745
 1528.0000     0.5150     2.7668
 1528.5000     0.4286     2.7592
 1529.0000     0.3902     2.7515
 1529.5000     0.3807     2.7437
 1530.0000     0.3904     2.5472
 1530.5000     0.3809     2.5393
 1531.0000     0.3810     2.5314
