~VERSION INFORMATION
 VERS.                2.0:   CWLS LOG ASCII STANDARD - VERSION 2.0
 WRAP.                 NO:   ONE LINE PER DEPTH STEP
~WELL INFORMATION
#MNEM.UNIT      DATA TYPE    INFORMATION
#----------   ------------   ------------------------------
 STRT.F            0.0000:   START DEPTH
 STOP.F          530.0000:   STOP DEPTH
 STEP.F            0.5000:   STEP LENGTH
 NULL.          -999.2500:   NO VALUE
 COMP. FENIX & SCISSON INC:   COMPANY
 WELL.      74 SX 3 #74-3:   WELL
 FLD .             TEAPOT:   FIELD
 LOC .       S3 T38N R78W:   LOCATION
 CNTY.            NATRONA:   COUNTY
 STAT.            WYOMING:   STATE
 CTRY. UNITED STATES OF AMERICA:   COUNTRY
 SRVC.            Unknown:   SERVICE COMPANY
 DATE.        20-SEP-1978:   LOGDATE
 API .       490251072200:   API NUMBER
~CURVE INFORMATION
#MNEM.UNIT       API CODE    CURVE DESCRIPTION
#----------   ------------   ------------------------------
 DEPT.F                  :   
 CALD.IN     45 280 60 00:   CALIPER
 GRD .GAPI   45 310 01 00:   GAMMA RAY FROM DENSITY LOG
 RHOB.G/C3   45 350 01 00:   BULK DENSITY
 DPHI.DEC    45 890 12 00:   DENSITY POROSITY SANDSTONE
 CORR.G/C3   45 356 01 00:   DENSITY CORRECTION
 SPR .MV     05 010 01 00:   SPONTANEOUS POTENTIAL FROM RES.
 SN  .OHMM   05 040 16 00:   SHORT NORMAL 16"
 ILD .OHMM   05 120 46 00:   INDUCTION LOG DEEP
~PARAMETER INFORMATION
#MNEM.UNIT          VALUE    DESCRIPTION
#----------   ------------   ------------------------------
 PD  .                 GL:   PERMANENT DATUM
 EPD .F              5139:   ELEVATION PERMANENT DATUM
 LMF .                 KB:   LOG MEASURED FROM
 DAPD.F                 4:   FEET ABOVE PERMANENT DATUM
 DMF .                 KB:   DRILLING MEASURED FROM
 EKB .F              5143:   KELLING BUSHING
 EGL .F              5139:   GROUND LEVEL
 DATE.            9-20-78:   RUN DATE
 RUN .                  1:   RUN NUMBER
 DD  .F               532:   DEPTH DRILLER
 DL  .F               530:   DEPTH LOGGER
 BLI .F               524:   BOTTOM LOG INTERVAL
 TLI .F                40:   TOP LOG INTERVAL
 CS  .IN            8.625:   CASING SIZE
 CBD .F                40:   CASING BOTTOM DRILLER
 CBL .F                40:   CASING BOTTOM LOGGER
 BS  .IN            7.875:   BIT SIZE
 BSD .F               532:   BIT SIZE AT DEPTH
 DFT .                KCL:   DRILLING FLUID TYPE
 DFD .                8.8:   DRILLING FLUID DENSITY
 DFV .                 38:   DRILLING FLUID VISCOSITY
 DFPH.                  9:   DRILLING FLUID PH
 DFL .                6.2:   DRILLING FLUID LOSS
 MSS .                PIT:   MUD SAMPLE SOURCE
 BHT .F                69:   BOTTOM HOLE TEMPERATURE
 TCS .HRS               3:   TIME CURCULATED STOPPED
 MRT .F                69:   MAXIMUM RECORDED TEMPERATURE
 LUN .               2958:   LOGGING UNIT NUMBER
 LUL .             CASPER:   LOGGING UNIT LOCATION
 ENGI.           REYNOLDS:   RECORDING ENGINEER
 WITN.           DINSMORE:   WITNESSED BY
 CLNT.            A2DTECH:   CLIENT CODE
 ORIG.       2", 5" PRINT:   ORIGIN OF DATA
 UWI .       490251072200:   UNIQUE WELL ID
 DICO. A2D Technologies, Inc.:   DIGITIZING COMPANY
~OTHER INFORMATION
~A    DEPT    CALD         GRD      RHOB       DPHI       CORR        SPR         SN        ILD   
# ...
  162.0000     7.2384    81.0562     2.4749     0.1189     0.0371   -29.7439    11.2125     7.9907
  162.5000     7.4932    79.9099     2.4750     0.1230     0.0341   -29.6619    11.1698     8.0821
  163.0000     7.5241    77.8483     2.4709     0.1272     0.0310   -29.5786    11.1266     8.2156
  163.5000     7.5074    75.7627     2.4643     0.1313     0.0297   -29.4954    11.0837     8.3512
  164.0000     7.4889    73.7398     2.4579     0.1329     0.0312   -29.4122    11.0409     8.5184
  164.5000     7.4286    73.7295     2.4559     0.1328     0.0326   -29.3292    10.9983     8.7521
  165.0000     7.3963    73.7479     2.4564     0.1326     0.0341   -29.2456    10.9558     8.9923
  165.5000     7.4616    73.4208     2.4569     0.1325     0.0352   -29.2087    10.9136     9.2390
  166.0000     7.4739    73.1051     2.4573     0.1307     0.0351   -29.2078    10.8714     9.4926
  166.5000     7.4310    73.5616     2.4578     0.1291     0.0351   -29.2086    10.8295     9.7530
  167.0000     7.4564    74.1152     2.4599     0.1280     0.0351   -29.0942    10.7875    10.0207
  167.5000     7.4093    74.6550     2.4623     0.1280     0.0343   -28.8931    10.7289    10.2522
  168.0000     7.4105    75.1371     2.4630     0.1279     0.0326   -28.9023    10.7367    10.2871
  168.5000     7.4188    75.2038     2.4632     0.1278     0.0309   -29.0510    10.7514    10.3221
  169.0000     7.4273    75.2755     2.4634     0.1277     0.0292   -29.2023    10.7656    10.3572
  169.5000     7.4357    75.5790     2.4636     0.1266     0.0289   -29.3537    10.7798    10.3924
  170.0000     7.4442    75.2707     2.4638     0.1251     0.0287   -29.5057    10.7941    10.4278
  170.5000     7.4588    74.5732     2.4639     0.1247     0.0284   -29.6593    10.8084    10.4632
  171.0000     7.4886    74.0707     2.4639     0.1252     0.0282   -29.7863    10.8272    10.4988
  171.5000     7.4902    74.4463     2.4639     0.1257     0.0280   -29.4602    10.7678    10.5330
  172.0000     7.4914    74.7870     2.4637     0.1270     0.0278   -29.1237    10.6723    10.4401
  172.5000     7.4394    74.7819     2.4628     0.1283     0.0275   -28.8166    10.5783    10.3313
  173.0000     7.4700    74.7831     2.4619     0.1291     0.0273   -28.8099    10.4859    10.2236
  173.5000     7.4749    74.7829     2.4610     0.1285     0.0271   -28.8098    10.3851    10.1171
  174.0000     7.4764    74.7829     2.4618     0.1278     0.0268   -28.8727    10.2794    10.0119
  174.5000     7.4932    74.7827     2.4629     0.1272     0.0266   -28.9424    10.1733     9.9059
  175.0000     7.5100    74.7823     2.4639     0.1265     0.0264   -29.0122    10.0602     9.7647
  175.5000     7.5268    74.7769     2.4650     0.1259     0.0262   -29.0818     9.9192     9.6074
  176.0000     7.5420    74.9452     2.4659     0.1286     0.0259   -29.1515     9.7663     9.4526
  176.5000     7.5713    75.7315     2.4630     0.1313     0.0257   -29.2211     9.6072     9.2591
  177.0000     7.6226    76.5288     2.4599     0.1304     0.0255   -29.2908     9.7437     9.3588
  177.5000     7.6719    77.3112     2.4577     0.1300     0.0253   -29.3597     9.8970     9.5507
  178.0000     7.7158    78.3324     2.4575     0.1317     0.0255   -29.4067    10.0583     9.7482
  178.5000     7.5137    80.2218     2.4572     0.1334     0.0267   -29.4058    10.1340     9.8745
  179.0000     7.4287    81.5391     2.4569     0.1337     0.0279   -29.4060    10.2117     9.8308
  179.5000     7.5041    81.8674     2.4573     0.1328     0.0291   -29.4059    10.2460     9.7969
  180.0000     7.4313    82.0966     2.4578     0.1310     0.0312   -29.4059    10.2041     9.7637
  180.5000     7.4394    83.2722     2.4583     0.1258     0.0331   -29.4059    10.1736     9.7306
  181.0000     7.4511    84.4271     2.4591     0.1206     0.0331   -29.4059    10.1432     9.6975
  181.5000     7.5967    84.4386     2.4659     0.1156     0.0330   -29.4060    10.1129     9.6646
  182.0000     7.5427    83.1866     2.4728     0.1199     0.0292   -29.4063    10.0827     9.6321
  182.5000     7.4918    81.4420     2.4740     0.1240     0.0279   -29.4043    10.0590     9.6067
  183.0000     7.5004    78.4587     2.4700     0.1261     0.0269   -29.3578    10.1210     9.7039
  183.5000     7.5283    77.0151     2.4678     0.1219     0.0258   -29.3100    10.1722     9.7846
  184.0000     7.5022    76.9811     2.4697     0.1194     0.0258   -29.2624    10.2237     9.8661
  184.5000     7.4903    78.5962     2.4724     0.1187     0.0280   -29.2149    10.2754     9.9482
  185.0000     7.4899    80.4444     2.4750     0.1180     0.0313   -29.1674    10.3273    10.0311
  185.5000     7.4896    82.3063     2.4776     0.1165     0.0331   -29.1198    10.3795    10.0739
  186.0000     7.4926    83.3618     2.4802     0.1145     0.0331   -29.0724    10.4320    10.0961
  186.5000     7.5603    83.6762     2.4828     0.1128     0.0331   -29.0238    10.4848    10.1185
  187.0000     7.5227    83.5824     2.4850     0.1140     0.0331   -29.0341    10.5330    10.1407
  187.5000     7.5070    82.9723     2.4849     0.1159     0.0331   -29.0678    10.4605    10.1530
  188.0000     7.5441    81.9462     2.4817     0.1179     0.0331   -29.1023    10.3945    10.1025
  188.5000     7.5022    81.2353     2.4762     0.1198     0.0331   -29.1368    10.3290    10.0574
  189.0000     7.4341    82.2612     2.4715     0.1218     0.0331   -29.1714    10.2632    10.0126
  189.5000     7.5205    83.3460     2.4701     0.1233     0.0331   -29.2066    10.2260     9.9681
  190.0000     7.3467    83.6267     2.4701     0.1225     0.0331   -29.2297    10.1978     9.9237
  190.5000     7.5617    83.7879     2.4704     0.1215     0.0331   -29.2528    10.1700     9.8795
  191.0000     7.5741    84.7060     2.4706     0.1206     0.0331   -29.2760    10.1423     9.8355
  191.5000     7.5242    85.9511     2.4709     0.1205     0.0331   -29.2992    10.1146     9.7917
  192.0000     7.4921    86.3441     2.4702     0.1222     0.0331   -29.3224    10.0871     9.7481
  192.5000     7.5008    85.0210     2.4693     0.1237     0.0331   -29.3457    10.0596     9.7047
  193.0000     7.5147    83.6250     2.4672     0.1253     0.0332   -29.3689    10.0322     9.6296
  193.5000     7.6402    82.2245     2.4640     0.1269     0.0339   -29.3913    10.0048     9.5461
  194.0000     7.4824    81.1805     2.4633     0.1285     0.0346   -29.3699     9.9776     9.4634
  194.5000     7.5114    80.8030     2.4632     0.1271     0.0356   -29.2787     9.9588     9.4311
  195.0000     7.4999    80.0614     2.4641     0.1257     0.0383   -29.2276     9.9456     9.4311
  195.5000     7.4903    79.0871     2.4656     0.1230     0.0410   -29.3426     9.9324     9.4311
  196.0000     7.4898    78.5591     2.4693     0.1202     0.0432   -29.4538     9.9193     9.4311
  196.5000     7.4890    78.8166     2.4731     0.1181     0.0432   -29.5659     9.9061     9.4311
  197.0000     7.5259    80.2012     2.4768     0.1184     0.0432   -29.6035     9.8930     9.4312
  197.5000     7.5691    81.4577     2.4794     0.1169     0.0432   -29.6041     9.8794     9.4325
  198.0000     7.6110    81.5619     2.4805     0.1144     0.0432   -29.6036     9.7937     9.4311
  198.5000     7.6410    81.5883     2.4816     0.1149     0.0432   -29.6013     9.6717     9.3133
  199.0000     7.6723    80.9834     2.4807     0.1159     0.0432   -29.6933     9.5511     9.1404
  199.5000     7.3747    80.3823     2.4788     0.1169     0.0432   -29.7955     9.4321     8.9707
  200.0000     7.3480    80.0721     2.4770     0.1178     0.0432   -29.8981     9.3146     8.8042
  200.5000     7.6335    80.6426     2.4751     0.1188     0.0432   -30.0003     9.1986     8.6407
  201.0000     7.3539    81.3764     2.4733     0.1198     0.0432   -30.1025     9.0834     8.4803
  201.5000     7.4619    81.5359     2.4713     0.1208     0.0432   -30.2047     8.9376     8.3228
  202.0000     7.4995    81.7170     2.4709     0.1225     0.0428   -30.3068     8.7219     8.1683
