~VERSION INFORMATION
 VERS.                2.0:   CWLS LOG ASCII STANDARD - VERSION 2.0
 WRAP.                 NO:   ONE LINE PER DEPTH STEP
~WELL INFORMATION
#MNEM.UNIT      DATA TYPE    INFORMATION
#----------   ------------   ------------------------------
 STRT.F           16.5000:   START DEPTH
 STOP.F          640.0000:   STOP DEPTH
 STEP.F            0.5000:   STEP LENGTH
 NULL.          -999.2500:   NO VALUE
 COMP. FENIX & SCISSON INC:   COMPANY
 WELL.     11 SX 14 #3-14:   WELL
 FLD .             TEAPOT:   FIELD
 LOC .      S14 T38N R78W:   LOCATION
 CNTY.            NATRONA:   COUNTY
 STAT.            WYOMING:   STATE
 CTRY. UNITED STATES OF AMERICA:   COUNTRY
 SRVC.            Unknown:   SERVICE COMPANY
 DATE.        18-DEC-1978:   LOGDATE
 API .       490251075700:   API NUMBER
~CURVE INFORMATION
#MNEM.UNIT       API CODE    CURVE DESCRIPTION
#----------   ------------   ------------------------------
 DEPT.F                  :   
 SPR .MV     05 010 01 00:   SPONTANEOUS POTENTIAL FROM RES.
 SN  .OHMM   05 040 16 00:   SHORT NORMAL 16"
 IL  .OHMM   05 120 00 00:   INDUCTION LOG
 GRD .GAPI   45 310 01 00:   GAMMA RAY FROM DENSITY LOG
 CALD.IN     45 280 60 00:   CALIPER
 RHOB.G/C3   45 350 01 00:   BULK DENSITY
 DPHI.DEC    45 890 12 00:   DENSITY POROSITY SANDSTONE
 CORR.G/C3   45 356 01 00:   DENSITY CORRECTION
~PARAMETER INFORMATION
#MNEM.UNIT          VALUE    DESCRIPTION
#----------   ------------   ------------------------------
 PD  .                 GL:   PERMANENT DATUM
 EPD .F              5217:   ELEVATION PERMANENT DATUM
 LMF .                 KB:   LOG MEASURED FROM
 DAPD.F                 4:   FEET ABOVE PERMANENT DATUM
 DMF .                 KB:   DRILLING MEASURED FROM
 EKB .F              5221:   KELLING BUSHING
 EGL .F              5217:   GROUND LEVEL
 DATE.           12-18-78:   RUN DATE
 RUN .                  1:   RUN NUMBER
 DD  .F               653:   DEPTH DRILLER
 DL  .F               640:   DEPTH LOGGER
 BLI .F               634:   BOTTOM LOG INTERVAL
 TLI .F                32:   TOP LOG INTERVAL
 CS  .IN            8.625:   CASING SIZE
 CBD .F                40:   CASING BOTTOM DRILLER
 CBL .F                30:   CASING BOTTOM LOGGER
 BS  .IN            7.875:   BIT SIZE
 BSD .F               653:   BIT SIZE AT DEPTH
 DFT .                KCL:   DRILLING FLUID TYPE
 DFD .                8.3:   DRILLING FLUID DENSITY
 DFV .                 36:   DRILLING FLUID VISCOSITY
 DFPH.               12.5:   DRILLING FLUID PH
 DFL .               12.3:   DRILLING FLUID LOSS
 MSS .           FLOWLINE:   MUD SAMPLE SOURCE
 MST .F                56:   MUD SAMPLE TEMPERATURE
 RMF .OHMM            .44:   RESISTIVITY MUD FILTRATE SAMPLE
 MFST.F                58:   MUD FILTRATE SAMPLE TEMPERATURE
 RMC .OHMM            .58:   RESISTIVITY MUD CAKE
 MCST.F                66:   MUD CAKE SAMPLE TEMPERATURE
 MFSS.           MEASURED:   MUD FILTRATE SAMPLE SOURCE
 MCSS.           MEASURED:   MUD CAKE SAMPLE SOURCE
 BHT .F                58:   BOTTOM HOLE TEMPERATURE
 TCS .HRS               4:   TIME CURCULATED STOPPED
 MRT .F                58:   MAXIMUM RECORDED TEMPERATURE
 LUL .             CASPER:   LOGGING UNIT LOCATION
 ENGI.         B. ROLLINS:   RECORDING ENGINEER
 WITN.              AMEND:   WITNESSED BY
 CLNT.            A2DTECH:   CLIENT CODE
 ORIG.           5" PRINT:   ORIGIN OF DATA
 UWI .       490251075700:   UNIQUE WELL ID
 DICO. A2D Technologies, Inc.:   DIGITIZING COMPANY
~OTHER INFORMATION
~A   DEPT      SPR         SN         IL         GRD      CALD       RHOB       DPHI       CORR   
# ...
  219.0000   -43.1010     9.9060     9.5300    99.2840     8.2340     2.5040     0.1110     0.0140
  219.5000   -43.2370     9.8880     9.5660   100.2380     8.2030     2.5030     0.1100     0.0150
  220.0000   -43.3720     9.8710     9.5300   101.3750     8.1790     2.5050     0.1050     0.0150
  220.5000   -43.4770     9.8530     9.4840   102.3910     8.1960     2.5090     0.1050     0.0150
  221.0000   -43.0530     9.8340     9.4390   102.5760     8.2140     2.5120     0.1040     0.0150
  221.5000   -42.0390     9.8840     9.3910   102.7830     8.2320     2.5130     0.1040     0.0140
  222.0000   -41.2910     9.9400     9.4510   102.3240     8.2510     2.5130     0.1030     0.0130
  222.5000   -41.3430     9.9960     9.5140   100.8960     8.2250     2.5120     0.1060     0.0120
  223.0000   -41.3780    10.0520     9.5780    99.4800     8.1320     2.5120     0.1100     0.0110
  223.5000   -41.4110    10.1080     9.6420    98.1790     8.0250     2.5070     0.1120     0.0090
  224.0000   -41.4440    10.1640     9.7060    98.2170     8.0240     2.5020     0.1120     0.0060
  224.5000   -41.4820    10.2200     9.7700    99.5650     7.8760     2.5010     0.1120     0.0060
  225.0000   -41.6250    10.2910     9.8340   100.8980     7.8060     2.5000     0.1100     0.0070
  225.5000   -42.1020    10.2620     9.7940   102.2580     7.8630     2.5020     0.1080     0.0080
  226.0000   -42.5790    10.2030     9.7550   102.3230     7.9200     2.5040     0.1090     0.0090
  226.5000   -42.6560    10.1440     9.7150   101.8230     8.0090     2.5060     0.1090     0.0110
  227.0000   -42.6080    10.0860     9.6750   101.2390     8.1030     2.5050     0.1100     0.0120
  227.5000   -42.5560    10.0270     9.6360   101.8380     8.1970     2.5030     0.1120     0.0140
  228.0000   -42.5040     9.9690     9.5960   104.4020     8.2570     2.5020     0.1150     0.0150
  228.5000   -42.5500     9.9150     9.5560   106.4740     8.2540     2.4990     0.1170     0.0150
  229.0000   -42.6040     9.8760     9.5170   106.9910     8.2520     2.4950     0.1160     0.0140
  229.5000   -42.6570     9.8380     9.4770   107.0000     8.2500     2.4920     0.1090     0.0130
  230.0000   -42.7110     9.7990     9.4370   106.9050     8.2480     2.5020     0.1030     0.0130
  230.5000   -42.7650     9.7600     9.3980   106.8040     8.2460     2.5110     0.1060     0.0120
  231.0000   -42.8190     9.7220     9.3280   106.5990     8.2440     2.5120     0.1110     0.0110
  231.5000   -42.8720     9.6830     9.2530   104.2400     8.2420     2.5040     0.1160     0.0100
  232.0000   -42.9260     9.6440     9.1770   101.8810     8.2400     2.4970     0.1180     0.0100
  232.5000   -42.9790     9.6060     9.1010   100.1010     8.2390     2.4900     0.1200     0.0130
  233.0000   -43.0340     9.5670     9.0250   100.1400     8.2590     2.4900     0.1190     0.0170
  233.5000   -43.1000     9.5280     8.9660   100.1440     8.2790     2.4890     0.1160     0.0200
  234.0000   -42.6520     9.4780     8.9580   100.1430     8.2950     2.4930     0.1120     0.0240
  234.5000   -42.0830     9.5380     8.9490   100.1440     8.2810     2.4990     0.1080     0.0270
  235.0000   -41.5230     9.6230     8.9410   100.1490     8.2660     2.5060     0.1160     0.0250
  235.5000   -41.5060     9.7090     8.9330   100.3170     8.2400     2.5000     0.1170     0.0240
  236.0000   -41.6830     9.7950     8.9250   102.1810     8.1790     2.4950     0.1190     0.0260
  236.5000   -42.6950     9.8810     8.9170   104.3270     8.2550     2.4890     0.1180     0.0270
  237.0000   -43.1020     9.9250     8.9080   106.4050     8.3210     2.4900     0.1150     0.0290
  237.5000   -43.3660     9.9250     8.9000   105.9720     8.2090     2.4940     0.1110     0.0300
  238.0000   -43.6260     9.9250     8.8920   104.1850     8.1260     2.4990     0.1110     0.0310
  238.5000   -43.8860     9.8320     8.8840   103.1500     8.2420     2.5030     0.1140     0.0320
  239.0000   -44.1440     9.7160     8.8760   103.2200     8.2630     2.4990     0.1160     0.0330
  239.5000   -44.3300     9.5660     8.8670   103.2760     8.2290     2.4950     0.1150     0.0330
  240.0000   -44.4080     9.6000     8.8590   103.3130     8.1960     2.4930     0.1120     0.0370
  240.5000   -44.4930     9.6490     8.8510   103.0450     8.1250     2.5010     0.0980     0.0430
  241.0000   -44.2780     9.6980     8.8430   101.8730     8.0580     2.5160     0.0880     0.0480
  241.5000   -44.0180     9.7460     8.8350   102.1630     7.9930     2.5310     0.0850     0.0470
  242.0000   -43.7540     9.7950     8.8270   103.9500     8.2150     2.5420     0.0840     0.0410
  242.5000   -43.5100     9.8440     8.8180   103.9300     8.1780     2.5370     0.1040     0.0300
  243.0000   -43.5690     9.8920     8.8100   104.2960     8.1590     2.5200     0.1100     0.0240
  243.5000   -43.6370     9.9410     8.8020   107.1000     8.1580     2.5080     0.1140     0.0250
  244.0000   -43.7040     9.9900     8.7940   108.2780     8.1580     2.4990     0.1130     0.0270
  244.5000   -43.7700    10.0380     8.7860   108.4340     8.1580     2.4990     0.1090     0.0290
  245.0000   -43.8370    10.0870     8.7770   108.3830     8.1490     2.5040     0.1070     0.0310
  245.5000   -43.9040    10.1360     8.7690   108.2040     8.0810     2.5050     0.1080     0.0330
  246.0000   -43.9710    10.2000     8.7610   108.0200     7.9800     2.5060     0.1090     0.0370
  246.5000   -44.0380    10.1830     8.7530   107.6710     7.8810     2.5050     0.1120     0.0440
  247.0000   -44.0880    10.1510     8.7450   106.2320     7.8290     2.5020     0.1150     0.0500
  247.5000   -43.8760    10.1190     8.7360   103.0930     7.8460     2.4970     0.1170     0.0590
  248.0000   -43.6670    10.0860     8.7240   101.1190     7.8630     2.4940     0.1130     0.0720
  248.5000   -43.4610    10.0540     8.7290   100.6240     7.8950     2.4960     0.1060     0.0950
  249.0000   -43.2690    10.0220     8.7440   100.3470     7.9270     2.5100     0.1000     0.1200
  249.5000   -43.5030     9.9890     8.7590   100.3420     7.9590     2.5240     0.0940     0.1340
  250.0000   -45.0610     9.9570     8.7740   100.3400     7.9910     2.5340     0.0910     0.1240
  250.5000   -46.6300     9.9250     8.7890   100.3430     8.0230     2.5300     0.0960     0.0960
  251.0000   -47.3580     9.8920     8.8040   100.4370     8.0300     2.5270     0.1010     0.0690
  251.5000   -47.6680     9.8600     8.8190   100.8090     7.9930     2.5220     0.1040     0.0550
  252.0000   -47.6100     9.8280     8.8340   101.1100     7.8910     2.5140     0.0990     0.0540
  252.5000   -47.5570     9.7950     8.8490   100.7440     7.8630     2.5180     0.0960     0.0520
  253.0000   -47.4970     9.7630     8.8640   100.3910     7.9610     2.5240     0.0970     0.0450
  253.5000   -47.2940     9.7310     8.8790   100.2530     8.1190     2.5240     0.0970     0.0310
  254.0000   -47.0770     9.6980     8.8940   100.7190     8.1500     2.5240     0.1020     0.0180
  254.5000   -46.7890     9.6660     8.9090   100.5230     8.1420     2.5190     0.1070     0.0090
  255.0000   -46.1700     9.6550     8.9240    99.7200     8.1330     2.5100     0.1120     0.0100
  255.5000   -45.5450     9.6590     8.9390    99.3850     8.1230     2.5010     0.1150     0.0100
  256.0000   -44.9200     9.6620     8.9540   101.7200     8.1600     2.4970     0.1170     0.0100
  256.5000   -44.3230     9.6660     8.9690   104.1560     8.2390     2.4930     0.1200     0.0100
  257.0000   -44.3470     9.6690     8.9840   104.4610     8.2380     2.4900     0.1200     0.0100
  257.5000   -44.3960     9.6730     8.9990   104.2290     8.2140     2.4880     0.1180     0.0100
  258.0000   -44.4450     9.6760     9.0140   104.0140     8.1930     2.4890     0.1180     0.0110
  258.5000   -44.4920     9.6790     9.0290   104.0130     8.1840     2.4940     0.1140     0.0110
  259.0000   -44.5400     9.6830     9.0450   104.1890     8.2230     2.4970     0.1150     0.0110
