~VERSION INFORMATION
 VERS.                2.0:   CWLS LOG ASCII STANDARD - VERSION 2.0
 WRAP.                 NO:   ONE LINE PER DEPTH STEP
~WELL INFORMATION
#MNEM.UNIT      DATA TYPE    INFORMATION
#----------   ------------   ------------------------------
 STRT.F            4.0000:   START DEPTH
 STOP.F          473.0000:   STOP DEPTH
 STEP.F            0.5000:   STEP LENGTH
 NULL.          -999.2500:   NO VALUE
 COMP.       F D SERV INC:   COMPANY
 WELL.  64-5 SX-10 #64-10:   WELL
 FLD .             TEAPOT:   FIELD
 LOC .      S10 T38N R78W:   LOCATION
 CNTY.            NATRONA:   COUNTY
 STAT.            WYOMING:   STATE
 CTRY. UNITED STATES OF AMERICA:   COUNTRY
 SRVC.     Atlas Wireline:   SERVICE COMPANY
 DATE.        11-APR-1992:   LOGDATE
 API .       490252252800:   API NUMBER
~CURVE INFORMATION
#MNEM.UNIT       API CODE    CURVE DESCRIPTION
#----------   ------------   ------------------------------
 DEPT.F                  :   
 GRR .GAPI   07 310 01 00:   GAMMA RAY
 SPR .MV     07 010 01 00:   SPONTANEOUS POTENTIAL
 RILD.OHMM   07 120 46 00:   INDUCTION LOG DEEP RESISTIVITY
 RILM.OHMM   07 120 44 00:   INDUCTION LOG MEDIUM RESISTIVITY
 RFOC.OHMM   07 220 04 00:   RESISTIVITY FOCUSED LOG
~PARAMETER INFORMATION
#MNEM.UNIT          VALUE    DESCRIPTION
#----------   ------------   ------------------------------
 PD  .                 GL:   PERMANENT DATUM
 EPD .F              5189:   ELEVATION PERMANENT DATUM
 LMF .                 KB:   LOG MEASURED FROM
 DAPD.F                10:   FEET ABOVE PERMANENT DATUM
 DMF .                 KB:   DRILLING MEASURED FROM
 EKB .F              5199:   KELLING BUSHING
 EDF .F              5198:   DRILLING FLOOR
 EGL .F              5189:   GROUND LEVEL
 DATE.        11-APR-1992:   RUN DATE
 RUN .                  1:   RUN NUMBER
 DD  .F               475:   DEPTH DRILLER
 DL  .F               475:   DEPTH LOGGER
 BLI .F               473:   BOTTOM LOG INTERVAL
 CS  .IN            8.625:   CASING SIZE
 CBD .F               130:   CASING BOTTOM DRILLER
 CBL .F               140:   CASING BOTTOM LOGGER
 BS  .IN            7.875:   BIT SIZE
 BSD .F               475:   BIT SIZE AT DEPTH
 DFT .          CHEM. GEL:   DRILLING FLUID TYPE
 DFD .               13.8:   DRILLING FLUID DENSITY
 DFV .                 62:   DRILLING FLUID VISCOSITY
 DFPH.                  9:   DRILLING FLUID PH
 DFL .                6.8:   DRILLING FLUID LOSS
 MSS .            MUDTANK:   MUD SAMPLE SOURCE
 RMS .OHMM           1.85:   RESISTIVITY MUD SAMPLE
 MST .F                72:   MUD SAMPLE TEMPERATURE
 RMF .OHMM           0.96:   RESISTIVITY MUD FILTRATE SAMPLE
 MFST.F                72:   MUD FILTRATE SAMPLE TEMPERATURE
 RMC .OHMM           3.17:   RESISTIVITY MUD CAKE
 MCST.F                72:   MUD CAKE SAMPLE TEMPERATURE
 MFSS.               MEAS:   MUD FILTRATE SAMPLE SOURCE
 MCSS.               MEAS:   MUD CAKE SAMPLE SOURCE
 RMB .OHMM           1.28:   RESISTIVITY MUD AT BHT
 BHT .F               104:   BOTTOM HOLE TEMPERATURE
 TCS .HRS               2:   TIME CURCULATED STOPPED
 MRT .F               104:   MAXIMUM RECORDED TEMPERATURE
 LUN .            HL-6274:   LOGGING UNIT NUMBER
 LUL .             CASPER:   LOGGING UNIT LOCATION
 ENGI.             RAUTIO:   RECORDING ENGINEER
 WITN.        GARY STRONG:   WITNESSED BY
 CLNT.            A2DTECH:   CLIENT CODE
 ORIG.           5" PRINT:   ORIGIN OF DATA
 UWI .       490252252800:   UNIQUE WELL ID
 DICO. A2D Technologies, Inc.:   DIGITIZING COMPANY
~OTHER INFORMATION
~A    DEPT     GRR        SPR       RILD       RILM       RFOC   
# ...
  248.0000    53.6132   -47.8723    17.0305    16.0510    14.9115
  248.5000    52.4056   -48.0243    18.3912    17.2119    15.0180
  249.0000    51.5041   -48.6322    19.5851    18.2008    15.9935
  249.5000    47.8737   -49.0881    20.7112    19.3813    16.9140
  250.0000    45.3864   -49.3925    21.7495    19.9303    17.8307
  250.5000    45.1570   -49.3951    22.3660    20.2106    18.3885
  251.0000    47.2857   -49.2280    22.6808    20.3522    18.1286
  251.5000    49.7159   -48.7932    23.1613    20.4948    19.0296
  252.0000    52.4491   -49.1009    23.1613    20.4948    20.1179
  252.5000    50.0308   -49.7118    23.4873    20.0700    19.9712
  253.0000    49.1262   -50.1707    23.3237    19.7916    19.5521
  253.5000    50.0428   -50.6296    23.1613    19.7916    19.0087
  254.0000    52.1700   -50.9358    23.0000    19.6539    19.1379
  254.5000    48.8426   -50.4836    22.8398    19.6539    19.5360
  255.0000    46.4242   -50.1827    22.8398    19.3813    20.2241
  255.5000    47.6424   -50.1857    22.8398    19.3813    18.4653
  256.0000    49.4828   -50.1887    22.6808    19.9303    17.9521
  256.5000    49.7758   -50.0397    22.3660    20.0700    18.4553
  257.0000    49.7818   -49.8906    22.3660    19.9303    19.5092
  257.5000    51.3042   -49.7416    22.5228    19.7916    19.9164
  258.0000    54.0374   -50.0487    22.5228    19.7916    19.9016
  258.5000    57.6798   -50.2036    22.2067    19.6539    19.3217
  259.0000    60.7160   -50.0547    22.2067    19.5171    18.3012
  259.5000    60.1159   -50.0578    22.2067    19.6539    18.0344
  260.0000    58.6068   -50.2134    22.2274    20.0700    18.9406
  260.5000    56.1885   -50.0636    22.3622    20.3522    20.5986
  261.0000    54.6793   -49.9147    22.8352    20.6384    21.0189
  261.5000    52.8656   -49.7657    24.1462    21.0753    20.5764
  262.0000    54.3882   -49.4647    25.3548    21.5215    20.2857
  262.5000    56.5154   -49.4685    26.2550    21.9771    20.4221
  263.0000    55.3092   -49.4715    26.4388    22.1311    21.5886
  263.5000    52.8910   -49.4744    26.8104    22.1311    22.5054
  264.0000    52.5939   -49.3247    26.9981    22.2862    22.8170
  264.5000    52.6000   -49.1757    26.8104    22.5786    21.5708
  265.0000    52.6061   -49.0268    26.9981    22.5722    19.9717
  265.5000    53.5224   -49.0305    26.9868    22.4086    19.8273
  266.0000    57.4678   -49.0335    26.6215    22.0900    19.8219
  266.5000    59.8980   -48.8845    26.2392    21.4748    19.9554
  267.0000    61.4191   -48.8815    25.8623    20.8766    20.5144
  267.5000    61.4251   -48.4042    25.3548    20.5810    20.6523
  268.0000    61.4311   -47.8055    25.0034    20.4319    20.2002
  268.5000    61.4370   -47.6807    24.8296    20.2840    19.0981
  269.0000    60.8369   -47.9884    24.4855    20.1371    18.4543
  269.5000    59.0247   -48.1433    24.1462    19.9912    18.3209
  270.0000    58.1201   -47.8424    23.9783    19.8465    18.3159
  270.5000    57.5200   -47.6927    23.4816    19.7027    18.9610
  271.0000    57.5275   -47.8484    22.6765    19.5600    19.3581
  271.5000    59.6547   -47.6994    21.7467    19.0139    18.6879
  272.0000    62.3879   -47.7024    21.1482    18.3567    18.1686
  272.5000    66.6666   -47.7054    20.5661    17.8266    17.7873
  273.0000    69.7577   -47.8604    20.1344    17.3472    17.1728
  273.5000    70.8909   -48.4713    19.7073    16.8640    16.3497
  274.0000    69.3830   -48.4743    19.3143    16.3943    16.2315
  274.5000    66.0556   -48.0213    18.9142    16.2756    16.1142
  275.0000    67.2737   -47.5684    18.5224    16.0451    15.9978
  275.5000    67.2797   -46.7933    18.2657    16.0407    15.8821
  276.0000    66.6796   -46.0546    18.3936    16.0363    15.8777
  276.5000    65.7750   -45.9056    18.3936    16.1455    15.8724
  277.0000    66.9946   -46.2133    18.7827    16.4822    15.8680
  277.5000    69.4248   -46.5203    19.4495    17.1838    15.8637
  278.0000    70.9459   -46.5233    20.2811    18.1676    15.9715
  278.5000    70.9519   -46.0696    21.5955    19.8912    16.3037
  279.0000    68.5336   -45.6174    22.8352    21.4939    16.6440
  279.5000    65.2063   -45.1645    24.4855    22.7259    17.8419
  280.0000    62.1819   -45.1675    26.2920    23.6702    20.2241
  280.5000    58.8546   -44.8658    28.0116    23.9987    23.4092
  281.0000    58.5575   -44.7168    28.3495    23.4924    26.1668
  281.5000    59.9474   -45.0245    27.9566    22.5208    26.1597
  282.0000    63.8787   -45.7874    27.3775    20.5580    23.8847
  282.5000    68.2739   -45.9423    26.4388    19.8461    18.1894
  283.0000    70.0965   -45.9453    24.3152    19.2933    17.1891
  283.5000    69.7995   -45.9483    22.8352    18.7560    16.5721
  284.0000    70.4130   -46.1033    21.1482    18.2335    16.2534
  284.5000    71.3281   -45.9543    19.7228    18.1015    16.2490
  285.0000    69.5159   -45.9580    19.5857    17.7208    16.2445
  285.5000    68.6112   -46.1130    19.3143    17.3481    16.3549
  286.0000    69.8308   -46.4200    18.9142    17.2224    16.3493
  286.5000    70.7459   -46.5742    18.6521    17.0976    16.2312
  287.0000    71.0549   -46.4252    18.3816    16.9737    15.8906
  287.5000    69.5457   -45.9723    18.1387    16.8499    15.6660
  288.0000    67.1274   -45.5201    18.1387    16.7278    15.4447
  288.5000    65.9212   -45.0672    18.1387    16.6067    15.3331
  289.0000    65.9273   -44.6135    17.8873    16.4864    15.3289
  289.5000    65.9556   -44.3125    17.7629    16.3670    15.4321
  290.0000    67.4949   -44.6202    17.7629    16.1353    15.4278
  290.5000    68.6739   -45.0791    17.6394    15.7959    15.5315
  291.0000    67.1647   -45.0821    17.3950    15.4637    15.0857
  291.5000    65.0495   -45.0851    17.2740    15.6772    14.8855
  292.0000    65.9646   -44.9361    17.1539    15.6729    14.8814
  292.5000    67.4857   -44.9240    17.1539    15.5594    14.9822
  293.0000    68.7038   -44.7902    17.1539    15.6643    14.9780
  293.5000    70.2249   -44.7939    17.1539    15.6501    14.9738
  294.0000    70.5324   -44.9489    17.2740    15.4381    14.8648
  294.5000    68.4187   -45.1038    17.2740    15.3254    14.7573
  295.0000    69.0307   -44.9549    17.2740    15.2144    14.6507
  295.5000    69.6427   -44.6532    17.2740    15.3180    14.6467
  296.0000    68.7396   -44.0490    17.2740    15.3127    14.5409
  296.5000    68.4424   -44.0520    17.2740    15.0959    14.5369
  297.0000    69.0546   -44.0550    16.9162    14.8821    14.4318
  297.5000    69.6666   -44.0580    16.4506    14.7744    14.7331
  298.0000    67.8263   -43.9082    16.3362    14.4636    14.4239
  298.5000    67.2543   -43.9120    16.3362    14.2588    14.0230
  299.0000    68.7769   -43.9150    16.2226    14.1556    13.7288
  299.5000    70.2980   -43.6140    15.9978    14.0530    13.5348
  300.0000    71.2119   -43.4650    15.9025    14.1082    13.4370
  300.5000    70.9126   -43.0056    15.4506    14.3450    13.2508
  301.0000    70.9157   -43.1553    15.4516    14.3430    13.6258
  301.5000    73.0399   -42.9995    15.3450    14.3410    13.6258
  302.0000    75.7702   -42.9965    15.4538    14.4397    13.6258
  302.5000    74.5611   -42.9934    15.5631    14.3370    13.7212
  303.0000    71.2308   -43.5983    15.5642    14.3350    14.1096
  303.5000    67.5975   -43.9000    15.5652    14.3330    14.2084
  304.0000    64.8732   -43.5922    15.4578    14.1319    14.1096
  304.5000    63.6634   -43.4372    15.0337    13.8366    13.8173
  305.0000    65.4854   -43.4342    14.8261    13.4530    13.3436
  305.5000    67.0035   -43.1272    14.6217    13.3574    12.9763
  306.0000    65.1884   -42.9722    14.4203    13.1700    12.3577
  306.5000    63.9785   -42.8172    14.3208    13.0764    12.1018
  307.0000    66.4066   -42.6621    14.2222    12.9834    12.0176
  307.5000    69.7429   -42.2032    14.0261    12.9816    12.1018
  308.0000    70.9581   -41.8962    13.9295    12.9798    12.2718
  308.5000    70.3550   -41.4372    13.8336    12.9780    12.4443
