~VERSION INFORMATION
 VERS.                2.0:   CWLS LOG ASCII STANDARD - VERSION 2.0
 WRAP.                 NO:   ONE LINE PER DEPTH STEP
~WELL INFORMATION
#MNEM.UNIT      DATA TYPE    INFORMATION
#----------   ------------   ------------------------------
 STRT.F            4.0000:   START DEPTH
 STOP.F          528.0000:   STOP DEPTH
 STEP.F            0.1000:   STEP LENGTH
 NULL.          -999.2500:   NO VALUE
 COMP. BROWN JOHN E&C INC:   COMPANY
 WELL.    84-1 SHX- #84-3:   WELL
 FLD .        TEAPOT DOME:   FIELD
 LOC .       S3 T38N R78W:   LOCATION
 CNTY.            NATRONA:   COUNTY
 STAT.            WYOMING:   STATE
 CTRY. UNITED STATES OF AMERICA:   COUNTRY
 SRVC.     Atlas Wireline:   SERVICE COMPANY
 DATE.        18-JAN-1992:   LOGDATE
 API .       490252249900:   API NUMBER
~CURVE INFORMATION
#MNEM.UNIT       API CODE    CURVE DESCRIPTION
#----------   ------------   ------------------------------
 DEPT.F                  :   
 GRR .GAPI   07 310 01 00:   GAMMA RAY
 RILD.OHMM   07 120 46 00:   INDUCTION LOG DEEP RESISTIVITY
 RILM.OHMM   07 120 44 00:   INDUCTION LOG MEDIUM RESISTIVITY
~PARAMETER INFORMATION
#MNEM.UNIT          VALUE    DESCRIPTION
#----------   ------------   ------------------------------
 PD  .                 GL:   PERMANENT DATUM
 EPD .F              5147:   ELEVATION PERMANENT DATUM
 LMF .                 KB:   LOG MEASURED FROM
 DAPD.F                10:   FEET ABOVE PERMANENT DATUM
 DMF .                 KB:   DRILLING MEASURED FROM
 EKB .F              5157:   KELLING BUSHING
 EDF .F              5156:   DRILLING FLOOR
 EGL .F              5147:   GROUND LEVEL
 DATE.        18-JAN-1992:   RUN DATE
 RUN .                  1:   RUN NUMBER
 DD  .F               842:   DEPTH DRILLER
 DL  .F               837:   DEPTH LOGGER
 BLI .F               835:   BOTTOM LOG INTERVAL
 TLI .F                 4:   TOP LOG INTERVAL
 CS  .IN            8.625:   CASING SIZE
 CBD .F                39:   CASING BOTTOM DRILLER
 CBL .F                56:   CASING BOTTOM LOGGER
 BS  .IN             8.75:   BIT SIZE
 BSD .F               842:   BIT SIZE AT DEPTH
 DFT .                AIR:   DRILLING FLUID TYPE
 LUN .           HL- 6272:   LOGGING UNIT NUMBER
 LUL .             CASPER:   LOGGING UNIT LOCATION
 ENGI.       P. RASMUSSEN:   RECORDING ENGINEER
 WITN.          G. STRONG:   WITNESSED BY
 CLNT.            A2DTECH:   CLIENT CODE
 ORIG.           5" PRINT:   ORIGIN OF DATA
 UWI .       490252249900:   UNIQUE WELL ID
 DICO. A2D Technologies, Inc.:   DIGITIZING COMPANY
~OTHER INFORMATION
~A    DEPT      GRR      RILD       RILM   
# ...
  422.6000    96.9464    13.7908    14.0275
  422.7000    96.4746    13.7903    13.9960
  422.8000    96.1948    13.7733    13.9161
  422.9000    95.7618    13.6933    13.8330
  423.0000    95.4256    13.6161    13.8328
  423.1000    95.1774    13.4796    13.7751
  423.2000    94.9772    13.4084    13.6965
  423.3000    96.1948    13.3836    13.6184
  423.4000    97.6343    13.3142    13.5461
  423.5000    98.9399    13.3136    13.5459
  423.6000    99.9259    13.2471    13.5458
  423.7000   100.5990    13.2201    13.4972
  423.8000   101.0804    13.1874    13.4514
  423.9000   101.3699    13.1273    13.4512
  424.0000   101.5770    13.1267    13.4510
  424.1000   101.8251    13.0528    13.4508
  424.2000   101.9787    13.0345    13.4506
  424.3000   101.9787    13.0339    13.4102
  424.4000   101.9787    13.0334    13.3569
  424.5000   101.9787    13.0259    13.3568
  424.6000   101.9787    12.9417    13.3566
  424.7000   101.9787    12.9413    13.3564
  424.8000   101.9787    12.9407    13.3562
  424.9000   101.9787    12.9089    13.3560
  425.0000   101.9787    12.8498    13.3559
  425.1000   101.7812    12.8493    13.3556
  425.2000   101.6743    12.8487    13.2809
  425.3000   101.6743    12.7929    13.2626
  425.4000   101.6743    12.7585    13.2216
  425.5000   101.6743    12.7352    13.1702
  425.6000   101.6743    12.6688    13.1625
  425.7000   101.6743    12.6682    13.0785
  425.8000   101.6743    12.6678    13.0784
  425.9000   101.6743    12.6208    13.0781
  426.0000   101.6743    12.5788    13.0453
  426.1000   101.6743    12.5783    12.9871
  426.2000   101.6743    12.5777    12.9869
  426.3000   101.8061    12.5772    12.9130
  426.4000   101.9787    12.5767    12.8394
  426.5000   101.9593    12.5761    12.8068
  426.6000   101.6743    12.5534    12.7821
  426.7000   101.6743    12.4878    12.7176
  426.8000   101.6743    12.4872    12.7174
  426.9000   101.6743    12.4868    12.7173
  427.0000   101.6743    12.4406    12.7170
  427.1000   101.6743    12.3693    12.7168
  427.2000   101.6743    12.3124    12.6997
  427.3000   101.6743    12.3119    12.6283
  427.4000   101.6743    12.2431    12.6281
  427.5000   101.6743    12.2254    12.6280
  427.6000   101.6743    12.2249    12.6278
  427.7000   101.6743    12.2029    12.6275
  427.8000   101.4727    12.1330    12.6274
  427.9000   101.3699    12.0541    12.6272
  428.0000   101.3699    11.9945    12.6271
  428.1000   101.3699    11.9695    12.5773
  428.2000   101.3699    11.9405    12.5391
  428.3000   101.3699    11.8854    12.5390
  428.4000   101.3699    11.8849    12.5388
  428.5000   101.3699    11.8844    12.5385
  428.6000   101.4263    11.8332    12.5384
  428.7000   101.6751    11.8009    12.5382
  428.8000   102.4193    11.8004    12.5380
  428.9000   103.5485    11.7943    12.5379
  429.0000   104.5175    11.7175    12.5377
  429.1000   105.1822    11.7748    12.5375
  429.2000   105.6553    11.7985    12.5374
  429.3000   105.9361    11.7980    12.5026
  429.4000   106.1516    11.7975    12.4501
  429.5000   106.3998    11.7970    12.4499
  429.6000   106.6479    11.7965    12.4497
  429.7000   106.8493    11.7960    12.4495
  429.8000   106.8493    11.7955    12.4066
  429.9000   106.8493    11.7951    12.3628
  430.0000   107.0319    11.7946    12.3627
  430.1000   107.1537    11.7940    12.3624
  430.2000   107.0835    11.7936    12.3622
  430.3000   106.8354    11.7931    12.3621
  430.4000   106.5449    11.7926    12.3619
  430.5000   105.9267    11.7921    12.3618
  430.6000   105.4818    11.7916    12.3616
  430.7000   105.1400    11.7911    12.3614
  430.8000   104.6435    11.7906    12.3613
  430.9000   104.1096    11.7900    12.3611
  431.0000   103.6511    11.7896    12.3609
  431.1000   103.3277    11.7891    12.3608
  431.2000   102.9625    11.7885    12.3606
  431.3000   102.5267    11.7881    12.3604
  431.4000   102.2786    11.8303    12.3602
  431.5000   102.0304    11.8695    12.3600
  431.6000   101.7822    11.8690    12.3599
  431.7000   101.6743    11.8685    12.3597
  431.8000   101.6743    11.9337    12.3595
  431.9000   101.6743    12.0014    12.3594
  432.0000   101.6743    12.0694    12.3592
  432.1000   101.6743    12.1172    12.3590
  432.2000   101.8379    12.1220    12.3589
  432.3000   101.9787    12.2008    12.3587
  432.4000   101.9787    12.2004    12.3585
  432.5000   101.9787    12.2440    12.3583
  432.6000   101.9787    12.2847    12.3581
  432.7000   101.9787    12.2972    12.3579
  432.8000   102.1094    12.3695    12.3642
  432.9000   102.2831    12.4372    12.4439
  433.0000   102.2831    12.4549    12.4438
  433.1000   102.2831    12.4544    12.4436
  433.2000   102.2831    12.4539    12.4740
  433.3000   102.2831    12.4534    12.5302
  433.4000   102.1852    12.4528    12.5300
  433.5000   101.9787    12.4523    12.6007
  433.6000   101.9787    12.4966    12.6172
  433.7000   101.9787    12.5384    12.6566
  433.8000   101.8013    12.5378    12.7050
  433.9000   101.5531    12.5373    12.7048
  434.0000   101.2398    12.5367    12.7046
  434.1000   100.7523    12.5362    12.7045
  434.2000   100.4566    12.5357    12.7527
  434.3000   100.4566    12.5352    12.7929
  434.4000   100.4566    12.5347    12.7927
  434.5000   100.4566    12.5341    12.7925
  434.6000   100.4886    12.5336    12.7923
  434.7000   100.7610    12.4885    12.7922
  434.8000   101.2091    12.4456    12.7920
  434.9000   101.7056    12.4450    12.7918
  435.0000   102.2020    12.4445    12.7916
  435.1000   102.6429    12.3762    12.7914
  435.2000   102.8919    12.3054    12.7913
  435.3000   103.1393    12.2708    12.8410
  435.4000   103.1964    12.2703    12.8803
  435.5000   103.1964    12.2650    12.8978
  435.6000   103.1177    12.1840    12.9699
  435.7000   102.8467    12.1836    12.9697
  435.8000   102.2831    12.1830    12.9696
  435.9000   101.8540    12.1825    12.9694
  436.0000   101.5160    12.1696    12.9427
  436.1000   101.2678    12.0969    12.8689
  436.2000   101.0655    12.0964    12.7895
  436.3000   101.0655    12.0455    12.7227
  436.4000   101.0655    12.0114    12.7004
  436.5000   101.2471    12.0110    12.6658
  436.6000   101.3699    12.0059    12.5936
  436.7000   101.4391    11.9265    12.5218
  436.8000   101.6743    11.9261    12.4372
  436.9000   101.6743    11.9256    12.3795
  437.0000   101.6743    11.9251    12.3506
  437.1000   101.6743    11.9246    12.3242
  437.2000   101.6743    11.9241    12.2539
  437.3000   101.6743    11.9236    12.1793
  437.4000   101.6743    11.8735    12.1146
  437.5000   101.6743    11.8056    12.0455
  437.6000   101.5022    11.7380    12.0104
  437.7000   101.3699    11.6707    11.9918
  437.8000   101.3699    11.5934    11.9234
  437.9000   101.3699    11.5930    11.8438
  438.0000   101.3699    11.5925    11.7877
  438.1000   101.3699    11.5659    11.7613
  438.2000   101.3699    11.5110    11.7352
  438.3000   101.3699    11.5105    11.6795
  438.4000   101.3699    11.5101    11.6793
  438.5000   101.3699    11.4620    11.6791
  438.6000   101.3699    11.4293    11.6307
  438.7000   101.3699    11.3920    11.5977
  438.8000   101.3699    11.2662    11.5976
  438.9000   101.3699    11.1913    11.5930
  439.0000   101.3699    11.1376    11.5168
  439.1000   101.3699    11.0352    11.5167
  439.2000   101.3699    10.9340    11.5165
  439.3000   101.4995    10.8820    11.4899
  439.4000   101.7478    10.8815    11.4363
  439.5000   101.9787    10.8224    11.4361
  439.6000   101.9787    10.8051    11.4359
  439.7000   102.1880    10.7737    11.3875
  439.8000   102.2831    10.7292    11.3563
  439.9000   102.2831    10.7252    11.3367
  440.0000   102.2831    10.6537    11.2772
  440.1000   102.2831    10.6534    11.2770
  440.2000   102.0505    10.6529    11.2217
  440.3000   101.9787    10.6525    11.1577
  440.4000   101.9787    10.6623    11.1206
  440.5000   101.9787    10.7260    11.1079
  440.6000   101.9787    10.7256    11.0432
  440.7000   101.9787    10.7251    11.0430
