~VERSION INFORMATION
 VERS.                2.0:   CWLS LOG ASCII STANDARD - VERSION 2.0
 WRAP.                 NO:   ONE LINE PER DEPTH STEP
~WELL INFORMATION
#MNEM.UNIT      DATA TYPE    INFORMATION
#----------   ------------   ------------------------------
 STRT.F            0.0000:   START DEPTH
 STOP.F         1008.0000:   STOP DEPTH
 STEP.F            0.5000:   STEP LENGTH
 NULL.          -999.2500:   NO VALUE
 COMP. LAWRENCE/ALLISON INC:   COMPANY
 WELL. NPR 3 #51-61-SX-14:   WELL
 FLD .             TEAPOT:   FIELD
 LOC .      S14 T38N R78W:   LOCATION
 CNTY.            NATRONA:   COUNTY
 STAT.            WYOMING:   STATE
 CTRY. UNITED STATES OF AMERICA:   COUNTRY
 SRVC.      Dresser Atlas:   SERVICE COMPANY
 DATE.        05-FEB-1986:   LOGDATE
 API .       490251106600:   API NUMBER
~CURVE INFORMATION
#MNEM.UNIT       API CODE    CURVE DESCRIPTION
#----------   ------------   ------------------------------
 DEPT.F                  :   
 GRR .GAPI   07 310 01 00:   GAMMA RAY FROM RES. LOG.
 RILD.OHMM   10 120 46 00:   INDUCTION LOG DEEP RESISTIVITY
 RILM.OHMM   07 120 44 00:   INDUCTION LOG MEDIUM RESISTIVITY
 CALD.IN     45 280 60 00:   CALIPER
 DEN .G/C3   45 350 01 00:   COMPENSATED BULK DENSTIY
 CORR.G/C3   45 356 01 00:   DENSITY CORRECTION
 PORD.DEC    45 890 10 00:   POROSITY DENSITY LIMESTONE
~PARAMETER INFORMATION
#MNEM.UNIT          VALUE    DESCRIPTION
#----------   ------------   ------------------------------
 PD  .                 GL:   PERMANENT DATUM
 EPD .F              5225:   ELEVATION PERMANENT DATUM
 LMF .                 GL:   LOG MEASURED FROM
 DMF .                 GL:   DRILLING MEASURED FROM
 EGL .F              5225:   GROUND LEVEL
 DATE.             2-5-86:   RUN DATE
 RUN .                  1:   RUN NUMBER
 DD  .F              1010:   DEPTH DRILLER
 DL  .F              1008:   DEPTH LOGGER
 BLI .F              1008:   BOTTOM LOG INTERVAL
 CS  .IN            8.625:   CASING SIZE
 CBD .F                86:   CASING BOTTOM DRILLER
 CBL .F                84:   CASING BOTTOM LOGGER
 BS  .IN             6.25:   BIT SIZE
 BSD .F              1010:   BIT SIZE AT DEPTH
 DFT .                AIR:   DRILLING FLUID TYPE
 LUN .            HL 6264:   LOGGING UNIT NUMBER
 LUL .           GILLETTE:   LOGGING UNIT LOCATION
 ENGI.           FAHLSING:   RECORDING ENGINEER
 WITN.              FIVAS:   WITNESSED BY
 CLNT.            A2DTECH:   CLIENT CODE
 ORIG.       2", 5" PRINT:   ORIGIN OF DATA
 UWI .       490251106600:   UNIQUE WELL ID
 DICO. A2D Technologies, Inc.:   DIGITIZING COMPANY
~OTHER INFORMATION
~A    DEPT      GRR      RILD       RILM       CALD        DEN       CORR       PORD   
# ...
  910.0000    90.5575    11.3446    10.7505     6.4566     2.3706     0.0854     0.1841
  910.5000    90.0510    11.2307    10.6309     6.4637     2.3746     0.0624     0.1820
  911.0000    89.1199    11.1179    10.5128     6.4756     2.3789     0.0499     0.1801
  911.5000    88.5007    11.0062    10.3960     6.5169     2.3923     0.0652     0.1718
  912.0000    89.4984    10.8957    10.3114     6.5487     2.4071     0.0875     0.1636
  912.5000    91.1564    10.8068    10.3513     6.5362     2.4140     0.1099     0.1582
  913.0000    91.2936    10.9091    10.3828     6.5300     2.4100     0.1261     0.1600
  913.5000    90.0299    11.0124    10.4144     6.5300     2.4061     0.1186     0.1619
  914.0000    89.5038    11.1166    10.4461     6.5300     2.4009     0.0921     0.1645
  914.5000    90.2955    11.2016    10.4779     6.5300     2.3938     0.0654     0.1696
  915.0000    88.0543    11.2016    10.5032     6.5300     2.3889     0.0504     0.1741
  915.5000    85.7017    11.2016    10.5029     6.5300     2.3916     0.0499     0.1729
  916.0000    84.2316    11.2016    10.5030     6.5300     2.3941     0.0704     0.1708
  916.5000    85.6492    11.2016    10.5038     6.5300     2.3879     0.0768     0.1733
  917.0000    86.9854    11.2017    10.4649     6.5300     2.3807     0.0683     0.1778
  917.5000    88.3129    11.2014    10.4301     6.5300     2.3735     0.0655     0.1822
  918.0000    89.4329    11.1834    10.3955     6.5300     2.3663     0.0634     0.1866
  918.5000    89.9752    11.1303    10.3610     6.5300     2.3639     0.0569     0.1861
  919.0000    89.2388    11.0780    10.3266     6.5300     2.3663     0.0642     0.1847
  919.5000    88.4721    11.0260    10.2923     6.5300     2.3698     0.0709     0.1833
  920.0000    87.7208    10.9741    10.2582     6.5300     2.3713     0.0776     0.1829
  920.5000    87.4457    10.9226    10.2241     6.5300     2.3681     0.0756     0.1846
  921.0000    88.6934    10.8712    10.1902     6.5300     2.3659     0.0778     0.1864
  921.5000    89.8780    10.8201    10.1564     6.5300     2.3703     0.0825     0.1855
  922.0000    91.0746    10.7744    10.1226     6.5300     2.3751     0.0885     0.1830
  922.5000    91.1573    10.7332    10.0890     6.5300     2.3749     0.0849     0.1827
  923.0000    90.4404    10.6921    10.0555     6.5300     2.3704     0.0764     0.1849
  923.5000    89.7387    10.6512    10.0222     6.5300     2.3659     0.0729     0.1868
  924.0000    87.9879    10.6104     9.9888     6.5321     2.3690     0.0869     0.1835
  924.5000    86.0648    10.5698     9.9559     6.5350     2.3812     0.0850     0.1757
  925.0000    84.1383    10.5294     9.9261     6.5380     2.3935     0.0833     0.1689
  925.5000    85.1943    10.4890     9.9009     6.5410     2.4026     0.0816     0.1650
  926.0000    86.9307    10.4489     9.8755     6.5439     2.4067     0.0806     0.1629
  926.5000    88.4141    10.4089     9.8501     6.5470     2.4072     0.0806     0.1623
  927.0000    88.3644    10.3691     9.8248     6.5497     2.4083     0.0806     0.1617
  927.5000    88.4529    10.3294     9.7996     6.5422     2.4127     0.0806     0.1571
  928.0000    90.6806    10.2899     9.7745     6.5338     2.4251     0.0841     0.1512
  928.5000    92.7233    10.2505     9.7494     6.5255     2.4377     0.0939     0.1452
  929.0000    91.9221    10.2113     9.7243     6.5171     2.4419     0.1034     0.1419
  929.5000    91.0813    10.1722     9.6994     6.5099     2.4427     0.1098     0.1416
  930.0000    90.5861    10.1236     9.6687     6.5050     2.4435     0.1131     0.1412
  930.5000    92.3390    10.1350     9.6883     6.4983     2.4470     0.1024     0.1357
  931.0000    94.0766    10.1503     9.7150     6.4916     2.4599     0.0915     0.1301
  931.5000    95.8093    10.1657     9.7421     6.4849     2.4713     0.1013     0.1240
  932.0000    96.7641    10.1812     9.7624     6.4782     2.4743     0.1192     0.1227
  932.5000    94.2823    10.1967     9.7736     6.4712     2.4738     0.1211     0.1239
  933.0000    91.7546    10.2122     9.7848     6.4738     2.4710     0.1150     0.1258
  933.5000    89.9446    10.2277     9.7961     6.4788     2.4705     0.1258     0.1236
  934.0000    90.7957    10.2433     9.8073     6.4837     2.4758     0.1363     0.1208
  934.5000    92.3622    10.2588     9.8186     6.4887     2.4810     0.1430     0.1180
  935.0000    93.9306    10.2744     9.8298     6.4936     2.4807     0.1303     0.1204
  935.5000    95.4471    10.2900     9.8411     6.4986     2.4754     0.1180     0.1232
  936.0000    96.9108    10.3102     9.8469     6.5035     2.4702     0.1058     0.1257
  936.5000   101.0060    10.2846     9.8098     6.5085     2.4658     0.0935     0.1264
  937.0000   104.3757    10.2425     9.7830     6.5083     2.4645     0.0813     0.1280
  937.5000   103.6330    10.2006     9.7563     6.5060     2.4629     0.0737     0.1296
  938.0000   100.3269    10.1589     9.7297     6.5036     2.4692     0.0794     0.1261
  938.5000    97.0788    10.1174     9.7031     6.5012     2.4777     0.0875     0.1223
  939.0000    95.9755    10.0760     9.6767     6.4988     2.4769     0.0981     0.1223
  939.5000    95.4167    10.0348     9.6503     6.4964     2.4715     0.1043     0.1247
  940.0000    94.7925     9.9938     9.6240     6.4941     2.4662     0.1056     0.1271
  940.5000    97.8443     9.9530     9.5977     6.4917     2.4618     0.0955     0.1295
  941.0000   101.5673     9.9208     9.5715     6.4893     2.4636     0.0853     0.1289
  941.5000   105.3577     9.8934     9.5454     6.4869     2.4687     0.0785     0.1219
  942.0000   106.3796     9.8659     9.5195     6.4845     2.4871     0.1128     0.1150
  942.5000   103.3944     9.8480     9.4925     6.4821     2.4968     0.1118     0.1092
  943.0000   100.1369     9.8552     9.4844     6.4797     2.4752     0.1083     0.1203
  943.5000   100.6898     9.8607     9.4762     6.4773     2.4576     0.1041     0.1317
  944.0000   101.4355     9.8662     9.4680     6.4750     2.4395     0.1336     0.1420
  944.5000   103.0533     9.8718     9.4599     6.4726     2.4402     0.1421     0.1448
  945.0000   104.8419     9.8773     9.4518     6.4702     2.4500     0.1313     0.1369
  945.5000   106.6575     9.8828     9.4437     6.4663     2.4651     0.1201     0.1287
  946.0000   105.3404     9.8884     9.4356     6.4400     2.4801     0.1088     0.1205
  946.5000   103.5827     9.8940     9.4276     6.4302     2.4869     0.0975     0.1138
  947.0000   103.9054     9.8995     9.4195     6.4300     2.4870     0.0883     0.1152
  947.5000   104.6988     9.9051     9.4116     6.4300     2.4870     0.0875     0.1152
  948.0000   101.5641     9.9107     9.3982     6.4300     2.4875     0.0957     0.1152
  948.5000    98.1948     9.9162     9.3607     6.4300     2.4871     0.1062     0.1160
  949.0000    94.7913     9.9218     9.3248     6.4300     2.4804     0.1168     0.1185
  949.5000    96.2791     9.9274     9.2460     6.4300     2.4737     0.1261     0.1222
  950.0000    98.4853     9.9330     9.1623     6.4300     2.4670     0.1164     0.1259
  950.5000   100.0048     9.9380     9.0789     6.4300     2.4603     0.1063     0.1296
  951.0000   100.0306     9.8095     8.9963     6.4300     2.4592     0.0964     0.1318
  951.5000   102.8339     9.6753     8.9145     6.4300     2.4597     0.0887     0.1328
  952.0000   105.8301     9.5429     8.8335     6.4300     2.4616     0.0977     0.1301
  952.5000   106.3110     9.4124     8.7535     6.4300     2.4650     0.1015     0.1276
  953.0000   103.7573     9.2836     8.6735     6.4300     2.4611     0.0985     0.1307
  953.5000   101.1315     9.1566     8.5754     6.4300     2.4556     0.0808     0.1335
  954.0000   102.0766     9.0204     8.4419     6.4300     2.4501     0.0616     0.1363
  954.5000   104.3145     8.8574     8.3104     6.4300     2.4487     0.0505     0.1384
  955.0000   104.6365     8.6972     8.1810     6.4300     2.4557     0.0586     0.1310
