~VERSION INFORMATION
 VERS.                2.0:   CWLS LOG ASCII STANDARD - VERSION 2.0
 WRAP.                 NO:   ONE LINE PER DEPTH STEP
~WELL INFORMATION
#MNEM.UNIT      DATA TYPE    INFORMATION
#----------   ------------   ------------------------------
 STRT.F          442.0000:   START DEPTH
 STOP.F         2636.0000:   STOP DEPTH
 STEP.F            0.5000:   STEP LENGTH
 NULL.          -999.2500:   NO VALUE
 COMP. FENIX & SCISSON INC:   COMPANY
 WELL.     25 SHX 2 #25-2:   WELL
 FLD .             TEAPOT:   FIELD
 LOC .       S2 T38N R78W:   LOCATION
 CNTY.            NATRONA:   COUNTY
 STAT.            WYOMING:   STATE
 CTRY. UNITED STATES OF AMERICA:   COUNTRY
 SRVC.              Welex:   SERVICE COMPANY
 DATE.        07-JUN-1980:   LOGDATE
 API .       490251080200:   API NUMBER
~CURVE INFORMATION
#MNEM.UNIT       API CODE    CURVE DESCRIPTION
#----------   ------------   ------------------------------
 DEPT.F                  :   
 CALD.IN     45 280 60 00:   CALIPER
 GRD .GAPI   45 310 01 00:   GAMMA RAY FROM DENSITY LOG
 DPHI.DEC    45 890 12 00:   DENSITY POROSITY SANDSTONE
 CORR.G/C3   45 356 01 00:   DENSITY CORRECTION
 RHOB.G/C3   45 350 01 00:   BULK DENSITY
~PARAMETER INFORMATION
#MNEM.UNIT          VALUE    DESCRIPTION
#----------   ------------   ------------------------------
 PD  .                 GL:   PERMANENT DATUM
 EPD .F              5120:   ELEVATION PERMANENT DATUM
 LMF .                 KB:   LOG MEASURED FROM
 DAPD.F                10:   FEET ABOVE PERMANENT DATUM
 DMF .                 KB:   DRILLING MEASURED FROM
 EKB .F              5130:   KELLING BUSHING
 EGL .F              5120:   GROUND LEVEL
 DATE.             6-7-80:   RUN DATE
 RUN .                  1:   RUN NUMBER
 DD  .F              2652:   DEPTH DRILLER
 DL  .F              2638:   DEPTH LOGGER
 BLI .F              2636:   BOTTOM LOG INTERVAL
 TLI .F              1224:   TOP LOG INTERVAL
 BS  .IN             6.75:   BIT SIZE
 BSD .F              2652:   BIT SIZE AT DEPTH
 DFT .        AIR DRILLED:   DRILLING FLUID TYPE
 TCS .HRS               2:   TIME CURCULATED STOPPED
 MRT .F               125:   MAXIMUM RECORDED TEMPERATURE
 ENGI.               REIN:   RECORDING ENGINEER
 WITN.           DINSMORE:   WITNESSED BY
 CLNT.            A2DTECH:   CLIENT CODE
 ORIG.           5" PRINT:   ORIGIN OF DATA
 UWI .       490251080200:   UNIQUE WELL ID
 DICO. A2D Technologies, Inc.:   DIGITIZING COMPANY
~OTHER INFORMATION
~A   DEPT     CALD         GRD      DPHI       CORR       RHOB   
# ...
 1723.0000     8.9648    77.8514     0.1074     0.0829     2.4783
 1723.5000     8.9663    77.0306     0.1008     0.0881     2.4885
 1724.0000     8.9686    76.2216     0.1044     0.0836     2.4787
 1724.5000     8.9709    75.9230     0.1009     0.0798     2.4811
 1725.0000     8.9732    75.7298     0.1020     0.0871     2.4936
 1725.5000     8.9755    75.9966     0.0950     0.0893     2.5060
 1726.0000     8.9778    76.3039     0.0932     0.0769     2.5094
 1726.5000     8.9801    76.3777     0.1044     0.0553     2.4761
 1727.0000     8.9825    76.4375     0.1036     0.0613     2.4894
 1727.5000     8.9840    76.4942     0.1026     0.0542     2.4742
 1728.0000     8.9579    76.8599     0.1064     0.0613     2.4869
 1728.5000     8.9454    77.3226     0.1027     0.0646     2.4895
 1729.0000     8.9470    77.8006     0.1060     0.0595     2.4709
 1729.5000     8.9503    77.8191     0.1064     0.0587     2.4783
 1730.0000     8.9536    77.7327     0.0982     0.0746     2.4918
 1730.5000     8.9569    77.0632     0.0887     0.0903     2.5156
 1731.0000     8.9602    76.2456     0.0791     0.1060     2.5396
 1731.5000     8.9634    76.0479     0.0697     0.1165     2.5426
 1732.0000     8.9568    76.4599     0.0765     0.1088     2.5299
 1732.5000     8.9370    77.0172     0.0878     0.0908     2.5075
 1733.0000     8.9173    77.0238     0.0988     0.0727     2.4876
 1733.5000     8.9060    76.9162     0.1000     0.0844     2.4997
 1734.0000     8.9061    77.3233     0.0916     0.0834     2.5069
 1734.5000     8.9060    77.6657     0.0960     0.0887     2.4896
 1735.0000     8.9061    77.4789     0.0918     0.0963     2.4994
 1735.5000     8.9060    77.3034     0.0891     0.1064     2.5129
 1736.0000     8.9061    77.1344     0.0960     0.0912     2.4972
 1736.5000     8.9090    76.8763     0.0884     0.1123     2.5091
 1737.0000     8.9219    76.6138     0.0916     0.1078     2.5097
 1737.5000     8.9342    76.3508     0.1005     0.0897     2.4844
 1738.0000     8.9465    76.0880     0.1059     0.0742     2.4719
 1738.5000     8.9589    75.8238     0.1032     0.0784     2.4869
 1739.0000     8.9652    75.5609     0.0953     0.0923     2.4951
 1739.5000     8.9698    75.3842     0.0864     0.1135     2.5182
 1740.0000     8.9743    75.8309     0.0876     0.1074     2.5207
 1740.5000     8.9786    76.2733     0.0958     0.1075     2.4999
 1741.0000     8.9828    76.7170     0.1041     0.0899     2.4784
 1741.5000     8.9634    76.9060     0.1124     0.0706     2.4593
 1742.0000     8.9617    76.9107     0.1147     0.0625     2.4526
 1742.5000     8.9592    76.9428     0.1143     0.0723     2.4622
 1743.0000     8.9563    77.0631     0.1226     0.0427     2.4307
 1743.5000     8.9534    76.7797     0.1295     0.0388     2.4199
 1744.0000     8.9506    76.1469     0.1259     0.0499     2.4299
 1744.5000     8.9477    75.4363     0.1156     0.0670     2.4465
 1745.0000     8.9449    74.7575     0.1054     0.0852     2.4777
 1745.5000     8.9420    74.6378     0.0990     0.0901     2.4892
 1746.0000     8.9391    74.5535     0.0974     0.0830     2.4904
 1746.5000     8.9363    74.6833     0.0976     0.0763     2.4943
 1747.0000     8.9334    74.8188     0.1004     0.0742     2.4837
 1747.5000     8.9305    74.9280     0.1036     0.0822     2.4814
 1748.0000     8.9277    74.6812     0.0931     0.0909     2.5017
 1748.5000     8.9278    74.4244     0.0847     0.1185     2.5237
 1749.0000     8.9376    74.5218     0.0833     0.1244     2.5073
 1749.5000     8.9470    74.7650     0.0920     0.1214     2.5243
 1750.0000     8.9564    75.0141     0.0852     0.1097     2.5012
 1750.5000     8.9647    75.4808     0.0989     0.0888     2.4927
 1751.0000     8.9614    76.1773     0.1032     0.0697     2.4845
 1751.5000     8.9583    76.5408     0.0967     0.0782     2.4964
 1752.0000     8.9552    76.6088     0.0936     0.1060     2.5078
 1752.5000     8.9522    76.6717     0.0932     0.0893     2.4976
 1753.0000     8.9491    76.8078     0.1020     0.0636     2.4768
 1753.5000     8.9459    77.1140     0.1078     0.0636     2.4760
 1754.0000     8.9452    77.4323     0.1025     0.0755     2.4799
 1754.5000     8.9452    77.2997     0.1057     0.0773     2.4763
 1755.0000     8.9452    77.6752     0.1062     0.0781     2.4807
 1755.5000     8.9452    78.0704     0.0987     0.0911     2.4944
 1756.0000     8.9452    77.9810     0.0940     0.1025     2.4939
 1756.5000     8.9453    78.0825     0.0932     0.1053     2.4972
 1757.0000     8.9272    78.6465     0.0922     0.1146     2.5074
 1757.5000     8.9073    79.2025     0.0882     0.1260     2.5229
 1758.0000     8.9181    79.6924     0.0802     0.1370     2.5387
 1758.5000     8.9284    79.0718     0.0710     0.1437     2.5410
 1759.0000     8.9387    78.2903     0.0855     0.0995     2.5128
 1759.5000     8.9491    77.5185     0.0957     0.0821     2.4941
 1760.0000     8.9594    77.8561     0.1044     0.0640     2.4803
 1760.5000     8.9698    78.3244     0.1145     0.0399     2.4525
 1761.0000     8.9801    78.7895     0.1247     0.0158     2.4247
 1761.5000     8.9904    79.1736     0.1351    -0.0036     2.3989
 1762.0000     9.0008    79.4190     0.1283     0.0122     2.4225
 1762.5000     9.0112    79.6631     0.1179     0.0325     2.4485
 1763.0000     9.0217    79.2468     0.1076     0.0517     2.4712
 1763.5000     9.0235    78.5559     0.1064     0.0507     2.4794
 1764.0000     9.0235    78.0742     0.0995     0.0549     2.4880
 1764.5000     9.0234    77.7182     0.0975     0.0604     2.4967
 1765.0000     9.0184    77.3628     0.0984     0.0675     2.4929
 1765.5000     9.0061    77.2212     0.0950     0.0746     2.4985
 1766.0000     8.9938    77.1198     0.0967     0.0818     2.5003
 1766.5000     8.9815    77.1705     0.0945     0.0881     2.5038
 1767.0000     8.9692    77.2444     0.0912     0.0973     2.5070
 1767.5000     8.9570    77.2002     0.0928     0.1064     2.5031
 1768.0000     8.9447    76.6923     0.0897     0.1155     2.5134
 1768.5000     8.9324    76.3083     0.0802     0.1243     2.5232
 1769.0000     8.9201    76.3025     0.0793     0.1251     2.5298
 1769.5000     8.9078    76.8836     0.0919     0.1001     2.5082
 1770.0000     8.9060    77.2526     0.1036     0.0743     2.4796
 1770.5000     8.9059    77.4783     0.0986     0.0698     2.4955
 1771.0000     8.9061    77.7404     0.0973     0.0756     2.4829
 1771.5000     8.9147    78.7566     0.1080     0.0576     2.4709
 1772.0000     8.9532    79.2525     0.1060     0.0609     2.4768
 1772.5000     8.9615    78.8392     0.1031     0.0722     2.4869
 1773.0000     8.9551    78.3415     0.0968     0.0804     2.4950
 1773.5000     8.9486    78.4725     0.1008     0.0792     2.4930
 1774.0000     8.9419    78.6835     0.1067     0.0479     2.4765
 1774.5000     8.9352    78.8896     0.1100     0.0549     2.4660
 1775.0000     8.9304    79.1477     0.1021     0.0672     2.4846
 1775.5000     8.9164    79.4071     0.1016     0.0674     2.4923
 1776.0000     8.9569    79.4760     0.1036     0.0683     2.4837
 1776.5000     8.9555    79.0585     0.0984     0.0772     2.4894
 1777.0000     8.9069    78.4914     0.0971     0.0759     2.4945
 1777.5000     8.9061    78.0351     0.1049     0.0562     2.4762
 1778.0000     8.9060    77.7940     0.1113     0.0408     2.4607
 1778.5000     8.9061    77.0052     0.1144     0.0366     2.4551
 1779.0000     8.9061    76.2128     0.1122     0.0392     2.4603
 1779.5000     8.9061    75.5127     0.1077     0.0448     2.4729
 1780.0000     8.9064    75.6362     0.0997     0.0567     2.4847
 1780.5000     8.9089    75.9706     0.0936     0.0754     2.5014
 1781.0000     8.9114    76.5418     0.0977     0.0737     2.4945
 1781.5000     8.9139    77.3330     0.1029     0.0693     2.4832
 1782.0000     8.9164    77.5670     0.1056     0.0678     2.4774
 1782.5000     8.9188    77.6579     0.0990     0.0784     2.4897
 1783.0000     8.9213    77.9409     0.0922     0.0890     2.5063
 1783.5000     8.9238    78.3720     0.0853     0.0995     2.5225
