~VERSION INFORMATION
 VERS.                2.0:   CWLS LOG ASCII STANDARD - VERSION 2.0
 WRAP.                 NO:   ONE LINE PER DEPTH STEP
~WELL INFORMATION
#MNEM.UNIT      DATA TYPE    INFORMATION
#----------   ------------   ------------------------------
 STRT.F            0.0000:   START DEPTH
 STOP.F         1008.0000:   STOP DEPTH
 STEP.F            0.5000:   STEP LENGTH
 NULL.          -999.2500:   NO VALUE
 COMP. LAWRENCE/ALLISON INC:   COMPANY
 WELL. NPR 3 #51-61-SX-14:   WELL
 FLD .             TEAPOT:   FIELD
 LOC .      S14 T38N R78W:   LOCATION
 CNTY.            NATRONA:   COUNTY
 STAT.            WYOMING:   STATE
 CTRY. UNITED STATES OF AMERICA:   COUNTRY
 SRVC.      Dresser Atlas:   SERVICE COMPANY
 DATE.        05-FEB-1986:   LOGDATE
 API .       490251106600:   API NUMBER
~CURVE INFORMATION
#MNEM.UNIT       API CODE    CURVE DESCRIPTION
#----------   ------------   ------------------------------
 DEPT.F                  :   
 GRR .GAPI   07 310 01 00:   GAMMA RAY FROM RES. LOG.
 RILD.OHMM   10 120 46 00:   INDUCTION LOG DEEP RESISTIVITY
 RILM.OHMM   07 120 44 00:   INDUCTION LOG MEDIUM RESISTIVITY
 CALD.IN     45 280 60 00:   CALIPER
 DEN .G/C3   45 350 01 00:   COMPENSATED BULK DENSTIY
 CORR.G/C3   45 356 01 00:   DENSITY CORRECTION
 PORD.DEC    45 890 10 00:   POROSITY DENSITY LIMESTONE
~PARAMETER INFORMATION
#MNEM.UNIT          VALUE    DESCRIPTION
#----------   ------------   ------------------------------
 PD  .                 GL:   PERMANENT DATUM
 EPD .F              5225:   ELEVATION PERMANENT DATUM
 LMF .                 GL:   LOG MEASURED FROM
 DMF .                 GL:   DRILLING MEASURED FROM
 EGL .F              5225:   GROUND LEVEL
 DATE.             2-5-86:   RUN DATE
 RUN .                  1:   RUN NUMBER
 DD  .F              1010:   DEPTH DRILLER
 DL  .F              1008:   DEPTH LOGGER
 BLI .F              1008:   BOTTOM LOG INTERVAL
 CS  .IN            8.625:   CASING SIZE
 CBD .F                86:   CASING BOTTOM DRILLER
 CBL .F                84:   CASING BOTTOM LOGGER
 BS  .IN             6.25:   BIT SIZE
 BSD .F              1010:   BIT SIZE AT DEPTH
 DFT .                AIR:   DRILLING FLUID TYPE
 LUN .            HL 6264:   LOGGING UNIT NUMBER
 LUL .           GILLETTE:   LOGGING UNIT LOCATION
 ENGI.           FAHLSING:   RECORDING ENGINEER
 WITN.              FIVAS:   WITNESSED BY
 CLNT.            A2DTECH:   CLIENT CODE
 ORIG.       2", 5" PRINT:   ORIGIN OF DATA
 UWI .       490251106600:   UNIQUE WELL ID
 DICO. A2D Technologies, Inc.:   DIGITIZING COMPANY
~OTHER INFORMATION
~A    DEPT      GRR      RILD       RILM       CALD        DEN       CORR       PORD   
# ...
  136.5000   115.4935     7.3359     7.0203     6.4701     2.4321     0.0630     0.1476
  137.0000   111.4290     7.3484     7.0404     6.4706     2.4334     0.0847     0.1490
  137.5000   107.4629     7.3654     7.0606     6.4488     2.4270     0.0939     0.1521
  138.0000   107.9192     7.3823     7.0808     6.4233     2.4206     0.1078     0.1540
  138.5000   111.3755     7.3992     7.1011     6.4175     2.4215     0.1268     0.1529
  139.0000   114.6739     7.4162     7.1215     6.4330     2.4222     0.1090     0.1541
  139.5000   112.7195     7.4332     7.1419     6.4483     2.4199     0.0867     0.1557
  140.0000   108.1153     7.4502     7.1624     6.4637     2.4263     0.0652     0.1505
  140.5000   103.5667     7.4673     7.1829     6.4642     2.4378     0.0731     0.1446
  141.0000    98.9076     7.4844     7.2035     6.4495     2.4579     0.1097     0.1335
  141.5000    97.6039     7.5016     7.2242     6.4350     2.4789     0.1375     0.1150
  142.0000   101.4542     7.5188     7.2449     6.4115     2.4929     0.1399     0.1120
  142.5000   105.6982     7.5360     7.2657     6.3844     2.4744     0.1241     0.1221
  143.0000   109.2376     7.5533     7.2865     6.3561     2.4519     0.1086     0.1301
  143.5000   108.6106     7.5707     7.3073     6.3562     2.4454     0.1012     0.1380
  144.0000   108.0518     7.5880     7.3361     6.3675     2.4397     0.1199     0.1448
  144.5000   108.8899     7.6111     7.2919     6.3790     2.4339     0.1380     0.1464
  145.0000   109.8960     7.5834     7.2222     6.3888     2.4340     0.1419     0.1464
  145.5000   110.9086     7.5423     7.1533     6.4246     2.4352     0.1259     0.1464
  146.0000   111.5563     7.5014     7.0850     6.4660     2.4318     0.1100     0.1502
  146.5000   109.7347     7.4608     7.0174     6.5079     2.4230     0.0940     0.1544
  147.0000   107.8799     7.4204     6.9499     6.4935     2.4143     0.0890     0.1573
  147.5000   109.6580     7.3801     6.8788     6.4418     2.4177     0.0931     0.1568
  148.0000   112.2215     7.3401     6.9108     6.4131     2.4259     0.0942     0.1520
  148.5000   114.4385     7.3004     6.9473     6.4333     2.4340     0.0809     0.1471
  149.0000   113.9577     7.2608     6.9834     6.4528     2.4338     0.0827     0.1472
  149.5000   113.5288     7.2214     7.0198     6.4725     2.4266     0.0841     0.1505
  150.0000   113.1158     7.1823     7.0563     6.4898     2.4193     0.0772     0.1537
  150.5000   112.9969     7.1434     7.0710     6.4677     2.4245     0.0554     0.1513
  151.0000   113.5653     7.1047     6.9134     6.4427     2.4308     0.0558     0.1483
  151.5000   114.0811     7.0661     6.6937     6.4176     2.4369     0.0658     0.1453
  152.0000   112.8028     7.0272     6.5724     6.3919     2.4408     0.0765     0.1423
  152.5000   108.8697     7.0065     6.6343     6.4233     2.4445     0.0847     0.1397
  153.0000   104.9746     7.1052     6.6771     6.4631     2.4469     0.0859     0.1403
  153.5000   101.1554     7.1756     6.7640     6.4335     2.4395     0.0849     0.1439
  154.0000   101.2728     7.2465     6.8741     6.3852     2.4317     0.0957     0.1484
  154.5000   104.8516     7.3180     6.9860     6.4057     2.4238     0.1137     0.1529
  155.0000   108.4347     7.3902     7.0997     6.4485     2.4157     0.1327     0.1570
  155.5000   112.0553     7.4632     7.2153     6.4315     2.4144     0.1308     0.1581
  156.0000   110.4591     7.5368     7.3094     6.4640     2.4270     0.1044     0.1496
  156.5000   108.0302     7.6112     7.3847     6.4995     2.4419     0.0862     0.1434
  157.0000   111.5081     7.6863     7.4608     6.5057     2.4489     0.0929     0.1378
  157.5000   116.7146     7.7622     7.5377     6.4998     2.4555     0.1029     0.1338
  158.0000   121.5005     7.8388     7.6143     6.4935     2.4611     0.1129     0.1308
  158.5000   119.5009     7.9076     7.7050     6.4858     2.4605     0.1225     0.1308
  159.0000   115.0621     7.9517     7.7414     6.4760     2.4602     0.1227     0.1312
  159.5000   111.8326     7.9960     7.7758     6.4662     2.4523     0.1167     0.1361
  160.0000   108.9542     8.0405     7.8106     6.4564     2.4376     0.0920     0.1435
  160.5000   110.5939     8.0856     7.8456     6.4466     2.4268     0.0792     0.1497
  161.0000   111.8707     8.1307     7.8807     6.4369     2.4352     0.1052     0.1452
  161.5000   110.9483     8.1793     7.9160     6.4292     2.4496     0.1262     0.1376
  162.0000   110.0463     8.2275     7.9514     6.4232     2.4605     0.1289     0.1303
  162.5000   110.7230     8.2761     7.9870     6.4170     2.4675     0.0998     0.1245
  163.0000   111.7043     8.3250     8.0228     6.4110     2.4722     0.0989     0.1239
  163.5000   112.6576     8.3741     8.0587     6.4246     2.4631     0.0972     0.1292
  164.0000   112.3293     8.4218     8.0947     6.4658     2.4503     0.0873     0.1357
  164.5000   110.2156     8.4385     8.1309     6.4497     2.4370     0.0746     0.1422
  165.0000   110.1763     8.4547     8.1662     6.4268     2.4296     0.0831     0.1487
  165.5000   110.5331     8.4709     8.1955     6.4108     2.4238     0.0845     0.1541
  166.0000   108.4548     8.4871     8.2703     6.4169     2.4177     0.0816     0.1552
  166.5000   107.6974     8.4997     8.1395     6.4223     2.4252     0.0726     0.1511
  167.0000   110.3781     8.2823     7.9597     6.4280     2.4388     0.0826     0.1441
  167.5000   111.1945     8.1097     7.7844     6.4377     2.4508     0.0921     0.1371
  168.0000   111.7684     7.9403     7.6130     6.4563     2.4587     0.1017     0.1296
  168.5000   116.3112     7.7746     7.4454     6.4747     2.4654     0.1107     0.1280
  169.0000   120.7460     7.6123     7.2815     6.4909     2.4547     0.1034     0.1339
  169.5000   115.6986     7.4534     7.1206     6.4719     2.4437     0.0944     0.1397
  170.0000   109.7496     7.2966     6.9644     6.4487     2.4369     0.1006     0.1440
  170.5000   110.2649     7.2029     6.8155     6.4257     2.4347     0.1147     0.1461
  171.0000   108.8035     7.2732     6.8985     6.4113     2.4390     0.1227     0.1432
  171.5000   106.4495     7.3262     6.9782     6.4165     2.4406     0.1207     0.1441
  172.0000   107.3477     7.3789     7.0588     6.4212     2.4346     0.1026     0.1449
  172.5000   109.0806     7.4321     7.1403     6.4261     2.4292     0.0836     0.1478
  173.0000   109.5250     7.4715     7.2023     6.4309     2.4327     0.0918     0.1483
  173.5000   104.7824     7.2428     6.9569     6.4357     2.4368     0.0945     0.1460
  174.0000   100.5607     7.0643     6.7661     6.4405     2.4327     0.0932     0.1463
  174.5000   104.7864     6.8897     6.5805     6.4453     2.4252     0.0984     0.1491
  175.0000   110.0099     6.7196     6.4000     6.4502     2.4177     0.1040     0.1545
  175.5000   111.3107     6.5536     6.2245     6.4550     2.4117     0.0949     0.1597
  176.0000   107.8364     6.3918     6.0538     6.4598     2.4144     0.0830     0.1597
  176.5000   104.5322     6.2340     5.8877     6.4646     2.4291     0.0741     0.1503
  177.0000   106.3911     6.0800     5.7262     6.4693     2.4433     0.0894     0.1415
  177.5000   108.6391     5.9299     5.5692     6.4732     2.4575     0.1045     0.1328
  178.0000   110.4188     5.7752     5.4150     6.4768     2.4717     0.1199     0.1240
  178.5000   110.1272     5.7752     5.5055     6.4804     2.4780     0.1144     0.1225
  179.0000   108.6461     5.8398     5.5985     6.4840     2.4560     0.0996     0.1333
  179.5000   106.6368     5.9330     5.6931     6.4875     2.4345     0.0845     0.1434
  180.0000   106.0566     6.0275     5.7892     6.4878     2.4239     0.0722     0.1513
  180.5000   108.7625     6.1235     5.8870     6.4806     2.4265     0.0710     0.1513
  181.0000   109.6227     6.2209     5.9864     6.4735     2.4307     0.0696     0.1497
  181.5000   107.5557     6.3199     6.0875     6.4663     2.4317     0.0728     0.1485
