~VERSION INFORMATION
 VERS.                2.0:   CWLS LOG ASCII STANDARD - VERSION 2.0
 WRAP.                 NO:   ONE LINE PER DEPTH STEP
~WELL INFORMATION
#MNEM.UNIT      DATA TYPE    INFORMATION
#----------   ------------   ------------------------------
 STRT.F           43.0000:   START DEPTH
 STOP.F          551.0000:   STOP DEPTH
 STEP.F            0.5000:   STEP LENGTH
 NULL.          -999.2500:   NO VALUE
 COMP. FENIX & SCISSON INC:   COMPANY
 WELL.   NPR 3  27-S #3-3:   WELL
 FLD .             TEAPOT:   FIELD
 LOC .       S3 T38N R78W:   LOCATION
 CNTY.            NATRONA:   COUNTY
 STAT.            WYOMING:   STATE
 CTRY. UNITED STATES OF AMERICA:   COUNTRY
 SRVC.           BIRDWELL:   SERVICE COMPANY
 DATE.        07-OCT-1978:   LOGDATE
 API .       490251071600:   API NUMBER
~CURVE INFORMATION
#MNEM.UNIT       API CODE    CURVE DESCRIPTION
#----------   ------------   ------------------------------
 DEPT.F                  :   
 SPR .MV     05 010 01 00:   SPONTANEOUS POTENTIAL FROM RES.
 SN  .OHMM   05 040 16 00:   SHORT NORMAL 16"
 ILD .OHMM   05 120 46 00:   INDUCTION LOG DEEP
 GRD .GAPI   45 310 01 00:   GAMMA RAY FROM DENSITY LOG
 CALD.IN     45 280 60 00:   CALIPER
 RHOB.G/C3   45 350 01 00:   BULK DENSITY
 CORR.G/C3   45 356 01 00:   DENSITY CORRECTION
 DPHI.DEC    45 890 12 00:   DENSITY POROSITY SANDSTONE
~PARAMETER INFORMATION
#MNEM.UNIT          VALUE    DESCRIPTION
#----------   ------------   ------------------------------
 PD  .                 GL:   PERMANENT DATUM
 EPD .F              5241:   ELEVATION PERMANENT DATUM
 LMF .                 KB:   LOG MEASURED FROM
 DAPD.F                 4:   FEET ABOVE PERMANENT DATUM
 DMF .                 KB:   DRILLING MEASURED FROM
 EKB .F              5245:   KELLING BUSHING
 EGL .F              5241:   GROUND LEVEL
 DATE.            10-7-78:   RUN DATE
 RUN .                  1:   RUN NUMBER
 DD  .F               552:   DEPTH DRILLER
 DL  .F               551:   DEPTH LOGGER
 BLI .F               545:   BOTTOM LOG INTERVAL
 TLI .F                48:   TOP LOG INTERVAL
 CS  .IN            8.625:   CASING SIZE
 CBL .F                43:   CASING BOTTOM LOGGER
 BS  .IN            7.875:   BIT SIZE
 BSD .F               552:   BIT SIZE AT DEPTH
 DFT .                KCL:   DRILLING FLUID TYPE
 DFD .                8.7:   DRILLING FLUID DENSITY
 DFV .                 38:   DRILLING FLUID VISCOSITY
 DFPH.                  9:   DRILLING FLUID PH
 DFL .                 38:   DRILLING FLUID LOSS
 MSS .            MUD PIT:   MUD SAMPLE SOURCE
 RMS .OHMM            .24:   RESISTIVITY MUD SAMPLE
 MST .F                48:   MUD SAMPLE TEMPERATURE
 RMF .OHMM             .2:   RESISTIVITY MUD FILTRATE SAMPLE
 MFST.F                62:   MUD FILTRATE SAMPLE TEMPERATURE
 RMC .OHMM             .3:   RESISTIVITY MUD CAKE
 MCST.F                62:   MUD CAKE SAMPLE TEMPERATURE
 MFSS.               MEAS:   MUD FILTRATE SAMPLE SOURCE
 MCSS.               MEAS:   MUD CAKE SAMPLE SOURCE
 TCS .HRS               3:   TIME CURCULATED STOPPED
 LUN .               2958:   LOGGING UNIT NUMBER
 LUL .               CASP:   LOGGING UNIT LOCATION
 ENGI.             MILLER:   RECORDING ENGINEER
 WITN.              AMEND:   WITNESSED BY
 CLNT.            A2DTECH:   CLIENT CODE
 ORIG.       2", 5" PRINT:   ORIGIN OF DATA
 UWI .       490251071600:   UNIQUE WELL ID
 DICO. A2D Technologies, Inc.:   DIGITIZING COMPANY
~OTHER INFORMATION
~A   DEPT      SPR         SN        ILD        GRD         CALD       RHOB      CORR        DPHI 
# ...
  367.0000   -32.1713     5.7608     5.9617   121.5618     8.2640     2.4520     0.0189     0.1392
  367.5000   -32.1713     5.7609     5.9541   121.1549     8.2597     2.4661     0.0185     0.1260
  368.0000   -32.1713     5.7608     5.9464   120.5760     8.2554     2.4811     0.0156     0.1164
  368.5000   -32.1713     5.7600     5.9387   119.9984     8.2510     2.4962     0.0108     0.1068
  369.0000   -32.1713     5.7933     5.9308   120.3017     8.2467     2.5019     0.0054     0.1050
  369.5000   -32.1713     5.8317     5.9214   120.8657     8.2423     2.4993     0.0008     0.1079
  370.0000   -32.1713     5.8681     6.0410   121.4313     8.2377     2.4934     0.0006     0.1109
  370.5000   -32.1713     6.0880     6.1824   121.7300     8.2453     2.4878     0.0003     0.1139
  371.0000   -32.1713     6.2100     6.3272   120.0393     8.2557     2.4875    -0.0001     0.1145
  371.5000   -32.1713     6.2274     6.5751   118.4558     8.2663     2.4876    -0.0004     0.1145
  372.0000   -32.1713     6.2449     6.8887   117.9171     8.2768     2.4846    -0.0007     0.1158
  372.5000   -32.1713     6.2624     7.0585   117.3602     8.2873     2.4815     0.0022     0.1174
  373.0000   -32.1713     6.2800     6.9274   116.7865     8.2978     2.4816     0.0108     0.1190
  373.5000   -32.1713     6.2977     6.5610   115.9280     8.3083     2.4818     0.0193     0.1207
  374.0000   -32.1713     6.3173     6.2402   115.0515     8.3168     2.4721     0.0232     0.1223
  374.5000   -32.1713     6.1534     5.9351   114.1617     8.3125     2.4601     0.0243     0.1411
  375.0000   -32.1713     5.9748     5.6422   114.0045     8.3081     2.4478     0.0254     0.1395
  375.5000   -32.1720     5.8014     5.4214   113.9975     8.3037     2.4452     0.0266     0.1376
  376.0000   -32.1752     5.6330     5.3437   114.3590     8.2993     2.4690     0.0278     0.1311
  376.5000   -32.1645     5.5523     5.3190   114.9434     8.2911     2.4967     0.0289     0.1180
  377.0000   -31.4159     5.5523     5.3022   115.5536     8.2768     2.4994     0.0286     0.1094
  377.5000   -30.5779     5.5523     5.3562   115.3045     8.2624     2.5008     0.0283     0.1074
  378.0000   -30.0994     5.5773     5.4008   114.2194     8.2594     2.5076     0.0280     0.1024
  378.5000   -29.9256     5.7839     5.6701   112.9617     8.2631     2.5176     0.0276     0.0975
  379.0000   -29.7584     5.9981     6.0637   112.2058     8.2670     2.5257     0.0273     0.0930
  379.5000   -29.5923     6.2203     6.4846   112.2008     8.2709     2.5322     0.0271     0.0895
  380.0000   -29.4256     6.4512     6.9347   111.9017     8.2745     2.5313     0.0208     0.0896
  380.5000   -29.2590     6.6882     7.1374   111.6444     8.2686     2.5252     0.0144     0.0918
  381.0000   -29.0923     6.8229     7.2484   112.2879     8.2485     2.5196     0.0122     0.0942
  381.5000   -28.9254     6.8583     7.3611   112.9610     8.2287     2.5199     0.0098     0.0960
  382.0000   -28.7577     6.8958     7.4480   113.5232     8.2180     2.5202     0.0039     0.0975
  382.5000   -28.5924     6.9274     7.5267   113.3735     8.2204     2.5137     0.0035     0.0997
  383.0000   -28.5916     6.9274     7.6063   112.8211     8.2226     2.5071     0.0042     0.1043
  383.5000   -28.6000     6.9274     7.6867   112.2706     8.2249     2.5006     0.0049     0.1069
  384.0000   -28.6077     6.9274     7.7424   111.7243     8.2272     2.5016     0.0055     0.1066
  384.5000   -28.6152     6.9274     7.7547   111.4299     8.2294     2.5067     0.0062     0.1027
  385.0000   -28.6227     6.9274     7.7671   112.4281     8.2317     2.5117     0.0069     0.1008
  385.5000   -28.6301     6.9274     7.7795   114.7968     8.2340     2.5167     0.0075     0.1005
  386.0000   -28.6376     6.9274     7.7920   115.5131     8.2362     2.5214     0.0082     0.1002
  386.5000   -28.6451     6.9274     7.8044   114.6735     8.2360     2.5176     0.0088     0.0999
  387.0000   -28.6525     6.9274     7.8193   112.2219     8.2336     2.5130     0.0103     0.0952
  387.5000   -28.6600     6.9274     7.8357   110.3785     8.2312     2.5104     0.0194     0.0966
  388.0000   -28.6674     6.9274     7.8522   110.5863     8.2289     2.5150     0.0291     0.0970
  388.5000   -28.6749     6.9274     7.8688   111.4011     8.2265     2.5219     0.0278     0.0935
  389.0000   -28.6824     6.9274     7.8899   112.1852     8.2241     2.5283     0.0266     0.0905
  389.5000   -28.6898     6.9274     7.9297   112.4077     8.2218     2.5296     0.0252     0.0893
  390.0000   -28.6973     6.9274     7.9695   111.0950     8.2194     2.5292     0.0199     0.0904
  390.5000   -28.7048     6.9274     8.0095   109.8229     8.2167     2.5236     0.0141     0.0928
  391.0000   -28.7122     6.9274     8.0496   109.2080     8.2062     2.5184     0.0091     0.0967
  391.5000   -28.7197     6.9274     8.0900   109.0818     8.1959     2.5074     0.0052     0.1018
  392.0000   -28.7271     6.9274     8.1306   109.9007     8.1855     2.4956     0.0046     0.1133
  392.5000   -28.7346     6.9279     8.1779   111.8081     8.1752     2.4809     0.0083     0.1241
  393.0000   -28.7421     6.9297     7.8658   112.5867     8.1649     2.4623     0.0116     0.1341
  393.5000   -28.7495     6.9349     7.4734   112.9167     8.1570     2.4438     0.0246     0.1551
  394.0000   -28.7570     6.5995     7.0760   115.6265     8.1693     2.4262     0.0416     0.1576
  394.5000   -28.7650     6.3010     6.7015   121.0791     8.1864     2.4437     0.0460     0.1473
  395.0000   -28.7749     6.0160     6.3475   123.2641     8.2039     2.4773     0.0308     0.1228
  395.5000   -28.7772     5.7439     6.0327   117.6059     8.2216     2.5112     0.0171     0.1061
  396.0000   -28.5352     5.7080     6.0327   106.4337     8.2347     2.5210     0.0169     0.0974
  396.5000   -27.4098     5.8932     6.0834   104.2121     8.1894     2.5207     0.0169     0.0945
  397.0000   -26.3293     6.0230     6.2307   104.2875     8.1447     2.5209     0.0169     0.0943
  397.5000   -26.1303     6.1449     6.6346   104.8430     8.1006     2.5298     0.0169     0.0902
  398.0000   -26.0578     6.8151     7.4032   105.3833     8.0923     2.5325     0.0169     0.0891
  398.5000   -26.0053     7.5008     8.2608   105.1756     8.1220     2.5263     0.0169     0.0921
  399.0000   -25.5131     8.0285     9.2179   104.8065     8.1168     2.5194     0.0166     0.0950
  399.5000   -24.8344     8.1542    10.0168   104.4338     8.0749     2.5124     0.0160     0.0970
  400.0000   -24.1460     8.2711     9.9792   104.4094     8.0388     2.5101     0.0154     0.0970
  400.5000   -23.4563     8.4970     9.9373   104.7469     8.0513     2.5098     0.0155     0.1026
  401.0000   -22.7585     8.8039     9.8957   105.0792     8.0640     2.4968     0.0208     0.1106
  401.5000   -22.0708     8.8039     9.8338   105.0383     8.0765     2.4843     0.0263     0.1179
  402.0000   -22.0448     8.8039    10.0374    97.5629     8.0890     2.4676     0.0300     0.1223
  402.5000   -21.8548     8.8039    10.4514    87.5701     8.1015     2.4233     0.0324     0.1443
  403.0000   -20.7701     9.0960    10.8824    78.5032     8.1139     2.3876     0.0347     0.1663
  403.5000   -19.6157     9.4288    11.3313    70.1791     8.1264     2.3892     0.0292     0.1751
  404.0000   -18.4387     9.7774    11.7986    64.0262     8.1389     2.3897     0.0233     0.1751
  404.5000   -16.7634    10.0200    12.2852    58.0149     8.1514     2.3776     0.0330     0.1814
  405.0000   -13.5080    10.0468    12.7919    58.1622     8.1638     2.3644     0.0439     0.1881
  405.5000   -12.6870    10.0738    13.3195    62.2169     8.1763     2.3528     0.0668     0.1950
  406.0000   -12.6208    10.1008    13.7046    65.5450     8.1888     2.3559     0.0934     0.1962
  406.5000   -12.6005    10.1279    13.5526    68.8646     8.2130     2.3751     0.0928     0.1844
  407.0000   -12.5772    10.1550    13.3455    72.2112     8.2634     2.3765     0.0867     0.1835
