~VERSION INFORMATION
 VERS.                2.0:   CWLS LOG ASCII STANDARD - VERSION 2.0
 WRAP.                 NO:   ONE LINE PER DEPTH STEP
~WELL INFORMATION
#MNEM.UNIT      DATA TYPE    INFORMATION
#----------   ------------   ------------------------------
 STRT.F           19.5000:   START DEPTH
 STOP.F          690.5000:   STOP DEPTH
 STEP.F            0.5000:   STEP LENGTH
 NULL.          -999.2500:   NO VALUE
 COMP. FENIX & SCISSON INC:   COMPANY
 WELL. 37-22 SX 11 WI #3-11:   WELL
 FLD .             TEAPOT:   FIELD
 LOC .      S11 T38N R78W:   LOCATION
 CNTY.            NATRONA:   COUNTY
 STAT.            WYOMING:   STATE
 CTRY. UNITED STATES OF AMERICA:   COUNTRY
 SRVC.      Dresser Atlas:   SERVICE COMPANY
 DATE.        11-AUG-1980:   LOGDATE
 API .       490251084400:   API NUMBER
~CURVE INFORMATION
#MNEM.UNIT       API CODE    CURVE DESCRIPTION
#----------   ------------   ------------------------------
 DEPT.F                  :   
 SPR .MV     07 010 01 00:   SPONTANEOUS POTENTIAL
 SFL .OHMM   07 220 01 00:   SHALLOW FOCUSED LOG RESISTIVITY
 ILD .OHMM   07 120 46 00:   INDUCTION LOG DEEP
 ILM .OHMM   07 120 44 00:   INDUCTION LOG MEDIUM
 GRD .GAPI   45 310 01 00:   GAMMA RAY FROM DENSITY LOG
 CALD.IN     45 280 60 00:   CALIPER
 CORR.G/C3   45 356 01 00:   DENSITY CORRECTION
 RHOB.G/C3   45 350 01 00:   BULK DENSITY
 NPHI.DEC    42 890 12 00:   NEUTRON POROSITY SANDSTONE
 DPHI.DEC    45 890 12 00:   DENSITY POROSITY SANDSTONE
~PARAMETER INFORMATION
#MNEM.UNIT          VALUE    DESCRIPTION
#----------   ------------   ------------------------------
 PD  .                 GL:   PERMANENT DATUM
 EPD .F              5191:   ELEVATION PERMANENT DATUM
 LMF .                 KB:   LOG MEASURED FROM
 DAPD.F                 5:   FEET ABOVE PERMANENT DATUM
 DMF .                 KB:   DRILLING MEASURED FROM
 EKB .F              5196:   KELLING BUSHING
 EGL .F              5191:   GROUND LEVEL
 DATE.            8-11-80:   RUN DATE
 RUN .                  1:   RUN NUMBER
 DD  .F               680:   DEPTH DRILLER
 DL  .F               689:   DEPTH LOGGER
 BLI .F               687:   BOTTOM LOG INTERVAL
 TLI .F                20:   TOP LOG INTERVAL
 CS  .IN            8.625:   CASING SIZE
 BS  .IN            7.875:   BIT SIZE
 BSD .F               680:   BIT SIZE AT DEPTH
 DFT .           CHEM GEL:   DRILLING FLUID TYPE
 DFD .                9.9:   DRILLING FLUID DENSITY
 DFV .                 52:   DRILLING FLUID VISCOSITY
 DFPH.               11.5:   DRILLING FLUID PH
 DFL .                104:   DRILLING FLUID LOSS
 MSS .           FLOWLINE:   MUD SAMPLE SOURCE
 RMS .OHMM             .2:   RESISTIVITY MUD SAMPLE
 MST .F                74:   MUD SAMPLE TEMPERATURE
 RMF .OHMM            .15:   RESISTIVITY MUD FILTRATE SAMPLE
 MFST.F                74:   MUD FILTRATE SAMPLE TEMPERATURE
 RMC .OHMM            .25:   RESISTIVITY MUD CAKE
 MCST.F                74:   MUD CAKE SAMPLE TEMPERATURE
 MFSS.               CALC:   MUD FILTRATE SAMPLE SOURCE
 MCSS.               CALC:   MUD CAKE SAMPLE SOURCE
 TCS .HRS               3:   TIME CURCULATED STOPPED
 LUN .             HL6150:   LOGGING UNIT NUMBER
 LUL .                 FM:   LOGGING UNIT LOCATION
 ENGI.            BRANNEY:   RECORDING ENGINEER
 WITN.           MCINTYRE:   WITNESSED BY
 CLNT.            A2DTECH:   CLIENT CODE
 ORIG.           5" PRINT:   ORIGIN OF DATA
 UWI .       490251084400:   UNIQUE WELL ID
 DICO. A2D Technologies, Inc.:   DIGITIZING COMPANY
~OTHER INFORMATION
~A   DEPT      SPR        SFL        ILD        ILM        GRD       CALD       CORR       RHOB       NPHI       DPHI   
# ...
  388.0000   -52.0930     7.9940     7.3130     6.8180   110.3700     8.1040     0.0220     2.4650     0.2500     0.1310
  388.5000   -52.1230     7.9720     7.2910     6.7520   111.5430     8.1050     0.0290     2.4740     0.2460     0.1260
  389.0000   -52.1850     7.9510     7.2680     6.6860   111.9660     8.1060     0.0360     2.4820     0.2460     0.1230
  389.5000   -52.2480     7.9300     7.2460     6.6210   112.3040     8.1060     0.0420     2.4910     0.2470     0.1190
  390.0000   -52.3100     7.9090     7.2240     6.5550   112.4040     8.1070     0.0480     2.4990     0.2480     0.1150
  390.5000   -52.3730     7.8880     7.2020     6.4890   111.9030     8.1080     0.0490     2.5030     0.2490     0.1130
  391.0000   -52.4360     7.8680     7.1800     6.4240   111.8710     8.1080     0.0410     2.4900     0.2500     0.1190
  391.5000   -52.5090     7.7650     7.0610     6.3580   113.0240     8.1090     0.0330     2.4760     0.2530     0.1280
  392.0000   -52.6150     7.6670     6.9250     6.3100   110.9890     8.1100     0.0250     2.4630     0.2570     0.1340
  392.5000   -52.7200     7.5700     6.7890     6.1420   108.9940     8.1100     0.0180     2.4580     0.2600     0.1360
  393.0000   -52.8250     7.4720     6.6530     5.9860   108.7840     8.1110     0.0190     2.4550     0.2630     0.1390
  393.5000   -52.9290     7.3740     6.5180     5.8290   106.7330     8.1120     0.0170     2.4480     0.2670     0.1410
  394.0000   -53.0340     7.2760     6.3820     5.6730   107.1840     8.1130     0.0090     2.4390     0.2630     0.1450
  394.5000   -53.1380     7.1780     6.2460     5.5170   107.1740     8.1130     0.0090     2.4300     0.2590     0.1520
  395.0000   -53.2430     7.0800     6.1100     5.3600   107.5270     8.1140     0.0220     2.4390     0.2620     0.1470
  395.5000   -53.3470     6.9830     5.9170     5.2040   108.2000     8.1150     0.0350     2.4510     0.2710     0.1390
  396.0000   -53.4510     6.8850     5.9810     5.1200   109.7960     8.1150     0.0480     2.4620     0.2860     0.1350
  396.5000   -53.4410     6.7290     6.0910     5.2390   110.4500     8.1160     0.0480     2.4560     0.2850     0.1370
  397.0000   -53.2940     6.7820     6.2010     5.3340   111.9900     8.1170     0.0430     2.4490     0.2810     0.1420
  397.5000   -53.1470     6.9100     6.3120     5.4290   110.1520     8.1170     0.0390     2.4450     0.2780     0.1390
  398.0000   -53.0000     7.0380     6.4220     5.5240   109.6960     8.1180     0.0470     2.4570     0.2770     0.1360
  398.5000   -52.8530     7.1660     6.5320     5.6200   106.9700     8.1190     0.0600     2.4620     0.2710     0.1360
  399.0000   -52.7060     7.2940     6.6420     5.7150   106.4080     8.1200     0.0670     2.4490     0.2650     0.1420
  399.5000   -52.5590     7.4220     6.7530     5.8100   108.5330     8.1200     0.0420     2.4370     0.2590     0.1490
  400.0000   -52.4130     7.5500     6.8630     5.9050   109.9480     8.1210     0.0440     2.4280     0.2520     0.1520
  400.5000   -52.2860     7.6780     6.9730     6.0000   108.3550     8.1220     0.0660     2.4500     0.2550     0.1400
  401.0000   -52.3040     7.8060     7.0840     6.1360   111.4760     8.1230     0.0800     2.4670     0.2600     0.1290
  401.5000   -52.3240     7.9400     7.1940     6.1150   114.6630     8.1230     0.0680     2.4570     0.2650     0.1340
  402.0000   -52.3430     7.9400     7.2430     6.0940   113.4680     8.1240     0.0560     2.4450     0.2700     0.1430
  402.5000   -52.3630     7.8400     7.1570     6.0730   111.3200     8.1250     0.0640     2.4460     0.2740     0.1380
  403.0000   -52.3830     7.7350     7.0680     6.0520   110.3730     8.1250     0.0530     2.4600     0.2750     0.1320
  403.5000   -52.4030     7.6310     6.9790     6.0310   111.3180     8.1260     0.0740     2.4720     0.2700     0.1270
  404.0000   -52.4230     7.5270     6.8910     6.0110   114.5690     8.1270     0.0660     2.4650     0.2640     0.1320
  404.5000   -52.4420     7.4230     6.8020     5.9900   115.7090     8.1280     0.0590     2.4570     0.2590     0.1400
  405.0000   -52.4610     7.3180     6.7130     5.9690   115.1630     8.1280     0.0620     2.4510     0.2610     0.1380
  405.5000   -52.4940     7.2140     6.6240     5.9480   115.5890     8.1290     0.0670     2.4510     0.2690     0.1400
  406.0000   -52.7870     7.1100     6.5350     5.9270   112.7940     8.1300     0.0720     2.4670     0.2770     0.1320
  406.5000   -53.0750     7.0060     6.4460     5.8030   111.3090     8.1300     0.0660     2.4580     0.2860     0.1360
  407.0000   -53.2720     6.9010     6.3400     5.5760   110.6180     8.1310     0.0570     2.4430     0.2820     0.1450
  407.5000   -53.2260     6.7970     6.1100     5.3490   111.3260     8.1320     0.0510     2.4350     0.2730     0.1500
  408.0000   -53.1840     6.6930     5.8800     5.1210   111.3490     8.1330     0.0570     2.4410     0.2640     0.1430
  408.5000   -53.1420     6.4600     5.6490     4.8940   110.6030     8.1330     0.0640     2.4450     0.2700     0.1450
  409.0000   -53.1010     6.1860     5.4190     4.6670   109.8670     8.1340     0.0660     2.4360     0.2760     0.1480
  409.5000   -53.0590     5.9110     5.1890     4.4390   110.1540     8.1350     0.0640     2.4260     0.2800     0.1530
  410.0000   -53.0170     5.6370     4.9590     4.2120   110.9310     8.1330     0.0630     2.4170     0.2810     0.1590
  410.5000   -52.9750     5.3630     4.7280     3.9850   111.7090     8.1310     0.0610     2.4070     0.2820     0.1640
  411.0000   -52.9330     5.0890     4.4980     3.6350   111.9110     8.1290     0.0640     2.3970     0.2870     0.1690
  411.5000   -52.8910     4.8340     4.2890     3.7620   111.1100     8.1260     0.0750     2.3930     0.2960     0.1730
  412.0000   -52.8490     5.2940     4.5870     4.0360   110.3430     8.1240     0.0850     2.4140     0.2870     0.1650
  412.5000   -52.8070     5.7260     4.9290     4.3110   110.4440     8.1220     0.0870     2.4360     0.2720     0.1400
  413.0000   -52.7650     6.1580     5.2700     4.5850   112.0130     8.1190     0.0740     2.4500     0.2600     0.1440
  413.5000   -52.7220     6.5900     5.6120     4.8780   113.1890     8.1170     0.0810     2.4600     0.2530     0.1380
  414.0000   -52.6840     7.0220     5.9540     5.1500   109.5590     8.1150     0.0820     2.4680     0.2580     0.1290
  414.5000   -52.8150     7.4540     6.2960     5.4420   109.1330     8.1140     0.0740     2.4450     0.2620     0.1420
  415.0000   -52.9590     7.7240     6.6380     5.7330   109.6540     8.1130     0.0650     2.4540     0.2650     0.1390
  415.5000   -53.1030     7.8170     6.9810     6.0240   110.2690     8.1120     0.0680     2.4480     0.2660     0.1370
  416.0000   -53.2500     7.8740     7.0280     6.3160   112.1950     8.1110     0.0730     2.4430     0.2670     0.1440
  416.5000   -53.2050     7.9300     7.0750     6.4400   113.5680     8.1100     0.0690     2.4550     0.2590     0.1390
  417.0000   -53.1250     7.9860     7.1220     6.4610   112.5190     8.1090     0.0640     2.4650     0.2610     0.1340
  417.5000   -53.0440     8.0420     7.1690     6.4820   114.0180     8.1080     0.0730     2.4800     0.2630     0.1270
  418.0000   -52.9620     8.0980     7.2170     6.5030   116.3880     8.1060     0.0820     2.4950     0.2580     0.1180
  418.5000   -52.8800     8.1540     7.2640     6.5240   116.8820     8.1050     0.0810     2.5090     0.2540     0.1080
  419.0000   -52.7990     8.2100     7.3110     6.5450   118.4080     8.1040     0.0720     2.5010     0.2540     0.1100
  419.5000   -52.7170     8.2380     7.3580     6.5660   117.3990     8.1030     0.0630     2.4910     0.2560     0.1140
  420.0000   -52.6350     8.2440     7.4050     6.5870   116.5560     8.1020     0.0540     2.4810     0.2540     0.1190
  420.5000   -52.5530     8.2900     7.4520     6.6080   113.9580     8.1010     0.0460     2.4760     0.2510     0.1240
  421.0000   -52.4720     8.3350     7.4990     6.6290   111.3840     8.1000     0.0630     2.4900     0.2510     0.1170
