~VERSION INFORMATION
 VERS.                2.0:   CWLS LOG ASCII STANDARD - VERSION 2.0
 WRAP.                 NO:   ONE LINE PER DEPTH STEP
~WELL INFORMATION
#MNEM.UNIT      DATA TYPE    INFORMATION
#----------   ------------   ------------------------------
 STRT.F            0.0000:   START DEPTH
 STOP.F          625.0000:   STOP DEPTH
 STEP.F            0.5000:   STEP LENGTH
 NULL.          -999.2500:   NO VALUE
 COMP.       F D SERV INC:   COMPANY
 WELL.    75-3 SX-3 #72-3:   WELL
 FLD .             TEAPOT:   FIELD
 LOC .       S3 T38N R78W:   LOCATION
 CNTY.            NATRONA:   COUNTY
 STAT.            WYOMING:   STATE
 CTRY. UNITED STATES OF AMERICA:   COUNTRY
 SRVC.     Atlas Wireline:   SERVICE COMPANY
 DATE.        05-MAY-1992:   LOGDATE
 API .       490252251800:   API NUMBER
~CURVE INFORMATION
#MNEM.UNIT       API CODE    CURVE DESCRIPTION
#----------   ------------   ------------------------------
 DEPT.F                  :   
 CALD.IN     45 280 60 00:   CALIPER FROM DENSITY
 CORR.G/C3   45 356 01 00:   DENSITY CORRECTION
 DEN .G/C3   45 350 01 00:   COMPENSATED BULK DENSTIY
 GRD .GAPI   45 310 01 00:   GAMMA RAY FROM DENSITY LOG
 RILD.OHMM   07 120 46 00:   INDUCTION LOG DEEP RESISTIVITY
 RILM.OHMM   07 120 44 00:   INDUCTION LOG MEDIUM RESISTIVITY
 PORD.DEC    45 890 12 00:   POROSITY DENSITY SANDSTONE
~PARAMETER INFORMATION
#MNEM.UNIT          VALUE    DESCRIPTION
#----------   ------------   ------------------------------
 PD  .                 GL:   PERMANENT DATUM
 EPD .F              5148:   ELEVATION PERMANENT DATUM
 LMF .                 KB:   LOG MEASURED FROM
 DAPD.F                 5:   FEET ABOVE PERMANENT DATUM
 DMF .                 KB:   DRILLING MEASURED FROM
 EKB .F              5153:   KELLING BUSHING
 EDF .F              5152:   DRILLING FLOOR
 EGL .F              5148:   GROUND LEVEL
 DATE.        05-MAY-1992:   RUN DATE
 RUN .                  1:   RUN NUMBER
 DD  .F               630:   DEPTH DRILLER
 DL  .F               633:   DEPTH LOGGER
 BLI .F               625:   BOTTOM LOG INTERVAL
 CS  .IN            8.625:   CASING SIZE
 CBD .F                44:   CASING BOTTOM DRILLER
 CBL .F                49:   CASING BOTTOM LOGGER
 BS  .IN            7.875:   BIT SIZE
 BSD .F               630:   BIT SIZE AT DEPTH
 DFT .        AIR DRILLED:   DRILLING FLUID TYPE
 MRT .F                88:   MAXIMUM RECORDED TEMPERATURE
 LUN .           HL- 6274:   LOGGING UNIT NUMBER
 LUL .             CASPER:   LOGGING UNIT LOCATION
 ENGI.       P. RASHUSSEN:   RECORDING ENGINEER
 WITN.          G. STRONG:   WITNESSED BY
 CLNT.            A2DTECH:   CLIENT CODE
 ORIG.           5" PRINT:   ORIGIN OF DATA
 UWI .       490252251800:   UNIQUE WELL ID
 DICO. A2D Technologies, Inc.:   DIGITIZING COMPANY
~OTHER INFORMATION
~A    DEPT    CALD       CORR        DEN         GRD      RILD       RILM       PORD   
# ...
  182.0000     8.3731     0.0105     2.5087   169.3840     9.0579     8.9472     0.0903
  182.5000     8.4183     0.0013     2.5133   164.8572     9.0541     8.9460     0.0879
  183.0000     8.4336    -0.0047     2.5163   168.5114     9.1148     8.9448     0.0819
  183.5000     8.4189    -0.0078     2.5133   176.0634     9.1101     8.9435     0.0840
  184.0000     8.4342     0.0012     2.5028   181.5462     9.1064     8.9423     0.0870
  184.5000     8.4345     0.0072     2.5013   185.8253     9.1026     8.9411     0.0901
  185.0000     8.4498     0.0101     2.5044   190.5293     9.0988     8.9398     0.0913
  185.5000     8.4651     0.0010     2.5074   192.9501     9.1591     8.9386     0.0895
  186.0000     8.4804    -0.0021     2.5180   191.7619     9.0913     8.8752     0.0865
  186.5000     8.4807    -0.0021     2.5211   190.2693     9.0876     8.8740     0.0827
  187.0000     8.4810    -0.0022     2.5181   193.8968     9.0838     8.8728     0.0813
  187.5000     8.4513     0.0008     2.5120   201.7312     9.1438     8.9337     0.0824
  188.0000     8.4366     0.0097     2.5106   196.6344     9.1399     8.9324     0.0862
  188.5000     8.4219     0.0187     2.5154   190.9325     9.1353     8.8691     0.0859
  189.0000     8.3922     0.0337     2.5272   179.8195     9.1965     8.8679     0.0762
  189.5000     8.3762     0.0428     2.5303   183.8763     9.1277     8.8047     0.0729
  190.0000     8.3308     0.0276     2.5273   192.7617     9.0604     8.7423     0.0757
  190.5000     8.2978     0.0125     2.5228   203.0231     9.0567     8.7411     0.0790
  191.0000     8.2585     0.0094     2.5138   207.5492     9.0530     8.6791     0.0805
  191.5000     8.2438     0.0093     2.5063   204.8572     8.9862     8.6779     0.0875
  192.0000     8.2291     0.0093     2.4958   198.6765     8.9199     8.6767     0.0971
  192.5000     8.2144     0.0092     2.4928   193.7296     8.9163     8.6152     0.0980
  193.0000     8.2147     0.0091     2.5003   183.9580     8.9126     8.4946     0.0950
  193.5000     8.2000     0.0091     2.5064   180.2585     8.9089     8.4935     0.0932
  194.0000     8.2003     0.0090     2.5004   180.5741     8.9052     8.4923     0.0926
  194.5000     8.2006     0.0120     2.4929   180.2882     8.9016     8.5509     0.0975
  195.0000     8.1859     0.0119     2.4808   178.4985     8.9603     8.5494     0.1017
  195.5000     8.1712     0.0119     2.4839   174.6035     8.9565     8.6081     0.1014
  196.0000     8.1565     0.0088     2.4930   171.9116     8.9528     8.6069     0.0996
  196.5000     8.1418     0.0057     2.4930   171.6256     8.9483     8.6057     0.0987
  197.0000     8.1421     0.0087     2.4900   169.8359     8.9446     8.6045     0.0993
  197.5000     8.1574     0.0086     2.4901   167.1403     9.0045     8.6636     0.0980
  198.0000     8.1877     0.0116     2.4948   168.6626     8.9999     8.6624     0.0944
  198.5000     8.2030     0.0145     2.5012   168.0759     9.0602     8.6717     0.0914
  199.0000     8.2033     0.0114     2.5082   165.3839     9.0555     8.7206     0.0881
  199.5000     8.2186     0.0114     2.5143   163.5942     9.1162     8.8420     0.0844
  200.0000     8.2489     0.0062     2.5207   163.0075     9.2407     8.9027     0.0811
  200.5000     8.2487    -0.0068     2.5234   166.9270     9.1727     8.7997     0.0787
  201.0000     8.2486    -0.0252     2.5233   170.5449     9.3645     8.9080     0.0787
  201.5000     8.2634    -0.0339     2.5248   171.4561     9.4282     9.0868     0.0780
  202.0000     8.2633    -0.0189     2.5248   171.1643     9.4917     9.1495     0.0762
  202.5000     8.2631    -0.0189     2.5248   170.2710     9.5556     9.2123     0.0759
  203.0000     8.2630    -0.0189     2.5248   169.0769     9.4198     9.2107     0.0768
  203.5000     8.2628    -0.0189     2.5248   168.1836     9.4172     9.2095     0.0783
  204.0000     8.2627    -0.0158     2.5233   167.8918     9.3490     9.1442     0.0783
  204.5000     8.2475    -0.0158     2.5217   168.2175     9.1525     9.0793     0.0783
  205.0000     8.2474    -0.0068     2.5217   169.7546     9.0863     9.0150     0.0786
  205.5000     8.2472    -0.0008     2.5202   172.4942     8.9577     8.9510     0.0786
  206.0000     8.2471    -0.0038     2.5187   175.5786     8.8921     8.7644     0.0786
  206.5000     8.2469    -0.0068     2.5185   178.8201     8.7017     8.7023     0.0792
  207.0000     8.2318    -0.0128     2.5168   181.4814     8.5827     8.5208     0.0804
  207.5000     8.2316    -0.0158     2.5081   184.7986     8.5206     8.3432     0.0853
  208.0000     8.2315    -0.0158     2.5035   188.1158     8.3995     8.1692     0.0898
  208.5000     8.2463    -0.0038     2.4990   195.9443     8.2807     7.9989     0.0937
  209.0000     8.2312     0.0053     2.4929   198.0585     8.2207     7.9422     0.0968
  209.5000     8.2310     0.0053     2.4914   197.7645     8.1612     7.9408     0.0962
  210.0000     8.2159    -0.0008     2.4989   197.1719     8.0457     7.9398     0.0965
  210.5000     8.2007    -0.0008     2.4944   197.1831     7.9875     7.9387     0.0984
  211.0000     8.2006    -0.0005     2.4884   198.0942     8.0413     7.9934     0.1008
  211.5000     8.2004     0.0023     2.4808   199.6069     8.1522     8.0483     0.0998
  212.0000     8.2003     0.0053     2.4898   206.2332     8.3232     8.1600     0.0964
  212.5000     8.2001     0.0083     2.5004   204.4376     8.4381     8.2163     0.0904
  213.0000     8.2000    -0.0038     2.5170   207.1533     8.5545     8.2727     0.0843
  213.5000     8.2298    -0.0038     2.5184   210.4705     8.6116     8.4462     0.0816
  214.0000     8.2447    -0.0038     2.5018   210.1764     8.6695     8.5637     0.0843
  214.5000     8.2445     0.0023     2.4988   203.5711     8.7891     8.6829     0.0895
  215.0000     8.2594     0.0083     2.5003   199.3687     8.8503     8.7425     0.0904
  215.5000     8.2592     0.0053     2.5003   195.7686     8.9759     8.7413     0.0898
  216.0000     8.2591     0.0053     2.4942   188.8603     9.0307     8.7401     0.0904
  216.5000     8.2439    -0.0008     2.4927   182.5534     9.0916     8.7389     0.0928
  217.0000     8.2438    -0.0038     2.4942   178.0432     9.0884     8.8083     0.0940
  217.5000     8.2436    -0.0068     2.4942   177.1377     9.0859     8.8592     0.0949
  218.0000     8.2285    -0.0098     2.4942   177.1669     9.0834     8.8577     0.0958
  218.5000     8.2256    -0.0098     2.4942   177.1759     9.0177     8.8565     0.0964
  219.0000     8.1982    -0.0068     2.4941   176.1705     8.9524     8.8553     0.0967
  219.5000     8.1980    -0.0038     2.4941   172.0829     8.8257     8.8541     0.0961
  220.0000     8.1979    -0.0038     2.4941   164.5731     8.7619     8.8529     0.0949
  220.5000     8.1977     0.0053     2.4956   160.9730     8.7594     8.8516     0.0936
  221.0000     8.1976     0.0083     2.4956   159.7767     8.7570     8.7278     0.0931
  221.5000     8.1974     0.0113     2.4971   164.5999     8.7546     8.7266     0.0949
  222.0000     8.1973     0.0113     2.4986   166.7141     8.7522     8.6045     0.0976
  222.5000     8.1971     0.0083     2.5001   164.6177     8.7498     8.6033     0.0994
  223.0000     8.2120    -0.0008     2.5001   163.4214     8.8087     8.6021     0.0970
  223.5000     8.2269    -0.0038     2.5000   164.9364     8.8063     8.5411     0.0949
  224.0000     8.2267    -0.0068     2.5000   166.4491     8.8039     8.5997     0.0933
  224.5000     8.2416    -0.0128     2.5015   167.0595     8.8013     8.5986     0.0930
  225.0000     8.2414    -0.0128     2.5030   168.2714     8.8092     8.6576     0.0915
  225.5000     8.2412    -0.0128     2.5060   169.4834     8.9823     8.7170     0.0882
  226.0000     8.2411    -0.0128     2.5105   170.9961     9.0435     8.8999     0.0846
  226.5000     8.2409    -0.0098     2.5196   172.2080     9.2319     9.0869     0.0809
  227.0000     8.2408    -0.0098     2.5271   174.3222     9.4248     9.2778     0.0770
