~VERSION INFORMATION
 VERS.                2.0:   CWLS LOG ASCII STANDARD - VERSION 2.0
 WRAP.                 NO:   ONE LINE PER DEPTH STEP
~WELL INFORMATION
#MNEM.UNIT      DATA TYPE    INFORMATION
#----------   ------------   ------------------------------
 STRT.F           30.0000:   START DEPTH
 STOP.F          509.0000:   STOP DEPTH
 STEP.F            0.5000:   STEP LENGTH
 NULL.          -999.2500:   NO VALUE
 COMP. FENIX & SCISSON INC:   COMPANY
 WELL.   NPR 3 #45 SX 3-3:   WELL
 FLD .             TEAPOT:   FIELD
 LOC .       S3 T38N R78W:   LOCATION
 CNTY.            NATRONA:   COUNTY
 STAT.            WYOMING:   STATE
 CTRY. UNITED STATES OF AMERICA:   COUNTRY
 SRVC.            Unknown:   SERVICE COMPANY
 DATE.        05-OCT-1978:   LOGDATE
 API .       490251071700:   API NUMBER
~CURVE INFORMATION
#MNEM.UNIT       API CODE    CURVE DESCRIPTION
#----------   ------------   ------------------------------
 DEPT.F                  :   
 SPR .MV     05 010 01 00:   SPONTANEOUS POTENTIAL FROM RES.
 SN  .OHMM   05 040 16 00:   SHORT NORMAL 16"
 ILD .OHMM   05 120 46 00:   INDUCTION LOG DEEP
 GRD .GAPI   45 310 01 00:   GAMMA RAY FROM DENSITY LOG
 CALD.IN     45 280 60 00:   CALIPER
 RHOB.G/C3   45 350 01 00:   BULK DENSITY
 DPHI.DEC    45 890 12 00:   DENSITY POROSITY SANDSTONE
 CORR.G/C3   45 356 01 00:   DENSITY CORRECTION
~PARAMETER INFORMATION
#MNEM.UNIT          VALUE    DESCRIPTION
#----------   ------------   ------------------------------
 PD  .                 GL:   PERMANENT DATUM
 EPD .F              5188:   ELEVATION PERMANENT DATUM
 LMF .                 KB:   LOG MEASURED FROM
 DAPD.F                 4:   FEET ABOVE PERMANENT DATUM
 DMF .                 KB:   DRILLING MEASURED FROM
 EKB .F              5192:   KELLING BUSHING
 EGL .F              5188:   GROUND LEVEL
 DATE.            10-5-78:   RUN DATE
 RUN .                  1:   RUN NUMBER
 DD  .F               510:   DEPTH DRILLER
 DL  .F               509:   DEPTH LOGGER
 BLI .F               503:   BOTTOM LOG INTERVAL
 TLI .F                48:   TOP LOG INTERVAL
 CS  .IN            8.625:   CASING SIZE
 CBL .F                46:   CASING BOTTOM LOGGER
 BS  .IN            7.875:   BIT SIZE
 BSD .F               510:   BIT SIZE AT DEPTH
 DFT .                KCL:   DRILLING FLUID TYPE
 DFD .                8.7:   DRILLING FLUID DENSITY
 DFV .                 37:   DRILLING FLUID VISCOSITY
 DFPH.                  9:   DRILLING FLUID PH
 DFL .               10.4:   DRILLING FLUID LOSS
 MSS .            MUD PIT:   MUD SAMPLE SOURCE
 RMS .OHMM            .28:   RESISTIVITY MUD SAMPLE
 MST .F                58:   MUD SAMPLE TEMPERATURE
 RMF .OHMM            .32:   RESISTIVITY MUD FILTRATE SAMPLE
 MFST.F                54:   MUD FILTRATE SAMPLE TEMPERATURE
 RMC .OHMM            .24:   RESISTIVITY MUD CAKE
 MCST.F                56:   MUD CAKE SAMPLE TEMPERATURE
 MFSS.               MEAS:   MUD FILTRATE SAMPLE SOURCE
 MCSS.               MEAS:   MUD CAKE SAMPLE SOURCE
 BHT .F                64:   BOTTOM HOLE TEMPERATURE
 TCS .HRS               2:   TIME CURCULATED STOPPED
 MRT .F                64:   MAXIMUM RECORDED TEMPERATURE
 LUN .               2958:   LOGGING UNIT NUMBER
 LUL .               CASP:   LOGGING UNIT LOCATION
 ENGI.             MILLER:   RECORDING ENGINEER
 WITN.           DINSMORE:   WITNESSED BY
 CLNT.            A2DTECH:   CLIENT CODE
 ORIG.       2", 5" PRINT:   ORIGIN OF DATA
 UWI .       490251071700:   UNIQUE WELL ID
 DICO. A2D Technologies, Inc.:   DIGITIZING COMPANY
~OTHER INFORMATION
~A   DEPT      SPR         SN        ILD         GRD      CALD       RHOB       DPHI       CORR   
   30.0000  -999.2500  -999.2500  -999.2500    72.3705  -999.2500  -999.2500  -999.2500  -999.2500
   30.5000  -999.2500  -999.2500  -999.2500    72.4046  -999.2500  -999.2500  -999.2500  -999.2500
   31.0000  -999.2500  -999.2500  -999.2500    72.5077  -999.2500  -999.2500  -999.2500  -999.2500
   31.5000  -999.2500  -999.2500  -999.2500    72.3800  -999.2500  -999.2500  -999.2500  -999.2500
   32.0000  -999.2500  -999.2500  -999.2500    71.1319  -999.2500  -999.2500  -999.2500  -999.2500
   32.5000  -999.2500  -999.2500  -999.2500    75.7274  -999.2500  -999.2500  -999.2500  -999.2500
   33.0000  -999.2500  -999.2500  -999.2500    76.7621  -999.2500  -999.2500  -999.2500  -999.2500
   33.5000  -999.2500  -999.2500  -999.2500    76.9929  -999.2500  -999.2500  -999.2500  -999.2500
   34.0000  -999.2500  -999.2500  -999.2500    77.2122  -999.2500  -999.2500  -999.2500  -999.2500
   34.5000  -999.2500  -999.2500  -999.2500    77.2937  -999.2500  -999.2500  -999.2500  -999.2500
   35.0000  -999.2500  -999.2500  -999.2500    77.1440  -999.2500  -999.2500  -999.2500  -999.2500
   35.5000  -999.2500  -999.2500  -999.2500    76.9973  -999.2500  -999.2500  -999.2500  -999.2500
   36.0000  -999.2500  -999.2500  -999.2500    76.8485  -999.2500  -999.2500  -999.2500  -999.2500
   36.5000  -999.2500  -999.2500  -999.2500    76.6925  -999.2500  -999.2500  -999.2500  -999.2500
   37.0000  -999.2500  -999.2500  -999.2500    76.5370  -999.2500  -999.2500  -999.2500  -999.2500
   37.5000  -999.2500  -999.2500  -999.2500    77.8571  -999.2500  -999.2500  -999.2500  -999.2500
   38.0000  -999.2500  -999.2500  -999.2500    79.9356  -999.2500  -999.2500  -999.2500  -999.2500
   38.5000  -999.2500  -999.2500  -999.2500    80.5409  -999.2500  -999.2500  -999.2500  -999.2500
   39.0000  -999.2500  -999.2500  -999.2500    80.5436  -999.2500  -999.2500  -999.2500  -999.2500
   39.5000  -999.2500  -999.2500  -999.2500    80.5388  -999.2500  -999.2500  -999.2500  -999.2500
   40.0000  -999.2500  -999.2500  -999.2500    80.4965  -999.2500  -999.2500  -999.2500  -999.2500
   40.5000  -999.2500  -999.2500  -999.2500    80.2544  -999.2500  -999.2500  -999.2500  -999.2500
   41.0000  -999.2500  -999.2500  -999.2500    80.0161  -999.2500  -999.2500  -999.2500  -999.2500
   41.5000  -999.2500  -999.2500  -999.2500    79.7775  -999.2500  -999.2500  -999.2500  -999.2500
   42.0000  -999.2500  -999.2500  -999.2500    79.5384  -999.2500  -999.2500  -999.2500  -999.2500
   42.5000  -999.2500  -999.2500  -999.2500    79.3299  -999.2500  -999.2500  -999.2500  -999.2500
   43.0000  -999.2500  -999.2500  -999.2500    79.3772  -999.2500  -999.2500  -999.2500  -999.2500
   43.5000  -999.2500  -999.2500  -999.2500    80.5046  -999.2500  -999.2500  -999.2500  -999.2500
   44.0000  -999.2500  -999.2500  -999.2500    81.2093  -999.2500  -999.2500  -999.2500     0.0702
   44.5000  -999.2500  -999.2500  -999.2500    81.3580  -999.2500  -999.2500  -999.2500     0.2006
   45.0000  -999.2500  -999.2500  -999.2500    81.5404  -999.2500     2.0055  -999.2500     0.3115
   45.5000  -999.2500  -999.2500  -999.2500    82.8775  -999.2500     2.0808  -999.2500     0.3226
   46.0000   -59.8214  -999.2500  -999.2500    90.8091     7.4150     2.1753     0.2935     0.2973
   46.5000   -59.8846  -999.2500  -999.2500    98.9519     7.4021     2.2159     0.2820     0.2424
   47.0000   -60.5159  -999.2500  -999.2500   103.3475     7.4897     2.2176     0.2778     0.0835
   47.5000   -61.0287  -999.2500  -999.2500   103.7595     7.5707     2.2115     0.2883    -0.0022
   48.0000   -61.2091     5.5481     5.7559   103.6181     7.6157     2.2236     0.2982     0.0150
   48.5000   -61.2213     6.6556     6.3158   103.4782     7.5424     2.2927     0.2178     0.0237
   49.0000   -60.7484     8.1472     7.1175   102.5873     7.5016     2.3341     0.2144     0.0241
   49.5000   -60.0777     8.5596     7.4758    98.8207     7.5064     2.3370     0.2108     0.0223
   50.0000   -59.0472     8.9488     7.6127    98.1718     7.5108     2.3504     0.2082     0.0180
   50.5000   -57.0130     9.2796     7.7315    97.8495     7.5156     2.3967     0.1863     0.0106
   51.0000   -57.4840     9.4624     7.7561    97.5139     7.5193     2.4161     0.1643     0.0063
   51.5000   -58.2181     9.4394     7.7890    97.9385     7.5054     2.4346     0.1484     0.0027
   52.0000   -58.4898     9.3925     7.8025    98.4654     7.4662     2.4462     0.1417     0.0001
   52.5000   -58.7430     9.3540     7.3729    98.6947     7.4167     2.4471     0.1438    -0.0021
   53.0000   -59.8899     9.2461     7.3146    99.2875     7.3665     2.4390     0.1500    -0.0016
   53.5000   -61.3704     9.1397     7.2824   102.2012     7.3165     2.4257     0.1595    -0.0004
   54.0000   -63.2119     9.0307     7.2504   103.8483     7.2842     2.4133     0.1649     0.0008
   54.5000   -65.8499     8.7136     7.1630   104.0786     7.3142     2.4159     0.1651     0.0020
   55.0000   -66.6646     8.3966     7.0601   104.2469     7.4103     2.4248     0.1598     0.0032
   55.5000   -67.1773     8.0875     6.9176   104.2428     7.5061     2.4344     0.1525     0.0044
   56.0000   -67.4046     8.1702     6.9890   104.2413     7.5761     2.4439     0.1452     0.0054
   56.5000   -68.1948     8.2376     7.1115   104.2306     7.5102     2.4509     0.1408     0.0022
   57.0000   -68.9776     7.8275     7.2361   104.3012     7.4631     2.4357     0.1509    -0.0011
   57.5000   -69.5731     7.5021     7.3124   106.3204     7.4723     2.4275     0.1571    -0.0025
   58.0000   -70.0212     7.4366     7.3188   107.5486     7.4809     2.4303     0.1524    -0.0013
   58.5000   -70.4660     7.4258     7.3252   107.7942     7.4897     2.4402     0.1447     0.0043
   59.0000   -70.9144     7.4151     7.3316   108.0427     7.4989     2.4612     0.1372     0.0215
   59.5000   -71.0489     7.4043     7.3380   108.3043     7.4860     2.4723     0.1380     0.0394
   60.0000   -71.1677     7.3936     7.3445   108.6033     7.4686     2.4516     0.1408     0.0587
   60.5000   -71.2885     7.3829     7.3509   107.8148     7.4508     2.4469     0.1435     0.1057
   61.0000   -71.4097     7.3773     7.3573   104.6343     7.4104     2.4427     0.1461     0.1782
   61.5000   -71.5309     7.5337     7.3638   101.5191     7.3305     2.4494     0.1470     0.2590
   62.0000   -71.6522     7.6419     7.3702    99.7216     7.2510     2.4699     0.1296     0.3275
   62.5000   -71.7737     7.6536     7.3773    98.6438     7.1715     2.5201     0.1068     0.3464
   63.0000   -71.9008     7.6536     7.4806    98.6651     7.0913     2.5508     0.0848     0.3072
   63.5000   -71.8188     7.6536     7.5142    98.9577     7.0624     2.5295     0.1006     0.2061
   64.0000   -71.7254     7.6536     7.5179   100.4263     7.0865     2.4717     0.1226     0.0732
   64.5000   -71.7265     7.6536     7.5252   102.2943     7.1660     2.4167     0.1655     0.0348
   65.0000   -71.7261     7.6536     7.5325   103.0973     7.3024     2.4115     0.1585     0.0102
   65.5000   -71.7262     7.6536     7.5397   103.1785     7.4019     2.4313     0.1495     0.0054
   66.0000   -71.7261     7.6536     7.5470   103.2464     7.4509     2.4473     0.1390     0.0055
   66.5000   -71.7265     7.6536     7.5543   103.6104     7.5002     2.4635     0.1323     0.0079
   67.0000   -71.7402     7.6535     7.5616   104.0110     7.5409     2.4661     0.1322     0.0118
   67.5000   -71.7549     7.6541     7.5689   104.2447     7.5369     2.4650     0.1320     0.0158
   68.0000   -71.7695     7.6518     7.5762   104.2429     7.5214     2.4627     0.1332     0.0197
   68.5000   -71.7842     7.7417     7.5839   104.2432     7.5067     2.4603     0.1346     0.0288
   69.0000   -71.7988     7.8319     7.6918   104.2406     7.4480     2.4623     0.1352     0.0412
   69.5000   -71.8134     7.9231     7.8043   104.3367     7.3577     2.4716     0.1314     0.0577
   70.0000   -71.8280     8.0134     7.8676   104.4450     7.2638     2.4810     0.1196     0.0633
