~VERSION INFORMATION
 VERS.                2.0:   CWLS LOG ASCII STANDARD - VERSION 2.0
 WRAP.                 NO:   ONE LINE PER DEPTH STEP
~WELL INFORMATION
#MNEM.UNIT      DATA TYPE    INFORMATION
#----------   ------------   ------------------------------
 STRT.F            6.0000:   START DEPTH
 STOP.F          765.0000:   STOP DEPTH
 STEP.F            0.5000:   STEP LENGTH
 NULL.          -999.2500:   NO VALUE
 COMP. FENIX & SCISSON INC:   COMPANY
 WELL.      24 SX 2 #24-2:   WELL
 FLD .        TEAPOT DOME:   FIELD
 LOC .       S2 T38N R78W:   LOCATION
 CNTY.            NATRONA:   COUNTY
 STAT.            WYOMING:   STATE
 CTRY. UNITED STATES OF AMERICA:   COUNTRY
 SRVC.           BIRDWELL:   SERVICE COMPANY
 DATE.        20-JAN-1978:   LOGDATE
 API .       490251055700:   API NUMBER
~CURVE INFORMATION
#MNEM.UNIT       API CODE    CURVE DESCRIPTION
#----------   ------------   ------------------------------
 DEPT.F                  :   
 SPR .MV     05 010 01 00:   SPONTANEOUS POTENTIAL FROM RES.
 SN  .OHMM   05 040 16 00:   SHORT NORMAL 16"
 ILD .OHMM   05 120 46 00:   INDUCTION LOG DEEP
 CALD.IN     45 280 60 00:   CALIPER FROM DENSITY LOG
 CORR.G/C3   45 356 01 00:   DENSITY CORRECTION
 DEN .G/C3   45 350 01 00:   COMPENSATED BULK DENSTIY
 DPHI.DEC    45 890 12 00:   DENSITY POROSITY SANDSTONE
 GRD .GAPI   45 310 01 00:   GAMMA RAY FROM DENSITY LOG
~PARAMETER INFORMATION
#MNEM.UNIT          VALUE    DESCRIPTION
#----------   ------------   ------------------------------
 PD  .                 GL:   PERMANENT DATUM
 EPD .F              5131:   ELEVATION PERMANENT DATUM
 LMF .                 KB:   LOG MEASURED FROM
 DMF .                 KB:   DRILLING MEASURED FROM
 EKB .F              5134:   KELLING BUSHING
 EGL .F              5131:   GROUND LEVEL
 DATE.        20-JAN-1978:   RUN DATE
 RUN .                  1:   RUN NUMBER
 DD  .F               775:   DEPTH DRILLER
 DL  .F               770:   DEPTH LOGGER
 BLI .F               770:   BOTTOM LOG INTERVAL
 TLI .F                40:   TOP LOG INTERVAL
 CS  .IN            8.625:   CASING SIZE
 CBD .F                39:   CASING BOTTOM DRILLER
 CBL .F                39:   CASING BOTTOM LOGGER
 BS  .IN            7.875:   BIT SIZE
 BSD .F               775:   BIT SIZE AT DEPTH
 DFT .                KCL:   DRILLING FLUID TYPE
 DFD .                8.6:   DRILLING FLUID DENSITY
 DFV .                 33:   DRILLING FLUID VISCOSITY
 DFPH.                9.5:   DRILLING FLUID PH
 DFL .                  8:   DRILLING FLUID LOSS
 MSS .           FLOWLINE:   MUD SAMPLE SOURCE
 RMS .OHMM            .31:   RESISTIVITY MUD SAMPLE
 MST .F                54:   MUD SAMPLE TEMPERATURE
 RMF .OHMM            .28:   RESISTIVITY MUD FILTRATE SAMPLE
 MFST.F                64:   MUD FILTRATE SAMPLE TEMPERATURE
 RMC .OHMM             .8:   RESISTIVITY MUD CAKE
 MCST.F                64:   MUD CAKE SAMPLE TEMPERATURE
 MFSS.               MEAS:   MUD FILTRATE SAMPLE SOURCE
 MCSS.               MEAS:   MUD CAKE SAMPLE SOURCE
 RMB .OHMM            .22:   RESISTIVITY MUD AT BHT
 BHT .F                76:   BOTTOM HOLE TEMPERATURE
 TCS .HRS            0400:   TIME CURCULATED STOPPED
 MRT .F                76:   MAXIMUM RECORDED TEMPERATURE
 LUN .               2958:   LOGGING UNIT NUMBER
 LUL .             CASPER:   LOGGING UNIT LOCATION
 ENGI.            POINTER:   RECORDING ENGINEER
 WITN.           MCGINLEY:   WITNESSED BY
 CLNT.            A2DTECH:   CLIENT CODE
 ORIG.           5" PRINT:   ORIGIN OF DATA
 UWI .       490251055700:   UNIQUE WELL ID
 DICO. A2D Technologies, Inc.:   DIGITIZING COMPANY
~OTHER INFORMATION
~A    DEPT     SPR         SN        ILD       CALD       CORR        DEN       DPHI         GRD  
# ...
  654.0000   -35.4641    13.9738    16.8107     7.8234     0.0869     2.3014     0.2282    44.1847
  654.5000   -34.2683    14.7884    18.1337     7.8230     0.0981     2.2720     0.2364    34.0167
  655.0000   -33.8253    15.8935    19.5607     7.7924     0.1033     2.2599     0.2319    24.4883
  655.5000   -33.5331    16.6779    20.8096     7.7619     0.1055     2.2598     0.2280    17.7141
  656.0000   -33.2410    17.2596    23.0782     7.7615     0.1077     2.2824     0.2208    12.3736
  656.5000   -32.9468    17.8617    23.5522     7.7610     0.1084     2.3072     0.1939    11.6278
  657.0000   -32.8071    18.3570    23.7045     7.7606     0.1106     2.3170     0.1836    14.0285
  657.5000   -32.8163    18.3494    23.2053     7.7601     0.0985     2.3283     0.1738    26.0677
  658.0000   -32.8251    18.3418    22.4042     7.7597     0.0827     2.3406     0.1792    32.9865
  658.5000   -32.3645    18.3342    21.7811     7.7592     0.0819     2.3582     0.1923    30.8691
  659.0000   -32.0900    18.3266    21.3148     7.7588     0.0826     2.3295     0.2089    28.4506
  659.5000   -31.9484    18.1923    21.1515     7.7583     0.0826     2.2912     0.2203    26.0320
  660.0000   -31.9596    17.8100    21.0087     7.7579     0.0803     2.3106     0.2101    21.5050
  660.5000   -31.9669    17.6795    20.9985     7.7574     0.0772     2.3256     0.1993    23.9057
  661.0000   -31.9776    17.5499    20.9864     7.7570     0.0787     2.3218     0.2008    33.2341
  661.5000   -32.1372    17.5427    20.9763     7.7565     0.0831     2.3044     0.2150    39.2492
  662.0000   -32.1461    17.4141    21.1145     7.7411     0.0921     2.2871     0.2214    40.1462
  662.5000   -32.1551    17.4069    21.1019     7.7093     0.0980     2.2810     0.2262    32.6049
  663.0000   -32.1641    17.2793    20.8014     7.6800     0.1002     2.2832     0.2202    28.6803
  663.5000   -32.3237    17.0341    20.5052     7.6473     0.1009     2.2855     0.2205    28.0689
  664.0000   -32.3326    16.7923    20.2133     7.6340     0.1113     2.2832     0.2250    28.9636
  664.5000   -32.3416    16.5539    19.9255     7.6635     0.1180     2.2846     0.2082    31.9667
  665.0000   -32.3506    16.5471    19.5061     7.6781     0.1180     2.3011     0.2067    31.6566
  665.5000   -32.3596    16.4258    19.2284     7.6927     0.1179     2.3101     0.2055    28.3343
  666.0000   -32.3685    16.4190    18.9546     7.7074     0.1201     2.3086     0.2110    27.6908
  666.5000   -32.3775    16.4122    18.6847     7.7220     0.1246     2.3070     0.2128    25.8483
  667.0000   -32.3865    16.4054    18.2914     7.7214     0.1230     2.3040     0.2020    22.1568
  667.5000   -32.3955    16.3986    18.2827     7.7210     0.1215     2.3182     0.1960    23.8659
  668.0000   -32.2516    16.2784    18.4032     7.7357     0.1214     2.3280     0.1924    30.6971
  668.5000   -32.2628    16.1591    18.3921     7.7351     0.1214     2.3294     0.1888    30.6881
  669.0000   -32.1190    16.1525    18.3833     7.7347     0.1213     2.3324     0.1864    30.3780
  669.5000   -32.1302    16.1458    18.2476     7.7342     0.1213     2.3459     0.1875    29.4654
  670.0000   -31.9863    16.1391    17.3751     7.7338     0.1197     2.3533     0.1792    28.2517
  670.5000   -31.9975    16.0208    17.2468     7.7485     0.1107     2.3608     0.1747    31.8572
  671.0000   -32.0065    15.7934    17.2386     7.7479     0.0994     2.3638     0.1802    34.8603
  671.5000   -32.1661    15.4615    17.3564     7.7475     0.0881     2.3547     0.1796    35.4560
  672.0000   -32.4763    15.2421    17.4624     7.7470     0.0985     2.3502     0.1962    35.1459
  672.5000   -32.7864    14.9218    17.3172     7.7466     0.1030     2.3230     0.1947    37.8455
  673.0000   -32.9460    14.7100    16.7147     7.7762     0.0969     2.3380     0.1877    42.0535
  673.5000   -32.9550    14.6022    16.4948     7.8059     0.0916     2.3455     0.1848    43.8540
  674.0000   -32.9640    14.4952    16.4869     7.8204     0.0848     2.3507     0.1845    43.8428
  674.5000   -32.9729    14.4892    16.4790     7.8350     0.0840     2.3484     0.1874    42.3278
  675.0000   -32.9819    14.4832    16.4711     7.8346     0.0847     2.3363     0.1903    40.8129
  675.5000   -32.9950    14.2776    16.4631     7.8341     0.0847     2.3295     0.1927    38.9967
  676.0000   -33.1506    14.1691    16.3416     7.8487     0.0846     2.3325     0.1955    37.4818
  676.5000   -33.3102    14.0690    16.1089     7.8483     0.0875     2.3355     0.1937    41.0873
  677.0000   -33.3193    13.9659    15.8795     7.8478     0.0905     2.3371     0.1898    47.4114
  677.5000   -33.3283    13.8539    15.7623     7.8474     0.0934     2.3424     0.1847    51.1303
  678.0000   -33.3373    13.7504    15.5379     7.8319     0.0896     2.3501     0.1817    57.6267
  678.5000   -33.3464    13.6610    15.3166     7.8314     0.0836     2.3755     0.1676    48.3761
  679.0000   -33.5078    13.4522    14.8907     7.8310     0.0798     2.3834     0.1652    45.8619
  679.5000   -33.8180    13.2759    14.0808     7.8305     0.0782     2.3811     0.1634    48.5615
  680.0000   -33.9776    12.9959    13.5009     7.8301     0.0864     2.3750     0.1688    56.6851
  680.5000   -33.9865    12.8114    13.1254     7.8296     0.0961     2.3689     0.1728    59.3892
  681.0000   -33.9955    12.7175    12.9385     7.8292     0.0968     2.3734     0.1653    54.5588
  681.5000   -34.0045    12.6243    12.7543     7.8286     0.0938     2.3892     0.1566    51.8390
  682.0000   -34.0135    12.5318    12.5727     7.8432     0.0877     2.3959     0.1545    49.7216
  682.5000   -34.0224    12.4400    12.3081     7.8428     0.0862     2.4026     0.1545    47.3031
  683.0000   -34.0314    12.3488    12.1329     7.8423     0.0861     2.4018     0.1548    43.6797
  683.5000   -34.0404    12.1735    11.9601     7.8419     0.0808     2.4018     0.1539    44.2731
  684.0000   -34.0494    12.0843    11.8674     7.8414     0.0778     2.4040     0.1521    44.8688
  684.5000   -34.0583    11.9128    11.6951     7.8410     0.0732     2.4047     0.1525    43.6528
  685.0000   -34.2179    11.8255    11.5359     7.8405     0.0687     2.4039     0.1579    35.8126
  685.5000   -34.5281    11.7388    11.3716     7.8401     0.0799     2.3753     0.1838    26.7675
  686.0000   -34.9889    11.6528    11.2086     7.8396     0.0925     2.3527     0.1814    25.5560
  686.5000   -36.3533    11.4874    11.1259     7.8392     0.1022     2.3579     0.1772    30.9665
  687.0000   -36.6635    11.4032    11.0437     7.8387     0.1044     2.3593     0.1767    37.5841
  687.5000   -36.8230    11.3197    10.9622     7.8383     0.1051     2.3653     0.1676    47.2137
  688.0000   -36.6814    11.1590    10.8812     7.8228     0.1006     2.3803     0.1589    51.7228
  688.5000   -36.6904    11.1544    10.8009     7.8224     0.0975     2.3938     0.1580    50.8067
  689.0000   -36.6994    11.0726    10.7212     7.8219     0.0967     2.3923     0.1608    47.7609
  689.5000   -36.5555    11.0680    10.6420     7.8215     0.0967     2.3892     0.1608    45.3164
  690.0000   -36.5667    10.9869    10.6369     7.8361     0.0959     2.3892     0.1618    42.3092
  690.5000   -36.4247    10.9824    10.6318     7.8206     0.0951     2.3891     0.1624    41.1355
  691.0000   -36.4341    10.9019    10.6267     7.8352     0.0935     2.3891     0.1624    41.1248
  691.5000   -36.4430    10.8974    10.6967     7.8347     0.0920     2.3890     0.1617    42.0194
  692.0000   -36.4520    10.8929    10.6903     7.8343     0.0912     2.3890     0.1597    43.5165
  692.5000   -36.4610    10.9642    10.7595     7.8338     0.0896     2.3889     0.1600    45.3148
  693.0000   -36.4700    10.9596    10.7543     7.8484     0.0896     2.3889     0.1601    48.3179
  693.5000   -36.4789    10.9551    10.8241     7.8480     0.0895     2.3888     0.1610    51.9234
  694.0000   -36.4900    11.1036    10.8187     7.8475     0.0895     2.3888     0.1622    54.3241
