~VERSION INFORMATION
 VERS.                2.0:   CWLS LOG ASCII STANDARD - VERSION 2.0
 WRAP.                 NO:   ONE LINE PER DEPTH STEP
~WELL INFORMATION
#MNEM.UNIT      DATA TYPE    INFORMATION
#----------   ------------   ------------------------------
 STRT.F          436.0000:   START DEPTH
 STOP.F         2160.0000:   STOP DEPTH
 STEP.F            0.5000:   STEP LENGTH
 NULL.          -999.2500:   NO VALUE
 COMP.   FLUOR DANIEL INC:   COMPANY
 WELL. NAVAL PETROLEUM RESERVE 3 X-29 #31-29:   WELL
 FLD .            WILDCAT:   FIELD
 LOC .      S29 T39N R78W:   LOCATION
 CNTY.            NATRONA:   COUNTY
 STAT.            WYOMING:   STATE
 CTRY. UNITED STATES OF AMERICA:   COUNTRY
 SRVC.            Unknown:   SERVICE COMPANY
 DATE.        25-JUN-1995:   LOGDATE
 API .       490252272300:   API NUMBER
~CURVE INFORMATION
#MNEM.UNIT       API CODE    CURVE DESCRIPTION
#----------   ------------   ------------------------------
 DEPT.F                  :   
 ROP .FT/HR  91 810 01 00:   RAT OF DRILLING PENETRATION
 TGAS.TC/CC  91 830 01 00:   TOTAL GAS UNIT
~PARAMETER INFORMATION
#MNEM.UNIT          VALUE    DESCRIPTION
#----------   ------------   ------------------------------
 EPD .F              5058:   ELEVATION PERMANENT DATUM
 EKB .F              5068:   KELLING BUSHING
 EGL .F              5058:   GROUND LEVEL
 DATE.        25-JUN-1995:   RUN DATE
 RUN .                  1:   RUN NUMBER
 ENGI.     C.TOWER/R.HUSK:   RECORDING ENGINEER
 CLNT.            A2DTECH:   CLIENT CODE
 ORIG.           5" PRINT:   ORIGIN OF DATA
 UWI .       490252272300:   UNIQUE WELL ID
 DICO. A2D Technologies, Inc.:   DIGITIZING COMPANY
~OTHER INFORMATION
~A   DEPT        ROP     TGAS   
# ...
  557.5000     0.5343     0.8684
  558.0000     0.5342     0.8758
  558.5000     0.5341     0.8830
  559.0000     0.5340     0.8906
  559.5000     0.5339     1.0954
  560.0000     0.5714     1.2845
  560.5000     0.7499     1.2906
  561.0000     0.7404     1.2981
  561.5000     0.7403     1.3057
  562.0000     0.6801     1.3140
  562.5000     0.5334     1.1327
  563.0000     0.5333     1.0679
  563.5000     0.5332     0.9585
  564.0000     0.5331     0.9661
  564.5000     0.5330     1.1623
  565.0000     0.5329     1.2411
  565.5000     0.5328     1.3660
  566.0000     0.5327     1.3748
  566.5000     0.5232     1.3811
  567.0000     0.5231     1.3887
  567.5000     0.5324     1.3962
  568.0000     0.5323     1.4038
  568.5000     0.5322     1.4123
  569.0000     0.5321     1.4900
  569.5000     0.5320     1.6158
  570.0000     0.5319     1.6226
  570.5000     0.5319     1.6302
  571.0000     0.5318     1.6391
  571.5000     0.5317     1.4566
  572.0000     0.5316     1.4652
  572.5000     0.5315     1.4726
  573.0000     0.5220     1.4799
  573.5000     0.5313     1.4868
  574.0000     0.6816     1.4943
  574.5000     0.6721     1.5021
  575.0000     0.6626     1.5094
  575.5000     0.6625     1.5170
  576.0000     0.6718     1.5245
  576.5000     0.6623     1.5334
  577.0000     0.6434     1.5408
  577.5000     0.6527     1.5472
  578.0000     0.6808     1.3668
  578.5000     0.7968     1.1855
  579.0000     0.8028     1.1929
  579.5000     0.7933     1.2003
  580.0000     0.7932     1.2077
  580.5000     0.7931     1.2151
  581.0000     0.7930     1.2226
  581.5000     0.7929     1.2316
  582.0000     0.7929     1.2390
  582.5000     0.7928     1.2464
  583.0000     0.7927     1.2538
  583.5000     0.7926     1.4498
  584.0000     0.7831     1.6459
  584.5000     0.7736     1.6532
  585.0000     0.7735     1.4717
  585.5000     0.7828     1.3396
  586.0000     0.7921     1.2981
  586.5000     1.0270     1.3057
  587.0000     1.0269     1.3146
  587.5000     1.0260     1.5107
  588.0000     1.0268     1.7067
  588.5000     1.3180     1.7141
  589.0000     1.3084     1.7215
  589.5000     1.3178     1.7288
  590.0000     1.3177     1.7362
  590.5000     1.0168     1.4570
  591.0000     1.0261     1.7510
  591.5000     1.0166     1.9623
  592.0000     0.9977     2.9636
  592.5000     0.7721     4.9825
  593.0000     0.7722     6.4993
  593.5000     0.7719     7.4501
  594.0000     0.7718     7.6461
  594.5000     0.7717     7.6535
  595.0000     0.7716     7.4722
  595.5000     0.7715     7.4796
  596.0000     0.7714     7.4869
  596.5000     0.7713     7.6830
  597.0000     0.7807     7.6906
  597.5000     0.7805     7.6996
  598.0000     0.7804     7.7070
  598.5000     0.7710     7.7143
  599.0000     0.7722     7.7217
  599.5000     0.7896     7.7291
  600.0000     0.8302     7.6923
  600.5000     1.0145     7.3525
  601.0000     1.0140     7.3469
  601.5000     1.0136     7.3414
  602.0000     1.0131     7.5245
  602.5000     1.0127     7.5189
  603.0000     1.0122     7.5121
  603.5000     1.0117     7.3179
  604.0000     1.0113     7.5024
  604.5000     1.0107     7.1181
  605.0000     1.0009     6.5465
  605.5000     1.0004     6.1636
  606.0000     0.9999     5.7807
  606.5000     0.9995     5.7752
  607.0000     0.9990     5.7696
  607.5000     0.9986     5.7641
  608.0000     0.9981     5.7585
  608.5000     1.2796     5.5642
  609.0000     1.2791     5.1801
  609.5000     1.2787     4.7972
  610.0000     1.1653     4.4143
  610.5000     0.9863     4.2200
  611.0000     0.9954     4.2145
  611.5000     0.9948     3.8316
  612.0000     0.9943     3.6374
  612.5000     0.9939     3.4432
  613.0000     0.9746     3.4376
  613.5000     0.9741     3.4321
  614.0000     0.9737     3.4264
  614.5000     0.9732     2.8207
  615.0000     0.9727     2.2820
  615.5000     0.9817     2.2765
  616.0000     0.9907     2.2709
  616.5000     0.9901     2.2654
  617.0000     0.9896     2.2598
  617.5000     0.9892     2.2543
  618.0000     0.9887     2.2488
  618.5000     0.9882     1.8659
  619.0000     0.9878     1.8603
  619.5000     0.9779     1.8547
  620.0000     0.7988     1.8491
  620.5000     0.7795     2.2197
  621.0000     0.7791     2.4028
  621.5000     0.7786     2.5873
  622.0000     0.7781     2.5804
  622.5000     0.7777     2.5749
  623.0000     0.7960     2.5693
  623.5000     0.7956     2.5638
  624.0000     0.5414     2.3696
  624.5000     0.5409     2.1754
  625.0000     0.5404     1.7925
  625.5000     0.5399     1.7868
  626.0000     0.5394     1.7811
  626.5000     0.5389     1.7744
  627.0000     0.5385     1.7689
  627.5000     0.5380     1.7634
  628.0000     0.5376     1.7578
  628.5000     0.5277     1.7523
  629.0000     0.5272     1.7467
  629.5000     0.5080     1.7412
  630.0000     0.5169     1.7357
  630.5000     0.5164     1.7301
  631.0000     0.5159     2.1019
  631.5000     0.5154     1.9665
  632.0000     0.5245     1.8323
  632.5000     0.5239     1.7066
  633.0000     0.5424     1.7010
  633.5000     0.5418     2.0742
  634.0000     0.5508     2.4461
  634.5000     0.5409     2.4391
  635.0000     0.5404     2.4336
  635.5000     0.5305     2.2394
  636.0000     0.5206     2.0452
  636.5000     0.5201     1.6623
  637.0000     0.5103     1.6566
  637.5000     0.5098     1.4308
  638.0000     0.5189     1.4570
  638.5000     0.5277     1.4500
  639.0000     0.5367     1.4445
  639.5000     0.5362     1.2503
  640.0000     0.5357     1.2447
  640.5000     0.5447     1.2392
  641.0000     0.5347     1.2336
  641.5000     0.5342     1.2281
  642.0000     0.5338     1.2226
  642.5000     0.5333     1.2170
  643.0000     0.5329     1.2113
  643.5000     0.5700     1.0159
  644.0000     0.6541     0.8217
  644.5000     0.6631     0.4388
  645.0000     0.6438     0.0559
  645.5000     0.6433     0.0503
  646.0000     0.6334     0.0453
  646.5000     0.6329     0.2279
  647.0000     0.6325     0.4124
  647.5000     0.6320     0.4055
  648.0000     0.6410     0.4000
  648.5000     0.6311     0.6843
  649.0000     0.6306     0.7811
  649.5000     0.6302     1.1381
  650.0000     0.6297     1.1276
  650.5000     0.6441     1.0677
  651.0000     0.6577     1.0077
  651.5000     0.6576     0.9374
  652.0000     0.6575     1.1247
  652.5000     0.6480     1.1224
  653.0000     0.6479     1.1206
  653.5000     0.6572     0.9300
  654.0000     0.6571     0.9282
  654.5000     0.6570     0.7377
  655.0000     0.6476     0.7358
  655.5000     0.6381     0.5453
  656.0000     0.5437     0.3245
  656.5000     0.5439     0.0000
  657.0000     0.5532     0.0000
  657.5000     0.5531     0.0000
  658.0000     0.5436     0.1587
  658.5000     0.5435     0.3453
  659.0000     0.5340     0.3433
  659.5000     0.5151     0.7189
  660.0000     0.5150     0.7170
  660.5000     0.5149     0.7151
  661.0000     0.5148     0.8469
  661.5000     0.5336     1.0887
  662.0000     0.5616     1.1170
  662.5000     0.5710     1.2738
  663.0000     0.5709     1.2715
  663.5000     0.5614     1.2696
  664.0000     0.5613     1.0791
  664.5000     0.5518     1.0773
  665.0000     0.5517     1.0754
  665.5000     0.5516     1.0736
  666.0000     0.5515     1.0717
  666.5000     0.5514     1.0694
  667.0000     0.5513     0.8789
  667.5000     0.5512     0.8774
  668.0000     0.5605     0.8752
  668.5000     0.5604     1.0623
  669.0000     0.5603     1.0602
  669.5000     0.5602     1.0584
  670.0000     0.5601     1.0566
  670.5000     0.5506     1.0547
  671.0000     0.5506     1.0528
  671.5000     0.5505     1.0509
  672.0000     0.5504     1.0487
  672.5000     0.5503     1.0472
  673.0000     0.5502     1.0453
  673.5000     0.5501     1.0434
  674.0000     0.5500     1.0413
  674.5000     0.5593     1.0395
  675.0000     0.5498     1.0377
  675.5000     0.5497     1.0358
  676.0000     0.5496     1.0340
  676.5000     0.5527     1.0321
  677.0000     0.5589     1.2188
  677.5000     0.5587     1.2167
  678.0000     0.5492     1.2148
  678.5000     0.5492     1.2130
