~VERSION INFORMATION
 VERS.                2.0:   CWLS LOG ASCII STANDARD - VERSION 2.0
 WRAP.                 NO:   ONE LINE PER DEPTH STEP
~WELL INFORMATION
#MNEM.UNIT      DATA TYPE    INFORMATION
#----------   ------------   ------------------------------
 STRT.F            4.0000:   START DEPTH
 STOP.F          468.5000:   STOP DEPTH
 STEP.F            0.1000:   STEP LENGTH
 NULL.          -999.2500:   NO VALUE
 COMP. BROWN JOHN E&C INC:   COMPANY
 WELL.  SX-10 #1-14-SX-10:   WELL
 FLD .        N.P.R. No.3:   FIELD
 LOC .      S10 T38N R78W:   LOCATION
 CNTY.            NATRONA:   COUNTY
 STAT.            WYOMING:   STATE
 CTRY. UNITED STATES OF AMERICA:   COUNTRY
 SRVC.     Atlas Wireline:   SERVICE COMPANY
 DATE.        21-SEP-1991:   LOGDATE
 API .       490251125800:   API NUMBER
~CURVE INFORMATION
#MNEM.UNIT       API CODE    CURVE DESCRIPTION
#----------   ------------   ------------------------------
 DEPT.F                  :   
 GRR .GAPI   07 310 01 00:   GAMMA RAY FROM RES. LOG.
 ILD .OHMM   07 120 46 00:   INDUCTION LOG DEEP
 RILM.OHMM   07 120 44 00:   INDUCTION LOG MEDIUM RESISTIVITY
~PARAMETER INFORMATION
#MNEM.UNIT          VALUE    DESCRIPTION
#----------   ------------   ------------------------------
 PD  .                 GL:   PERMANENT DATUM
 EPD .F              5183:   ELEVATION PERMANENT DATUM
 LMF .                 KB:   LOG MEASURED FROM
 DAPD.F                10:   FEET ABOVE PERMANENT DATUM
 DMF .                 KB:   DRILLING MEASURED FROM
 EKB .F              5193:   KELLING BUSHING
 EGL .F              5183:   GROUND LEVEL
 DATE.            9-21-91:   RUN DATE
 RUN .                  1:   RUN NUMBER
 DD  .F               480:   DEPTH DRILLER
 DL  .F               478:   DEPTH LOGGER
 BLI .F               470:   BOTTOM LOG INTERVAL
 CS  .IN                7:   CASING SIZE
 CBD .F                90:   CASING BOTTOM DRILLER
 CBL .F                90:   CASING BOTTOM LOGGER
 BS  .IN             6.25:   BIT SIZE
 BSD .F               480:   BIT SIZE AT DEPTH
 DFT .                AIR:   DRILLING FLUID TYPE
 TCS .HRS               1:   TIME CURCULATED STOPPED
 MRT .F                80:   MAXIMUM RECORDED TEMPERATURE
 LUN .            HL-6307:   LOGGING UNIT NUMBER
 LUL .             CASPER:   LOGGING UNIT LOCATION
 ENGI.             RAUTIO:   RECORDING ENGINEER
 WITN.             STRONG:   WITNESSED BY
 CLNT.            A2DTECH:   CLIENT CODE
 ORIG.        2" 5" PRINT:   ORIGIN OF DATA
 UWI .       490251125800:   UNIQUE WELL ID
 DICO. A2D Technologies, Inc.:   DIGITIZING COMPANY
~OTHER INFORMATION
~A    DEPT       GRR      ILD       RILM   
# ...
  222.4000   151.0276     6.5712     6.9824
  222.5000   151.0155     6.5007     6.9824
  222.6000   150.5941     6.4226     6.9172
  222.7000   150.1727     6.3444     6.8521
  222.8000   149.7513     6.2663     6.7870
  222.9000   149.3299     6.1882     6.7218
  223.0000   148.9085     6.1101     6.6567
  223.1000   148.4554     6.0367     6.5621
  223.2000   148.0023     5.9633     6.4675
  223.3000   147.5492     5.8899     6.3729
  223.4000   147.0961     5.8165     6.2784
  223.5000   146.6430     5.7431     6.1838
  223.6000   146.7528     5.6740     6.0967
  223.7000   146.8626     5.6050     6.0096
  223.8000   146.9724     5.5360     5.9225
  223.9000   147.0822     5.4670     5.8355
  224.0000   147.1920     5.3980     5.7484
  224.1000   148.0068     5.3265     5.6749
  224.2000   148.8216     5.2549     5.6013
  224.3000   149.6364     5.1833     5.5278
  224.4000   150.4512     5.1117     5.4542
  224.5000   151.2660     5.0402     5.3807
  224.6000   152.2734     5.0420     5.3508
  224.7000   153.2808     5.0438     5.3210
  224.8000   154.2882     5.0457     5.2911
  224.9000   155.2956     5.0475     5.2613
  225.0000   156.3030     5.0494     5.2315
  225.1000   157.5355     5.0514     5.2315
  225.2000   158.7679     5.0535     5.2315
  225.3000   160.0003     5.0556     5.2315
  225.4000   161.2328     5.0576     5.2315
  225.5000   162.4652     5.0597     5.2315
  225.6000   162.6217     5.0617     5.2461
  225.7000   162.7782     5.0638     5.2607
  225.8000   162.9347     5.0659     5.2753
  225.9000   163.0912     5.0680     5.2899
  226.0000   163.2477     5.0700     5.3045
  226.1000   161.4070     5.0721     5.3473
  226.2000   159.5663     5.0742     5.3900
  226.3000   157.7256     5.0762     5.4328
  226.4000   155.8849     5.0783     5.4756
  226.5000   154.0441     5.0804     5.5184
  226.6000   153.1314     5.1011     5.5628
  226.7000   152.2187     5.1218     5.6073
  226.8000   151.3060     5.1425     5.6518
  226.9000   150.3932     5.1633     5.6963
  227.0000   149.4805     5.1840     5.7408
  227.1000   149.1490     5.2449     5.7871
  227.2000   148.8175     5.3059     5.8334
  227.3000   148.4860     5.3669     5.8797
  227.4000   148.1545     5.4279     5.9260
  227.5000   147.8230     5.4888     5.9723
  227.6000   148.5450     5.5534     6.0290
  227.7000   149.2669     5.6179     6.0858
  227.8000   149.9889     5.6825     6.1425
  227.9000   150.7108     5.7470     6.1992
  228.0000   151.4328     5.8116     6.2560
  228.1000   151.3826     5.8799     6.3326
  228.2000   151.3325     5.9483     6.4092
  228.3000   151.2824     6.0166     6.4859
  228.4000   151.2322     6.0850     6.5625
  228.5000   151.1821     6.1533     6.6392
  228.6000   150.1516     6.2257     6.7205
  228.7000   149.1211     6.2981     6.8018
  228.8000   148.0906     6.3704     6.8832
  228.9000   147.0602     6.4428     6.9645
  229.0000   146.0297     6.5152     7.0459
  229.1000   145.3931     6.5605     7.1134
  229.2000   144.7565     6.6059     7.1810
  229.3000   144.1198     6.6513     7.2485
  229.4000   143.4832     6.6967     7.3161
  229.5000   142.8466     6.7421     7.3836
  229.6000   143.4124     6.7698     7.4397
  229.7000   143.9782     6.7975     7.4957
  229.8000   144.5439     6.8252     7.5518
  229.9000   145.1097     6.8529     7.6078
  230.0000   145.6754     6.8806     7.6639
  230.1000   146.6983     6.9089     7.7202
  230.2000   147.7212     6.9371     7.7766
  230.3000   148.7441     6.9654     7.8329
  230.4000   149.7670     6.9937     7.8893
  230.5000   150.7898     7.0220     7.9456
  230.6000   150.8263     7.0508     7.9978
  230.7000   150.8627     7.0797     8.0500
  230.8000   150.8991     7.1086     8.1021
  230.9000   150.9355     7.1375     8.1543
  231.0000   150.9720     7.1663     8.2065
  231.1000   150.4969     7.1958     8.2339
  231.2000   150.0218     7.2253     8.2613
  231.3000   149.5466     7.2548     8.2887
  231.4000   149.0715     7.2843     8.3162
  231.5000   148.5964     7.3138     8.3436
  231.6000   148.1254     7.3437     8.3715
  231.7000   147.6544     7.3737     8.3993
  231.8000   147.1833     7.4037     8.4272
  231.9000   146.7123     7.4336     8.4551
  232.0000   146.2413     7.4636     8.4830
  232.1000   145.7751     7.4784     8.5113
  232.2000   145.3090     7.4932     8.5396
  232.3000   144.8428     7.5079     8.5680
  232.4000   144.3766     7.5227     8.5963
  232.5000   143.9104     7.5375     8.6247
  232.6000   143.4442     7.5420     8.6358
  232.7000   142.9780     7.5466     8.6470
  232.8000   142.5119     7.5511     8.6582
  232.9000   142.0457     7.5557     8.6694
  233.0000   141.5795     7.5602     8.6806
  233.1000   141.3480     7.5652     8.6880
  233.2000   141.1166     7.5701     8.6954
  233.3000   140.8851     7.5751     8.7028
  233.4000   140.6537     7.5800     8.7103
  233.5000   140.4223     7.5850     8.7177
  233.6000   140.5556     7.6092     8.7251
  233.7000   140.6889     7.6335     8.7326
  233.8000   140.8222     7.6577     8.7401
  233.9000   140.9555     7.6820     8.7475
  234.0000   141.0889     7.7063     8.7550
  234.1000   141.1047     7.7431     8.7624
  234.2000   141.1205     7.7800     8.7699
  234.3000   141.1363     7.8168     8.7774
  234.4000   141.1521     7.8537     8.7849
  234.5000   141.1679     7.8906     8.7924
  234.6000   140.8477     7.9281     8.7999
  234.7000   140.5275     7.9656     8.8074
  234.8000   140.2073     8.0031     8.8150
  234.9000   139.8871     8.0406     8.8225
  235.0000   139.5669     8.0781     8.8300
  235.1000   139.6207     8.1165     8.8376
  235.2000   139.6746     8.1548     8.8451
  235.3000   139.7284     8.1932     8.8527
  235.4000   139.7822     8.2316     8.8602
  235.5000   139.8360     8.2700     8.8678
  235.6000   140.1417     8.2984     8.8733
  235.7000   140.4474     8.3267     8.8788
  235.8000   140.7530     8.3551     8.8843
  235.9000   141.0587     8.3835     8.8898
  236.0000   141.3643     8.4119     8.8953
  236.1000   141.3551     8.4119     8.8302
  236.2000   141.3459     8.4119     8.7652
  236.3000   141.3366     8.4119     8.7001
  236.4000   141.3274     8.4119     8.6351
  236.5000   141.3182     8.4119     8.5700
  236.6000   141.3302     8.4119     8.5700
  236.7000   141.3423     8.4119     8.5700
  236.8000   141.3544     8.4119     8.5700
  236.9000   141.3665     8.4119     8.5700
  237.0000   141.3786     8.4119     8.5700
  237.1000   141.8808     8.4119     8.5763
  237.2000   142.3830     8.4119     8.5826
  237.3000   142.8852     8.4119     8.5889
  237.4000   143.3875     8.4119     8.5953
  237.5000   143.8897     8.4119     8.6016
  237.6000   144.3644     8.4119     8.6058
  237.7000   144.8391     8.4120     8.6101
  237.8000   145.3138     8.4120     8.6143
  237.9000   145.7886     8.4120     8.6186
  238.0000   146.2633     8.4120     8.6229
  238.1000   146.0799     8.4119     8.6271
  238.2000   145.8965     8.4118     8.6314
  238.3000   145.7130     8.4118     8.6356
  238.4000   145.5296     8.4117     8.6399
  238.5000   145.3462     8.4116     8.6442
  238.6000   145.0333     8.4225     8.6630
  238.7000   144.7204     8.4334     8.6818
  238.8000   144.4075     8.4443     8.7006
  238.9000   144.0946     8.4552     8.7193
  239.0000   143.7816     8.4661     8.7381
  239.1000   143.6441     8.4871     8.7629
  239.2000   143.5066     8.5081     8.7877
  239.3000   143.3691     8.5292     8.8125
  239.4000   143.2316     8.5502     8.8373
  239.5000   143.0941     8.5713     8.8620
  239.6000   142.7211     8.5926     8.8872
  239.7000   142.3482     8.6139     8.9123
  239.8000   141.9752     8.6352     8.9374
  239.9000   141.6022     8.6565     8.9626
  240.0000   141.2293     8.6778     8.9877
  240.1000   140.4535     8.7048     9.0133
  240.2000   139.6778     8.7318     9.0390
  240.3000   138.9020     8.7588     9.0646
  240.4000   138.1262     8.7858     9.0903
  240.5000   137.3505     8.8128     9.1159
