~VERSION INFORMATION
 VERS.                2.0:   CWLS LOG ASCII STANDARD - VERSION 2.0
 WRAP.                 NO:   ONE LINE PER DEPTH STEP
~WELL INFORMATION
#MNEM.UNIT      DATA TYPE    INFORMATION
#----------   ------------   ------------------------------
 STRT.F           12.5000:   START DEPTH
 STOP.F          604.0000:   STOP DEPTH
 STEP.F            0.5000:   STEP LENGTH
 NULL.          -999.2500:   NO VALUE
 COMP. FENIX & SCISSON INC:   COMPANY
 WELL.   SX-3 NPR 3 #61-3:   WELL
 FLD .             TEAPOT:   FIELD
 LOC .       S3 T38N R78W:   LOCATION
 CNTY.            NATRONA:   COUNTY
 STAT.            WYOMING:   STATE
 CTRY. UNITED STATES OF AMERICA:   COUNTRY
 SRVC.           BIRDWELL:   SERVICE COMPANY
 DATE.        03-DEC-1978:   LOGDATE
 API .       490251074100:   API NUMBER
~CURVE INFORMATION
#MNEM.UNIT       API CODE    CURVE DESCRIPTION
#----------   ------------   ------------------------------
 DEPT.F                  :   
 SPR .MV     05 010 01 00:   SPONTANEOUS POTENTIAL FROM RES.
 SN  .OHMM   05 040 16 00:   SHORT NORMAL 16"
 IL  .OHMM   05 120 00 00:   INDUCTION LOG
 CALD.IN     45 280 60 00:   CALIPER
 GRD .GAPI   45 310 01 00:   GAMMA RAY FROM DENSITY LOG
 DEN .G/C3   45 350 01 00:   COMPENSATED BULK DENSTIY
 CORR.G/C3   45 356 01 00:   DENSITY CORRECTION
 DPHI.DEC    45 890 12 00:   DENSITY POROSITY SANDSTONE
~PARAMETER INFORMATION
#MNEM.UNIT          VALUE    DESCRIPTION
#----------   ------------   ------------------------------
 PD  .                 GL:   PERMANENT DATUM
 EPD .F              5099:   ELEVATION PERMANENT DATUM
 LMF .                 KB:   LOG MEASURED FROM
 DAPD.F                 4:   FEET ABOVE PERMANENT DATUM
 DMF .                 KB:   DRILLING MEASURED FROM
 EKB .F              5103:   KELLING BUSHING
 EGL .F              5099:   GROUND LEVEL
 DATE.            12-3-78:   RUN DATE
 RUN .                  1:   RUN NUMBER
 DD  .F               615:   DEPTH DRILLER
 DL  .F               604:   DEPTH LOGGER
 BLI .F               598:   BOTTOM LOG INTERVAL
 TLI .F                40:   TOP LOG INTERVAL
 CS  .IN            8.625:   CASING SIZE
 CBL .F                35:   CASING BOTTOM LOGGER
 BS  .IN            7.875:   BIT SIZE
 BSD .F               615:   BIT SIZE AT DEPTH
 DFT .                KCL:   DRILLING FLUID TYPE
 DFD .                8.8:   DRILLING FLUID DENSITY
 DFV .                 42:   DRILLING FLUID VISCOSITY
 DFPH.               12.2:   DRILLING FLUID PH
 DFL .                 10:   DRILLING FLUID LOSS
 MSS .           FLOWLINE:   MUD SAMPLE SOURCE
 RMS .OHMM            .24:   RESISTIVITY MUD SAMPLE
 MST .F                58:   MUD SAMPLE TEMPERATURE
 RMF .OHMM             .3:   RESISTIVITY MUD FILTRATE SAMPLE
 MFST.F                54:   MUD FILTRATE SAMPLE TEMPERATURE
 RMC .OHMM            .34:   RESISTIVITY MUD CAKE
 MCST.F                56:   MUD CAKE SAMPLE TEMPERATURE
 MFSS.           MEASURED:   MUD FILTRATE SAMPLE SOURCE
 MCSS.           MEASURED:   MUD CAKE SAMPLE SOURCE
 RMB .OHMM            .27:   RESISTIVITY MUD AT BHT
 BHT .F                56:   BOTTOM HOLE TEMPERATURE
 TCS .HRS               3:   TIME CURCULATED STOPPED
 MRT .F                52:   MAXIMUM RECORDED TEMPERATURE
 LUN .               2958:   LOGGING UNIT NUMBER
 LUL .                CPR:   LOGGING UNIT LOCATION
 ENGI.            ROLLINS:   RECORDING ENGINEER
 WITN.              AMEND:   WITNESSED BY
 CLNT.            A2DTECH:   CLIENT CODE
 ORIG.       2", 5" PRINT:   ORIGIN OF DATA
 UWI .       490251074100:   UNIQUE WELL ID
 DICO. A2D Technologies, Inc.:   DIGITIZING COMPANY
~OTHER INFORMATION
~A   DEPT      SPR         SN         IL       CALD         GRD       DEN       CORR       DPHI   
# ...
   93.5000   -50.0666     8.8876     7.4707     8.0252    97.7677     2.4603     0.0180     0.1320
   94.0000   -50.2375     8.8573     7.4409     8.0280    95.4842     2.4724     0.0167     0.1313
   94.5000   -50.4083     8.8271     7.4113     8.0308    94.7447     2.4751     0.0155     0.1334
   95.0000   -50.5790     8.7969     7.3818     8.0337   102.6753     2.4728     0.0142     0.1372
   95.5000   -50.7498     8.7529     7.3525     8.0366   108.9821     2.4638     0.0129     0.1404
   96.0000   -50.9206     8.7043     7.3232     8.0394   110.1294     2.4588     0.0117     0.1416
   96.5000   -51.0914     8.6560     7.2941     8.0309   108.7196     2.4565     0.0104     0.1435
   97.0000   -51.2621     8.6079     7.2650     7.9818   107.3261     2.4544     0.0091     0.1455
   97.5000   -51.4329     8.5602     7.2361     7.9312   107.3298     2.4522     0.0079     0.1475
   98.0000   -51.6041     8.5126     7.2073     7.9720   107.5293     2.4500     0.0066     0.1477
   98.5000   -51.7747     8.4654     7.1786     8.0386   107.4054     2.4480     0.0053     0.1446
   99.0000   -51.9110     8.4185     7.1729     8.0414   107.0888     2.4508     0.0041     0.1416
   99.5000   -51.9081     8.3926     7.1729     8.0410   104.7297     2.4552     0.0028     0.1408
  100.0000   -51.9080     8.3926     7.2511     8.0409   102.3307     2.4601     0.0015     0.1400
  100.5000   -51.8964     8.4397     7.3255     8.0409   101.0083     2.4611     0.0003     0.1400
  101.0000   -51.8163     8.5058     7.4007     8.0409   102.4389     2.4611    -0.0010     0.1420
  101.5000   -51.7364     8.5724     7.4580     8.0409   104.0062     2.4575    -0.0023     0.1457
  102.0000   -51.6567     8.6399     7.4922     8.0409   104.9939     2.4529    -0.0016     0.1491
  102.5000   -51.5771     8.7091     7.5265     8.0409   104.6881     2.4482    -0.0005     0.1502
  103.0000   -51.4973     8.7084     7.5610     8.0409   104.2595     2.4470     0.0007     0.1474
  103.5000   -51.4178     8.7086     7.5957     8.0409   104.1646     2.4501     0.0018     0.1432
  104.0000   -51.3377     8.7086     7.6305     8.0409   105.1125     2.4539     0.0029     0.1420
  104.5000   -51.2971     8.7086     7.6521     8.0409   107.8418     2.4578     0.0037     0.1405
  105.0000   -51.2820     8.7086     7.6200     8.0409   107.8357     2.4616     0.0040     0.1380
  105.5000   -51.2675     8.7086     7.5967     8.0409   104.0406     2.4654     0.0044     0.1373
  106.0000   -51.2530     8.7086     7.5736     8.0409   100.4624     2.4679     0.0047     0.1411
  106.5000   -51.2385     8.7086     7.5505     8.0411   100.2768     2.4600     0.0051     0.1459
  107.0000   -51.2239     8.7086     7.5275     8.0282   104.1042     2.4517     0.0055     0.1507
  107.5000   -51.2094     8.7086     7.5046     8.0086   105.3166     2.4431     0.0058     0.1535
  108.0000   -51.1948     8.7086     7.4817     7.9889   105.4070     2.4400     0.0062     0.1504
  108.5000   -51.1803     8.7086     7.4589     7.9689   107.0568     2.4425     0.0066     0.1436
  109.0000   -51.1657     8.7086     7.4425     7.9612   108.8832     2.4496     0.0069     0.1412
  109.5000   -51.1511     8.7086     7.4428     7.9610   109.1386     2.4566     0.0073     0.1373
  110.0000   -51.1367     8.7085     7.5709     7.9611   108.0993     2.4636     0.0059     0.1325
  110.5000   -51.1224     8.7080     7.6675     7.9611   105.0621     2.4706     0.0026     0.1277
  111.0000   -51.1122     8.7058     7.7654     7.9611   102.2054     2.4775    -0.0007     0.1263
  111.5000   -50.9078     8.8312     7.8645     7.9611    99.3676     2.4829    -0.0040     0.1276
  112.0000   -50.6581     8.9984     7.9649     7.9611    97.6398     2.4782     0.0025     0.1339
  112.5000   -50.4076     9.1689     8.0665     7.9611    97.9274     2.4695     0.0153     0.1402
  113.0000   -50.1573     9.3426     8.1695     7.9452   100.2155     2.4609     0.0250     0.1427
  113.5000   -49.9069     9.5196     8.2738     7.9146   101.0280     2.4565     0.0259     0.1432
  114.0000   -49.6599     9.6999     8.3793     7.8840   100.1976     2.4554     0.0265     0.1436
  114.5000   -49.5217     9.8835     8.3929     7.8616    99.3508     2.4544     0.0271     0.1469
  115.0000   -49.5980    10.0029     8.3933     7.8822    98.5065     2.4502     0.0306     0.1502
  115.5000   -49.6707    10.0029     8.3470     7.9023    97.8069     2.4447     0.0440     0.1536
  116.0000   -49.7443     9.8536     8.2705     7.9223    98.1686     2.4392     0.0569     0.1521
  116.5000   -49.8181     9.7097     8.1953     7.9426    98.4657     2.4422     0.0692     0.1492
  117.0000   -49.8948     9.5685     8.1207     7.9629   100.8942     2.4470     0.0709     0.1500
  117.5000   -49.7733     9.4295     8.0467     7.8916   103.6527     2.4475     0.0759     0.1474
  118.0000   -49.6278     9.2926     7.9735     7.8106   105.5001     2.4477     0.0856     0.1395
  118.5000   -49.4824     9.1576     7.9009     7.7302   105.1789     2.4602     0.0841     0.1318
  119.0000   -49.3284     9.0245     7.8280     7.6843   105.3520     2.4765     0.0766     0.1270
  119.5000   -49.4653     8.9533     7.7267     7.6929   105.5173     2.4797     0.0694     0.1284
  120.0000   -49.6973     9.0618     7.7981     7.7012   106.4659     2.4729     0.0669     0.1360
  120.5000   -49.9313     9.1410     7.7937     7.7266   107.5491     2.4660     0.0645     0.1408
  121.0000   -50.1647     9.2210     7.9303     7.7544   107.7259     2.4618     0.0621     0.1410
  121.5000   -50.3978     9.3017     8.0462     7.7808   105.0413     2.4594     0.0597     0.1426
  122.0000   -50.6312     9.3830     8.1640     7.7818   103.2387     2.4570     0.0575     0.1435
  122.5000   -50.8669     9.4636     8.2835     7.7812   104.2700     2.4546     0.0574     0.1440
  123.0000   -51.1036     9.4444     8.4047     7.7311   105.3142     2.4530     0.0586     0.1445
  123.5000   -51.0732     9.4214     8.5277     7.6754   104.6947     2.4533     0.0600     0.1422
  124.0000   -50.0905     9.3985     8.6525     7.6414   102.7593     2.4567     0.0613     0.1356
  124.5000   -49.0824     9.3765     8.7792     7.6458   100.9786     2.4635     0.0627     0.1362
  125.0000   -48.1192     9.4928     8.8714     7.6648   101.9552     2.4667     0.0640     0.1362
  125.5000   -48.0839     9.6309     8.8711     7.6834   105.9483     2.4661     0.0654     0.1344
  126.0000   -48.1578     9.7711     8.8504     7.7020   109.8409     2.4699     0.0654     0.1332
  126.5000   -48.2343     9.9134     8.8349     7.7204   111.5831     2.4743     0.0632     0.1328
  127.0000   -48.2341    10.0577     8.8195     7.7379   109.7740     2.4753     0.0610     0.1328
  127.5000   -47.9124    10.0958     8.8037     7.7825   108.0367     2.4755     0.0587     0.1359
  128.0000   -47.5979    10.0219     8.7873     7.8302   108.0180     2.4641     0.0564     0.1452
  128.5000   -47.2972     9.9004     8.6886     7.8779   108.4353     2.4534     0.0590     0.1454
  129.0000   -47.2871     9.7804     8.5923     7.9254   108.7609     2.4517     0.0651     0.1458
  129.5000   -47.2887     9.6619     8.4970     7.9648   108.9659     2.4504     0.0714     0.1471
  130.0000   -47.2891     9.5447     8.4028     7.9781   108.5448     2.4490     0.0776     0.1428
  130.5000   -47.3002     9.4292     8.3097     7.9916   107.7172     2.4510     0.0841     0.1358
  131.0000   -47.3571     9.2902     8.2175     8.0051   107.3375     2.4631     0.0849     0.1288
  131.5000   -47.4141     9.2939     8.1635     8.0186   109.7886     2.4758     0.0777     0.1259
  132.0000   -47.4654     9.2984     8.1820     8.0322   113.4698     2.4831     0.0631     0.1291
  132.5000   -47.8592     9.3029     8.1957     8.0457   113.9784     2.4802     0.0487     0.1324
  133.0000   -48.4306     9.3075     8.2093     8.0592   113.3986     2.4762     0.0342     0.1339
  133.5000   -49.0080     9.3120     8.2229     8.0727   110.8147     2.4722     0.0198     0.1338
