~VERSION INFORMATION
 VERS.                2.0:   CWLS LOG ASCII STANDARD - VERSION 2.0
 WRAP.                 NO:   ONE LINE PER DEPTH STEP
~WELL INFORMATION
#MNEM.UNIT      DATA TYPE    INFORMATION
#----------   ------------   ------------------------------
 STRT.F           10.5000:   START DEPTH
 STOP.F          604.0000:   STOP DEPTH
 STEP.F            0.5000:   STEP LENGTH
 NULL.          -999.2500:   NO VALUE
 COMP. FENIX & SCISSON INC:   COMPANY
 WELL.  NPR 3 #87 S 10-10:   WELL
 FLD .             TEAPOT:   FIELD
 LOC .      S10 T38N R78W:   LOCATION
 CNTY.            NATRONA:   COUNTY
 STAT.            WYOMING:   STATE
 CTRY. UNITED STATES OF AMERICA:   COUNTRY
 SRVC.           BIRDWELL:   SERVICE COMPANY
 DATE.        11-DEC-1978:   LOGDATE
 API .       490251075400:   API NUMBER
~CURVE INFORMATION
#MNEM.UNIT       API CODE    CURVE DESCRIPTION
#----------   ------------   ------------------------------
 DEPT.F                  :   
 SPR .MV     05 010 01 00:   SPONTANEOUS POTENTIAL FROM RES.
 SN  .OHMM   05 040 16 00:   SHORT NORMAL 16"
 IL  .OHMM   05 120 00 00:   INDUCTION LOG
 CALD.IN     45 280 60 00:   CALIPER
 GRD .GAPI   45 310 01 00:   GAMMA RAY FROM DENSITY LOG
 RHOB.G/C3   45 350 01 00:   BULK DENSITY
 DPHI.DEC    45 890 12 00:   DENSITY POROSITY SANDSTONE
 CORR.G/C3   45 356 01 00:   DENSITY CORRECTION
~PARAMETER INFORMATION
#MNEM.UNIT          VALUE    DESCRIPTION
#----------   ------------   ------------------------------
 PD  .                 GL:   PERMANENT DATUM
 LMF .                 KB:   LOG MEASURED FROM
 DAPD.F                 4:   FEET ABOVE PERMANENT DATUM
 DMF .                 KB:   DRILLING MEASURED FROM
 DATE.           12-11-78:   RUN DATE
 RUN .                  1:   RUN NUMBER
 DD  .F               600:   DEPTH DRILLER
 DL  .F               602:   DEPTH LOGGER
 BLI .F               596:   BOTTOM LOG INTERVAL
 TLI .F                60:   TOP LOG INTERVAL
 CBD .F                40:   CASING BOTTOM DRILLER
 CBL .F                35:   CASING BOTTOM LOGGER
 BS  .IN            7.875:   BIT SIZE
 BSD .F               600:   BIT SIZE AT DEPTH
 DFT .                KCC:   DRILLING FLUID TYPE
 DFD .                8.7:   DRILLING FLUID DENSITY
 DFV .                 39:   DRILLING FLUID VISCOSITY
 DFPH.               10.5:   DRILLING FLUID PH
 DFL .                 10:   DRILLING FLUID LOSS
 MSS .           FLOWLINE:   MUD SAMPLE SOURCE
 RMS .OHMM              1:   RESISTIVITY MUD SAMPLE
 MST .F                62:   MUD SAMPLE TEMPERATURE
 RMF .OHMM            .85:   RESISTIVITY MUD FILTRATE SAMPLE
 MFST.F                58:   MUD FILTRATE SAMPLE TEMPERATURE
 RMC .OHMM             .8:   RESISTIVITY MUD CAKE
 MCST.F                66:   MUD CAKE SAMPLE TEMPERATURE
 MFSS.           MEASURED:   MUD FILTRATE SAMPLE SOURCE
 MCSS.           MEASURED:   MUD CAKE SAMPLE SOURCE
 BHT .F                72:   BOTTOM HOLE TEMPERATURE
 TCS .HRS               3:   TIME CURCULATED STOPPED
 MRT .F                72:   MAXIMUM RECORDED TEMPERATURE
 LUN .               2958:   LOGGING UNIT NUMBER
 LUL .             CASPER:   LOGGING UNIT LOCATION
 ENGI.            ROLLINS:   RECORDING ENGINEER
 WITN.           DINSMORE:   WITNESSED BY
 CLNT.            A2DTECH:   CLIENT CODE
 ORIG.       2", 5" PRINT:   ORIGIN OF DATA
 UWI .       490251075400:   UNIQUE WELL ID
 DICO. A2D Technologies, Inc.:   DIGITIZING COMPANY
~OTHER INFORMATION
~A   DEPT      SPR         SN         IL       CALD        GRD       RHOB       DPHI       CORR   
# ...
  253.5000   -16.4960    10.1630     9.0310     8.5610   103.4690     2.4290     0.1580     0.0090
  254.0000   -16.4520    10.1460     9.0370     8.5610   105.8500     2.4270     0.1580     0.0110
  254.5000   -16.4090    10.1180     9.0440     8.5610   106.0840     2.4290     0.1590     0.0170
  255.0000   -16.3650    10.0910     9.0500     8.5610   107.8550     2.4340     0.1580     0.0180
  255.5000   -16.3220    10.0630     9.0570     8.5610   108.8400     2.4390     0.1510     0.0180
  256.0000   -16.2780    10.0350     9.0640     8.5610   107.7460     2.4430     0.1490     0.0180
  256.5000   -16.2350    10.0070     9.0710     8.5610   105.5530     2.4440     0.1490     0.0180
  257.0000   -16.1910     9.9800     9.0770     8.5610   105.0580     2.4440     0.1500     0.0180
  257.5000   -16.1470     9.9520     9.0850     8.5610   108.6700     2.4430     0.1500     0.0190
  258.0000   -16.0990     9.9240     8.9270     8.5620   111.4660     2.4440     0.1490     0.0190
  258.5000   -16.1510     9.8960     8.7100     8.5620   113.0720     2.4450     0.1490     0.0190
  259.0000   -16.2050     9.8720     8.4930     8.5620   109.5460     2.4460     0.1480     0.0190
  259.5000   -16.2610     9.8720     8.2760     8.5630   107.1730     2.4470     0.1470     0.0190
  260.0000   -16.3030     9.7290     8.1330     8.5630   106.6120     2.4480     0.1470     0.0190
  260.5000   -16.3090     9.4620     8.1330     8.5630   108.7950     2.4490     0.1460     0.0190
  261.0000   -16.3170     9.1960     8.1700     8.5640   113.5550     2.4500     0.1460     0.0180
  261.5000   -16.3240     8.9300     8.2770     8.5640   114.0620     2.4510     0.1440     0.0170
  262.0000   -16.3310     8.7560     8.3830     8.5650   109.3530     2.4510     0.1430     0.0090
  262.5000   -16.3380     8.8260     8.4900     8.5650   107.3260     2.4470     0.1460     0.0100
  263.0000   -16.3460     8.8770     8.5220     8.5650   106.0770     2.4430     0.1500     0.0160
  263.5000   -16.3530     8.9290     8.5280     8.5660   105.6600     2.4420     0.1510     0.0220
  264.0000   -16.3600     8.9800     8.5340     8.5660   105.4290     2.4460     0.1500     0.0220
  264.5000   -16.3670     9.0320     8.5410     8.5660   108.5160     2.4520     0.1460     0.0190
  265.0000   -16.3750     9.0850     8.5470     8.5670   108.3550     2.4590     0.1390     0.0130
  265.5000   -16.3820     9.2510     8.5530     8.5670   109.6000     2.4590     0.1380     0.0110
  266.0000   -16.3890     9.4240     8.5590     8.5670   109.9270     2.4550     0.1400     0.0100
  266.5000   -16.3960     9.6030     8.5660     8.5680   108.5840     2.4510     0.1460     0.0090
  267.0000   -16.4040     9.6030     8.5720     8.5680   109.7280     2.4480     0.1470     0.0080
  267.5000   -16.4110     9.6030     8.5780     8.5690   110.2380     2.4440     0.1480     0.0090
  268.0000   -16.4180     9.6030     8.5850     8.5690   110.0390     2.4450     0.1490     0.0110
  268.5000   -16.4250     9.6030     8.5910     8.5690   110.2150     2.4470     0.1490     0.0130
  269.0000   -16.4330     9.6030     8.5960     8.5700   110.6600     2.4530     0.1450     0.0150
  269.5000   -16.4400     9.6030     8.5770     8.5700   110.8950     2.4580     0.1410     0.0150
  270.0000   -16.4470     9.6030     8.5610     8.5700   110.2880     2.4610     0.1370     0.0130
  270.5000   -16.4540     9.6730     8.5450     8.5710   109.5310     2.4610     0.1380     0.0110
  271.0000   -16.4620     9.7330     8.5290     8.5710   111.2810     2.4570     0.1380     0.0090
  271.5000   -16.4690     9.7820     8.5130     8.5720   113.7630     2.4530     0.1430     0.0070
  272.0000   -16.4760     9.7640     8.4970     8.5720   114.1800     2.4510     0.1430     0.0050
  272.5000   -16.4840     9.7490     8.4810     8.5720   112.1930     2.4490     0.1440     0.0030
  273.0000   -16.4910     9.7340     8.4640     8.5730   111.3840     2.4410     0.1480     0.0010
  273.5000   -16.4960     9.7190     8.4390     8.5730   111.0720     2.4350     0.1540     0.0000
  274.0000   -16.6180     9.7040     8.4450     8.5730   111.7070     2.4330     0.1550     0.0010
  274.5000   -16.7830     9.6890     8.4580     8.5740   112.6600     2.4320     0.1560     0.0030
  275.0000   -16.9110     9.6740     8.4720     8.5740   114.0870     2.4310     0.1570     0.0040
  275.5000   -16.9390     9.6590     8.4860     8.5750   115.8730     2.4290     0.1590     0.0060
  276.0000   -16.9690     9.6440     8.5000     8.5750   115.2650     2.4280     0.1590     0.0070
  276.5000   -17.0000     9.6290     8.5170     8.5750   112.8230     2.4350     0.1550     0.0080
  277.0000   -17.0300     9.6140     8.4800     8.5760   112.3120     2.4470     0.1470     0.0100
  277.5000   -17.0610     9.6010     8.4340     8.5760   116.1030     2.4540     0.1430     0.0110
  278.0000   -17.0910     9.5930     8.3880     8.5760   115.4970     2.4550     0.1430     0.0130
  278.5000   -17.1210     9.5840     8.3530     8.5770   113.0050     2.4570     0.1420     0.0140
  279.0000   -17.1520     9.5760     8.3320     8.5770   112.6330     2.4580     0.1410     0.0150
  279.5000   -17.1820     9.5680     8.3110     8.5770   110.3360     2.4590     0.1390     0.0150
  280.0000   -17.2120     9.5590     8.2910     8.5780   108.8920     2.4580     0.1390     0.0150
  280.5000   -17.2420     9.5510     8.2700     8.5780   112.9380     2.4580     0.1390     0.0150
  281.0000   -17.2730     9.5430     8.2490     8.5790   114.6280     2.4610     0.1380     0.0150
  281.5000   -17.3030     9.5340     8.2280     8.5790   112.6810     2.4610     0.1370     0.0150
  282.0000   -17.3330     9.5260     8.2080     8.5790   108.9250     2.4600     0.1390     0.0150
  282.5000   -17.3640     9.5180     8.0810     8.5800   105.1060     2.4590     0.1400     0.0150
  283.0000   -17.3940     9.4620     7.9560     8.5800   104.0040     2.4590     0.1400     0.0150
  283.5000   -17.4240     9.3800     7.9110     8.5800   108.9610     2.4610     0.1390     0.0150
  284.0000   -17.4550     9.2970     7.9110     8.5810   107.6420     2.4620     0.1380     0.0120
  284.5000   -17.4850     9.2150     7.9110     8.5810   103.9590     2.4640     0.1370     0.0100
  285.0000   -17.5150     9.1320     7.9110     8.5800   102.5190     2.4640     0.1370     0.0070
  285.5000   -17.5450     9.0490     7.9110     8.5800   102.1980     2.4490     0.1410     0.0050
  286.0000   -17.5760     8.9670     7.6300     8.5790   106.1330     2.4310     0.1560     0.0060
  286.5000   -17.6070     8.8840     7.2130     8.5790   106.5150     2.4230     0.1620     0.0050
  287.0000   -17.6320     8.8020     7.0560     8.5790   105.7910     2.4200     0.1640     0.0050
  287.5000   -17.5980     8.6520     6.9050     8.5780   106.0240     2.4210     0.1630     0.0050
  288.0000   -18.6660     8.4210     6.7620     8.5780   107.4480     2.4240     0.1630     0.0050
  288.5000   -14.5190     8.1900     6.7770     8.5770   109.8410     2.4280     0.1610     0.0040
  289.0000   -17.8220     7.9590     6.7900     8.5770   112.2240     2.4320     0.1560     0.0030
  289.5000   -17.7770     7.7280     6.8040     8.5770   114.5650     2.4320     0.1560     0.0020
  290.0000   -17.3510     7.4970     6.8180     8.5760   115.9990     2.4310     0.1560     0.0020
  290.5000   -13.7240     7.2800     6.9050     8.5760   117.1100     2.4310     0.1560     0.0010
  291.0000   -17.8840     7.4640     7.0790     8.5750   116.9630     2.4330     0.1560     0.0000
  291.5000   -18.6770     7.6370     7.2530     8.5750   115.8830     2.4340     0.1560     0.0010
  292.0000   -18.5510     7.8780     7.4850     8.5750   114.7630     2.4330     0.1550     0.0030
  292.5000   -18.0970     8.1530     7.4790     8.5740   114.6200     2.4330     0.1550     0.0060
  293.0000   -17.6390     8.4270     7.4700     8.5740   113.5300     2.4410     0.1520     0.0070
  293.5000   -17.4160     8.5520     7.4610     8.5740   112.5930     2.4440     0.1490     0.0070
