~VERSION INFORMATION
 VERS.                2.0:   CWLS LOG ASCII STANDARD - VERSION 2.0
 WRAP.                 NO:   ONE LINE PER DEPTH STEP
~WELL INFORMATION
#MNEM.UNIT      DATA TYPE    INFORMATION
#----------   ------------   ------------------------------
 STRT.F           18.0000:   START DEPTH
 STOP.F          449.0000:   STOP DEPTH
 STEP.F            0.5000:   STEP LENGTH
 NULL.          -999.2500:   NO VALUE
 COMP.   LAWRENCE-ALLISON:   COMPANY
 WELL. NPR 3 #51-46SX10OB4:   WELL
 FLD .             TEAPOT:   FIELD
 LOC .      S10 T38N R78W:   LOCATION
 CNTY.            NATRONA:   COUNTY
 STAT.            WYOMING:   STATE
 CTRY. UNITED STATES OF AMERICA:   COUNTRY
 SRVC.      Dresser Atlas:   SERVICE COMPANY
 DATE.        19-NOV-1984:   LOGDATE
 API .       490251100700:   API NUMBER
~CURVE INFORMATION
#MNEM.UNIT       API CODE    CURVE DESCRIPTION
#----------   ------------   ------------------------------
 DEPT.F                  :   
 AC  .US/F   60 520 00 00:   ACCOUSTIC
 PORD.DEC    45 890 12 00:   POROSITY DENSITY SANDSTONE
 CNC .DEC    42 890 03 00:   NEUTRON POROSITY SANDSTONE
 CALD.IN     45 280 60 00:   CALIPER FROM DENSITY
 CORR.G/C3   45 356 01 00:   DENSITY CORRECTION
 DEN .G/C3   45 350 01 00:   COMPENSATED BULK DENSTIY
 GRD .GAPI   45 310 01 00:   GAMMA RAY FROM DENSITY LOG
~PARAMETER INFORMATION
#MNEM.UNIT          VALUE    DESCRIPTION
#----------   ------------   ------------------------------
 PD  .                 GL:   PERMANENT DATUM
 EPD .F              5163:   ELEVATION PERMANENT DATUM
 LMF .                 GL:   LOG MEASURED FROM
 DMF .                 GL:   DRILLING MEASURED FROM
 EGL .F              5163:   GROUND LEVEL
 DATE.        19-DEC-1984:   RUN DATE
 RUN .                  1:   RUN NUMBER
 DD  .F               450:   DEPTH DRILLER
 DL  .F               451:   DEPTH LOGGER
 BLI .F               449:   BOTTOM LOG INTERVAL
 TLI .F                20:   TOP LOG INTERVAL
 CS  .IN            8.625:   CASING SIZE
 CBD .F                20:   CASING BOTTOM DRILLER
 CBL .F                20:   CASING BOTTOM LOGGER
 BS  .IN             6.25:   BIT SIZE
 BSD .F               450:   BIT SIZE AT DEPTH
 DFT .          KCL WATER:   DRILLING FLUID TYPE
 MSS .            MUDTANK:   MUD SAMPLE SOURCE
 RMS .OHMM          0.146:   RESISTIVITY MUD SAMPLE
 MST .F               100:   MUD SAMPLE TEMPERATURE
 RMF .OHMM          0.110:   RESISTIVITY MUD FILTRATE SAMPLE
 MFST.F               100:   MUD FILTRATE SAMPLE TEMPERATURE
 RMC .OHMM          0.183:   RESISTIVITY MUD CAKE
 MCST.F               100:   MUD CAKE SAMPLE TEMPERATURE
 MFSS.               CALC:   MUD FILTRATE SAMPLE SOURCE
 MCSS.               CALC:   MUD CAKE SAMPLE SOURCE
 TCS .HRS               2:   TIME CURCULATED STOPPED
 MRT .F               100:   MAXIMUM RECORDED TEMPERATURE
 LUN .               6270:   LOGGING UNIT NUMBER
 ENGI.        TOM GAUGHAN:   RECORDING ENGINEER
 WITN.              LUERS:   WITNESSED BY
 CLNT.            A2DTECH:   CLIENT CODE
 ORIG.           5" PRINT:   ORIGIN OF DATA
 UWI .       490251100700:   UNIQUE WELL ID
 DICO. A2D Technologies, Inc.:   DIGITIZING COMPANY
~OTHER INFORMATION
~A   DEPT        AC      PORD        CNC       CALD       CORR        DEN        GRD   
# ...
  200.0000   107.2180     0.1185     0.2900     6.3835     0.0111     2.4803   114.8837
  200.5000   106.9123     0.1219     0.2855     6.4102     0.0075     2.4749   119.3622
  201.0000   106.6881     0.1289     0.2904     6.4277     0.0051     2.4650   118.6047
  201.5000   107.0958     0.1307     0.3066     6.4271    -0.0313     2.4619   118.4496
  202.0000   109.6232     0.1274     0.3200     6.4117    -0.0253     2.4665   117.5415
  202.5000   112.9368     0.1231     0.3164     6.3962    -0.0042     2.4740   115.5791
  203.0000   115.1498     0.1201     0.3222     6.3957     0.0153     2.4778   114.6710
  203.5000   116.1835     0.1204     0.3395     6.3953     0.0258     2.4785   115.4195
  204.0000   114.8587     0.1268     0.3553     6.4100     0.0212     2.4693   118.8789
  204.5000   112.6691     0.1369     0.3517     6.3944     0.0226     2.4496   121.2840
  205.0000   111.3443     0.1634     0.3415     6.3939     0.0241     2.4169   122.0325
  205.5000   110.3340     0.1795     0.3252     6.3784     0.0240     2.3797   122.9316
  206.0000   111.4886     0.1702     0.3140     6.3780     0.0148     2.3971   123.2295
  206.5000   115.2477     0.1507     0.3155     6.4076    -0.0156     2.4327   119.6094
  207.0000   118.1681     0.1341     0.3285     6.4222    -0.0232     2.4577   115.5386
  207.5000   119.6974     0.1288     0.3551     6.4067    -0.0052     2.4683   114.1787
  208.0000   119.9837     0.1315     0.3769     6.3912     0.0144     2.4637   113.7224
  208.5000   114.6279     0.1476     0.3754     6.4059     0.0083     2.4485   113.8696
  209.0000   111.3548     0.1646     0.3618     6.3903    -0.0039     2.4151   114.0157
  209.5000   109.8681     0.1886     0.3588     6.4050    -0.0055     2.3635   114.7631
  210.0000   107.6738     0.2117     0.3546     6.4045     0.0110     2.3156   116.2646
  210.5000   106.9732     0.2150     0.3473     6.4040     0.0140     2.3370   116.5624
  211.0000   106.6657     0.1856     0.3398     6.4036     0.0048     2.3819   115.3520
  211.5000   106.4351     0.1577     0.3374     6.3881    -0.0028     2.4358   114.4439
  212.0000   106.1293     0.1392     0.3362     6.3876    -0.0060     2.4530   115.4936
  212.5000   105.8218     0.1341     0.3259     6.3872    -0.0030     2.4574   116.3938
  213.0000   105.5143     0.1326     0.3099     6.3867     0.0060     2.4596   116.2376
  213.5000   105.0496     0.1335     0.2993     6.3863     0.0119     2.4588   117.1367
  214.0000   104.8993     0.1347     0.2981     6.4009     0.0073     2.4580   118.4887
  214.5000   108.4345     0.1284     0.2966     6.4004     0.0133     2.4652   116.9771
  215.0000   111.4229     0.1187     0.2960     6.4000     0.0254     2.4788   111.5509
  215.5000   114.6704     0.1126     0.2954     6.3995     0.0389     2.4917   109.7392
  216.0000   114.9901     0.1123     0.2991     6.3991     0.0339     2.4942   110.1865
  216.5000   112.1686     0.1166     0.3208     6.3836     0.0183     2.4874   111.8386
  217.0000   110.1316     0.1297     0.3435     6.3831     0.0066     2.4721   114.5449
  217.5000   108.4090     0.1454     0.3619     6.3827     0.0086     2.4395   118.0043
  218.0000   106.6864     0.1685     0.3447     6.3973     0.0195     2.3962   118.6586
  218.5000   106.3003     0.1734     0.3133     6.3968     0.0352     2.3893   115.8868
  219.0000   105.5211     0.1607     0.2964     6.3964     0.0215     2.4181   112.2679
  219.5000   104.3488     0.1371     0.2714     6.3959     0.0108     2.4537   110.6068
  220.0000   103.4910     0.1259     0.2804     6.3955     0.0092     2.4712   114.5179
  220.5000   103.4176     0.1220     0.3061     6.3950     0.0212     2.4780   116.3206
  221.0000   103.1116     0.1158     0.3091     6.3795     0.0302     2.4847   114.9607
  221.5000   102.5686     0.1113     0.3011     6.3941     0.0180     2.4915   113.1490
  222.0000   102.1824     0.1077     0.3004     6.3937     0.0225     2.4976   111.4879
  222.5000   102.1921     0.1092     0.2977     6.3932     0.0269     2.5013   109.9773
  223.0000   102.4397     0.1119     0.2850     6.3928     0.0072     2.4960   108.9186
  223.5000   102.5181     0.1138     0.2823     6.4074    -0.0065     2.4899   107.8599
  224.0000   102.2907     0.1153     0.2817     6.3919    -0.0006     2.4876   107.5502
  224.5000   102.1404     0.1174     0.2805     6.3914     0.0069     2.4837   108.6039
  225.0000   101.9098     0.1187     0.2793     6.3910     0.0038     2.4814   109.9548
  225.5000   101.6040     0.1202     0.2820     6.4056    -0.0054     2.4791   109.1953
  226.0000   101.2965     0.1232     0.2947     6.3901    -0.0161     2.4768   109.0422
  226.5000   100.9104     0.1248     0.2993     6.3896    -0.0177     2.4745   110.1099
  227.0000   100.4440     0.1254     0.2978     6.4042    -0.0178     2.4737   111.6094
  227.5000   101.3175     0.1254     0.2978     6.4038    -0.0133     2.4736   110.6451
  228.0000   101.7961     0.1254     0.2972     6.4033    -0.0119     2.4736   108.1205
  228.5000   102.1176     0.1251     0.2930     6.4029     0.0001     2.4758   109.3771
  229.0000   102.2818     0.1224     0.2900     6.4024     0.0091     2.4803   111.9408
  229.5000   102.0529     0.1203     0.2906     6.4020     0.0166     2.4811   111.7997
  230.0000   100.0945     0.1225     0.2906     6.4015     0.0225     2.4757   110.0402
  230.5000    98.8436     0.1267     0.2876     6.4011     0.0088     2.4696   111.2425
  231.0000    97.8945     0.1304     0.2821     6.4006    -0.0140     2.4635   113.7139
  231.5000    96.6209     0.1310     0.2767     6.4002    -0.0201     2.4604   113.8119
  232.0000    95.4840     0.1301     0.2752     6.3997    -0.0172     2.4627   112.5743
  232.5000    96.6719     0.1286     0.2785     6.3992    -0.0142     2.4657   111.3922
  233.0000    97.9368     0.1268     0.2746     6.3987    -0.0128     2.4694   109.2792
  233.5000   103.9186     0.1262     0.2686     6.3983    -0.0053     2.4709   106.1121
  234.0000   108.6425     0.1253     0.2664     6.3978     0.0082     2.4709   105.2040
  234.5000   113.9954     0.1250     0.2762     6.3974     0.0097     2.4731   105.6513
  235.0000   113.5307     0.1244     0.2988     6.3819     0.0035     2.4738   107.7552
  235.5000   110.9433     0.1254     0.3112     6.3965    -0.0027     2.4753   112.8712
  236.0000   104.5824     0.1490     0.3133     6.3960    -0.0149     2.4495   121.3004
  236.5000    96.8849     0.1797     0.3097     6.3956    -0.0195     2.3849   123.2549
  237.0000    96.1057     0.2037     0.3115     6.3951     0.0051     2.3477   119.4842
  237.5000    95.5624     0.2004     0.3046     6.3947     0.0291     2.3398   111.6483
  238.0000    94.8618     0.1743     0.2843     6.3942     0.0347     2.3954    98.5414
  238.5000    94.8688     0.1315     0.2699     6.3938     0.0238     2.4607    98.2357
  239.0000    95.1912     0.1030     0.2651     6.3783     0.0192     2.4978    98.0806
  239.5000    95.9336     0.1012     0.2702     6.3930     0.0163     2.5114    98.2267
  240.0000    97.5157     0.1033     0.2775     6.3924     0.0147     2.5106    98.3728
  240.5000    98.0431     0.1043     0.2799     6.3769     0.0146     2.5068   100.1755
  241.0000    98.1287     0.1058     0.2811     6.3614     0.0145     2.5045   104.0867
  241.5000    98.2125     0.1073     0.2811     6.3610     0.0174     2.5036   105.4388
  242.0000    96.2558     0.1080     0.2790     6.3455     0.0234     2.5029   104.8307
  242.5000    93.4326     0.1049     0.2700     6.3451     0.0339     2.5060   104.0732
  243.0000    92.6534     0.1010     0.2591     6.3446     0.0429     2.5112   103.1651
  243.5000    91.7956     0.1001     0.2449     6.3442     0.0488     2.5126   101.0521
  244.0000    90.9360     0.1026     0.2355     6.3437     0.0381     2.5117    95.6259
  244.5000    94.0108     0.1086     0.2404     6.3584     0.0199     2.5077    85.6817
  245.0000    94.7253     0.1171     0.2410     6.3578     0.0107     2.4925    70.0145
