~VERSION INFORMATION
 VERS.                2.0:   CWLS LOG ASCII STANDARD - VERSION 2.0
 WRAP.                 NO:   ONE LINE PER DEPTH STEP
~WELL INFORMATION
#MNEM.UNIT      DATA TYPE    INFORMATION
#----------   ------------   ------------------------------
 STRT.F            0.0000:   START DEPTH
 STOP.F          790.0000:   STOP DEPTH
 STEP.F            0.1000:   STEP LENGTH
 NULL.          -999.2500:   NO VALUE
 COMP.   FLUOR DANIEL INC:   COMPANY
 WELL.   72-2 X-34 #72-34:   WELL
 FLD .          N.P.R. #3:   FIELD
 LOC .      S34 T39N R78W:   LOCATION
 CNTY.            NATRONA:   COUNTY
 STAT.            WYOMING:   STATE
 CTRY. UNITED STATES OF AMERICA:   COUNTRY
 SRVC.      Western Atlas:   SERVICE COMPANY
 DATE.        25-MAR-1995:   LOGDATE
 API .       490252269300:   API NUMBER
~CURVE INFORMATION
#MNEM.UNIT       API CODE    CURVE DESCRIPTION
#----------   ------------   ------------------------------
 DEPT.F                  :   
 GRR .GAPI   07 310 01 00:   GAMMA RAY
 RILD.OHMM   07 120 46 00:   INDUCTION LOG DEEP RESISTIVITY
 RILM.OHMM   07 120 44 00:   INDUCTION LOG MEDIUM RESISTIVITY
~PARAMETER INFORMATION
#MNEM.UNIT          VALUE    DESCRIPTION
#----------   ------------   ------------------------------
 PD  .                 GL:   PERMANENT DATUM
 EPD .F              5058:   ELEVATION PERMANENT DATUM
 LMF .                 KB:   LOG MEASURED FROM
 DAPD.F                10:   FEET ABOVE PERMANENT DATUM
 DMF .                 KB:   DRILLING MEASURED FROM
 EKB .F              5068:   KELLING BUSHING
 EDF .F              5067:   DRILLING FLOOR
 EGL .F              5058:   GROUND LEVEL
 DATE.        25-MAR-1995:   RUN DATE
 RUN .                  1:   RUN NUMBER
 DD  .F               796:   DEPTH DRILLER
 DL  .F               798:   DEPTH LOGGER
 BLI .F               790:   BOTTOM LOG INTERVAL
 TLI .F                96:   TOP LOG INTERVAL
 CS  .IN            9.625:   CASING SIZE
 CBD .F                95:   CASING BOTTOM DRILLER
 CBL .F                96:   CASING BOTTOM LOGGER
 BS  .IN             8.75:   BIT SIZE
 BSD .F               796:   BIT SIZE AT DEPTH
 DFT .                AIR:   DRILLING FLUID TYPE
 MRT .F                97:   MAXIMUM RECORDED TEMPERATURE
 LUN .            HL 6530:   LOGGING UNIT NUMBER
 LUL .             CASPER:   LOGGING UNIT LOCATION
 ENGI.             RAUTIO:   RECORDING ENGINEER
 WITN.             STRONG:   WITNESSED BY
 CLNT.            A2DTECH:   CLIENT CODE
 ORIG.       2", 5" PRINT:   ORIGIN OF DATA
 UWI .       490252269300:   UNIQUE WELL ID
 DICO. A2D Technologies, Inc.:   DIGITIZING COMPANY
~OTHER INFORMATION
~A    DEPT      GRR      RILD       RILM   
# ...
  218.4000   100.4989    12.2245    12.2341
  218.5000   100.5008    12.2464    12.3146
  218.6000   100.5026    12.3192    12.3144
  218.7000   100.5045    12.3998    12.3142
  218.8000   100.5065    12.3995    12.3783
  218.9000   100.5082    12.4510    12.5037
  219.0000   100.5101    12.5250    12.5728
  219.1000   100.5120    12.5773    12.5726
  219.2000   100.5138    12.5910    12.5725
  219.3000   100.5511    12.7580    12.6182
  219.4000   100.8287    12.7576    12.6597
  219.5000   100.8305    12.8098    12.6919
  219.6000   101.0214    12.8860    12.8375
  219.7000   101.1453    12.9406    12.9255
  219.8000   101.0628    12.9466    12.9254
  219.9000   100.7743    13.0328    12.9251
  220.0000   100.2179    13.1012    12.9550
  220.1000    99.9817    13.1258    13.0148
  220.2000    99.7250    13.1629    13.0146
  220.3000    99.4684    13.2194    13.0891
  220.4000    99.1312    13.2190    13.1645
  220.5000    98.6439    13.2186    13.2404
  220.6000    98.3628    13.2872    13.2877
  220.7000    97.8965    13.3662    13.3009
  220.8000    97.3810    13.4456    13.3799
  220.9000    96.6071    13.5041    13.3797
  221.0000    95.6515    13.5038    13.3795
  221.1000    94.9020    13.5033    13.4659
  221.2000    94.3305    13.5726    13.5661
  221.3000    93.8715    13.5996    13.5777
  221.4000    93.3563    13.5992    13.6603
  221.5000    93.2172    13.6197    13.6601
  221.6000    93.4776    13.6962    13.6599
  221.7000    93.7789    13.6958    13.7018
  221.8000    94.6528    13.6954    13.7546
  221.9000    95.3345    13.6950    13.7643
  222.0000    96.2865    13.7314    13.8501
  222.1000    97.4443    13.8131    13.9236
  222.2000    98.8082    13.8914    13.9462
  222.3000   100.3110    13.8910    13.9460
  222.4000   101.1959    13.8906    13.9703
  222.5000   102.3119    13.8902    14.0427
  222.6000   103.4361    13.9263    14.0425
  222.7000   104.3543    13.9893    14.0423
  222.8000   105.0010    13.9889    14.0421
  222.9000   105.2485    13.9884    14.0419
  223.0000   105.2507    14.0578    14.0417
  223.1000   105.2523    14.0882    14.0477
  223.2000   105.0873    14.0878    14.1391
  223.3000   104.7164    14.1066    14.1390
  223.4000   104.2011    14.1883    14.1387
  223.5000   103.6858    14.1878    14.1385
  223.6000   103.0846    14.1875    14.1384
  223.7000   102.6554    14.2398    14.1424
  223.8000   101.9773    14.2886    14.2364
  223.9000   100.8723    14.2882    14.2362
  224.0000    99.9689    14.2878    14.2360
  224.1000    99.4534    14.2873    14.2358
  224.2000    98.8812    14.2870    14.2356
  224.3000    98.1075    14.2865    14.2354
  224.4000    97.1898    14.2861    14.2352
  224.5000    96.3493    14.2681    14.2351
  224.6000    95.1590    14.1834    14.2348
  224.7000    94.1846    14.1829    14.2346
  224.8000    93.6694    14.1826    14.2174
  224.9000    93.1547    14.1314    14.1358
  225.0000    92.8980    14.0805    14.1356
  225.1000    92.6411    14.0801    14.1354
  225.2000    92.5387    14.0797    14.0869
  225.3000    92.5406    13.9960    14.0372
  225.4000    92.5424    13.9785    14.0371
  225.5000    92.5443    13.9289    14.0368
  225.6000    92.5462    13.8457    14.0366
  225.7000    92.7510    13.7630    13.9740
  225.8000    93.0115    13.6797    13.8935
  225.9000    93.2719    13.6794    13.8135
  226.0000    93.5323    13.6152    13.7467
  226.1000    93.7997    13.5810    13.7464
  226.2000    94.0534    13.5498    13.6708
  226.3000    94.7125    13.4832    13.6510
  226.4000    95.4900    13.4829    13.6080
  226.5000    96.1732    13.4042    13.5297
  226.6000    96.7341    13.3242    13.4517
  226.7000    97.5435    13.2447    13.3689
  226.8000    98.2891    13.1656    13.2972
  226.9000    98.8712    13.0870    13.2761
  227.0000    99.5331    13.0064    13.2361
  227.1000   100.0392    12.9313    13.1361
  227.2000   100.0411    12.8541    13.0020
  227.3000   100.0430    12.7774    13.0018
  227.4000   100.0448    12.7011    12.9338
  227.5000   100.0467    12.6252    12.8594
  227.6000   100.0485    12.5467    12.7854
  227.7000   100.0504    12.4040    12.7117
  227.8000    99.9835    12.3675    12.6385
  227.9000    99.4322    12.2860    12.5573
  228.0000    98.9530    12.1654    12.4934
  228.1000    98.2497    12.0928    12.3732
  228.2000    97.4756    12.0169    12.2980
  228.3000    96.7847    12.0166    12.2789
  228.4000    96.2387    11.9629    12.2081
  228.5000    95.3998    11.8915    12.1279
  228.6000    94.9278    11.8446    12.0085
  228.7000    94.4126    11.8443    11.9605
  228.8000    94.0293    11.8439    11.9294
  228.9000    93.6932    11.8436    11.8774
  229.0000    93.2315    11.8433    11.8772
  229.1000    93.2338    11.8429    11.8770
  229.2000    93.2355    11.8426    11.8769
  229.3000    93.2373    11.8423    11.8767
  229.4000    93.3675    11.8419    11.8765
  229.5000    93.6279    11.7763    11.8613
  229.6000    93.8882    11.7060    11.7941
  229.7000    94.1781    11.6725    11.7939
  229.8000    94.4091    11.6274    11.7938
  229.9000    94.8463    11.5059    11.7525
  230.0000    95.1166    11.5055    11.6848
  230.1000    95.1187    11.4424    11.6307
  230.2000    95.1204    11.4228    11.6305
  230.3000    95.1222    11.4224    11.5641
  230.4000    95.2461    11.4221    11.5498
  230.5000    95.4370    11.4218    11.5110
  230.6000    95.4389    11.4214    11.4447
  230.7000    95.4410    11.4211    11.3788
  230.8000    95.4426    11.4208    11.3111
  230.9000    95.4445    11.4204    11.3109
  231.0000    95.4463    11.4201    11.2613
  231.1000    95.4482    11.4268    11.2324
  231.2000    95.4501    11.5015    11.2322
  231.3000    95.4522    11.5012    11.2321
  231.4000    95.6730    11.5009    11.2320
  231.5000    95.7667    11.5005    11.2318
  231.6000    95.7686    11.5002    11.2317
  231.7000    95.7704    11.4999    11.2315
  231.8000    95.7819    11.4995    11.2313
  231.9000    96.0855    11.4992    11.2392
  232.0000    96.3027    11.4989    11.3092
  232.1000    96.5631    11.4985    11.3091
  232.2000    96.8236    11.4982    11.3090
  232.3000    97.1422    11.4980    11.3757
  232.4000    97.6611    11.4976    11.4667
  232.5000    98.2740    11.4973    11.4732
  232.6000    98.6994    11.5436    11.5462
  232.7000    99.3781    11.6123    11.5461
  232.8000   100.0486    11.6621    11.5921
  232.9000   100.6221    11.6618    11.6262
  233.0000   101.3975    11.6614    11.6449
  233.1000   102.0178    11.7219    11.7119
  233.2000   102.4355    11.7446    11.7882
  233.3000   102.9545    11.7442    11.8475
  233.4000   103.5769    11.7626    11.8700
  233.5000   104.2531    11.8280    11.8698
  233.6000   104.5151    11.8276    11.8873
  233.7000   105.0309    11.8273    11.9522
  233.8000   105.1409    11.8270    11.9520
  233.9000   105.1428    11.8266    11.9519
  234.0000   105.2442    11.8263    11.9517
  234.1000   105.4575    11.8260    11.9515
  234.2000   105.4594    11.8256    11.9514
  234.3000   105.7144    11.8253    11.9512
  234.4000   105.7742    11.8250    11.9510
  234.5000   106.0726    11.8246    11.9509
  234.6000   106.4000    11.8070    11.9507
  234.7000   106.4454    11.7364    11.9505
  234.8000   106.7148    11.6554    11.9360
  234.9000   106.7166    11.5388    11.8675
  235.0000   106.9156    11.4453    11.8673
  235.1000   107.1760    11.3770    11.8672
  235.2000   107.4364    11.2933    11.8265
  235.3000   107.6572    11.1613    11.7322
  235.4000   107.6592    11.0836    11.6098
  235.5000   107.6609    10.9741    11.5416
  235.6000   107.6628    10.8844    11.4765
  235.7000   107.6647    10.7920    11.3598
  235.8000   107.6666    10.6638    11.2663
  235.9000   107.6684    10.5369    11.1547
  236.0000   107.6704    10.3899    10.9732
  236.1000   107.6722    10.2383    10.8418
  236.2000   107.6740     9.9834    10.6644
  236.3000   107.8129     9.7137    10.4817
  236.4000   108.0734     9.4605    10.3342
  236.5000   108.3659     9.1286    10.1958
