~VERSION INFORMATION
 VERS.                2.0:   CWLS LOG ASCII STANDARD - VERSION 2.0
 WRAP.                 NO:   ONE LINE PER DEPTH STEP
~WELL INFORMATION
#MNEM.UNIT      DATA TYPE    INFORMATION
#----------   ------------   ------------------------------
 STRT.F           10.0000:   START DEPTH
 STOP.F          756.0000:   STOP DEPTH
 STEP.F            0.1000:   STEP LENGTH
 NULL.          -999.2500:   NO VALUE
 COMP. BROWN JOHN E&C INC:   COMPANY
 WELL. N P R 3 SHX- #31-1-X-14:   WELL
 FLD .             TEAPOT:   FIELD
 LOC .      S14 T38N R78W:   LOCATION
 CNTY.            NATRONA:   COUNTY
 STAT.            WYOMING:   STATE
 CTRY. UNITED STATES OF AMERICA:   COUNTRY
 SRVC.     Atlas Wireline:   SERVICE COMPANY
 DATE.        07-JAN-1992:   LOGDATE
 API .       490252249700:   API NUMBER
~CURVE INFORMATION
#MNEM.UNIT       API CODE    CURVE DESCRIPTION
#----------   ------------   ------------------------------
 DEPT.F                  :   
 GRR .GAPI   07 310 01 00:   GAMMA RAY
 RFOC.OHMM   07 220 04 00:   RESISTIVITY FOCUSED LOG RES.
 RILD.OHMM   07 120 46 00:   INDUCTION LOG DEEP RESISTIVITY
 RILM.OHMM   07 120 44 00:   INDUCTION LOG MEDIUM  RESISTIVITY
~PARAMETER INFORMATION
#MNEM.UNIT          VALUE    DESCRIPTION
#----------   ------------   ------------------------------
 PD  .                 GL:   PERMANENT DATUM
 EPD .F              5210:   ELEVATION PERMANENT DATUM
 LMF .                 KB:   LOG MEASURED FROM
 DAPD.F                10:   FEET ABOVE PERMANENT DATUM
 DMF .                 KB:   DRILLING MEASURED FROM
 EKB .F              5220:   KELLING BUSHING
 EDF .F              5219:   DRILLING FLOOR
 EGL .F              5210:   GROUND LEVEL
 DATE.        07-JAN-1992:   RUN DATE
 RUN .                  1:   RUN NUMBER
 DD  .F               762:   DEPTH DRILLER
 DL  .F               760:   DEPTH LOGGER
 BLI .F               758:   BOTTOM LOG INTERVAL
 CS  .IN            9.625:   CASING SIZE
 CBD .F                48:   CASING BOTTOM DRILLER
 CBL .F                50:   CASING BOTTOM LOGGER
 BS  .IN             8.75:   BIT SIZE
 BSD .F               762:   BIT SIZE AT DEPTH
 DFT .    FORMATION FLUID:   DRILLING FLUID TYPE
 MRT .F                90:   MAXIMUM RECORDED TEMPERATURE
 LUN .            HL-6274:   LOGGING UNIT NUMBER
 LUL .             CASPER:   LOGGING UNIT LOCATION
 ENGI.             RAUTIC:   RECORDING ENGINEER
 WITN.        GARY STRONG:   WITNESSED BY
 CLNT.            A2DTECH:   CLIENT CODE
 ORIG.           5" PRINT:   ORIGIN OF DATA
 UWI .       490252249700:   UNIQUE WELL ID
 DICO. A2D Technologies, Inc.:   DIGITIZING COMPANY
~OTHER INFORMATION
~A   DEPT       GRR      RFOC       RILD       RILM   
# ...
   53.8000    98.5394  2962.7144     1.3269     2.2840
   53.9000    99.7825  1440.1841     1.3468     2.3918
   54.0000   100.6527   440.0595     1.4139     2.5000
   54.1000   101.0880   242.3926     1.5291     2.6037
   54.2000   101.4276   154.7018     1.6837     2.7207
   54.3000   101.6822    78.8136     1.8693     2.8690
   54.4000   101.8659    38.4574     2.1146     3.0793
   54.5000   101.8449    31.3979     2.3988     3.3479
   54.6000   101.5663    28.5708     2.7376     3.8675
   54.7000   101.5674    26.4737     3.1027     4.4645
   54.8000   101.3905    23.0575     3.4777     5.0212
   54.9000   101.1384    22.0168     3.8430     5.5551
   55.0000   100.8862    20.9919     4.3279     6.3864
   55.1000   100.6340    20.2936     5.1315     7.2573
   55.2000   100.3650    19.8500     7.1355     8.4583
   55.3000    99.8932    19.5034     8.9056     9.6738
   55.4000    99.5754    19.2817     9.8544    10.6716
   55.5000    99.1843    19.5864    10.2862    11.3559
   55.6000    98.8592    20.1132    10.5390    12.0176
   55.7000    98.7774    20.7490    10.6581    12.4739
   55.8000    98.2574    21.5459    10.6874    12.8829
   55.9000    98.0125    22.7348    10.5817    13.3030
   56.0000    97.9577    23.9123    10.1997    13.7215
   56.1000    97.8103    25.7700     9.4229    14.0535
   56.2000    97.6580    29.9721     8.3227    14.4984
   56.3000    97.6592    41.1526     7.5513    14.8941
   56.4000    97.6604    64.2109     7.1438    15.2679
   56.5000    97.6619   101.7832     6.7781    15.6267
   56.6000    97.8699   152.6344     6.5227    15.9935
   56.7000    97.9662   320.7861     6.3562    16.3816
   56.8000    97.9674   643.0129     6.3949    16.8943
   56.9000    97.9686  1029.9994     6.4821    17.3613
   57.0000    97.9577  1340.7925     6.6444    18.0294
   57.1000    97.6691  3821.2405     6.8944    18.8379
   57.2000    97.6701  7621.6733     7.1818    20.7989
   57.3000    97.3354  9197.5762     7.4927    24.7334
   57.4000    96.9491  9486.4170     7.8458    28.2502
   57.5000    96.6969  9541.3271     8.2123    32.8642
   57.6000    96.4447  9591.1875     8.5151    39.9564
   57.7000    96.1657  9591.0264     8.8345   602.0701
   57.8000    95.9404  9640.5635     9.1223  1418.9664
   57.9000    96.0435  9657.8760     9.3923  1859.0021
   58.0000    96.1692  9684.7705     9.6698  2587.4492
   58.1000    96.2506  9725.1768     9.9794  4542.8721
   58.2000    96.5051  9725.0410    10.1418  9075.7188
   58.3000    96.7771  9724.8877    10.3213  9493.3779
   58.4000    97.0143  9724.7705    10.4709  9637.5029
   58.5000    97.2689  9762.0566    10.6155  9661.7803
   58.6000    97.3849  9792.5371    10.8126  9682.8594
   58.7000    97.4759  9806.7891    11.0788  9729.5293
   58.8000    97.6894  9860.7842    11.3300  9729.7363
   58.9000    97.6907  9860.6182    11.5981  9729.9346
   59.0000    97.6918  9860.5029    11.7925  1024.7671
   59.1000    97.6931  9860.3652    11.9850   336.8677
   59.2000    97.6943  9860.2275    12.2817    98.3650
   59.3000    97.5960  9860.0898    12.6462    74.3704
   59.4000    97.3438  9859.9531    13.0034    55.0548
   59.5000    97.0896  9859.7900    13.3135    44.5188
   59.6000    96.4909  9859.6768    13.6587    33.5557
   59.7000    96.0786  9859.5400    14.0866    28.6658
   59.8000    95.5730  9859.4023    14.6727    28.2643
   59.9000    95.0675  9859.2646    15.2790    28.3301
   60.0000    94.6224  9859.1279    15.9115    28.6609
   60.1000    94.3702  9858.9902    16.4717    28.8614
   60.2000    94.0811  9858.8525    17.3604    29.1324
   60.3000    93.6496  9858.7148    18.2513    29.4730
   60.4000    93.3116  9858.5781    18.9806    30.0328
   60.5000    93.1782  9858.4404    19.6465    30.9935
   60.6000    93.1094  9858.2998    20.2993    32.3000
   60.7000    92.8784  9858.1650    20.9375    36.5540
   60.8000    92.8799  9858.0273    21.7733    38.5283
   60.9000    93.1069  9857.8906    22.6142    40.3227
   61.0000    93.3615  9837.2051    23.4618    41.6468
   61.1000    93.6161  9789.1240    24.4533    42.7586
   61.2000    93.8707  9788.9814    25.7176    43.5087
   61.3000    94.1253  9788.8506    26.9959    44.4073
   61.4000    94.3977  9788.7148    27.9688    45.2713
   61.5000    94.8701  9788.5781    28.7067    46.3354
   61.6000    95.1911  9788.4424    29.3254    46.9475
   61.7000    95.4457  9788.3057    29.8177    45.5427
   61.8000    95.7897  9788.1592    30.1709    39.6201
   61.9000    96.2570  9788.0322    30.5241    36.2703
   62.0000    96.5197  9787.8955    29.0409    32.9205
   62.1000    96.5208  9787.7598    27.2551    29.5707
   62.2000    96.7186  9787.6230    25.8194    26.2209
   62.3000    96.9732  9787.4863    24.4909    22.8712
   62.4000    97.1287  9787.3369    22.5469    19.5214
   62.5000    97.1299  9787.2129    20.0350    15.6702
   62.6000    97.1311  9787.0771    18.0463    14.3628
   62.7000    97.1326  9786.9404    14.8230    11.5442
   62.8000    96.9273  9786.8037    11.8319     8.8267
   62.9000    96.6751  9786.6670    10.0658     7.3153
   63.0000    96.3142  9786.5146     9.1086     6.5781
   63.1000    95.7486  9736.7578     8.1179     5.7243
   63.2000    94.9897  9718.2627     7.6608     5.1158
   63.3000    94.1186  9665.6455     7.0929     4.2949
   63.4000    93.4719  9525.4326     6.6198     3.5626
   63.5000    92.5458  1860.8446     6.2537     3.0625
   63.6000    91.5336  1447.6809     5.8162     2.7475
   63.7000    90.5909   726.9548     5.1680     2.5400
   63.8000    89.8530   113.7627     4.6516     2.3221
   63.9000    89.2920    58.8734     4.2123     2.1403
   64.0000    88.3907    29.2753     3.8390     1.9807
   64.1000    87.7321    21.0841     3.5155     1.8179
   64.2000    87.2266    17.3806     3.3236     1.6767
   64.3000    86.7210    12.3232     3.1999     1.5514
   64.4000    86.2461     8.0439     3.1326     1.4969
   64.5000    85.9759     7.1187     3.0734     1.4488
   64.6000    85.7418     6.5116     3.0110     1.4113
   64.7000    85.1166     6.1240     2.9474     1.3767
   64.8000    84.2200     5.7468     2.8892     1.3380
   64.9000    83.0296     5.3281     2.7852     1.3042
   65.0000    81.5508     4.9387     2.6357     1.2774
   65.1000    80.2429     4.6334     2.4870     1.2532
   65.2000    79.0196     4.4295     2.3463     1.2316
   65.3000    77.7540     4.3034     2.2274     1.2104
   65.4000    76.6357     4.2205     2.1338     1.1895
   65.5000    75.7220     4.1751     2.0235     1.1672
   65.6000    75.0630     4.1497     1.9436     1.1489
   65.7000    74.8097     4.1042     1.8747     1.1385
   65.8000    74.2093     4.0926     1.8104     1.1252
   65.9000    74.4161     4.1334     1.7524     1.1098
   66.0000    74.6707     4.2342     1.6999     1.1027
   66.1000    74.9253     4.3850     1.6416     1.0890
   66.2000    75.2395     4.5446     1.5870     1.0832
   66.3000    75.7366     4.6768     1.5565     1.0770
   66.4000    76.0292     4.7715     1.5207     1.0675
   66.5000    76.0302     4.8729     1.4857     1.0572
   66.6000    76.1982     4.9882     1.4514     1.0511
   66.7000    76.3347     5.1000     1.4191     1.0447
   66.8000    76.2667     5.1900     1.4007     1.0447
   66.9000    76.0350     5.2627     1.3865     1.0403
   67.0000    76.0364     5.3132     1.3705     1.0375
   67.1000    75.5871     5.3758     1.3547     1.0396
   67.2000    75.0816     5.4392     1.3413     1.0448
   67.3000    74.5760     5.5032     1.3336     1.0448
   67.4000    74.1494     5.5669     1.3252     1.0448
   67.5000    73.8973     5.6050     1.3253     1.0449
   67.6000    73.6267     5.6328     1.3198     1.0482
   67.7000    73.6278     5.6446     1.3162     1.0543
   67.8000    73.6290     5.6598     1.3163     1.0605
   67.9000    73.6302     5.6846     1.3186     1.0669
   68.0000    73.7200     5.6869     1.3348     1.0729
   68.1000    73.9746     5.7249     1.3498     1.0792
   68.2000    74.2381     5.7251     1.3718     1.0855
   68.3000    74.7283     5.7253     1.3961     1.0941
