~VERSION INFORMATION
 VERS.                2.0:   CWLS LOG ASCII STANDARD - VERSION 2.0
 WRAP.                 NO:   ONE LINE PER DEPTH STEP
~WELL INFORMATION
#MNEM.UNIT      DATA TYPE    INFORMATION
#----------   ------------   ------------------------------
 STRT.F          276.0000:   START DEPTH
 STOP.F         2768.0000:   STOP DEPTH
 STEP.F            0.5000:   STEP LENGTH
 NULL.          -999.2500:   NO VALUE
 COMP.       TESORD PETRO:   COMPANY
 WELL. AX-20 NPR #3 #83-20:   WELL
 FLD .            WILDCAT:   FIELD
 LOC .      S20 T39N R78W:   LOCATION
 CNTY.            NATRONA:   COUNTY
 STAT.            WYOMING:   STATE
 CTRY. UNITED STATES OF AMERICA:   COUNTRY
 SRVC.       Schlumberger:   SERVICE COMPANY
 DATE.        20-JUL-1971:   LOGDATE
 API .       490251022000:   API NUMBER
~CURVE INFORMATION
#MNEM.UNIT       API CODE    CURVE DESCRIPTION
#----------   ------------   ------------------------------
 DEPT.F                  :   
 SPR .MV     05 010 01 00:   SPONTANEOUS POTENTIAL FROM RES.
 ASN .OHMM   05 041 16 00:   AMPLIFIED SHORT NORMAL 16"
 ILD .OHMM   05 120 46 00:   INDUCTION LOG DEEP
 CALD.IN     45 280 60 00:   CALIPER FROM DENSITY
 CORR.G/C3   45 356 01 00:   DENSITY CORRECTION
 DPHI.DEC    45 890 12 00:   DENSITY POROSITY SANDSTONE
 GRD .GAPI   45 310 01 00:   GAMMA RAY FROM DENSITY LOG
 RHOB.G/C3   45 350 01 00:   BULK DENSITY
 CILD.MMHO   05 110 46 00:   CONDUCTIVITY INDUCTION LOG DEEP
~PARAMETER INFORMATION
#MNEM.UNIT          VALUE    DESCRIPTION
#----------   ------------   ------------------------------
 PD  .                 GL:   PERMANENT DATUM
 EPD .F              4994:   ELEVATION PERMANENT DATUM
 LMF .                 KB:   LOG MEASURED FROM
 DAPD.F                11:   FEET ABOVE PERMANENT DATUM
 DMF .                 KB:   DRILLING MEASURED FROM
 EKB .F              5005:   KELLING BUSHING
 EGL .F              4994:   GROUND LEVEL
 DATE.        20-JUL-1971:   RUN DATE
 RUN .                  1:   RUN NUMBER
 DD  .F              2770:   DEPTH DRILLER
 DL  .F              2769:   DEPTH LOGGER
 BLI .F              2768:   BOTTOM LOG INTERVAL
 TLI .F               276:   TOP LOG INTERVAL
 CS  .IN            10.75:   CASING SIZE
 CBD .F               274:   CASING BOTTOM DRILLER
 CBL .F               276:   CASING BOTTOM LOGGER
 BS  .IN                9:   BIT SIZE
 BSD .F              2770:   BIT SIZE AT DEPTH
 DFT .      FRESH GEL MUD:   DRILLING FLUID TYPE
 DFD .                 10:   DRILLING FLUID DENSITY
 DFV .                 82:   DRILLING FLUID VISCOSITY
 DFPH.                  8:   DRILLING FLUID PH
 DFL .                4.8:   DRILLING FLUID LOSS
 MSS .           FLOWLINE:   MUD SAMPLE SOURCE
 RMS .OHMM            1.8:   RESISTIVITY MUD SAMPLE
 MST .F                73:   MUD SAMPLE TEMPERATURE
 RMF .OHMM            1.4:   RESISTIVITY MUD FILTRATE SAMPLE
 MFST.F                73:   MUD FILTRATE SAMPLE TEMPERATURE
 MFSS.               MEAS:   MUD FILTRATE SAMPLE SOURCE
 RMB .OHMM           1.15:   RESISTIVITY MUD AT BHT
 BHT .F               116:   BOTTOM HOLE TEMPERATURE
 TCS .HRS               2:   TIME CURCULATED STOPPED
 MRT .F               116:   MAXIMUM RECORDED TEMPERATURE
 LUN .               7037:   LOGGING UNIT NUMBER
 LUL .               CSPR:   LOGGING UNIT LOCATION
 ENGI.             JENSEN:   RECORDING ENGINEER
 WITN.                MAY:   WITNESSED BY
 CLNT.            A2DTECH:   CLIENT CODE
 ORIG.     1", 2.5" PRINT:   ORIGIN OF DATA
 UWI .       490251022000:   UNIQUE WELL ID
 DICO. A2D Technologies, Inc.:   DIGITIZING COMPANY
~OTHER INFORMATION
~A   DEPT      SPR          ASN        ILD     CALD       CORR       DPHI        GRD       RHOB       CILD   
# ...
 1553.5000   -31.5309     8.6407     6.6556     9.4904     0.0297     0.0988   119.2500     2.4972  -999.2500
 1554.0000   -31.8032     8.7003     6.6526     9.4901     0.0195     0.1114   121.1494     2.4477  -999.2500
 1554.5000   -31.8403     8.6703     6.6497     9.4898     0.0102     0.1216   125.0488     2.4595  -999.2500
 1555.0000   -32.1045     8.6403     6.6467     9.4895     0.0222     0.1126   124.5597     2.4780  -999.2500
 1555.5000   -32.1060     8.5804     6.6438     9.4892     0.0120     0.1073   121.6944     2.4506  -999.2500
 1556.0000   -32.1075     8.5206     6.6408     9.4889    -0.0021     0.1294   116.9552     2.4220  -999.2500
 1556.5000   -32.1090     8.4906     6.6378     9.4886     0.0019     0.1252   120.7591     2.4474  -999.2500
 1557.0000   -32.1104     8.4904     6.6349     9.4883     0.0101     0.1180   123.6498     2.4518  -999.2500
 1557.5000   -32.1119     8.4903     6.4835     9.4582     0.0071     0.1163   120.4573     2.4578  -999.2500
 1558.0000   -32.1134     8.5200     6.4806     9.4579     0.0086     0.1139   113.6809     2.4712  -999.2500
 1558.5000   -32.1149     8.5198     6.4776     9.4576     0.0205     0.1019   111.9739     2.4936  -999.2500
 1559.0000   -32.1164     8.5197     6.3263     9.4573     0.0325     0.1037   112.0164     2.4772  -999.2500
 1559.5000   -31.8192     8.5196     6.0266     9.4271     0.0369     0.1139   115.8732     2.4473  -999.2500
 1560.0000   -31.8209     8.4896     5.8753     9.3970     0.0129     0.1187   120.6865     2.4517  -999.2500
 1560.5000   -31.8224     8.3994     5.5756     9.3668     0.0025     0.1169   123.3114     2.4696  -999.2500
 1561.0000   -31.4378     8.2788     5.4242     9.3665     0.0120     0.1097   124.0083     2.4816  -999.2500
 1561.5000   -31.2281     8.0675     5.2729     9.3961     0.0261     0.1036   121.3106     2.4935  -999.2500
 1562.0000   -30.9311     7.7944     4.9732     9.4555     0.0323     0.0988   124.6480     2.5069  -999.2500
 1562.5000   -30.8333     7.2861     4.9703     9.4552     0.0205     0.0960   125.7659     2.5054  -999.2500
 1563.0000   -30.6356     6.9573     4.8189     9.4847     0.0143     0.1047   124.7033     2.4680  -999.2500
 1563.5000   -30.6373     6.5957     4.8160     9.5441     0.0210     0.1115   122.2862     2.4755  -999.2500
 1564.0000   -30.6388     6.2117     4.8130     9.5438     0.0588     0.0949   118.5970     2.5218  -999.2500
 1564.5000   -30.9388     6.0382     4.8101     9.5137     0.1023     0.0870   115.1618     2.5311  -999.2500
 1565.0000   -30.9403     5.9806     4.8071     9.4835     0.0763     0.1089   113.1716     2.4276  -999.2500
 1565.5000   -30.9418     6.0158     4.8041     9.4534     0.0173     0.1325   114.3488     2.4201  -999.2500
 1566.0000   -30.9433     6.1953     4.9495     9.4531     0.0078     0.1108   121.1438     2.4648  -999.2500
 1566.5000   -31.2433     6.2488     4.9466     9.4528     0.0022     0.1189   124.0813     2.4440  -999.2500
 1567.0000   -31.2448     6.1855     5.0925     9.4525     0.0062     0.1186   125.2177     2.4514  -999.2500
 1567.5000   -31.5448     6.1590     5.2374     9.4522     0.0292     0.1072   121.6532     2.4813  -999.2500
 1568.0000   -31.5463     6.3538     5.3828     9.4221     0.0619     0.1062   122.0417     2.4394  -999.2500
 1568.5000   -31.5478     6.5678     5.3798     9.4218     0.0283     0.1236   124.2887     2.4454  -999.2500
 1569.0000   -31.5493     6.9018     5.3769     9.3916     0.0186     0.1157   124.2761     2.4752  -999.2500
 1569.5000   -31.5507     7.0240     5.5223     9.3615     0.0260     0.1041   124.3814     2.5051  -999.2500
 1570.0000   -31.2537     6.9890     5.5193     9.3612     0.0193     0.0948   126.5222     2.5114  -999.2500
 1570.5000   -31.2552     6.9342     5.5164     9.3609     0.0140     0.1044   132.7114     2.4826  -999.2500
 1571.0000   -31.2567     6.9340     5.6618     9.3606     0.0241     0.1029   138.4171     2.5155  -999.2500
 1571.5000   -31.2582     6.9637     5.6587     9.3603     0.0259     0.0904   142.3876     2.5238  -999.2500
 1572.0000   -31.2597     6.9994     5.5074     9.3898     0.0194     0.0985   144.0416     2.4587  -999.2500
 1572.5000   -31.2615     7.0654     5.3561     9.4194     0.0065     0.1170   143.0487     2.4661  -999.2500
 1573.0000   -30.9645     7.1489     5.2047     9.4191     0.0151     0.1077   139.6193     2.4945  -999.2500
 1573.5000   -30.9659     7.1721     5.0432     9.4188     0.0252     0.0940   134.8087     2.5229  -999.2500
 1574.0000   -30.9674     7.0018     4.8912     9.4483     0.0201     0.0901   132.6716     2.5004  -999.2500
 1574.5000   -30.9689     6.7920     4.7392     9.4480     0.0216     0.0986   133.1100     2.4750  -999.2500
 1575.0000   -30.6716     6.6119     4.5870     9.4477     0.0224     0.1084   131.9028     2.4585  -999.2500
 1575.5000   -30.6734     6.4021     4.4350     9.4474     0.0106     0.1176   129.7903     2.4510  -999.2500
 1576.0000   -30.6749     6.2141     4.2968     9.4770     0.0018     0.1198   124.6679     2.4465  -999.2500
 1576.5000   -30.6763     6.0256     4.1454     9.4767     0.0037     0.1201   122.3172     2.4465  -999.2500
 1577.0000   -30.6778     5.6492     3.9940     9.4764     0.0097     0.1103   120.9274     2.4704  -999.2500
 1577.5000   -30.3808     5.2467     3.8427     9.4761     0.0165     0.1069   118.2204     2.4779  -999.2500
 1578.0000   -30.3823     4.9559     3.8397     9.4758     0.0102     0.1200   122.6657     2.4464  -999.2500
 1578.5000   -30.0853     4.7734     3.8193     9.4755     0.0104     0.1274   129.6067     2.4225  -999.2500
 1579.0000   -30.0867     4.6929     3.6854     9.4752     0.0310     0.1315   127.2166     2.4284  -999.2500
 1579.5000   -29.7897     4.7322     3.6825     9.5048     0.0414     0.1303   123.1602     2.4209  -999.2500
 1580.0000   -29.7912     4.8319     3.6795     9.5343     0.0173     0.1193   119.7308     2.4359  -999.2500
 1580.5000   -29.4940     4.9422     3.6766     9.5639     0.0275     0.1054   117.3858     2.4808  -999.2500
 1581.0000   -29.4956     5.1311     3.6736     9.5934     0.0455     0.0981   114.5742     2.4959  -999.2500
 1581.5000   -29.4971     5.1185     3.8192     9.6230     0.0576     0.0906   111.0829     2.5225  -999.2500
 1582.0000   -29.2000     5.0283     3.8388     9.6525     0.0406     0.0971   110.6774     2.5101  -999.2500
 1582.5000   -29.2016     4.9605     3.9617     9.5925     0.0269     0.1044   113.8094     2.4907  -999.2500
 1583.0000   -29.5700     4.9305     4.1071     9.5624     0.0224     0.1130   115.6522     2.4676  -999.2500
 1583.5000   -29.7283     5.0017     4.1288     9.5322     0.0119     0.1251   116.9398     2.4382  -999.2500
 1584.0000   -29.8866     5.1033     4.3979     9.4722     0.0350     0.1361   120.5192     2.4122  -999.2500
 1584.5000   -30.0448     5.2352     4.5695     9.4719     0.0163     0.1361   120.3470     2.4043  -999.2500
 1585.0000   -30.1840     5.7408     4.7157     9.4418     0.0172     0.1181   120.3358     2.4563  -999.2500
 1585.5000   -30.7866     6.0424     4.9825     9.4415     0.0147     0.1091   124.9432     2.4798  -999.2500
 1586.0000   -31.0906     6.1494     5.1563     9.4412     0.0196     0.0967   126.6001     2.4950  -999.2500
 1586.5000   -31.6929     6.2393     5.3024     9.4409     0.0411     0.0812   125.4575     2.5299  -999.2500
 1587.0000   -31.9015     6.3457     5.5970     9.4406     0.0498     0.0817   123.4313     2.5462  -999.2500
 1587.5000   -31.9030     6.4901     5.7431     9.4403     0.0431     0.0876   120.7278     2.5387  -999.2500
 1588.0000   -32.0080     6.8793     6.0063     9.4400     0.0581     0.0743   122.2984     2.5152  -999.2500
 1588.5000   -32.2045     7.0907     6.1837     9.4397     0.0418     0.0624   126.3203     2.4990  -999.2500
 1589.0000   -32.5045     7.2406     6.2971     9.4394     0.0152     0.0893   125.6014     2.4878  -999.2500
 1589.5000   -32.9200     7.4056     6.4425     9.4391     0.0205     0.0838   123.1097     2.5160  -999.2500
