~VERSION INFORMATION
 VERS.                2.0:   CWLS LOG ASCII STANDARD - VERSION 2.0
 WRAP.                 NO:   ONE LINE PER DEPTH STEP
~WELL INFORMATION
#MNEM.UNIT      DATA TYPE    INFORMATION
#----------   ------------   ------------------------------
 STRT.F           12.5000:   START DEPTH
 STOP.F          604.0000:   STOP DEPTH
 STEP.F            0.5000:   STEP LENGTH
 NULL.          -999.2500:   NO VALUE
 COMP. FENIX & SCISSON INC:   COMPANY
 WELL.   SX-3 NPR 3 #61-3:   WELL
 FLD .             TEAPOT:   FIELD
 LOC .       S3 T38N R78W:   LOCATION
 CNTY.            NATRONA:   COUNTY
 STAT.            WYOMING:   STATE
 CTRY. UNITED STATES OF AMERICA:   COUNTRY
 SRVC.           BIRDWELL:   SERVICE COMPANY
 DATE.        03-DEC-1978:   LOGDATE
 API .       490251074100:   API NUMBER
~CURVE INFORMATION
#MNEM.UNIT       API CODE    CURVE DESCRIPTION
#----------   ------------   ------------------------------
 DEPT.F                  :   
 SPR .MV     05 010 01 00:   SPONTANEOUS POTENTIAL FROM RES.
 SN  .OHMM   05 040 16 00:   SHORT NORMAL 16"
 IL  .OHMM   05 120 00 00:   INDUCTION LOG
 CALD.IN     45 280 60 00:   CALIPER
 GRD .GAPI   45 310 01 00:   GAMMA RAY FROM DENSITY LOG
 DEN .G/C3   45 350 01 00:   COMPENSATED BULK DENSTIY
 CORR.G/C3   45 356 01 00:   DENSITY CORRECTION
 DPHI.DEC    45 890 12 00:   DENSITY POROSITY SANDSTONE
~PARAMETER INFORMATION
#MNEM.UNIT          VALUE    DESCRIPTION
#----------   ------------   ------------------------------
 PD  .                 GL:   PERMANENT DATUM
 EPD .F              5099:   ELEVATION PERMANENT DATUM
 LMF .                 KB:   LOG MEASURED FROM
 DAPD.F                 4:   FEET ABOVE PERMANENT DATUM
 DMF .                 KB:   DRILLING MEASURED FROM
 EKB .F              5103:   KELLING BUSHING
 EGL .F              5099:   GROUND LEVEL
 DATE.            12-3-78:   RUN DATE
 RUN .                  1:   RUN NUMBER
 DD  .F               615:   DEPTH DRILLER
 DL  .F               604:   DEPTH LOGGER
 BLI .F               598:   BOTTOM LOG INTERVAL
 TLI .F                40:   TOP LOG INTERVAL
 CS  .IN            8.625:   CASING SIZE
 CBL .F                35:   CASING BOTTOM LOGGER
 BS  .IN            7.875:   BIT SIZE
 BSD .F               615:   BIT SIZE AT DEPTH
 DFT .                KCL:   DRILLING FLUID TYPE
 DFD .                8.8:   DRILLING FLUID DENSITY
 DFV .                 42:   DRILLING FLUID VISCOSITY
 DFPH.               12.2:   DRILLING FLUID PH
 DFL .                 10:   DRILLING FLUID LOSS
 MSS .           FLOWLINE:   MUD SAMPLE SOURCE
 RMS .OHMM            .24:   RESISTIVITY MUD SAMPLE
 MST .F                58:   MUD SAMPLE TEMPERATURE
 RMF .OHMM             .3:   RESISTIVITY MUD FILTRATE SAMPLE
 MFST.F                54:   MUD FILTRATE SAMPLE TEMPERATURE
 RMC .OHMM            .34:   RESISTIVITY MUD CAKE
 MCST.F                56:   MUD CAKE SAMPLE TEMPERATURE
 MFSS.           MEASURED:   MUD FILTRATE SAMPLE SOURCE
 MCSS.           MEASURED:   MUD CAKE SAMPLE SOURCE
 RMB .OHMM            .27:   RESISTIVITY MUD AT BHT
 BHT .F                56:   BOTTOM HOLE TEMPERATURE
 TCS .HRS               3:   TIME CURCULATED STOPPED
 MRT .F                52:   MAXIMUM RECORDED TEMPERATURE
 LUN .               2958:   LOGGING UNIT NUMBER
 LUL .                CPR:   LOGGING UNIT LOCATION
 ENGI.            ROLLINS:   RECORDING ENGINEER
 WITN.              AMEND:   WITNESSED BY
 CLNT.            A2DTECH:   CLIENT CODE
 ORIG.       2", 5" PRINT:   ORIGIN OF DATA
 UWI .       490251074100:   UNIQUE WELL ID
 DICO. A2D Technologies, Inc.:   DIGITIZING COMPANY
~OTHER INFORMATION
~A   DEPT      SPR         SN         IL       CALD         GRD       DEN       CORR       DPHI   
# ...
  255.5000   -49.6455    11.7156    11.3398     8.0011    99.4047     2.4653     0.0085     0.1400
  256.0000   -49.7557    11.6531    11.2981     7.9976    97.9525     2.4610     0.0078     0.1383
  256.5000   -49.8661    11.5968    11.2566     7.9942    95.9166     2.4647     0.0071     0.1321
  257.0000   -49.9768    11.5407    11.2152     7.9908    94.2521     2.4711     0.0064     0.1284
  257.5000   -50.0871    11.4850    11.1741     7.9874    93.8269     2.4774     0.0057     0.1297
  258.0000   -50.1005    11.4295    11.1330     7.9839    94.1766     2.4759     0.0063     0.1379
  258.5000   -50.0695    11.3743    11.0921     7.9818    97.6272     2.4651     0.0074     0.1468
  259.0000   -49.9718    11.3194    11.0323     7.9883    99.5102     2.4515     0.0086     0.1557
  259.5000   -49.8753    11.2647    10.9561     7.9947    99.9544     2.4378     0.0111     0.1615
  260.0000   -49.7787    11.2103    10.8803     8.0011    99.9808     2.4265     0.0209     0.1585
  260.5000   -49.6823    11.1561    10.8052     8.0075    99.8321     2.4293     0.0304     0.1548
  261.0000   -49.5858    11.1022    10.7305     8.0141    99.0585     2.4344     0.0378     0.1510
  261.5000   -49.4893    11.0486    10.6563     8.0202    97.9620     2.4396     0.0385     0.1476
  262.0000   -49.3928    10.9952    10.5827     7.9980    96.8356     2.4442     0.0394     0.1494
  262.5000   -49.2962    10.9421    10.5095     7.9724    96.7694     2.4438     0.0417     0.1504
  263.0000   -49.1990    10.8893    10.4369     7.9467    96.8377     2.4422     0.0563     0.1470
  263.5000   -49.1006    10.8367    10.3648     7.9211    97.4474     2.4450     0.0597     0.1444
  264.0000   -49.0954    10.7843    10.2931     7.8955    98.8865     2.4507     0.0635     0.1528
  264.5000   -49.0970    10.7322    10.2220     7.8697   100.3009     2.4394     0.0706     0.1567
  265.0000   -49.1450    10.6804    10.1513     7.8428   100.9806     2.4308     0.0821     0.1513
  265.5000   -49.2614    10.6288    10.0868     7.8896   101.1155     2.4375     0.0834     0.1488
  266.0000   -49.3777    10.5774    10.0440     7.9447   102.3434     2.4467     0.0834     0.1467
  266.5000   -49.4919    10.5263    10.0014     7.9971   103.1926     2.4495     0.0852     0.1445
  267.0000   -49.5695    10.4755     9.9589     8.0166   101.9980     2.4520     0.0979     0.1415
  267.5000   -49.6612    10.4249     9.9166     8.0223    99.9630     2.4600     0.1107     0.1342
  268.0000   -49.7539    10.3745     9.8746     8.0229    97.9013     2.4714     0.1159     0.1272
  268.5000   -49.8466    10.3244     9.8326     8.0240    96.5172     2.4795     0.0966     0.1272
  269.0000   -49.9392    10.2746     9.7909     8.0252    95.6073     2.4723     0.0741     0.1405
  269.5000   -50.0319    10.2249     9.7493     8.0264    95.8867     2.4610     0.0516     0.1492
  270.0000   -50.1246    10.1755     9.7080     8.0276    96.1749     2.4493     0.0285     0.1485
  270.5000   -50.2173    10.1264     9.6668     8.0288    96.1890     2.4460     0.0169     0.1471
  271.0000   -50.3019    10.0774     9.6257     8.0300    96.1909     2.4472     0.0102     0.1471
  271.5000   -50.3279    10.0288     9.5849     8.0311    96.3934     2.4479     0.0073     0.1500
  272.0000   -50.3520    10.0029     9.5442     8.0323    96.9091     2.4428     0.0057     0.1529
  272.5000   -50.3762    10.0029     9.5037     8.0335    97.4190     2.4382     0.0061     0.1519
  273.0000   -50.4004    10.0027     9.4633     8.0347    97.9323     2.4394     0.0066     0.1510
  273.5000   -50.4246    10.0147     9.4232     8.0359    98.1762     2.4407     0.0070     0.1500
  274.0000   -50.4488    10.0302     9.3832     8.0371    97.9835     2.4419     0.0074     0.1519
  274.5000   -50.4732    10.0457     9.3268     8.0382    98.4947     2.4368     0.0078     0.1564
  275.0000   -50.4971    10.0610     9.2675     8.0394    98.3376     2.4312     0.0083     0.1609
  275.5000   -50.5668    10.0767     9.2049     8.0406    97.2014     2.4256     0.0087     0.1643
  276.0000   -50.6701    10.0955     8.9602     8.0418    96.6469     2.4201     0.0092     0.1647
  276.5000   -50.7744     9.9537     8.7066     8.0430    96.3200     2.4171     0.0096     0.1640
  277.0000   -50.8787     9.7751     8.4705     8.0442    95.1243     2.4184     0.0100     0.1626
  277.5000   -50.9824     9.5990     8.3805     8.0453    93.9407     2.4234     0.0105     0.1570
  278.0000   -51.0797     9.4263     8.2950     8.0465    93.7063     2.4319     0.0109     0.1512
  278.5000   -51.4165     9.2568     8.2390     8.0477    96.4145     2.4403     0.0113     0.1486
  279.0000   -51.7918     9.1202     8.2390     8.0489    99.8367     2.4477     0.0118     0.1460
  279.5000   -52.1681     9.1832     8.3534     8.0501   103.2637     2.4499     0.0122     0.1448
  280.0000   -52.5451     9.2368     8.4709     8.0513   105.4561     2.4523     0.0126     0.1440
  280.5000   -52.9042     9.2907     8.5899     8.0524   105.9465     2.4530     0.0131     0.1413
  281.0000   -52.9516     9.3449     8.7107     8.0536   108.3474     2.4558     0.0135     0.1380
  281.5000   -52.9870     9.3995     8.7894     8.0548   111.4926     2.4614     0.0139     0.1368
  282.0000   -53.0240     9.4543     8.7894     8.0560   111.8927     2.4662     0.0144     0.1370
  282.5000   -53.0612     9.5095     8.7894     8.0572   106.7055     2.4661     0.0148     0.1376
  283.0000   -53.0987     9.5650     8.8236     8.0584   103.1725     2.4643     0.0153     0.1380
  283.5000   -53.1123     9.6209     8.8981     8.0597   104.3082     2.4622     0.0161     0.1380
  284.0000   -53.1125     9.6770     8.9738     8.0621   105.7907     2.4624     0.0176     0.1364
  284.5000   -53.1125     9.7335     9.0499     8.0128   106.7264     2.4653     0.0191     0.1349
  285.0000   -53.1124     9.7903     9.1268     7.9587   106.6236     2.4682     0.0205     0.1335
  285.5000   -53.1124     9.8475     9.2042     7.9466   105.4444     2.4712     0.0215     0.1320
  286.0000   -53.1124     9.9049     9.2901     8.0281   104.2842     2.4741     0.0215     0.1306
  286.5000   -53.1124     9.9109     9.2421     8.0598   103.1218     2.4769     0.0215     0.1304
  287.0000   -53.1124    10.0029     9.1885     8.0593   101.9603     2.4756     0.0215     0.1313
  287.5000   -53.1124    10.0029     9.1352     8.0579   100.7917     2.4741     0.0215     0.1323
  288.0000   -53.1124     9.9948     9.0823     8.0566   100.0616     2.4727     0.0215     0.1333
  288.5000   -53.1124     9.9565     9.0296     8.0553   104.0536     2.4711     0.0215     0.1361
  289.0000   -53.1124     9.9188     8.9773     8.0541   108.5165     2.4641     0.0217     0.1440
  289.5000   -53.1124     9.8813     8.9252     8.0528   110.7447     2.4564     0.0238     0.1452
  290.0000   -53.1124     9.8439     8.8735     8.0515   109.9538     2.4531     0.0258     0.1434
  290.5000   -53.1124     9.8067     8.8221     8.0503   109.0351     2.4530     0.0279     0.1420
  291.0000   -53.1124     9.7696     8.7709     8.0490   108.3313     2.4526     0.0299     0.1452
  291.5000   -53.1124     9.7326     8.7201     8.0478   105.9704     2.4505     0.0320     0.1479
  292.0000   -53.1124     9.6958     8.6695     8.0465   102.9355     2.4483     0.0340     0.1488
  292.5000   -53.1124     9.6591     8.6193     8.0452   102.1535     2.4462     0.0361     0.1477
  293.0000   -53.1125     9.6226     8.5693     8.0440   102.3676     2.4460     0.0381     0.1456
  293.5000   -53.1127     9.5862     8.5196     8.0427   102.6480     2.4498     0.0386     0.1397
  294.0000   -53.1154     9.5499     8.4702     8.0414   102.7925     2.4566     0.0362     0.1388
  294.5000   -53.0117     9.5138     8.4211     8.0374   103.4390     2.4619     0.0338     0.1410
  295.0000   -52.8925     9.4778     8.3723     8.0315   106.6782     2.4605     0.0315     0.1432
  295.5000   -52.7730     9.4419     8.3238     8.0256   107.1561     2.4569     0.0314     0.1454
