~VERSION INFORMATION
 VERS.                2.0:   CWLS LOG ASCII STANDARD - VERSION 2.0
 WRAP.                 NO:   ONE LINE PER DEPTH STEP
~WELL INFORMATION
#MNEM.UNIT      DATA TYPE    INFORMATION
#----------   ------------   ------------------------------
 STRT.F           30.0000:   START DEPTH
 STOP.F          444.0000:   STOP DEPTH
 STEP.F            0.5000:   STEP LENGTH
 NULL.          -999.2500:   NO VALUE
 COMP. FENIX & SCISSON INC:   COMPANY
 WELL.       SX 3FO #54-3:   WELL
 FLD .             TEAPOT:   FIELD
 LOC .       S3 T38N R78W:   LOCATION
 CNTY.            NATRONA:   COUNTY
 STAT.            WYOMING:   STATE
 CTRY. UNITED STATES OF AMERICA:   COUNTRY
 SRVC.              Welex:   SERVICE COMPANY
 DATE.        08-JUL-1980:   LOGDATE
 API .       490251082800:   API NUMBER
~CURVE INFORMATION
#MNEM.UNIT       API CODE    CURVE DESCRIPTION
#----------   ------------   ------------------------------
 DEPT.F                  :   
 GRD .GAPI   45 310 01 00:   GAMMA RAY FROM DENSITY LOG
 CALD.IN     45 280 60 00:   CALIPER
 RHOB.G/C3   45 350 01 00:   BULK DENSITY
 DPHI.DEC    45 890 12 00:   DENSITY POROSITY SANDSTONE
 CORR.G/C3   45 356 01 00:   DENSITY CORRECTION
~PARAMETER INFORMATION
#MNEM.UNIT          VALUE    DESCRIPTION
#----------   ------------   ------------------------------
 PD  .                 GL:   PERMANENT DATUM
 EPD .F              5162:   ELEVATION PERMANENT DATUM
 LMF .                 KB:   LOG MEASURED FROM
 DAPD.F                 5:   FEET ABOVE PERMANENT DATUM
 DMF .                 KB:   DRILLING MEASURED FROM
 EKB .F              5167:   KELLING BUSHING
 EGL .F              5162:   GROUND LEVEL
 DATE.             7-8-80:   RUN DATE
 RUN .                  1:   RUN NUMBER
 DD  .F               470:   DEPTH DRILLER
 DL  .F               446:   DEPTH LOGGER
 BLI .F               444:   BOTTOM LOG INTERVAL
 TLI .F                30:   TOP LOG INTERVAL
 CS  .IN                7:   CASING SIZE
 CBD .F                43:   CASING BOTTOM DRILLER
 BS  .IN             6.25:   BIT SIZE
 BSD .F               470:   BIT SIZE AT DEPTH
 DFT .        AIR DRILLED:   DRILLING FLUID TYPE
 BHT .F                75:   BOTTOM HOLE TEMPERATURE
 TCS .HRS             2.5:   TIME CURCULATED STOPPED
 MRT .F                75:   MAXIMUM RECORDED TEMPERATURE
 ENGI.               REIN:   RECORDING ENGINEER
 WITN.            RHOADES:   WITNESSED BY
 CLNT.            A2DTECH:   CLIENT CODE
 ORIG.           5" PRINT:   ORIGIN OF DATA
 UWI .       490251082800:   UNIQUE WELL ID
 DICO. A2D Technologies, Inc.:   DIGITIZING COMPANY
~OTHER INFORMATION
~A   DEPT       GRD      CALD       RHOB       DPHI       CORR   
# ...
  335.0000    73.5130     5.8217     2.4603     0.1341     0.1011
  335.5000    75.6753     5.8427     2.4644     0.1305     0.1069
  336.0000    77.8269     5.8729     2.4638     0.1342     0.1115
  336.5000    78.0365     5.8700     2.4604     0.1351     0.1008
  337.0000    76.6004     5.8282     2.4565     0.1345     0.0902
  337.5000    77.3911     5.7870     2.4557     0.1356     0.0824
  338.0000    76.3637     5.7435     2.4577     0.1339     0.0740
  338.5000    75.0005     5.7861     2.4667     0.1297     0.0723
  339.0000    74.2025     5.8398     2.4763     0.1242     0.0804
  339.5000    73.4443     5.8175     2.4860     0.1177     0.0884
  340.0000    72.6776     5.8059     2.4957     0.1116     0.0963
  340.5000    72.9704     5.8393     2.5002     0.1122     0.1019
  341.0000    74.2745     5.8284     2.4958     0.1138     0.0995
  341.5000    75.5259     5.8010     2.4945     0.1143     0.0962
  342.0000    76.4287     5.7828     2.4975     0.1121     0.0988
  342.5000    76.3186     5.8075     2.5008     0.1104     0.1021
  343.0000    76.2009     5.8311     2.5020     0.1103     0.1029
  343.5000    76.8418     5.8555     2.5005     0.1106     0.0994
  344.0000    77.7536     5.8437     2.5027     0.1090     0.0980
  344.5000    77.4609     5.8192     2.5072     0.1074     0.1019
  345.0000    77.0806     5.8031     2.4994     0.1090     0.1035
  345.5000    76.8058     5.8380     2.4877     0.1167     0.0978
  346.0000    77.4889     5.8717     2.4837     0.1210     0.0941
  346.5000    78.3963     5.8992     2.4882     0.1185     0.0954
  347.0000    79.3362     5.8072     2.4865     0.1195     0.0967
  347.5000    79.5726     5.8305     2.4787     0.1216     0.0976
  348.0000    79.3879     5.8777     2.4708     0.1264     0.0935
  348.5000    79.4303     5.8134     2.4652     0.1317     0.0894
  349.0000    80.4865     5.8351     2.4592     0.1348     0.0858
  349.5000    81.5079     5.8605     2.4533     0.1385     0.0880
  350.0000    79.4572     5.8552     2.4474     0.1436     0.0912
  350.5000    77.0877     5.8506     2.4413     0.1456     0.0944
  351.0000    75.0553     5.8459     2.4331     0.1508     0.0976
  351.5000    73.8456     5.8414     2.4221     0.1581     0.0996
  352.0000    72.4285     5.8349     2.4057     0.1702     0.0987
  352.5000    70.8001     5.8286     2.3838     0.1844     0.0979
  353.0000    69.1825     5.8225     2.3667     0.1922     0.1013
  353.5000    67.5928     5.8276     2.3544     0.1982     0.1050
  354.0000    65.1940     5.8343     2.3368     0.2030     0.1070
  354.5000    63.4584     5.8407     2.3238     0.2157     0.1035
  355.0000    63.9356     5.8227     2.3336     0.2100     0.1069
  355.5000    63.7374     5.8012     2.3428     0.2053     0.1169
  356.0000    62.9373     5.7795     2.3242     0.2169     0.1230
  356.5000    62.9291     5.7585     2.3034     0.2274     0.1021
  357.0000    63.2747     5.7527     2.2917     0.2331     0.0930
  357.5000    64.1674     5.7965     2.3003     0.2273     0.1016
  358.0000    65.1507     5.8383     2.3122     0.2209     0.1104
  358.5000    63.8102     5.8509     2.3215     0.2166     0.1198
  359.0000    64.6646     5.8077     2.3139     0.2199     0.1043
  359.5000    66.4097     5.7656     2.3069     0.2247     0.0790
  360.0000    67.6502     5.7428     2.3273     0.2156     0.0809
  360.5000    66.1010     5.7780     2.3510     0.2055     0.0859
  361.0000    69.5323     5.8184     2.3524     0.2000     0.0854
  361.5000    72.6257     5.8296     2.3502     0.1992     0.0764
  362.0000    71.4705     5.7825     2.3568     0.1946     0.0728
  362.5000    68.8848     5.8412     2.3657     0.1900     0.0784
  363.0000    66.2905     5.8671     2.3681     0.1892     0.0849
  363.5000    63.7062     5.8368     2.3771     0.1850     0.0914
  364.0000    63.5340     5.8058     2.3858     0.1790     0.0979
  364.5000    64.5404     5.8260     2.3940     0.1736     0.1038
  365.0000    65.5397     5.8541     2.4024     0.1683     0.1006
  365.5000    65.6734     5.8800     2.4104     0.1631     0.0959
  366.0000    64.6653     5.8618     2.4184     0.1574     0.0911
  366.5000    65.0877     5.8425     2.4266     0.1541     0.0895
  367.0000    66.8856     5.8234     2.4280     0.1549     0.0887
  367.5000    68.6662     5.8045     2.4118     0.1609     0.0882
  368.0000    69.9795     5.7849     2.3925     0.1741     0.0814
  368.5000    68.5499     5.8176     2.3721     0.1873     0.0723
  369.0000    67.5364     5.8649     2.3619     0.1916     0.0659
  369.5000    68.5951     5.8444     2.3627     0.1910     0.0697
  370.0000    69.0502     5.8205     2.3667     0.1904     0.0732
  370.5000    66.8661     5.7803     2.3739     0.1796     0.0767
  371.0000    66.8490     5.7744     2.3810     0.1812     0.0797
  371.5000    69.5627     5.7691     2.3885     0.1769     0.0858
  372.0000    71.7148     5.7641     2.3972     0.1725     0.0941
  372.5000    73.5058     5.7776     2.4065     0.1618     0.1021
  373.0000    72.5821     5.8021     2.4163     0.1589     0.1098
  373.5000    70.9389     5.8265     2.4196     0.1583     0.1173
  374.0000    69.3500     5.8383     2.4237     0.1551     0.1246
  374.5000    63.1786     5.8217     2.4310     0.1518     0.1300
  375.0000    60.9395     5.8053     2.4346     0.1489     0.1267
  375.5000    60.1655     5.7888     2.4322     0.1499     0.1216
  376.0000    59.7829     5.7823     2.4322     0.1498     0.1137
  376.5000    61.8180     5.7821     2.4431     0.1453     0.1098
  377.0000    63.6108     5.7819     2.4412     0.1461     0.1099
  377.5000    64.8632     5.7592     2.4377     0.1486     0.1182
  378.0000    66.0530     5.7249     2.4344     0.1477     0.1275
  378.5000    67.6211     5.7708     2.4464     0.1445     0.1369
  379.0000    69.2046     5.7982     2.4413     0.1429     0.1352
  379.5000    69.8906     5.7753     2.4307     0.1524     0.1225
  380.0000    70.2763     5.7522     2.4202     0.1603     0.1093
  380.5000    70.5520     5.7698     2.4119     0.1599     0.1059
  381.0000    70.8460     5.7973     2.4168     0.1585     0.1058
  381.5000    71.0320     5.8136     2.4159     0.1618     0.1044
  382.0000    71.9600     5.7596     2.4055     0.1627     0.1025
  382.5000    72.8639     5.7060     2.4032     0.1607     0.1007
  383.0000    73.6794     5.6943     2.4162     0.1589     0.0988
  383.5000    74.5952     5.7128     2.4187     0.1581     0.1028
  384.0000    75.6085     5.7315     2.4300     0.1571     0.1123
  384.5000    75.7490     5.7502     2.4461     0.1475     0.1260
  385.0000    73.5004     5.7585     2.4622     0.1371     0.1391
  385.5000    74.9061     5.7465     2.4732     0.1274     0.1431
  386.0000    77.0939     5.7348     2.4681     0.1276     0.1379
  386.5000    75.6799     5.7233     2.4627     0.1277     0.1343
  387.0000    73.8326     5.7305     2.4752     0.1236     0.1306
  387.5000    72.0113     5.7388     2.4852     0.1190     0.1269
  388.0000    70.4566     5.7472     2.4826     0.1217     0.1203
  388.5000    70.9986     5.7555     2.4795     0.1241     0.1125
  389.0000    71.9873     5.7606     2.4808     0.1218     0.1048
  389.5000    72.4693     5.7393     2.4852     0.1196     0.0983
  390.0000    71.2262     5.5904     2.4915     0.1177     0.0959
  390.5000    70.7647     5.5947     2.4976     0.1111     0.0986
  391.0000    71.8046     5.6802     2.5038     0.1072     0.1003
  391.5000    73.0518     5.7649     2.5101     0.1038     0.1020
  392.0000    74.3165     5.8229     2.5108     0.1049     0.1037
  392.5000    75.4014     5.8202     2.5076     0.1062     0.1030
  393.0000    75.2975     5.8147     2.5110     0.1022     0.1020
  393.5000    75.2171     5.8094     2.5180     0.0994     0.1045
  394.0000    75.2356     5.8040     2.5212     0.0978     0.1077
  394.5000    75.3836     5.7986     2.5149     0.1010     0.1052
  395.0000    75.5596     5.7933     2.5094     0.1042     0.1022
  395.5000    76.1147     5.7879     2.5136     0.1050     0.0993
