~VERSION INFORMATION
 VERS.                2.0:   CWLS LOG ASCII STANDARD - VERSION 2.0
 WRAP.                 NO:   ONE LINE PER DEPTH STEP
~WELL INFORMATION
#MNEM.UNIT      DATA TYPE    INFORMATION
#----------   ------------   ------------------------------
 STRT.F            1.0000:   START DEPTH
 STOP.F          524.0000:   STOP DEPTH
 STEP.F            0.1000:   STEP LENGTH
 NULL.          -999.2500:   NO VALUE
 COMP.       F D SERV INC:   COMPANY
 WELL.    87-2 SX-3 #87-3:   WELL
 FLD .             TEAPOT:   FIELD
 LOC .       S3 T38N R78W:   LOCATION
 CNTY.            NATRONA:   COUNTY
 STAT.            WYOMING:   STATE
 CTRY. UNITED STATES OF AMERICA:   COUNTRY
 SRVC.     Atlas Wireline:   SERVICE COMPANY
 DATE.        20-OCT-1992:   LOGDATE
 API .       490252254700:   API NUMBER
~CURVE INFORMATION
#MNEM.UNIT       API CODE    CURVE DESCRIPTION
#----------   ------------   ------------------------------
 DEPT.F                  :   
 GRR .GAPI   07 310 01 00:   GAMMA RAY
 RILD.OHMM   07 120 46 00:   INDUCTION LOG DEEP RESISTIVITY
 RILM.OHMM   07 120 44 00:   INDUCTION LOG MEDIUM RESISTIVITY
~PARAMETER INFORMATION
#MNEM.UNIT          VALUE    DESCRIPTION
#----------   ------------   ------------------------------
 PD  .                 GL:   PERMANENT DATUM
 EPD .F              5124:   ELEVATION PERMANENT DATUM
 LMF .                 KB:   LOG MEASURED FROM
 DAPD.F                10:   FEET ABOVE PERMANENT DATUM
 DMF .                 KB:   DRILLING MEASURED FROM
 EKB .F              5134:   KELLING BUSHING
 EDF .F              5133:   DRILLING FLOOR
 EGL .F              5124:   GROUND LEVEL
 DATE.        20-OCT-1992:   RUN DATE
 RUN .                  1:   RUN NUMBER
 DD  .F               533:   DEPTH DRILLER
 DL  .F               532:   DEPTH LOGGER
 BLI .F               524:   BOTTOM LOG INTERVAL
 TLI .F                74:   TOP LOG INTERVAL
 CS  .IN            8.625:   CASING SIZE
 CBD .F                85:   CASING BOTTOM DRILLER
 CBL .F                74:   CASING BOTTOM LOGGER
 BS  .IN            7.875:   BIT SIZE
 BSD .F               533:   BIT SIZE AT DEPTH
 DFT .           AIR FOAM:   DRILLING FLUID TYPE
 TCS .HRS               3:   TIME CURCULATED STOPPED
 MRT .F                70:   MAXIMUM RECORDED TEMPERATURE
 LUN .            HL-6274:   LOGGING UNIT NUMBER
 LUL .             CASPER:   LOGGING UNIT LOCATION
 ENGI.             RAUTIO:   RECORDING ENGINEER
 WITN.        GARY STRONG:   WITNESSED BY
 CLNT.            A2DTECH:   CLIENT CODE
 ORIG.           5" PRINT:   ORIGIN OF DATA
 UWI .       490252254700:   UNIQUE WELL ID
 DICO. A2D Technologies, Inc.:   DIGITIZING COMPANY
~OTHER INFORMATION
~A    DEPT     GRR       RILD       RILM   
# ...
  183.0000   129.3839     7.9433     8.0908
  183.1000   129.3851     7.9434     8.0043
  183.2000   129.6307     7.8992     7.9455
  183.3000   129.6911     7.8884     7.8784
  183.4000   129.6923     7.8885     7.8001
  183.5000   129.6196     7.8886     7.7567
  183.6000   129.3742     7.8887     7.7560
  183.7000   129.0891     7.8888     7.7205
  183.8000   129.0901     7.8889     7.6763
  183.9000   128.9414     7.8890     7.6471
  184.0000   128.6960     7.8891     7.6416
  184.1000   128.4506     7.8893     7.5929
  184.2000   128.1846     7.8894     7.5924
  184.3000   127.7338     7.8895     7.5919
  184.4000   127.4108     7.8896     7.5913
  184.5000   127.0531     7.8897     7.5908
  184.6000   126.6165     7.8898     7.5903
  184.7000   126.3697     7.8899     7.5898
  184.8000   126.1257     7.8900     7.5892
  184.9000   125.6919     7.8901     7.5887
  185.0000   125.3313     7.9160     7.5882
  185.1000   125.0859     7.9456     7.5876
  185.2000   124.8405     7.9457     7.5870
  185.3000   124.5562     7.9458     7.5866
  185.4000   124.5572     7.9459     7.5860
  185.5000   124.5584     7.9460     7.5855
  185.6000   124.6535     7.9462     7.5850
  185.7000   124.9014     7.9463     7.5844
  185.8000   125.1691     7.9464     7.5839
  185.9000   125.6239     7.9465     7.5834
  186.0000   125.9484     7.9466     7.5829
  186.1000   126.1963     7.9467     7.5823
  186.2000   126.4441     7.9468     7.5818
  186.3000   126.6926     7.9469     7.5813
  186.4000   126.9398     7.9471     7.5808
  186.5000   126.9985     7.9472     7.5802
  186.6000   126.9997     7.9473     7.5797
  186.7000   127.0009     7.9474     7.5792
  186.8000   126.9835     7.9475     7.5786
  186.9000   126.7000     7.9476     7.5781
  187.0000   126.4927     7.9057     7.5776
  187.1000   126.2472     7.8926     7.5771
  187.2000   126.0018     7.8927     7.5765
  187.3000   125.7564     7.8928     7.5760
  187.4000   125.4921     7.8929     7.5755
  187.5000   125.2656     7.8930     7.5749
  187.6000   125.1909     7.8931     7.5744
  187.7000   125.0782     7.8932     7.5739
  187.8000   124.8898     7.8933     7.5734
  187.9000   124.8910     7.8934     7.5727
  188.0000   124.8923     7.8936     7.5723
  188.1000   124.8935     7.8937     7.5718
  188.2000   125.0278     7.8938     7.5713
  188.3000   125.1994     7.8939     7.5707
  188.4000   125.2200     7.8940     7.5701
  188.5000   125.5055     7.8941     7.5697
  188.6000   125.5065     7.8942     7.5691
  188.7000   125.6601     7.8943     7.5686
  188.8000   125.9079     7.8944     7.5681
  188.9000   126.1171     7.8945     7.5675
  189.0000   126.1185     7.8947     7.5670
  189.1000   126.1196     7.8948     7.5665
  189.2000   125.9492     7.8949     7.5660
  189.3000   125.8185     7.8950     7.5531
  189.4000   125.7619     7.8951     7.5124
  189.5000   125.5164     7.8952     7.5117
  189.6000   125.2710     7.8953     7.5113
  189.7000   125.2164     7.8954     7.5108
  189.8000   125.0837     7.8955     7.5103
  189.9000   124.9153     7.8956     7.5097
  190.0000   124.9165     7.8958     7.5092
  190.1000   124.9179     7.8959     7.5087
  190.2000   124.7089     7.8960     7.5082
  190.3000   124.6167     7.8961     7.5076
  190.4000   124.5216     7.8962     7.5071
  190.5000   124.3154     7.8963     7.5066
  190.6000   124.3169     7.8964     7.5061
  190.7000   124.0888     7.8965     7.5056
  190.8000   123.8434     7.8966     7.5050
  190.9000   123.4824     7.8967     7.5045
  191.0000   123.0491     7.8969     7.5040
  191.1000   122.8036     7.8970     7.5034
  191.2000   122.5582     7.8971     7.5029
  191.3000   122.3128     7.8972     7.5024
  191.4000   122.0674     7.8973     7.5019
  191.5000   121.8220     7.8974     7.5014
  191.6000   121.5975     7.8975     7.5008
  191.7000   121.5990     7.8949     7.5003
  191.8000   121.6000     7.8428     7.4998
  191.9000   121.6012     7.8429     7.4993
  192.0000   121.6995     7.8430     7.4988
  192.1000   121.9877     7.8432     7.4982
  192.2000   122.5154     7.8433     7.5068
  192.3000   122.7466     7.8434     7.4978
  192.4000   123.3408     7.8435     7.4888
  192.5000   123.8493     7.8127     7.4798
  192.6000   124.0971     7.7892     7.4708
  192.7000   124.3475     7.7893     7.4618
  192.8000   124.8421     7.7894     7.4528
  192.9000   124.9517     7.7895     7.4438
  193.0000   125.0885     7.7549     7.4348
  193.1000   125.3364     7.7355     7.4258
  193.2000   125.5624     7.7356     7.4168
  193.3000   125.5638     7.7312     7.4079
  193.4000   125.5648     7.6821     7.3989
  193.5000   125.4112     7.6822     7.3899
  193.6000   125.0679     7.6541     7.3809
  193.7000   124.5758     7.6108     7.3719
  193.8000   124.0523     7.5678     7.3629
  193.9000   123.3609     7.5235     7.3539
  194.0000   122.7961     7.4824     7.3449
  194.1000   122.3041     7.4714     7.3359
  194.2000   121.8723     7.4498     7.3269
  194.3000   121.6303     7.4077     7.3179
  194.4000   121.6316     7.3658     7.3089
  194.5000   121.6328     7.3170     7.2999
  194.6000   121.4976     7.3171     7.2969
  194.7000   121.4112     7.2923     7.2966
  194.8000   121.6364     7.2664     7.2963
  194.9000   121.6378     7.2605     7.2960
  195.0000   121.6388     7.2161     7.2957
  195.1000   121.9512     7.2162     7.2954
  195.2000   122.3470     7.1881     7.2951
  195.3000   122.5530     7.1474     7.2830
  195.4000   122.5542     7.1165     7.2415
  195.5000   122.7870     7.1163     7.1928
  195.6000   122.8601     7.0761     7.1925
  195.7000   122.8613     7.0361     7.1922
  195.8000   122.8625     6.9963     7.1776
  195.9000   122.8637     6.9696     7.1367
  196.0000   122.8649     6.9658     7.0914
  196.1000   122.4781     6.9213     7.0911
  196.2000   122.1232     6.8873     7.0388
  196.3000   121.7975     6.8483     6.9756
  196.4000   121.3054     6.8096     6.9358
  196.5000   120.7467     6.7711     6.8943
  196.6000   120.5346     6.7313     6.8570
  196.7000   120.2891     6.6947     6.8180
  196.8000   120.1432     6.6569     6.7607
  196.9000   120.1018     6.6004     6.6936
  197.0000   119.8423     6.5360     6.6554
  197.1000   119.8434     6.4972     6.6176
  197.2000   119.8446     6.4109     6.5509
  197.3000   119.7271     6.3811     6.4767
  197.4000   119.5435     6.3237     6.3809
  197.5000   119.5498     6.2523     6.2401
  197.6000   119.7977     6.1865     6.1187
  197.7000   120.0455     6.1485     6.0600
  197.8000   120.2934     6.0852     5.9914
  197.9000   120.5412     6.0399     5.9364
  198.0000   120.7647     5.9902     5.9075
  198.1000   120.8557     5.9303     5.9072
  198.2000   121.0652     5.8966     5.9070
  198.3000   121.2748     5.8301     5.9067
  198.4000   121.4843     5.8153     5.9065
  198.5000   121.6939     5.8153     5.9062
  198.6000   121.9100     5.8261     5.9060
  198.7000   122.1471     5.8562     5.9387
  198.8000   122.2103     5.8563     5.9469
  198.9000   122.2085     5.8853     5.9467
  199.0000   122.1398     5.9190     5.9559
  199.1000   121.9009     5.9389     5.9879
  199.2000   121.8987     5.9451     5.9876
  199.3000   121.6985     5.9806     6.0151
  199.4000   121.4501     6.0133     6.0490
  199.5000   121.1175     6.0226     6.0712
  199.6000   120.6225     6.0399     6.0748
  199.7000   120.0660     6.0744     6.1133
  199.8000   119.8484     6.1091     6.1131
  199.9000   119.7587     6.1504     6.1352
  200.0000   119.7568     6.1419     6.1555
  200.1000   119.7550     6.1315     6.1552
  200.2000   119.7531     6.1211     6.1549
  200.3000   119.9846     6.1107     6.1877
  200.4000   120.0535     6.1322     6.2227
  200.5000   120.4074     6.1670     6.2409
  200.6000   121.0841     6.1935     6.2579
  200.7000   121.5793     6.1937     6.3286
  200.8000   122.3174     6.2288     6.3643
  200.9000   122.6691     6.2915     6.4571
  201.0000   122.9139     6.3246     6.5270
  201.1000   123.0802     6.3353     6.5754
