~VERSION INFORMATION
 VERS.                2.0:   CWLS LOG ASCII STANDARD - VERSION 2.0
 WRAP.                 NO:   ONE LINE PER DEPTH STEP
~WELL INFORMATION
#MNEM.UNIT      DATA TYPE    INFORMATION
#----------   ------------   ------------------------------
 STRT.F          458.0000:   START DEPTH
 STOP.F         2155.0000:   STOP DEPTH
 STEP.F            0.5000:   STEP LENGTH
 NULL.          -999.2500:   NO VALUE
 COMP.   FLUOR DANIEL INC:   COMPANY
 WELL. NAVAL PETROLEUM RESERVE 3 SHX- 1 #33-29:   WELL
 FLD .             TEAPOT:   FIELD
 LOC .      S29 T39N R78W:   LOCATION
 CNTY.            NATRONA:   COUNTY
 STAT.            WYOMING:   STATE
 CTRY. UNITED STATES OF AMERICA:   COUNTRY
 SRVC.            Unknown:   SERVICE COMPANY
 DATE.        29-JUN-1995:   LOGDATE
 API .       490252272500:   API NUMBER
~CURVE INFORMATION
#MNEM.UNIT       API CODE    CURVE DESCRIPTION
#----------   ------------   ------------------------------
 DEPT.F                  :   
 C1  .VF     91 831 01 00:   METHANE
 C2  .VF     91 832 01 00:   ETHANE
 C3  .VF     91 833 01 00:   PROPANE
 C4  .VF     91 834 01 00:   BUTANE
 ROP .FT/HR  91 810 01 00:   RAT OF DRILLING PENETRATION
 TGAS.TC/CC  91 830 01 00:   TOTAL GAS UNIT
~PARAMETER INFORMATION
#MNEM.UNIT          VALUE    DESCRIPTION
#----------   ------------   ------------------------------
 EKB .F              5020:   KELLING BUSHING
 EGL .F              5010:   GROUND LEVEL
 DATE.        29-JUN-1995:   RUN DATE
 RUN .                  1:   RUN NUMBER
 BLI .F              2155:   BOTTOM LOG INTERVAL
 TLI .F               460:   TOP LOG INTERVAL
 ENGI.     C.TOWER/R.HUSK:   RECORDING ENGINEER
 CLNT.            A2DTECH:   CLIENT CODE
 ORIG.           5" PRINT:   ORIGIN OF DATA
 UWI .       490252272500:   UNIQUE WELL ID
 DICO. A2D Technologies, Inc.:   DIGITIZING COMPANY
~OTHER INFORMATION
~A   DEPT       C1         C2         C3         C4          ROP       TGAS 
# ...
 1810.0000    13.1619     7.0508     6.4619     7.8538     0.4975   305.1151
 1810.5000    13.1546     7.0475     6.4631     7.8552     0.4979   305.1198
 1811.0000    13.1475     7.0441     6.4641     7.8563     0.4983   306.0656
 1811.5000    13.0455     7.0404     6.4652     7.8575     0.4987   305.1288
 1812.0000    12.7575     7.0371     6.4662     7.8586     0.4991   306.0760
 1812.5000    12.7500     7.0692     6.4672     7.8597     0.4995   306.0805
 1813.0000    12.7425     7.1158     6.4682     7.8609     0.4999   306.0851
 1813.5000    12.7341     7.1119     6.4693     7.8620     0.4908   307.0312
 1814.0000    12.7262     7.1931     6.4703     7.8634     0.4912   307.9772
 1814.5000    12.7200     7.1898     6.4716     7.8646     0.4916   307.0403
 1815.0000    12.7125     7.1864     6.4726     7.8657     0.5014   306.1035
 1815.5000    12.7049     7.2674     6.4736     7.8669     0.5018   307.0497
 1816.0000    12.5756     7.2641     6.5594     7.8680     0.5022   307.9967
 1816.5000    12.5028     7.2610     6.5604     7.8691     0.5121   308.0013
 1817.0000    12.6830     7.2576     6.5615     7.8703     0.5125   308.0059
 1817.5000    12.6750     7.2542     6.5625     7.8715     0.5128   308.9518
 1818.0000    12.6666     7.3356     6.5636     7.8728     0.5697   308.9565
 1818.5000    12.6600     7.3322     6.5648     7.8740     0.6454   309.9025
 1819.0000    12.6525     7.3288     6.5658     7.8751     0.6929   311.7899
 1819.5000    12.8323     7.3254     6.5667     7.8763     0.7027   311.7945
 1820.0000    13.0594     7.3216     6.5679     7.8774     0.7031   312.7406
 1820.5000    13.1925     7.3186     6.5689     7.8785     0.7129   312.7453
 1821.0000    13.3725     7.3151     6.5699     7.8797     0.7235   312.7508
 1821.5000    13.5531     7.3118     6.6557     7.8811     0.7420   312.7554
 1822.0000    13.7333     7.2237     6.6568     7.8823     0.7706   312.7600
 1822.5000    13.7242     7.2203     6.5730     7.8834     0.7804   312.7646
 1823.0000    13.7170     7.1912     6.5743     7.8845     0.7808   313.7106
 1823.5000    13.7097     7.1283     6.5753     7.8856     0.7812   313.7152
 1824.0000    13.3274     7.1254     6.5764     7.8868     0.7627   313.7198
 1824.5000    13.3200     7.1217     6.5774     7.8880     0.7254   313.7244
 1825.0000    13.5003     7.1184     6.5784     7.8894     0.7070   313.7291
 1825.5000    13.6787     7.1153     6.4947     7.8905     0.7074   313.7347
 1826.0000    13.6725     7.1119     6.4958     7.8917     0.7078   313.7393
 1826.5000    13.6650     7.1085     6.4970     7.8928     0.7082   312.8025
 1827.0000    13.8437     7.1051     6.5828     7.7996     0.7086   313.7485
 1827.5000    13.8375     7.1011     6.5838     7.8007     0.7090   313.7531
 1828.0000    13.8285     7.1833     6.5848     7.7075     0.7659   312.8151
 1828.5000    14.0106     7.1792     6.5859     7.7087     0.7851   312.8208
 1829.0000    14.0021     7.0912     6.5869     7.7101     0.7855   312.8254
 1829.5000    13.9936     7.0879     6.5879     7.7112     0.7859   312.8300
 1830.0000    13.9875     7.1693     6.5890     7.7124     0.7863   313.7762
 1830.5000    14.1665     7.1661     6.5902     7.7135     0.7867   314.7232
 1831.0000    14.1592     7.2480     6.5913     7.7147     0.7870   315.6692
 1831.5000    14.3412     7.2442     6.5923     7.7158     0.7886   315.6738
 1832.0000    14.3325     7.3254     6.5933     7.8113     1.0139   316.6198
 1832.5000    14.3248     7.3220     6.5943     7.8253     1.0143   316.6244
 1833.0000    14.3170     7.3182     6.5954     7.9082     1.0241   316.6290
 1833.5000    14.3100     7.4000     6.5964     7.9093     1.0245   316.6336
 1834.0000    14.4899     7.3964     6.5975     7.9105     0.8271   316.6382
 1834.5000    14.4814     7.3928     6.5987     7.9116     0.7898   316.6428
 1835.0000    14.4741     7.3051     6.5997     7.9127     0.7996   317.5889
 1835.5000    14.4675     7.3017     6.6008     7.9139     0.8000   318.5359
 1836.0000    14.5412     7.2949     6.6018     7.9153     0.8004   319.4820
 1836.5000    14.6400     7.2096     6.6028     7.9165     0.7913   317.6025
 1837.0000    14.6325     7.2068     6.6038     7.9176     0.7918   317.6083
 1837.5000    14.6250     7.2034     6.6049     8.0131     0.7922   319.4957
 1838.0000    14.6175     7.1997     6.6059     8.0142     0.7926   320.4417
 1838.5000    14.6088     7.1964     6.6072     7.9210     0.7930   320.4464
 1839.0000    14.6015     7.1932     6.6082     7.9222     0.7934   320.5168
 1839.5000    14.5942     7.1051     6.6092     7.9236     0.7749   320.4555
 1840.0000    14.3994     7.1017     6.6100     7.9275     0.5870   320.4603
 1840.5000    14.3921     7.0976     6.6084     7.9660     0.5873   320.4659
 1841.0000    14.3848     7.0096     6.6071     8.0045     0.5783   319.5279
 1841.5000    14.4721     7.0068     6.6058     8.0430     0.5693   319.5336
 1842.0000    14.5575     7.0030     6.6044     8.0814     0.5697   319.5382
 1842.5000    14.5486     6.9997     6.6031     8.1132     0.5701   319.5428
 1843.0000    14.5425     6.9966     6.6015     7.9245     0.5610   319.5474
 1843.5000    14.5341     6.9932     6.6001     7.9245     0.5615   319.5520
 1844.0000    14.5268     6.9898     6.5987     7.9245     0.5619   319.5565
 1844.5000    14.5195     6.9864     6.5973     7.8302     0.5623   319.5612
 1845.0000    14.5125     6.9831     6.5960     7.8302     0.5626   319.4254
 1845.5000    14.5049     6.9929     6.5946     7.8302     0.5630   316.7472
 1846.0000    14.4975     7.0610     6.5932     7.8302     0.5634   316.7518
 1846.5000    14.4897     7.0572     6.6766     7.8302     0.5638   316.7564
 1847.0000    14.6700     7.0540     6.5904     7.8302     0.5642   317.7024
 1847.5000    14.6627     7.1362     6.5890     7.8302     0.5647   318.6484
 1848.0000    14.8425     7.1321     6.5873     7.8302     0.5650   319.5944
 1848.5000    14.8350     7.1288     6.5859     7.8302     0.5654   319.5990
 1849.0000    14.8265     7.2102     6.5845     7.8302     0.5658   319.6036
 1849.5000    14.6311     7.2909     6.5831     7.8302     0.5662   319.6082
 1850.0000    14.6250     7.2881     6.5817     7.8302     0.8585   320.5544
 1850.5000    14.6175     7.2843     6.5804     7.8302     1.0189   320.5600
 1851.0000    14.6086     7.2810     6.5790     7.8302     1.0287   320.5645
 1851.5000    14.6025     7.2777     6.5776     7.8330     1.0291   319.6266
 1852.0000    14.5950     7.2744     6.5762     7.9245     1.1927   319.6323
 1852.5000    14.5875     7.2712     6.5748     7.9245     1.3313   319.6369
 1853.0000    14.5795     7.2678     6.5734     7.9245     1.3317   319.6415
 1853.5000    14.5716     7.2644     6.5720     7.9245     1.3225   319.6461
 1854.0000    14.5650     7.2604     6.6554     7.9245     1.3230   319.6506
 1854.5000    14.7451     7.3427     6.6540     7.9245     0.8055   320.5968
 1855.0000    14.7375     7.3385     6.7374     7.9245     0.7681   320.6024
 1855.5000    14.7287     7.4208     6.7356     7.9245     0.7686   320.6070
 1856.0000    14.7214     7.4169     6.7343     7.9245     0.7690   320.6116
 1856.5000    14.7141     7.4134     6.7329     7.9245     0.7694   321.5576
 1857.0000    14.7075     7.4101     6.7315     8.0189     0.7698   323.4450
 1857.5000    14.6995     7.4054     6.7301     8.1132     0.7702   323.4496
 1858.0000    14.5048     7.3186     6.7287     8.1132     0.7706   323.4542
 1858.5000    14.4975     7.2299     6.7273     8.1132     0.7710   323.4588
 1859.0000    14.6777     7.1419     6.7259     8.1132     0.7714   323.4634
 1859.5000    14.6686     7.1390     6.7246     8.1132     0.7718   323.4681
 1860.0000    14.6435     7.2208     6.7232     8.1132     0.7728   323.4737
 1860.5000    14.6149     7.2167     6.7218     8.1132     0.7771   321.5944
 1861.0000    14.6058     7.2918     6.7203     8.1132     0.7815   320.6575
 1861.5000    14.7844     7.2559     6.7187     8.1132     0.7859   321.6046
