~VERSION INFORMATION
 VERS.                2.0:   CWLS LOG ASCII STANDARD - VERSION 2.0
 WRAP.                 NO:   ONE LINE PER DEPTH STEP
~WELL INFORMATION
#MNEM.UNIT      DATA TYPE    INFORMATION
#----------   ------------   ------------------------------
 STRT.F           46.0000:   START DEPTH
 STOP.F          522.0000:   STOP DEPTH
 STEP.F            0.5000:   STEP LENGTH
 NULL.          -999.2500:   NO VALUE
 COMP.       F D SERV INC:   COMPANY
 WELL.  82-4 SX 10 #82-10:   WELL
 FLD .             TEAPOT:   FIELD
 LOC .      S10 T38N R78W:   LOCATION
 CNTY.            NATRONA:   COUNTY
 STAT.            WYOMING:   STATE
 CTRY. UNITED STATES OF AMERICA:   COUNTRY
 SRVC.     Atlas Wireline:   SERVICE COMPANY
 DATE.        04-FEB-1993:   LOGDATE
 API .       490252257900:   API NUMBER
~CURVE INFORMATION
#MNEM.UNIT       API CODE    CURVE DESCRIPTION
#----------   ------------   ------------------------------
 DEPT.F                  :   
 C13 .IN     45 280 13 00:   CALIPER FROM DENSITY LOG
 GRD .GAPI   45 310 01 00:   GAMMA RAY FROM DENSITY LOG
 PORS.DEC    42 890 03 00:   NEUTRON POROSITY SANDSTONE
 PORZ.DEC    45 890 12 00:   DENSITY POROSITY SANDSTONE
 ZCOR.G/C3   45 356 01 00:   DENSITY CORRECTION
 ZDEN.G/C3   45 350 01 00:   BULK DENSITY
 RILD.OHMM   07 120 46 00:   INDUCTION LOG DEEP RESISTIVITY
 RILM.OHMM   07 120 44 00:   INDUCTION LOG MEDIUM RESISTIVITY
~PARAMETER INFORMATION
#MNEM.UNIT          VALUE    DESCRIPTION
#----------   ------------   ------------------------------
 PD  .                 GL:   PERMANENT DATUM
 EPD .F              5145:   ELEVATION PERMANENT DATUM
 LMF .                 KB:   LOG MEASURED FROM
 DAPD.F                10:   FEET ABOVE PERMANENT DATUM
 DMF .                 KB:   DRILLING MEASURED FROM
 EKB .F              5155:   KELLING BUSHING
 EDF .F              5154:   DRILLING FLOOR
 EGL .F              5145:   GROUND LEVEL
 DATE.        04-FEB-1993:   RUN DATE
 RUN .                  1:   RUN NUMBER
 DD  .F               525:   DEPTH DRILLER
 DL  .F               525:   DEPTH LOGGER
 BLI .F               517:   BOTTOM LOG INTERVAL
 TLI .F                81:   TOP LOG INTERVAL
 CS  .IN            8.625:   CASING SIZE
 CBD .F                45:   CASING BOTTOM DRILLER
 CBL .F                81:   CASING BOTTOM LOGGER
 BS  .IN            7.875:   BIT SIZE
 BSD .F               525:   BIT SIZE AT DEPTH
 DFT .                AIR:   DRILLING FLUID TYPE
 MRT .F                58:   MAXIMUM RECORDED TEMPERATURE
 LUN .            HL 6274:   LOGGING UNIT NUMBER
 LUL .             CASPER:   LOGGING UNIT LOCATION
 ENGI.          V. RAUTIO:   RECORDING ENGINEER
 WITN.          G. STRONG:   WITNESSED BY
 CLNT.            A2DTECH:   CLIENT CODE
 ORIG.           5" PRINT:   ORIGIN OF DATA
 UWI .       490252257900:   UNIQUE WELL ID
 DICO. A2D Technologies, Inc.:   DIGITIZING COMPANY
~OTHER INFORMATION
~A   DEPT      C13         GRD      PORS       PORZ       ZCOR       ZDEN       RILD       RILM   
# ...
  248.5000     8.4520   181.6515     0.3457     0.1197     0.0157     2.4651     5.7200     6.0037
  249.0000     8.4517   180.1466     0.3430     0.1049     0.0172     2.4843     5.6418     5.6811
  249.5000     8.4514   180.1409     0.3409     0.0950     0.0172     2.4887     5.4838     5.3386
  250.0000     8.4360   180.7351     0.3400     0.0947     0.0142     2.4864     5.1576     5.2294
  250.5000     8.4207   182.5357     0.3496     0.0980     0.0023     2.4691     4.9826     5.1579
  251.0000     8.4355   180.1331     0.3740     0.1287     0.0008     2.4074     4.7805     5.1582
  251.5000     8.4352   178.3315     0.3806     0.1616     0.0173     2.3592     4.9159     5.2305
  252.0000     8.4348   176.5299     0.3728     0.1958     0.0503     2.3231     5.2687     5.3775
  252.5000     8.4497   176.5369     0.3620     0.1982     0.0533     2.3690     5.5691     5.6057
  253.0000     8.4493   177.4462     0.3442     0.1696     0.0251     2.4176     5.6473     5.6841
  253.5000     8.4490   178.0633     0.3395     0.1330     0.0063     2.4714     5.8089     6.0916
  254.0000     8.4487   177.7600     0.3371     0.1022     0.0048     2.4970     6.3977     6.5734
  254.5000     8.4484   173.5487     0.3320     0.0925     0.0047     2.4970     6.8566     6.9477
  255.0000     8.4481   170.8435     0.3308     0.0931     0.0061     2.4970     7.0012     7.1431
  255.5000     8.4478   169.6443     0.3302     0.0913     0.0106     2.4970     7.0510     7.2933
  256.0000     8.4475   172.6634     0.3293     0.0913     0.0045     2.4985     7.0031     7.1936
  256.5000     8.4472   175.3799     0.3284     0.0907     0.0030     2.4992     6.8604     6.9243
  257.0000     8.4469   174.7831     0.3278     0.0895     0.0014     2.5000     6.4814     6.1914
  257.5000     8.4466   174.4875     0.3272     0.0892     0.0028     2.4985     5.8130     5.7789
  258.0000     8.4463   176.0005     0.3275     0.0913     0.0043     2.4962     5.4254     5.3200
  258.5000     8.4309   178.7170     0.3320     0.0937     0.0087     2.4895     5.2780     5.2480
  259.0000     8.3855   181.4348     0.3420     0.1000     0.0042     2.4608     5.2062     5.2128
  259.5000     8.3552   183.8501     0.3534     0.1144     0.0011     2.4202     5.2796     5.2864
  260.0000     8.3549   185.3617     0.3561     0.1370     0.0355     2.4134     5.2802     5.4360
  260.5000     8.4147   181.9728     0.3447     0.1469     0.0310     2.4337     5.3209     5.6283
  261.0000     8.4295   177.5430     0.3351     0.1282     0.0249     2.4699     5.4676     5.7078
  261.5000     8.4442   175.4402     0.3345     0.1075     0.0249     2.4985     5.7395     5.8691
  262.0000     8.4590   178.1567     0.3315     0.0944     0.0248     2.5106     6.2368     6.2474
  262.5000     8.4586   180.2721     0.3270     0.0843     0.0262     2.5181     6.9676     6.7425
  263.0000     8.4583   180.5776     0.3225     0.0791     0.0172     2.5211     7.4159     7.1768
  263.5000     8.4580   176.3677     0.3201     0.0779     0.0066     2.5211     7.6778     7.5875
  264.0000     8.4577   174.1928     0.3192     0.0776     0.0006     2.5196     7.9556     7.8552
  264.5000     8.4574   172.4647     0.3189     0.0803    -0.0055     2.5172     8.1168     8.0215
  265.0000     8.4571   171.5667     0.3183     0.0815    -0.0070     2.5158     8.2309     8.1347
  265.5000     8.4418   170.3675     0.3183     0.0827    -0.0026     2.5166     8.3466     8.2496
  266.0000     8.4415   167.9649     0.3192     0.0827    -0.0027     2.5188     8.4642     8.3089
  266.5000     8.4412   167.0655     0.3221     0.0800    -0.0027     2.5211     8.5240     8.4262
  267.0000     8.4409   167.0725     0.3256     0.0779    -0.0028     2.5226     8.5251     8.4279
  267.5000     8.4493   172.5012     0.3262     0.0770     0.0002     2.5181     8.5857     8.4296
  268.0000     8.4553   174.0128     0.3262     0.0815    -0.0059     2.5068     8.5868     8.4901
  268.5000     8.4550   174.6208     0.3262     0.0866    -0.0090     2.5023     8.5879     8.5506
  269.0000     8.4547   175.2289     0.3247     0.0893    -0.0045     2.5054     8.6486     8.6117
  269.5000     8.4394   171.3203     0.3220     0.0889    -0.0031     2.5136     8.7097     8.6134
  270.0000     8.4391   165.9042     0.3166     0.0811    -0.0001     2.5166     8.5915     8.5561
  270.5000     8.4387   163.5000     0.3151     0.0802     0.0058     2.5181     8.5926     8.5577
  271.0000     8.4385   161.9998     0.3148     0.0799     0.0087     2.5181     8.5940     8.5594
  271.5000     8.4231   163.2116     0.3148     0.0817     0.0117     2.5166     8.7148     8.6807
  272.0000     8.4228   166.5305     0.3148     0.0847     0.0025     2.5105     8.8373     8.7426
  272.5000     8.4226   168.3735     0.3148     0.0874    -0.0035     2.5030     8.9029     8.8050
  273.0000     8.4072   167.4467     0.3142     0.0889    -0.0035     2.5015     9.0251     8.9294
  273.5000     8.4069   165.9463     0.3116     0.0892    -0.0051     2.5030     9.0889     9.0559
  274.0000     8.4066   164.7471     0.3034     0.0883    -0.0066     2.5060     9.1532     9.1205
  274.5000     8.4063   162.3445     0.2984     0.0855    -0.0084     2.5090     9.2182     9.1856
  275.0000     8.4060   159.6393     0.2944     0.0804    -0.0128     2.5158     8.7837     8.8752
  275.5000     8.4057   156.3316     0.2914     0.0786    -0.0098     2.5196     7.7033     7.6775
  276.0000     8.4205   154.2048     0.2914     0.0831    -0.0069     2.5181     6.6344     6.3273
  276.5000     8.4202   162.3683     0.2936     0.0946    -0.0039     2.5098     5.7632     5.5494
  277.0000     8.4349   170.5065     0.3190     0.1078    -0.0070     2.4962     5.7641     5.0733
  277.5000     8.4346   178.0422     0.3600     0.1285    -0.0131     2.4699     5.7649     5.0746
  278.0000     8.4343   183.4709     0.3664     0.1672    -0.0146     2.4134     5.8461     5.2906
  278.5000     8.4490   179.8621     0.3441     0.1845    -0.0012     2.3584     5.9283     5.5926
  279.0000     8.4336   165.7111     0.3133     0.1643     0.0306     2.3517     6.0116     5.8743
  279.5000     8.4333   159.9608     0.2924     0.1246     0.0467     2.3901     6.3251     6.2065
  280.0000     8.4331   158.7946     0.2803     0.0725     0.0151     2.4655     7.2979     7.0793
  280.5000     8.4177   160.0065     0.2753     0.0677     0.0106     2.5369     8.2093     7.9090
  281.0000     8.4024   159.4097     0.2759     0.0680     0.0120     2.5392     9.0449     8.7439
  281.5000     8.3870   158.2119     0.2774     0.0656     0.0181     2.5422     9.8973     9.8040
  282.0000     8.3868   158.8199     0.2843     0.0635     0.0209     2.5437    10.3178    10.2213
  282.5000     8.3865   159.7291     0.2901     0.0628     0.0148     2.5452    10.6086    10.5100
  283.0000     8.3862   160.0361     0.2922     0.0634     0.0103     2.5452    10.6100    10.5855
  283.5000     8.3858   159.1394     0.2916     0.0637     0.0102     2.5452    10.6853    10.5876
  284.0000     8.3855   156.4341     0.2892     0.0595     0.0102     2.5520    10.8355    10.7371
  284.5000     8.4003   147.0874     0.2850     0.0499     0.0101     2.5628    11.0656    10.9643
  285.0000     8.4000   144.6984     0.2808     0.0432     0.0070     2.5753    11.5346    11.3527
  285.5000     8.3997   145.6090     0.2784     0.0489    -0.0035     2.5776    12.0247    12.3086
  286.0000     8.3994   145.6146     0.2751     0.0718    -0.0111     2.5452    12.8873    13.6892
  286.5000     8.3991   135.9831     0.2610     0.0893    -0.0006     2.5075    14.5977    15.0698
  287.0000     8.3988   126.9526     0.2423     0.1016     0.0038     2.4804    16.3076    16.7346
  287.5000     8.4135   121.5365     0.2399     0.1175     0.0082     2.4654    18.2177    18.9572
  288.0000     8.4132   117.8917     0.2491     0.1305    -0.0023     2.4375    20.6581    21.1791
  288.5000     8.4280   113.1154     0.2592     0.1467    -0.0024     2.4021    23.5359    23.6614
