~VERSION INFORMATION
 VERS.                2.0:   CWLS LOG ASCII STANDARD - VERSION 2.0
 WRAP.                 NO:   ONE LINE PER DEPTH STEP
~WELL INFORMATION
#MNEM.UNIT      DATA TYPE    INFORMATION
#----------   ------------   ------------------------------
 STRT.F            0.0000:   START DEPTH
 STOP.F          497.0000:   STOP DEPTH
 STEP.F            0.1000:   STEP LENGTH
 NULL.          -999.2500:   NO VALUE
 COMP.       F D SERV INC:   COMPANY
 WELL. NAVAL PETROLEUM RESERVE 3 SX-1 #81-1-10:   WELL
 FLD .             NPR #3:   FIELD
 LOC .      S10 T38N R78W:   LOCATION
 CNTY.            NATRONA:   COUNTY
 STAT.            WYOMING:   STATE
 CTRY. UNITED STATES OF AMERICA:   COUNTRY
 SRVC.     Atlas Wireline:   SERVICE COMPANY
 DATE.        14-DEC-1997:   LOGDATE
 API .       490252257400:   API NUMBER
~CURVE INFORMATION
#MNEM.UNIT       API CODE    CURVE DESCRIPTION
#----------   ------------   ------------------------------
 DEPT.F                  :   
 GRR .GAPI   07 310 01 00:   GAMMA RAY
 RILD.OHMM   07 120 46 00:   INDUCTION LOG DEEP RESISTIVITY
 RILM.OHMM   07 120 44 00:   INDUCTION LOG MEDIUM RESISTIVITY
~PARAMETER INFORMATION
#MNEM.UNIT          VALUE    DESCRIPTION
#----------   ------------   ------------------------------
 PD  .                 GL:   PERMANENT DATUM
 EPD .F              5132:   ELEVATION PERMANENT DATUM
 LMF .                 KB:   LOG MEASURED FROM
 DAPD.F                10:   FEET ABOVE PERMANENT DATUM
 DMF .                 KB:   DRILLING MEASURED FROM
 EKB .F              5142:   KELLING BUSHING
 EDF .F              5141:   DRILLING FLOOR
 EGL .F              5132:   GROUND LEVEL
 DATE.        14-DEC-1992:   RUN DATE
 RUN .                  1:   RUN NUMBER
 DD  .F               513:   DEPTH DRILLER
 DL  .F               505:   DEPTH LOGGER
 BLI .F               497:   BOTTOM LOG INTERVAL
 CS  .IN            8.625:   CASING SIZE
 CBD .F                53:   CASING BOTTOM DRILLER
 CBL .F                54:   CASING BOTTOM LOGGER
 BS  .IN            7.875:   BIT SIZE
 BSD .F               513:   BIT SIZE AT DEPTH
 DFT .           AIR FOAM:   DRILLING FLUID TYPE
 BHT .F                68:   BOTTOM HOLE TEMPERATURE
 MRT .F                68:   MAXIMUM RECORDED TEMPERATURE
 LUN .           HL- 6274:   LOGGING UNIT NUMBER
 LUL .             CASPER:   LOGGING UNIT LOCATION
 ENGI.             RAUTIO:   RECORDING ENGINEER
 WITN.          G. STRONG:   WITNESSED BY
 CLNT.            A2DTECH:   CLIENT CODE
 ORIG.           5" PRINT:   ORIGIN OF DATA
 UWI .       490252257400:   UNIQUE WELL ID
 DICO. A2D Technologies, Inc.:   DIGITIZING COMPANY
~OTHER INFORMATION
~A    DEPT      GRR      RILD       RILM   
# ...
  309.4000   117.6446     7.8854     8.0051
  309.5000   118.4962     7.8854     8.0053
  309.6000   119.4941     7.8854     8.0055
  309.7000   120.2976     7.8871     8.0057
  309.8000   121.0422     7.9401     8.0060
  309.9000   121.6120     7.9401     8.0062
  310.0000   122.1285     7.9401     8.0064
  310.1000   122.5279     7.9401     8.0066
  310.2000   122.7133     7.9401     8.0246
  310.3000   122.7145     7.9401     8.0727
  310.4000   122.7157     7.9415     8.1191
  310.5000   122.7169     7.9953     8.1193
  310.6000   122.7181     7.9953     8.1622
  310.7000   122.2488     8.0281     8.2112
  310.8000   121.7036     8.0508     8.2333
  310.9000   121.3775     8.0678     8.2335
  311.0000   120.8896     8.1067     8.2448
  311.1000   120.6157     8.1076     8.2943
  311.2000   120.3767     8.1630     8.3491
  311.3000   119.9237     8.1630     8.3941
  311.4000   119.5626     8.1630     8.4077
  311.5000   119.0873     8.1630     8.4365
  311.6000   118.4474     8.1798     8.4666
  311.7000   118.2132     8.2197     8.4668
  311.8000   118.2146     8.2201     8.4671
  311.9000   118.2157     8.2767     8.4673
  312.0000   118.4097     8.2767     8.4675
  312.1000   118.8177     8.2767     8.4678
  312.2000   119.2285     8.2767     8.4680
  312.3000   119.4253     8.2933     8.4682
  312.4000   119.4450     8.3342     8.4685
  312.5000   119.7290     8.3342     8.4687
  312.6000   119.7301     8.3342     8.4690
  312.7000   119.5423     8.3342     8.3757
  312.8000   119.4313     8.2370     8.2392
  312.9000   119.4325     8.0685     8.0935
  313.0000   119.3756     7.8059     7.9298
  313.1000   119.1191     7.4194     7.7432
  313.2000   118.8339     7.1573     7.5409
  313.3000   118.3774     6.9139     7.1726
  313.4000   117.8634     6.7810     6.8183
  313.5000   117.3493     6.6223     6.5536
  313.6000   116.7372     6.4856     6.3470
  313.7000   116.0745     6.3596     6.1775
  313.8000   115.8180     6.2213     6.0114
  313.9000   115.5291     6.1466     5.8181
  314.0000   115.5301     6.0203     5.7498
  314.1000   115.7126     5.9914     5.6682
  314.2000   115.8337     5.9334     5.5347
  314.3000   116.1174     5.8800     5.4133
  314.4000   116.8409     5.8453     5.3176
  314.5000   117.3646     5.8107     5.2332
  314.6000   118.2484     5.7755     5.1759
  314.7000   119.1339     5.7755     5.1449
  314.8000   120.5205     5.7481     5.1451
  314.9000   122.0673     5.7141     5.0951
  315.0000   123.4336     5.6961     5.0547
  315.1000   124.4654     5.6860     5.0248
  315.2000   125.5035     5.6568     5.0049
  315.3000   127.2930     5.6568     4.9951
  315.4000   128.3802     5.6568     4.9363
  315.5000   129.6696     5.6568     4.9365
  315.6000   131.2192     5.6778     4.9864
  315.7000   132.8508     5.6961     5.0668
  315.8000   134.0114     5.6961     5.1743
  315.9000   134.5289     5.6961     5.2992
  316.0000   134.5303     5.6961     5.4269
  316.1000   134.3179     5.6961     5.5584
  316.2000   134.0615     5.6961     5.7506
  316.3000   133.9313     5.7170     5.8701
  316.4000   133.7671     5.7356     6.0119
  316.5000   133.2530     5.7452     6.1373
  316.6000   132.7301     5.7755     6.2480
  316.7000   131.2255     5.7755     6.3529
  316.8000   129.5494     5.8079     6.4291
  316.9000   127.8217     5.8424     6.5159
  317.0000   126.5221     5.8771     6.6192
  317.1000   124.7824     5.9120     6.7388
  317.2000   121.6465     5.9568     6.8379
  317.3000   119.7868     6.0277     6.9200
  317.4000   118.2915     6.1042     7.0219
  317.5000   117.3644     6.1722     7.1911
  317.6000   116.4305     6.3032     7.3831
  317.7000   115.7572     6.4313     7.5428
  317.8000   115.4257     6.5635     7.6912
  317.9000   114.9432     6.7314     7.8034
  318.0000   114.6748     6.9295     7.9163
  318.1000   114.6759     7.1079     8.0709
  318.2000   114.6771     7.3061     8.2577
  318.3000   114.6783     7.5603     8.3656
  318.4000   114.6795     7.8620     8.4573
  318.5000   114.7520     8.1736     8.6362
  318.6000   115.0386     8.4430     8.7827
  318.7000   115.5868     8.6363     8.8881
  318.8000   115.8298     8.7479     9.0089
  318.9000   116.0885     8.8434     9.1609
  319.0000   116.5019     8.9888     9.2197
  319.1000   116.9074     9.0870     9.3228
  319.2000   117.1662     9.1634     9.4349
  319.3000   117.4489     9.2458     9.4796
  319.4000   118.0049     9.2458     9.5298
  319.5000   118.4820     9.2458     9.6283
  319.6000   119.1929     9.1963     9.6861
  319.7000   119.6653     9.1820     9.7472
  319.8000   119.9778     9.1820     9.7475
  319.9000   120.3654     9.1820     9.7477
  320.0000   120.7630     9.1820     9.7121
  320.1000   121.3266     9.1856     9.6286
  320.2000   121.5618     9.2458     9.5313
  320.3000   121.4396     9.2458     9.4822
  320.4000   121.1832     9.2858     9.4825
  320.5000   121.0301     9.3100     9.4174
  320.6000   121.0313     9.3208     9.3727
  320.7000   121.0163     9.3485     9.3173
  320.8000   120.7327     9.3746     9.2623
  320.9000   120.7337     9.3746     9.2246
  321.0000   120.1747     9.3746     9.2167
  321.1000   119.5462     9.3746     9.1614
  321.2000   118.9326     9.3746     9.1617
  321.3000   118.2169     9.3960     9.1619
  321.4000   117.6904     9.4518     9.1621
  321.5000   116.8254     9.5053     9.1894
  321.6000   115.9205     9.5053     9.2445
  321.7000   115.0741     9.5549     9.3092
  321.8000   114.5811     9.6117     9.4208
  321.9000   114.4205     9.6377     9.4865
  322.0000   114.3171     9.6592     9.5821
  322.1000   113.8204     9.7165     9.6972
  322.2000   113.8218     9.7742     9.8137
  322.3000   113.6002     9.8399     9.9523
  322.4000   113.7020     9.8907    10.1206
  322.5000   113.8253     9.9082    10.2420
  322.6000   113.8265     9.9712    10.3829
  322.7000   113.8277    10.0900    10.4897
  322.8000   113.8289    10.1982    10.6157
  322.9000   113.8303    10.2605    10.7432
  323.0000   113.8313    10.4000    10.8722
  323.1000   113.8325    10.5067    11.0204
  323.2000   113.7020    10.6319    11.2403
  323.3000   113.5337    10.7586    11.4602
  323.4000   113.5349    10.8868    11.6802
  323.5000   113.5361    11.0165    11.9001
  323.6000   113.2363    11.1476    12.1200
  323.7000   113.0223    11.3005    12.3399
  323.8000   112.5943    11.4151    12.5599
  323.9000   112.2082    11.5983    12.7798
  324.0000   111.6988    11.7700    12.9997
  324.1000   110.5476    11.9102    13.2197
  324.2000   108.7253    12.0521    13.4396
  324.3000   106.3171    12.1956    13.6595
  324.4000   103.7837    12.3642    13.8360
  324.5000   100.8605    12.6140    14.1611
  324.6000    97.5308    13.0215    14.5487
  324.7000    94.0703    13.3298    14.8728
  324.8000    91.6062    13.5159    15.1533
  324.9000    89.7579    13.7440    15.5296
  325.0000    87.9520    13.9077    15.8564
  325.1000    86.5011    14.1994    16.0875
  325.2000    85.0267    14.3403    16.5054
  325.3000    83.4992    14.6268    16.8579
  325.4000    81.3137    15.0674    17.1582
  325.5000    78.2233    15.5501    17.6438
  325.6000    75.0073    15.9223    17.9660
  325.7000    74.0198    16.3070    18.4716
  325.8000    72.5830    16.7647    18.8396
  325.9000    71.1983    17.0959    19.1421
  326.0000    70.3775    17.5061    19.4300
  326.1000    70.1210    17.9259    19.7806
  326.2000    69.8647    18.3553    20.1168
  326.3000    69.5940    18.8290    20.3569
  326.4000    69.5952    19.5214    20.3575
  326.5000    69.7962    20.3490    20.5635
  326.6000    70.0550    20.6461    20.8954
  326.7000    70.3138    21.0164    21.2727
  326.8000    70.6417    21.3932    21.6566
  326.9000    71.1837    21.7766    22.0724
  327.0000    72.0121    22.1479    22.6008
  327.1000    72.4925    22.4190    23.0667
  327.2000    73.2049    22.7315    23.3050
  327.3000    73.8265    22.9494    23.5850
  327.4000    74.3430    23.2230    23.8683
  327.5000    74.7942    23.5655    24.1016
