~VERSION INFORMATION
 VERS.                2.0:   CWLS LOG ASCII STANDARD - VERSION 2.0
 WRAP.                 NO:   ONE LINE PER DEPTH STEP
~WELL INFORMATION
#MNEM.UNIT      DATA TYPE    INFORMATION
#----------   ------------   ------------------------------
 STRT.F         1420.5000:   START DEPTH
 STOP.F         2350.5000:   STOP DEPTH
 STEP.F            0.5000:   STEP LENGTH
 NULL.          -999.2500:   NO VALUE
 COMP. BROWN JOHN E&C INC:   COMPANY
 WELL.   15 STX-14 #15-14:   WELL
 FLD .             TEAPOT:   FIELD
 LOC .      S14 T38N R78W:   LOCATION
 CNTY.            NATRONA:   COUNTY
 STAT.            WYOMING:   STATE
 CTRY. UNITED STATES OF AMERICA:   COUNTRY
 SRVC.            Unknown:   SERVICE COMPANY
 DATE.        02-JUN-1991:   LOGDATE
 API .       490251096000:   API NUMBER
~CURVE INFORMATION
#MNEM.UNIT       API CODE    CURVE DESCRIPTION
#----------   ------------   ------------------------------
 DEPT.F                  :   
 ROP .MIN/FT 91 810 01 00:   RATE OF DRILLING PENETRATION
 TGAS.UNITS  91 830 01 00:   TOTAL GAS
~PARAMETER INFORMATION
#MNEM.UNIT          VALUE    DESCRIPTION
#----------   ------------   ------------------------------
 EKB .F              5241:   KELLING BUSHING
 EGL .F              5231:   GROUND LEVEL
 DATE.             6-2-91:   RUN DATE
 DD  .F              2350:   DEPTH DRILLER
 BLI .F              2347:   BOTTOM LOG INTERVAL
 TLI .F              1420:   TOP LOG INTERVAL
 ENGI.              TOWER:   RECORDING ENGINEER
 CLNT.            A2DTECH:   CLIENT CODE
 ORIG.         2.5" PRINT:   ORIGIN OF DATA
 UWI .       490251096000:   UNIQUE WELL ID
 DICO. A2D Technologies, Inc.:   DIGITIZING COMPANY
~OTHER INFORMATION
~A  DEPT       ROP        TGAS  
# ...
 2149.5000     0.5397  2070.7532
 2150.0000     0.5398  2067.9849
 2150.5000     0.5399  2052.6780
 2151.0000     0.5400  2053.0544
 2151.5000     0.5590  2053.4309
 2152.0000     0.5780  2053.8076
 2152.5000     0.6160  2054.1843
 2153.0000     0.6422  2054.5955
 2153.5000     0.6920  2054.9375
 2154.0000     0.6921  2055.3140
 2154.5000     0.7111  2050.7642
 2155.0000     0.7112  2015.6038
 2155.5000     0.7113  1952.6085
 2156.0000     0.7303  1889.6326
 2156.5000     0.7493  1812.5712
 2157.0000     0.7494  1681.0477
 2157.5000     0.7495  1587.2413
 2158.0000     0.7496  1459.6952
 2158.5000     0.7497  1316.6332
 2159.0000     0.7309  1203.7769
 2159.5000     0.7310  1119.6832
 2160.0000     0.7500  1046.8619
 2160.5000     0.7501   983.8734
 2161.0000     0.7502   874.4459
 2161.5000     0.7503   818.2963
 2162.0000     0.7693   757.2573
 2162.5000     0.7694   694.2876
 2163.0000     0.7127   637.5432
 2163.5000     0.6899   595.6754
 2164.0000     0.6667   564.6015
 2164.5000     0.6562   556.9456
 2165.0000     0.6752   557.3838
 2165.5000     0.6942   557.7194
 2166.0000     0.7011   558.0753
 2166.5000     0.7323   558.4520
 2167.0000     0.7513   558.8284
 2167.5000     0.7704   559.2050
 2168.0000     0.7947   559.5815
 2168.5000     0.8084   559.9581
 2169.0000     0.7896   560.4052
 2169.5000     0.7897   541.9125
 2170.0000     0.8087   542.2595
 2170.5000     0.7817   542.6360
 2171.0000     0.7142   543.0125
 2171.5000     0.6575   543.3891
 2172.0000     0.6008   543.8150
 2172.5000     0.6009   562.9790
 2173.0000     0.6199   563.3474
 2173.5000     0.6200   563.7239
 2174.0000     0.6390   564.1003
 2174.5000     0.6442   563.7318
 2175.0000     0.6581   562.2981
 2175.5000     0.6583   560.8644
 2176.0000     0.6773   559.4307
 2176.5000     0.6810   557.9970
 2177.0000     0.6964   556.5633
 2177.5000     0.6965   555.1296
 2178.0000     0.7155   553.6959
 2178.5000     0.7156   552.2622
 2179.0000     0.7222   550.8285
 2179.5000     0.7537   549.4102
 2180.0000     0.7538   549.7908
 2180.5000     0.7539   550.1673
 2181.0000     0.7540   550.5439
 2181.5000     0.7541   550.9204
 2182.0000     0.7542   551.2971
 2182.5000     0.7543   537.7122
 2183.0000     0.7544   533.2218
 2183.5000     0.7545   552.4318
 2184.0000     0.7546   533.9391
 2184.5000     0.7546   534.3514
 2185.0000     0.7547   534.7280
 2185.5000     0.7359   526.2265
 2186.0000     0.7360   516.6527
 2186.5000     0.7171   517.0293
 2187.0000     0.6983   536.2891
 2187.5000     0.6747   611.9387
 2188.0000     0.6515   712.4654
 2188.5000     0.6607   816.2849
 2189.0000     0.6797  1031.0542
 2189.5000     0.6988  1280.8866
 2190.0000     0.6989  1471.1516
 2190.5000     0.7179  1627.5076
 2191.0000     0.7180  1800.8169
 2191.5000     0.6768  1895.2948
 2192.0000     0.6174  1936.3353
 2192.5000     0.5564  1990.1672
 2193.0000     0.5479  1990.5438
 2193.5000     0.5480  1990.9204
 2194.0000     0.5481  1991.2970
 2194.5000     0.5293  1991.6736
 2195.0000     0.5294  1973.2943
 2195.5000     0.5295  1973.6301
 2196.0000     0.5295  1935.8131
 2196.5000     0.5296  1915.0803
 2197.0000     0.5487  1894.3307
 2197.5000     0.5488  1873.5897
 2198.0000     0.5489  1852.8488
 2198.5000     0.5679  1844.0586
 2199.0000     0.5782  1844.4352
 2199.5000     0.6060  1844.8527
 2200.0000     0.5683  1829.9441
 2200.5000     0.5499  1813.2231
 2201.0000     0.5308  1796.5021
 2201.5000     0.4943  1777.7174
 2202.0000     0.4760  1757.3252
 2202.5000     0.4769  1751.9874
 2203.0000     0.4775  1733.3656
 2203.5000     0.4781  1714.7095
 2204.0000     0.4821  1675.7314
 2204.5000     0.5431  1655.3396
 2205.0000     0.5852  1629.9110
 2205.5000     0.6324  1595.7141
 2206.0000     0.6709  1575.3148
 2206.5000     0.7094  1544.6216
 2207.0000     0.7100  1515.6876
 2207.5000     0.7296  1495.2957
 2208.0000     0.7304  1490.4603
 2208.5000     0.7310  1471.8339
 2209.0000     0.7127  1472.0084
 2209.5000     0.7180  1472.1968
 2210.0000     0.7412  1472.3850
 2210.5000     0.7716  1472.5732
 2211.0000     0.7912  1472.7615
 2211.5000     0.8296  1472.9498
 2212.0000     0.8268  1473.1381
 2212.5000     0.8049  1473.3264
 2213.0000     0.6613  1473.5146
 2213.5000     0.6619  1473.7281
 2214.0000     0.6625  1473.9004
 2214.5000     0.6821  1474.0795
 2215.0000     0.7017  1474.2678
 2215.5000     0.7119  1470.1837
 2216.0000     0.7221  1455.8159
 2216.5000     0.7227  1456.0042
 2217.0000     0.7220  1456.1924
 2217.5000     0.6623  1456.3807
 2218.0000     0.6130  1456.5690
 2218.5000     0.5739  1475.6226
 2219.0000     0.5745  1475.7947
 2219.5000     0.5751  1475.9669
 2220.0000     0.5758  1476.1506
 2220.5000     0.5764  1476.3389
 2221.0000     0.5772  1476.5272
 2221.5000     0.5968  1476.7155
 2222.0000     0.5974  1476.9038
 2222.5000     0.6196  1477.0920
 2223.0000     0.6555  1477.2803
 2223.5000     0.6751  1477.4686
 2224.0000     0.6948  1496.5176
 2224.5000     0.7333  1496.6897
 2225.0000     0.7339  1515.6903
 2225.5000     0.7397  1519.3971
 2226.0000     0.7542  1560.7606
 2226.5000     0.7549  1607.3933
 2227.0000     0.7555  1669.3229
 2227.5000     0.7561  1757.6320
 2228.0000     0.7338  1923.5267
 2228.5000     0.6741  2141.8960
 2229.0000     0.6068  2382.5217
 2229.5000     0.5884  2609.4626
 2230.0000     0.5322  2722.6057
 2230.5000     0.5329  2780.7749
 2231.0000     0.5525  2840.4475
 2231.5000     0.5721  2885.8499
 2232.0000     0.5728  2936.2375
 2232.5000     0.5734  2964.5359
 2233.0000     0.5930  3005.8992
 2233.5000     0.5990  3036.2151
 2234.0000     0.6412  3069.7844
 2234.5000     0.6708  3096.5854
 2235.0000     0.7093  3138.7258
 2235.5000     0.7296  3157.7266
 2236.0000     0.7485  3176.7366
 2236.5000     0.7570  3179.6804
 2237.0000     0.7499  3177.8564
 2237.5000     0.7505  3095.7246
 2238.0000     0.7701  3005.5305
 2238.5000     0.7676  2883.1980
 2239.0000     0.7524  2750.8230
 2239.5000     0.7428  2627.5281
 2240.0000     0.6971  2575.7666
 2240.5000     0.6787  2538.2817
 2241.0000     0.6604  2519.6257
 2241.5000     0.6420  2519.8118
 2242.0000     0.6428  2520.0000
 2242.5000     0.6436  2530.2356
 2243.0000     0.6820  2564.8088
 2243.5000     0.7026  2577.0503
 2244.0000     0.7447  2566.9446
 2244.5000     0.7598  2558.5984
 2245.0000     0.7416  2558.7866
 2245.5000     0.7043  2577.8330
 2246.0000     0.6860  2578.0054
 2246.5000     0.6643  2597.0081
 2247.0000     0.6684  2593.1755
 2247.5000     0.6880  2544.6492
 2248.0000     0.7077  2445.9207
 2248.5000     0.7272  2214.7085
 2249.0000     0.7681  1733.3590
 2249.5000     0.8232  1320.0450
 2250.0000     0.8428  1123.4042
 2250.5000     0.8436   901.7235
 2251.0000     0.8252   715.8829
 2251.5000     0.8069   659.5698
 2252.0000     0.8076   620.5850
 2252.5000     0.8082   579.6146
 2253.0000     0.8280   542.8824
 2253.5000     0.8475   528.5147
 2254.0000     0.8482   528.7029
 2254.5000     0.9056   519.3513
 2255.0000     0.9062   510.2510
 2255.5000     0.8881   510.4393
 2256.0000     0.8508   510.6644
 2256.5000     0.8325   510.8365
 2257.0000     0.7737   511.0088
 2257.5000     0.7140   511.1925
 2258.0000     0.6732   514.3880
 2258.5000     0.6269   530.3975
 2259.0000     0.6275   530.5858
 2259.5000     0.6296   530.7740
 2260.0000     0.6667   530.9623
 2260.5000     0.6949   531.1506
 2261.0000     0.7817   531.3389
 2261.5000     0.8202   531.5594
 2262.0000     0.8398   531.7315
 2262.5000     0.8214   531.9037
 2263.0000     0.8147   532.0921
 2263.5000     0.8039   532.2803
 2264.0000     0.7857   532.4686
 2264.5000     0.7863   532.6569
 2265.0000     0.7841   524.0592
 2265.5000     0.7876   514.2050
 2266.0000     0.8461   514.3933
 2266.5000     0.9216   528.6376
 2267.0000     0.9411   533.6259
 2267.5000     0.9796   533.7981
 2268.0000     0.9561   533.9749
 2268.5000     0.9342   534.1631
 2269.0000     0.8870   534.3515
 2269.5000     0.8687   534.5398
 2270.0000     0.8902   534.7280
 2270.5000     0.9920   534.9163
