~VERSION INFORMATION
 VERS.                2.0:   CWLS LOG ASCII STANDARD - VERSION 2.0
 WRAP.                 NO:   ONE LINE PER DEPTH STEP
~WELL INFORMATION
#MNEM.UNIT      DATA TYPE    INFORMATION
#----------   ------------   ------------------------------
 STRT.F          630.0000:   START DEPTH
 STOP.F         1708.0000:   STOP DEPTH
 STEP.F            0.5000:   STEP LENGTH
 NULL.          -999.2500:   NO VALUE
 COMP. FENIX & SCISSON INC:   COMPANY
 WELL.      SHX 34 #58-34:   WELL
 FLD .             TEAPOT:   FIELD
 LOC .      S34 T39N R78W:   LOCATION
 CNTY.            NATRONA:   COUNTY
 STAT.            WYOMING:   STATE
 CTRY. UNITED STATES OF AMERICA:   COUNTRY
 SRVC.           BIRDWELL:   SERVICE COMPANY
 DATE.        28-MAR-1979:   LOGDATE
 API .       490251077400:   API NUMBER
~CURVE INFORMATION
#MNEM.UNIT       API CODE    CURVE DESCRIPTION
#----------   ------------   ------------------------------
 DEPT.F                  :   
 CORR.G/C3   45 356 01 00:   DENSITY CORRECTION
 DPHI.DEC    45 890 12 00:   DENSITY POROSITY SANDSTONE
 RHOB.G/C3   45 350 01 00:   BULK DENSITY
 CALD.IN     45 280 60 00:   CALIPER
 GRD .GAPI   45 310 01 00:   GAMMA RAY FROM DENSITY LOG
~PARAMETER INFORMATION
#MNEM.UNIT          VALUE    DESCRIPTION
#----------   ------------   ------------------------------
 PD  .                 GL:   PERMANENT DATUM
 EPD .F              5120:   ELEVATION PERMANENT DATUM
 LMF .                 KB:   LOG MEASURED FROM
 DAPD.F                10:   FEET ABOVE PERMANENT DATUM
 DMF .                 KB:   DRILLING MEASURED FROM
 EKB .F              5130:   KELLING BUSHING
 EGL .F              5120:   GROUND LEVEL
 DATE.            3-28-79:   RUN DATE
 RUN .                  2:   RUN NUMBER
 DD  .F              1720:   DEPTH DRILLER
 DL  .F              1708:   DEPTH LOGGER
 BLI .F              1708:   BOTTOM LOG INTERVAL
 TLI .F               649:   TOP LOG INTERVAL
 CS  .IN            9.625:   CASING SIZE
 CBD .F               639:   CASING BOTTOM DRILLER
 CBL .F               646:   CASING BOTTOM LOGGER
 BS  .IN             8.75:   BIT SIZE
 BSD .F              1720:   BIT SIZE AT DEPTH
 DFT .                OIL:   DRILLING FLUID TYPE
 TCS .HRS               3:   TIME CURCULATED STOPPED
 MRT .F               150:   MAXIMUM RECORDED TEMPERATURE
 LUN .               2959:   LOGGING UNIT NUMBER
 LUL .             CASPER:   LOGGING UNIT LOCATION
 ENGI.         B. ROLLINS:   RECORDING ENGINEER
 WITN.              AMEND:   WITNESSED BY
 CLNT.            A2DTECH:   CLIENT CODE
 ORIG.           5" PRINT:   ORIGIN OF DATA
 UWI .       490251077400:   UNIQUE WELL ID
 DICO. A2D Technologies, Inc.:   DIGITIZING COMPANY
~OTHER INFORMATION
~A   DEPT     CORR       DPHI       RHOB       CALD         GRD  
# ...
  813.0000     0.0201     0.0688     2.4268     9.9464   134.4985
  813.5000     0.0209     0.0813     2.4106     9.9348   133.2897
  814.0000     0.0386     0.0821     2.4036     9.9266   127.8736
  814.5000     0.0553     0.0769     2.4162     9.9184   124.4040
  815.0000     0.0748     0.0701     2.4313     9.9102   126.9745
  815.5000     0.0843     0.0613     2.4467     9.9020   132.9828
  816.0000     0.0954     0.0525     2.4617     9.8939   140.1485
  816.5000     0.0998     0.0438     2.4757     9.8857   138.9168
  817.0000     0.1059     0.0398     2.4785     9.8775   135.2268
  817.5000     0.1107     0.0330     2.4745     9.8694   130.5390
  818.0000     0.1333     0.0255     2.4803     9.8602   131.7205
  818.5000     0.1447     0.0380     2.5026     9.8475   134.9170
  819.0000     0.1278     0.0558     2.4781     9.8325   136.7723
  819.5000     0.1143     0.0392     2.4619     9.8181   135.2815
  820.0000     0.1329     0.0239     2.4901     9.8035   133.9659
  820.5000     0.1347     0.0239     2.5078     9.7879   133.4426
  821.0000     0.1125     0.0376     2.5078     9.7788   134.0980
  821.5000     0.0844     0.0535     2.4678     9.7834   134.5487
  822.0000     0.0642     0.0695     2.4335     9.7897   131.8880
  822.5000     0.0771     0.0749     2.4205     9.7956   128.5691
  823.0000     0.0993     0.0749     2.4265     9.8017   126.9656
  823.5000     0.1751     0.0609     2.4499     9.8078   129.1505
  824.0000     0.2150     0.0362     2.4895     9.8138   131.1087
  824.5000     0.2633     0.0068     2.5299     9.8198   132.2881
  825.0000     0.2942    -0.0167     2.5735     9.8258   132.1508
  825.5000     0.2861    -0.0494     2.6304     9.8319   131.3476
  826.0000     0.1970    -0.0247     2.5992     9.8378   130.3689
  826.5000     0.1159     0.0149     2.5426     9.8439   129.3714
  827.0000     0.0821     0.0327     2.4863     9.8498   128.4810
  827.5000     0.0831     0.0335     2.4874     9.8555   127.8160
  828.0000     0.0743     0.0372     2.4838     9.8709   127.1902
  828.5000     0.0568     0.0426     2.4769     9.9042   126.5817
  829.0000     0.0465     0.0472     2.4688     9.9370   125.8162
  829.5000     0.0400     0.0486     2.4633     9.9701   125.3910
  830.0000     0.0334     0.0476     2.4668    10.0032   124.8715
  830.5000     0.0278     0.0452     2.4697    10.0363   124.5258
  831.0000     0.0266     0.0458     2.4703    10.0694   121.6285
  831.5000     0.0256     0.0494     2.4671    10.1025   118.3551
  832.0000     0.0236     0.0502     2.4639    10.1357   116.2804
  832.5000     0.0307     0.0502     2.4648    10.1684   117.3716
  833.0000     0.0438     0.0461     2.4673    10.2020   118.9413
  833.5000     0.0480     0.0406     2.4762    10.2357   120.2233
  834.0000     0.0404     0.0474     2.4682    10.2509   123.5866
  834.5000     0.0317     0.0558     2.4581    10.2118   129.7206
  835.0000     0.0275     0.0572     2.4552    10.1738   130.8147
  835.5000     0.0285     0.0589     2.4530    10.1342   129.3746
  836.0000     0.0304     0.0560     2.4518    10.0951   129.0911
  836.5000     0.0323     0.0528     2.4606    10.0564   133.7028
  837.0000     0.0342     0.0502     2.4605    10.0165   138.1871
  837.5000     0.0359     0.0542     2.4551     9.9785   141.4487
  838.0000     0.0383     0.0592     2.4502     9.9422   130.2853
  838.5000     0.0400     0.0622     2.4446     9.9501   128.5131
  839.0000     0.0511     0.0585     2.4477     9.9585   130.6969
  839.5000     0.0516     0.0528     2.4564     9.9679   133.5570
  840.0000     0.0521     0.0486     2.4621     9.9775   132.6629
  840.5000     0.0554     0.0479     2.4665     9.9460   129.7965
  841.0000     0.0597     0.0466     2.4712     9.8969   127.2665
  841.5000     0.0679     0.0454     2.4734     9.8483   124.7082
  842.0000     0.0763     0.0411     2.4736     9.8008   125.1603
  842.5000     0.0831     0.0354     2.4888     9.7513   126.1768
  843.0000     0.0743     0.0319     2.4955     9.7041   125.6833
  843.5000     0.0606     0.0373     2.4881     9.6628   123.4263
  844.0000     0.0465     0.0453     2.4761     9.6824   122.0347
  844.5000     0.0366     0.0590     2.4626     9.7021   121.1293
  845.0000     0.0386     0.0617     2.4494     9.7235   119.9842
  845.5000     0.0454     0.0630     2.4452     9.7370   119.0480
  846.0000     0.0562     0.0605     2.4409     9.7669   121.2060
  846.5000     0.0713     0.0574     2.4441     9.8347   124.0617
  847.0000     0.0950     0.0595     2.4496     9.8976   127.0467
  847.5000     0.1031     0.0640     2.4475     9.9079   128.1819
  848.0000     0.1100     0.0694     2.4321     9.9299   125.2424
  848.5000     0.1400     0.0609     2.4443     9.8874   122.4856
  849.0000     0.1799     0.0405     2.4774     9.8548   122.5217
  849.5000     0.2191     0.0389     2.4814     9.8219   126.8294
  850.0000     0.2574     0.0358     2.5009     9.7867   130.7896
  850.5000     0.2987     0.0009     2.5386     9.7505   133.4110
  851.0000     0.3102    -0.0435     2.5819     9.7433   130.4969
  851.5000     0.2947    -0.0454     2.6215     9.7065   127.9361
  852.0000     0.2126    -0.0227     2.5942     9.7068   125.1959
  852.5000     0.1330     0.0112     2.5500     9.7167   122.1164
  853.0000     0.0753     0.0340     2.5052     9.7296   121.4682
  853.5000     0.0555     0.0523     2.4647     9.7394   124.9297
  854.0000     0.0470     0.0590     2.4504     9.7504   126.6230
  854.5000     0.0627     0.0492     2.4669     9.7613   123.8150
  855.0000     0.0832     0.0327     2.4917     9.7721   121.2227
  855.5000     0.0897     0.0191     2.5176     9.7805   119.4799
  856.0000     0.0655     0.0236     2.5182     9.7748   118.1786
  856.5000     0.0491     0.0302     2.5064     9.7626   116.9133
  857.0000     0.0348     0.0388     2.4904     9.7508   115.8059
  857.5000     0.0229     0.0432     2.4744     9.7390   114.7047
  858.0000     0.0127     0.0516     2.4639     9.7271   112.7203
  858.5000     0.0043     0.0541     2.4558     9.7153   110.7799
  859.0000     0.0043     0.0594     2.4492     9.7034   108.8303
  859.5000     0.0111     0.0606     2.4438     9.6918   106.7870
  860.0000     0.0185     0.0571     2.4494     9.6800   106.5627
  860.5000     0.0237     0.0536     2.4573     9.6672   108.1714
  861.0000     0.0193     0.0518     2.4616     9.6597   109.6255
  861.5000     0.0143     0.0562     2.4553     9.6601   111.0157
  862.0000     0.0085     0.0613     2.4470     9.6598   108.6793
  862.5000     0.0030     0.0639     2.4397     9.6621   110.6278
  863.0000     0.0092     0.0669     2.4377     9.6359   114.4276
  863.5000     0.0187     0.0608     2.4451     9.5726   118.1093
  864.0000     0.0280     0.0534     2.4544     9.5121   122.7071
  864.5000     0.0362     0.0470     2.4642     9.4479   121.2337
  865.0000     0.0463     0.0414     2.4734     9.4166   118.5680
  865.5000     0.0550     0.0406     2.4804     9.4285   120.0304
  866.0000     0.0598     0.0450     2.4751     9.4544   119.2008
  866.5000     0.0555     0.0549     2.4658     9.4793   116.8181
  867.0000     0.0514     0.0661     2.4421     9.5051   113.6389
  867.5000     0.0570     0.0637     2.4362     9.5313   114.9009
  868.0000     0.0646     0.0558     2.4583     9.5407   119.0219
  868.5000     0.0686     0.0478     2.4661     9.5401   123.0587
  869.0000     0.0997     0.0441     2.4672     9.5401   123.5617
  869.5000     0.1538     0.0406     2.4729     9.5405   122.4122
  870.0000     0.2063     0.0014     2.5195     9.5399   121.6221
  870.5000     0.2624    -0.0298     2.6023     9.5398   123.9951
  871.0000     0.2966    -0.0384     2.6142     9.5135   128.3012
  871.5000     0.2524    -0.0430     2.6226     9.4791   132.9024
  872.0000     0.2095    -0.0263     2.6021     9.4441   137.1446
  872.5000     0.1685    -0.0069     2.5729     9.4108   150.9111
  873.0000     0.1375     0.0112     2.5506     9.3769   162.1827
  873.5000     0.1065     0.0222     2.5308     9.3348   159.0818
