~VERSION INFORMATION
 VERS.                2.0:   CWLS LOG ASCII STANDARD - VERSION 2.0
 WRAP.                 NO:   ONE LINE PER DEPTH STEP
~WELL INFORMATION
#MNEM.UNIT      DATA TYPE    INFORMATION
#----------   ------------   ------------------------------
 STRT.F           38.0000:   START DEPTH
 STOP.F          483.5000:   STOP DEPTH
 STEP.F            0.5000:   STEP LENGTH
 NULL.          -999.2500:   NO VALUE
 COMP. FENIX & SCISSON INC:   COMPANY
 WELL.    43 SX 10 #43-10:   WELL
 FLD .             TEAPOT:   FIELD
 LOC .      S10 T38N R78W:   LOCATION
 CNTY.            NATRONA:   COUNTY
 STAT.            WYOMING:   STATE
 CTRY. UNITED STATES OF AMERICA:   COUNTRY
 SRVC.            Unknown:   SERVICE COMPANY
 DATE.        12-NOV-1978:   LOGDATE
 API .       490251072700:   API NUMBER
~CURVE INFORMATION
#MNEM.UNIT       API CODE    CURVE DESCRIPTION
#----------   ------------   ------------------------------
 DEPT.F                  :   
 SPR .MV     05 010 01 00:   SPONTANEOUS POTENTIAL FROM RES.
 SN  .OHMM   05 040 16 00:   SHORT NORMAL 16"
 IL  .OHMM   05 120 00 00:   INDUCTION LOG
 GRD .GAPI   45 310 01 00:   GAMMA RAY FROM DENSITY LOG
 CALD.IN     45 280 60 00:   CALIPER
 DEN .G/C3   45 350 01 00:   COMPENSATED BULK DENSTIY
 DPHI.DEC    45 890 12 00:   DENSITY POROSITY SANDSTONE
 CORR.G/C3   45 356 01 00:   DENSITY CORRECTION
~PARAMETER INFORMATION
#MNEM.UNIT          VALUE    DESCRIPTION
#----------   ------------   ------------------------------
 PD  .                 GL:   PERMANENT DATUM
 EPD .F              5193:   ELEVATION PERMANENT DATUM
 LMF .                 KB:   LOG MEASURED FROM
 DAPD.F                 4:   FEET ABOVE PERMANENT DATUM
 DMF .                 KB:   DRILLING MEASURED FROM
 EKB .F              5197:   KELLING BUSHING
 EGL .F              5193:   GROUND LEVEL
 DATE.           11-12-78:   RUN DATE
 RUN .                  1:   RUN NUMBER
 DD  .F               480:   DEPTH DRILLER
 DL  .F               485:   DEPTH LOGGER
 BLI .F               479:   BOTTOM LOG INTERVAL
 TLI .F                50:   TOP LOG INTERVAL
 CS  .IN            8.625:   CASING SIZE
 CBD .F                40:   CASING BOTTOM DRILLER
 CBL .F                45:   CASING BOTTOM LOGGER
 BS  .IN            7.875:   BIT SIZE
 BSD .F               480:   BIT SIZE AT DEPTH
 DFT .            SEA MUD:   DRILLING FLUID TYPE
 DFD .                8.7:   DRILLING FLUID DENSITY
 DFV .                 36:   DRILLING FLUID VISCOSITY
 DFPH.               10.5:   DRILLING FLUID PH
 MSS .            MUD PIT:   MUD SAMPLE SOURCE
 RMS .OHMM            .42:   RESISTIVITY MUD SAMPLE
 MST .F                52:   MUD SAMPLE TEMPERATURE
 RMF .OHMM            .42:   RESISTIVITY MUD FILTRATE SAMPLE
 MFST.F                52:   MUD FILTRATE SAMPLE TEMPERATURE
 RMC .OHMM            .48:   RESISTIVITY MUD CAKE
 MCST.F                54:   MUD CAKE SAMPLE TEMPERATURE
 MFSS.               MEAS:   MUD FILTRATE SAMPLE SOURCE
 MCSS.               MEAS:   MUD CAKE SAMPLE SOURCE
 RMB .OHMM            .34:   RESISTIVITY MUD AT BHT
 BHT .F                71:   BOTTOM HOLE TEMPERATURE
 TCS .HRS               3:   TIME CURCULATED STOPPED
 MRT .F                71:   MAXIMUM RECORDED TEMPERATURE
 LUN .               3006:   LOGGING UNIT NUMBER
 LUL .               CASP:   LOGGING UNIT LOCATION
 ENGI.             MILLER:   RECORDING ENGINEER
 WITN.           DINSMORE:   WITNESSED BY
 CLNT.            A2DTECH:   CLIENT CODE
 ORIG.       2", 5" PRINT:   ORIGIN OF DATA
 UWI .       490251072700:   UNIQUE WELL ID
 DICO. A2D Technologies, Inc.:   DIGITIZING COMPANY
~OTHER INFORMATION
~A   DEPT      SPR         SN         IL         GRD      CALD        DEN       DPHI       CORR   
# ...
  321.5000   -21.1171    16.6322    19.9262   103.0984     8.3868     2.3582     0.1931     0.0184
  322.0000   -21.2179    16.6322    19.9073   104.2316     8.3817     2.3618     0.1905     0.0179
  322.5000   -21.3187    16.6322    19.8884   104.7142     8.3767     2.3654     0.1879     0.0170
  323.0000   -21.4195    16.6322    19.8696   104.6060     8.3716     2.3690     0.1852     0.0161
  323.5000   -21.5203    16.6321    19.8514   103.9256     8.3666     2.3726     0.1830     0.0153
  324.0000   -21.6211    16.6322    19.8318   102.4595     8.3615     2.3760     0.1821     0.0145
  324.5000   -21.7219    16.6371    19.7553   101.0025     8.3567     2.3791     0.1811     0.0165
  325.0000   -21.8228    16.6652    19.4333    99.5536     8.3585     2.3823     0.1801     0.0187
  325.5000   -21.9235    16.6928    19.1166    99.2354     8.3606     2.3866     0.1737     0.0210
  326.0000   -22.0298    16.7206    18.7500    99.1964     8.3628     2.4009     0.1616     0.0225
  326.5000   -22.1533    16.7484    18.9691    99.1543     8.3649     2.4461     0.1393     0.0178
  327.0000   -22.2793    16.7771    19.3257    99.0473     8.3670     2.4916     0.1171     0.0127
  327.5000   -22.4054    16.8361    19.6890    98.9407     8.3691     2.5299     0.0948     0.0076
  328.0000   -22.5314    16.9153    19.8165    98.8353     8.3713     2.5532     0.0832     0.0027
  328.5000   -22.6575    16.9944    19.8165    98.7242     8.3734     2.5555     0.0809     0.0024
  329.0000   -22.7841    17.0740    19.8165    98.6043     8.3755     2.5311     0.0911     0.0064
  329.5000   -22.9093    17.0986    19.4289    98.4854     8.3776     2.5062     0.1060     0.0126
  330.0000   -22.9757    17.0043    18.9981    98.3649     8.3797     2.4818     0.1209     0.0185
  330.5000   -22.7895    16.6906    18.5770    98.1714     8.3819     2.4593     0.1358     0.0202
  331.0000   -22.6089    16.3344    18.1652    97.4311     8.3840     2.4372     0.1506     0.0218
  331.5000   -22.4287    15.8844    17.7625    96.3962     8.3861     2.4166     0.1588     0.0234
  332.0000   -22.2491    15.4468    17.2973    96.0537     8.3882     2.4138     0.1600     0.0241
  332.5000   -22.0640    15.0212    16.7840    95.6771     8.3903     2.4157     0.1591     0.0225
  333.0000   -22.1528    14.6838    16.2859    95.2199     8.3925     2.4044     0.1616     0.0208
  333.5000   -22.3592    14.4840    15.8829    94.9522     8.3946     2.4012     0.1653     0.0234
  334.0000   -22.4269    14.4825    15.8829    95.4904     8.4005     2.3985     0.1667     0.0272
  334.5000   -22.4524    14.4839    15.9099    96.0320     8.4150     2.3949     0.1690     0.0311
  335.0000   -22.4762    14.4841    15.9563    96.6938     8.4296     2.3898     0.1725     0.0305
  335.5000   -22.5004    14.4831    16.0028    97.9308     8.4269     2.3944     0.1719     0.0274
  336.0000   -22.5247    14.4855    16.0300    97.9663     8.4120     2.4074     0.1631     0.0241
  336.5000   -22.5490    14.3082    15.6325    95.7603     8.3968     2.4204     0.1538     0.0209
  337.0000   -22.5733    14.1855    15.3576    94.5797     8.3816     2.4333     0.1452     0.0207
  337.5000   -22.5976    14.0637    15.0877    93.8970     8.3763     2.4374     0.1424     0.0209
  338.0000   -22.6218    13.9430    14.8870    94.1205     8.3762     2.4293     0.1491     0.0211
  338.5000   -22.6461    13.8315    14.8744    95.4402     8.3763     2.4250     0.1521     0.0213
  339.0000   -22.6704    13.8113    14.8618    95.9747     8.3790     2.4253     0.1521     0.0215
  339.5000   -22.6947    13.7924    14.8492    96.0455     8.3903     2.4305     0.1485     0.0216
  340.0000   -22.7190    13.7735    14.8367    95.9384     8.4011     2.4407     0.1420     0.0218
  340.5000   -22.7433    13.7547    14.8241    93.0434     8.4119     2.4510     0.1355     0.0220
  341.0000   -22.7677    13.7358    14.8116    89.3883     8.4227     2.4550     0.1316     0.0222
  341.5000   -22.7914    13.7172    14.7991    89.4888     8.4336     2.4517     0.1346     0.0225
  342.0000   -22.7913    13.7044    14.7865    90.0167     8.4308     2.4481     0.1383     0.0255
  342.5000   -22.7291    13.7046    14.7740    90.4556     8.4185     2.4472     0.1376     0.0324
  343.0000   -22.6680    13.7046    14.7615    90.4509     8.4063     2.4491     0.1357     0.0338
  343.5000   -22.6069    13.7046    14.7490    90.4386     8.3940     2.4507     0.1346     0.0329
  344.0000   -22.5458    13.7046    14.7365    90.0747     8.3818     2.4484     0.1389     0.0265
  344.5000   -22.4845    13.7046    14.7241    88.8938     8.3696     2.4361     0.1470     0.0197
  345.0000   -22.4215    13.7046    14.7116    87.7587     8.3574     2.4256     0.1526     0.0128
  345.5000   -22.4358    13.7046    14.6992    86.7522     8.3452     2.4198     0.1561     0.0120
  346.0000   -22.4681    13.7046    14.6867    86.8415     8.3330     2.4199     0.1553     0.0115
  346.5000   -22.5008    13.7046    14.6743    86.9575     8.3207     2.4210     0.1542     0.0109
  347.0000   -22.5334    13.7046    14.6619    87.0536     8.3085     2.4238     0.1532     0.0109
  347.5000   -22.5657    13.7046    14.6495    86.3145     8.2963     2.4256     0.1521     0.0129
  348.0000   -22.5997    13.7046    14.6373    85.5393     8.2842     2.4268     0.1511     0.0150
  348.5000   -22.5504    13.7046    14.6247    85.2783     8.2834     2.4281     0.1500     0.0176
  349.0000   -22.4630    13.7047    14.5952    85.8297     8.2980     2.4326     0.1471     0.0225
  349.5000   -22.3743    13.7048    14.5126    86.8654     8.3124     2.4380     0.1436     0.0274
  350.0000   -22.2856    13.7055    14.4304    87.7694     8.3264     2.4351     0.1450     0.0322
  350.5000   -22.1974    13.6585    14.3487    87.8056     8.3246     2.4280     0.1502     0.0380
  351.0000   -22.1105    13.6234    14.2675    87.8284     8.2826     2.4183     0.1597     0.0489
  351.5000   -22.0110    13.5882    14.1867    87.8540     8.2409     2.4166     0.1541     0.0587
  352.0000   -21.4151    13.5532    14.1062    87.8803     8.2003     2.4322     0.1465     0.0577
  352.5000   -20.4016    13.5181    14.0265    87.9066     8.2345     2.4453     0.1389     0.0569
  353.0000   -19.7806    13.4832    13.9590    87.9332     8.2739     2.4510     0.1372     0.0571
  353.5000   -19.1925    13.4542    13.9961    87.9589     8.3125     2.4460     0.1400     0.0580
  354.0000   -19.0910    13.7657    14.2150    88.0593     8.3264     2.4395     0.1431     0.0590
  354.5000   -18.9776    14.0381    14.4374    88.2127     8.2986     2.4323     0.1470     0.0599
  355.0000   -18.8622    14.3152    14.6632    88.1150     8.2713     2.3996     0.1638     0.0609
  355.5000   -18.7469    14.6677    14.8903    87.8152     8.2436     2.3633     0.1893     0.0618
  356.0000   -18.6315    15.1301    16.0468    85.3464     8.2169     2.3336     0.2097     0.0620
  356.5000   -18.5161    15.6071    17.2805    83.2415     8.2704     2.3324     0.2130     0.0592
  357.0000   -18.4007    16.0970    18.6091    82.3938     8.3234     2.3435     0.2039     0.0564
  357.5000   -18.2853    16.6133    20.0399    81.7362     8.3488     2.3571     0.1902     0.0537
  358.0000   -18.1697    17.5616    21.1621    81.2008     8.3610     2.3674     0.1867     0.0509
  358.5000   -18.0508    18.5173    22.1165    83.6718     8.3676     2.3723     0.1840     0.0482
  359.0000   -18.0482    19.1307    23.1138    86.4490     8.3755     2.3744     0.1852     0.0455
  359.5000   -18.0741    19.6310    24.1562    87.1174     8.3344     2.3611     0.1924     0.0426
  360.0000   -18.1007    20.0000    24.6105    87.1730     8.3336     2.3477     0.1948     0.0371
  360.5000   -18.1271    20.3839    24.9954    87.2489     8.3310     2.3344     0.2097     0.0311
  361.0000   -18.1534    20.7832    25.3864    87.8072     8.3284     2.3231     0.2126     0.0270
  361.5000   -18.1797    21.1904    25.7834    89.2714     8.3258     2.3228     0.2144     0.0241
