~VERSION INFORMATION
 VERS.                2.0:   CWLS LOG ASCII STANDARD - VERSION 2.0
 WRAP.                 NO:   ONE LINE PER DEPTH STEP
~WELL INFORMATION
#MNEM.UNIT      DATA TYPE    INFORMATION
#----------   ------------   ------------------------------
 STRT.F            4.0000:   START DEPTH
 STOP.F          614.0000:   STOP DEPTH
 STEP.F            0.1000:   STEP LENGTH
 NULL.          -999.2500:   NO VALUE
 COMP.   FLUOR DANIEL INC:   COMPANY
 WELL.     63-4 X 3 #63-3:   WELL
 FLD .          N.P.R. #3:   FIELD
 LOC .       S3 T38N R78W:   LOCATION
 CNTY.            NATRONA:   COUNTY
 STAT.            WYOMING:   STATE
 CTRY. UNITED STATES OF AMERICA:   COUNTRY
 SRVC.      Western Atlas:   SERVICE COMPANY
 DATE.        01-JUN-1995:   LOGDATE
 API .       490252271300:   API NUMBER
~CURVE INFORMATION
#MNEM.UNIT       API CODE    CURVE DESCRIPTION
#----------   ------------   ------------------------------
 DEPT.F                  :   
 GRR .GAPI   07 310 01 00:   GAMMA RAY
 RILD.OHMM   07 120 46 00:   INDUCTION LOG DEEP RESISTIVITY
 RILM.OHMM   07 120 44 00:   INDUCTION LOG MEDIUM RESISTIVITY
~PARAMETER INFORMATION
#MNEM.UNIT          VALUE    DESCRIPTION
#----------   ------------   ------------------------------
 PD  .                 GL:   PERMANENT DATUM
 EPD .F              5173:   ELEVATION PERMANENT DATUM
 LMF .                 KB:   LOG MEASURED FROM
 DAPD.F                10:   FEET ABOVE PERMANENT DATUM
 DMF .                 KB:   DRILLING MEASURED FROM
 EKB .F              5183:   KELLING BUSHING
 EDF .F              5182:   DRILLING FLOOR
 EGL .F              5173:   GROUND LEVEL
 DATE.        01-JUN-1995:   RUN DATE
 RUN .                  1:   RUN NUMBER
 DD  .F               626:   DEPTH DRILLER
 DL  .F               622:   DEPTH LOGGER
 BLI .F               614:   BOTTOM LOG INTERVAL
 TLI .F                95:   TOP LOG INTERVAL
 CS  .IN            9.625:   CASING SIZE
 CBD .F                95:   CASING BOTTOM DRILLER
 CBL .F                95:   CASING BOTTOM LOGGER
 BS  .IN             8.75:   BIT SIZE
 BSD .F               626:   BIT SIZE AT DEPTH
 DFT .                AIR:   DRILLING FLUID TYPE
 MRT .F               147:   MAXIMUM RECORDED TEMPERATURE
 LUN .            HL 6530:   LOGGING UNIT NUMBER
 LUL .             CASPER:   LOGGING UNIT LOCATION
 ENGI.        VERN RAUTIO:   RECORDING ENGINEER
 WITN.        STEVE HARDY:   WITNESSED BY
 CLNT.            A2DTECH:   CLIENT CODE
 ORIG.           5" PRINT:   ORIGIN OF DATA
 UWI .       490252271300:   UNIQUE WELL ID
 DICO. A2D Technologies, Inc.:   DIGITIZING COMPANY
~OTHER INFORMATION
~A    DEPT       GRR     RILD       RILM   
# ...
  440.8000    65.7208    14.7986    16.1896
  440.9000    64.7810    15.1508    16.3822
  441.0000    63.1816    15.4605    16.5663
  441.1000    59.7822    15.5984    16.4531
  441.2000    58.2856    15.5241    16.3689
  441.3000    57.5649    15.6678    16.2737
  441.4000    57.2103    15.6323    16.0789
  441.5000    56.9543    15.5141    15.8638
  441.6000    56.6982    15.2651    15.7380
  441.7000    56.4603    15.0742    15.4634
  441.8000    56.4597    14.6856    15.2532
  441.9000    56.4591    14.3827    14.9587
  442.0000    56.4585    13.9340    14.6675
  442.1000    56.4579    13.4922    14.2910
  442.2000    56.7229    13.0494    13.8193
  442.3000    57.4462    12.5576    13.4285
  442.4000    57.9644    12.2608    13.1034
  442.5000    58.5670    12.0082    12.8120
  442.6000    58.7717    11.8957    12.5147
  442.7000    59.1854    11.7142    12.3113
  442.8000    59.5830    11.6438    12.1369
  442.9000    59.8378    11.5903    11.9248
  443.0000    60.1126    11.4234    11.7163
  443.1000    60.6750    11.2427    11.4936
  443.2000    61.1331    11.1112    11.3716
  443.3000    62.0093    10.9721    11.1907
  443.4000    62.8935    10.8532    11.0314
  443.5000    63.8400    10.6797    10.9028
  443.6000    65.2488    10.5627    10.7490
  443.7000    67.3080    10.4537    10.5035
  443.8000    69.4189    10.2831    10.3644
  443.9000    70.6611    10.1628    10.2602
  444.0000    71.8713    10.0255    10.0998
  444.1000    72.7776     9.9269     9.9234
  444.2000    73.5432     9.8110     9.7694
  444.3000    74.2646     9.6963     9.6369
  444.4000    74.5435     9.5664     9.4105
  444.5000    74.5430     9.4054     9.2818
  444.6000    74.7274     9.2885     9.1497
  444.7000    74.8434     9.1870     9.0238
  444.8000    74.9354     9.0797     8.9185
  444.9000    75.1901     8.9736     8.8145
  445.0000    75.4449     8.8687     8.7177
  445.1000    75.4442     8.7759     8.6640
  445.2000    75.6529     8.7245     8.5689
  445.3000    75.7448     8.6657     8.5847
  445.4000    75.7442     8.5797     8.6359
  445.5000    75.7436     8.5128     8.6874
  445.6000    75.7430     8.4629     8.7519
  445.7000    75.7423     8.4133     8.8487
  445.8000    75.9751     8.3640     8.8492
  445.9000    76.6040     8.3123     8.8497
  446.0000    77.2287     8.2663     8.8501
  446.1000    77.5499     8.2178     8.8506
  446.2000    77.5493     8.1697     8.8511
  446.3000    77.5487     8.1410     8.8516
  446.4000    77.5480     8.1410     8.8521
  446.5000    77.5475     8.1410     8.8527
  446.6000    77.5469     8.1410     8.8531
  446.7000    75.0192     8.1822     8.8536
  446.8000    74.5889     8.2304     8.8541
  446.9000    74.2779     8.2548     8.8715
  447.0000    73.7633     8.2701     8.9165
  447.1000    73.4662     8.3188     8.9170
  447.2000    73.4647     8.3701     8.9175
  447.3000    73.2803     8.3701     8.9180
  447.4000    73.0185     8.4082     8.9185
  447.5000    72.9532     8.4578     8.9190
  447.6000    73.2113     8.4871     8.9195
  447.7000    73.4833     8.4871     8.9200
  447.8000    74.0578     8.4895     8.9205
  447.9000    74.5191     8.5463     8.9210
  448.0000    74.8479     8.5899     8.9215
  448.1000    75.2531     8.6058     8.9220
  448.2000    75.7711     8.6313     8.9225
  448.3000    76.2892     8.6657     8.9230
  448.4000    76.7867     8.6657     8.9234
  448.5000    77.0663     8.6657     8.9240
  448.6000    77.5412     8.7148     8.9244
  448.7000    78.0592     8.7261     8.8880
  448.8000    78.2695     8.7261     8.8639
  448.9000    78.2677     8.7261     8.8644
  449.0000    78.2659     8.7261     8.8649
  449.1000    78.2640     8.7261     8.8653
  449.2000    78.2621     8.7261     8.8659
  449.3000    78.2604     8.7261     8.8663
  449.4000    78.2586     8.7261     8.8668
  449.5000    78.4174     8.7261     8.8673
  449.6000    78.7939     8.7261     8.8678
  449.7000    79.2357     8.7261     8.8683
  449.8000    79.4601     8.7261     8.8688
  449.9000    79.4580     8.7261     8.8693
  450.0000    79.4558     8.7261     8.8698
  450.1000    79.6640     8.7261     8.8703
  450.2000    79.7547     8.7985     8.8707
  450.3000    79.7529     8.8499     8.8712
  450.4000    79.7511     8.8505     8.8717
  450.5000    79.7084     8.8511     8.8723
  450.6000    79.4453     8.8517     8.8727
  450.7000    79.4432     8.8524     8.8732
  450.8000    79.4417     8.8530     8.8737
  450.9000    79.2658     8.8537     8.8742
  451.0000    79.0041     8.8542     8.8747
  451.1000    78.6526     8.8548     8.8752
  451.2000    78.2260     8.8554     8.8757
  451.3000    78.2242     8.8560     8.8761
  451.4000    78.2221     8.8567     8.8766
  451.5000    78.2205     8.8573     8.8771
  451.6000    78.3996     8.8579     8.8776
  451.7000    78.6577     8.8585     8.8781
  451.8000    78.9158     8.8187     8.8786
  451.9000    79.0653     8.7984     8.8792
  452.0000    78.8157     8.7991     8.8796
  452.1000    78.8137     8.7832     8.8801
  452.2000    78.3525     8.7393     8.8563
  452.3000    78.2060     8.7400     8.8198
  452.4000    78.0588     8.7407     8.8203
  452.5000    77.7971     8.7412     8.8208
  452.6000    77.5353     8.7418     8.8213
  452.7000    77.2736     8.7424     8.8218
  452.8000    76.9884     8.7431     8.8223
  452.9000    76.9867     8.7297     8.8228
  453.0000    76.7905     8.6837     8.8232
  453.1000    76.6810     8.6844     8.8237
  453.2000    76.7892     8.6851     8.8243
  453.3000    76.9795     8.6856     8.8247
  453.4000    77.0799     8.6862     8.8252
  453.5000    78.1842     8.6868     8.8257
  453.6000    79.1557     8.6874     8.8262
  453.7000    80.3947     8.6880     8.8267
  453.8000    80.8979     8.6886     8.8271
  453.9000    80.7794     8.6893     8.8277
  454.0000    80.5921     8.6898     8.8281
  454.1000    80.5580     8.6904     8.8286
  454.2000    80.2863     8.6910     8.8291
  454.3000    79.7845     8.6916     8.8296
  454.4000    79.4707     8.7092     8.8301
  454.5000    79.2089     8.7534     8.8306
  454.6000    78.9472     8.7540     8.8311
  454.7000    78.6855     8.7547     8.8315
  454.8000    78.4238     8.7552     8.8320
  454.9000    78.1589     8.7558     8.8325
  455.0000    78.1568     8.7564     8.8330
  455.1000    78.1553     8.7570     8.8335
  455.2000    78.1535     8.7576     8.8340
  455.3000    78.2818     8.7649     8.8345
  455.4000    78.6280     8.8199     8.8350
  455.5000    79.1002     8.8206     8.8355
  455.6000    79.3656     8.8211     8.8359
  455.7000    80.2589     8.8217     8.8364
  455.8000    81.1429     8.8223     8.8369
  455.9000    82.1808     8.8229     8.8375
  456.0000    83.2185     8.8358     8.8379
  456.1000    84.0668     8.8856     8.8384
  456.2000    84.5849     8.8863     8.8389
  456.3000    85.0823     8.8868     8.8394
  456.4000    85.0801     8.8874     8.8399
  456.5000    85.0786     8.8881     8.8404
  456.6000    85.0767     8.8887     8.8409
  456.7000    84.7875     8.8893     8.8413
  456.8000    84.2659     8.8899     8.8418
  456.9000    83.6255     8.8905     8.8423
  457.0000    82.5840     8.8912     8.8588
  457.1000    81.4421     8.9395     8.9047
  457.2000    80.2661     8.9543     8.9052
  457.3000    79.3500     8.9549     8.9057
  457.4000    78.4182     8.9556     8.9062
  457.5000    77.4850     8.9562     8.9067
  457.6000    76.8355     8.9643     8.9072
  457.7000    76.5737     9.0198     8.9077
  457.8000    76.2935     9.0205     8.9081
  457.9000    76.0502     9.0211     8.9087
  458.0000    75.7885     9.0217     8.9091
  458.1000    75.8412     9.0223     8.9096
  458.2000    76.0993     9.0229     8.9101
  458.3000    76.4303     9.0368     8.9106
  458.4000    76.9483     9.0870     8.9111
  458.5000    77.4893     9.0877     8.9116
  458.6000    77.9844     9.1402     9.1196
  458.7000    78.5024     9.1522     9.1738
  458.8000    79.0203     9.1529     9.1745
  458.9000    79.6600     9.1809     9.2237
