~VERSION INFORMATION
 VERS.                2.0:   CWLS LOG ASCII STANDARD - VERSION 2.0
 WRAP.                 NO:   ONE LINE PER DEPTH STEP
~WELL INFORMATION
#MNEM.UNIT      DATA TYPE    INFORMATION
#----------   ------------   ------------------------------
 STRT.F           17.0000:   START DEPTH
 STOP.F          634.0000:   STOP DEPTH
 STEP.F            0.5000:   STEP LENGTH
 NULL.          -999.2500:   NO VALUE
 COMP. FENIX & SCISSON INC:   COMPANY
 WELL.        NPR 3 #72-3:   WELL
 FLD .             TEAPOT:   FIELD
 LOC .       S3 T38N R78W:   LOCATION
 CNTY.            NATRONA:   COUNTY
 STAT.            WYOMING:   STATE
 CTRY. UNITED STATES OF AMERICA:   COUNTRY
 SRVC.           BIRDWELL:   SERVICE COMPANY
 DATE.        24-SEP-1978:   LOGDATE
 API .       490251069100:   API NUMBER
~CURVE INFORMATION
#MNEM.UNIT       API CODE    CURVE DESCRIPTION
#----------   ------------   ------------------------------
 DEPT.F                  :   
 SPR .MV     05 010 01 00:   SPONTANEOUS POTENTIAL FROM RES.
 SN  .OHMM   05 040 16 00:   SHORT NORMAL 16"
 ILD .OHMM   05 120 46 00:   INDUCTION LOG DEEP
 GRD .GAPI   45 310 01 00:   GAMMA RAY FROM DENSITY LOG
 CALD.IN     45 280 60 00:   CALIPER
 DEN .G/C3   45 350 01 00:   COMPENSATED BULK DENSTIY
 DPHI.DEC    45 890 12 00:   DENSITY POROSITY SANDSTONE
 CORR.G/C3   45 356 01 00:   DENSITY CORRECTION
~PARAMETER INFORMATION
#MNEM.UNIT          VALUE    DESCRIPTION
#----------   ------------   ------------------------------
 PD  .                 GL:   PERMANENT DATUM
 EPD .F              5155:   ELEVATION PERMANENT DATUM
 LMF .                 KB:   LOG MEASURED FROM
 DAPD.F                 4:   FEET ABOVE PERMANENT DATUM
 DMF .                 KB:   DRILLING MEASURED FROM
 EKB .F              5159:   KELLING BUSHING
 EGL .F              5155:   GROUND LEVEL
 DATE.            9-24-78:   RUN DATE
 RUN .                  1:   RUN NUMBER
 DD  .F               635:   DEPTH DRILLER
 DL  .F               634:   DEPTH LOGGER
 BLI .F               627:   BOTTOM LOG INTERVAL
 TLI .F                30:   TOP LOG INTERVAL
 CS  .IN            8.625:   CASING SIZE
 CBD .F                34:   CASING BOTTOM DRILLER
 CBL .F                34:   CASING BOTTOM LOGGER
 BS  .IN            7.875:   BIT SIZE
 BSD .F               635:   BIT SIZE AT DEPTH
 DFT .                KCL:   DRILLING FLUID TYPE
 DFD .                8.7:   DRILLING FLUID DENSITY
 DFV .                 36:   DRILLING FLUID VISCOSITY
 DFPH.                9.5:   DRILLING FLUID PH
 DFL .                8.2:   DRILLING FLUID LOSS
 MSS .          FLOW LINE:   MUD SAMPLE SOURCE
 RMS .OHMM             .2:   RESISTIVITY MUD SAMPLE
 MST .F                68:   MUD SAMPLE TEMPERATURE
 RMF .OHMM            .18:   RESISTIVITY MUD FILTRATE SAMPLE
 MFST.F                76:   MUD FILTRATE SAMPLE TEMPERATURE
 RMC .OHMM            .32:   RESISTIVITY MUD CAKE
 MCST.F                76:   MUD CAKE SAMPLE TEMPERATURE
 MFSS.               MEAS:   MUD FILTRATE SAMPLE SOURCE
 RMB .OHMM             .2:   RESISTIVITY MUD AT BHT
 BHT .F                70:   BOTTOM HOLE TEMPERATURE
 TCS .HRS               3:   TIME CURCULATED STOPPED
 MRT .F                70:   MAXIMUM RECORDED TEMPERATURE
 LUN .               2958:   LOGGING UNIT NUMBER
 LUL .               CASP:   LOGGING UNIT LOCATION
 ENGI.           REYNOLDS:   RECORDING ENGINEER
 WITN.              AMEND:   WITNESSED BY
 CLNT.            A2DTECH:   CLIENT CODE
 ORIG.           5" PRINT:   ORIGIN OF DATA
 UWI .       490251069100:   UNIQUE WELL ID
 DICO. A2D Technologies, Inc.:   DIGITIZING COMPANY
~OTHER INFORMATION
~A   DEPT      SPR         SN        ILD         GRD      CALD        DEN       DPHI       CORR   
   17.0000  -999.2500  -999.2500  -999.2500    90.7000  -999.2500  -999.2500  -999.2500  -999.2500
   17.5000  -999.2500  -999.2500  -999.2500    90.7000  -999.2500  -999.2500  -999.2500  -999.2500
   18.0000  -999.2500  -999.2500  -999.2500    90.4636  -999.2500  -999.2500  -999.2500  -999.2500
   18.5000  -999.2500  -999.2500  -999.2500    90.3668  -999.2500  -999.2500  -999.2500  -999.2500
   19.0000  -999.2500  -999.2500  -999.2500    90.8493  -999.2500  -999.2500  -999.2500  -999.2500
   19.5000  -999.2500  -999.2500  -999.2500    91.3300  -999.2500  -999.2500  -999.2500  -999.2500
   20.0000  -999.2500  -999.2500  -999.2500    91.4961  -999.2500  -999.2500  -999.2500  -999.2500
   20.5000  -999.2500  -999.2500  -999.2500    91.4126  -999.2500  -999.2500  -999.2500  -999.2500
   21.0000  -999.2500  -999.2500  -999.2500    91.2212  -999.2500  -999.2500  -999.2500  -999.2500
   21.5000  -999.2500  -999.2500  -999.2500    91.0311  -999.2500  -999.2500  -999.2500  -999.2500
   22.0000  -999.2500  -999.2500  -999.2500    90.8403  -999.2500  -999.2500  -999.2500  -999.2500
   22.5000  -999.2500  -999.2500  -999.2500    90.6505  -999.2500  -999.2500  -999.2500  -999.2500
   23.0000  -999.2500  -999.2500  -999.2500    90.4962  -999.2500  -999.2500  -999.2500  -999.2500
   23.5000  -999.2500  -999.2500  -999.2500    90.4995  -999.2500  -999.2500  -999.2500  -999.2500
   24.0000  -999.2500  -999.2500  -999.2500    90.4994  -999.2500  -999.2500  -999.2500  -999.2500
   24.5000  -999.2500  -999.2500  -999.2500    90.4978  -999.2500  -999.2500  -999.2500  -999.2500
   25.0000  -999.2500  -999.2500  -999.2500    90.4751  -999.2500  -999.2500  -999.2500  -999.2500
   25.5000  -999.2500  -999.2500  -999.2500    91.6956  -999.2500  -999.2500  -999.2500  -999.2500
   26.0000  -999.2500  -999.2500  -999.2500    93.3056  -999.2500  -999.2500  -999.2500  -999.2500
   26.5000  -999.2500  -999.2500  -999.2500    94.4026  -999.2500  -999.2500  -999.2500  -999.2500
   27.0000  -999.2500  -999.2500  -999.2500    94.6022  -999.2500  -999.2500  -999.2500  -999.2500
   27.5000  -999.2500  -999.2500  -999.2500    95.9767  -999.2500  -999.2500  -999.2500  -999.2500
   28.0000  -999.2500  -999.2500  -999.2500    97.8774  -999.2500  -999.2500  -999.2500  -999.2500
   28.5000  -999.2500  -999.2500  -999.2500    97.8950  -999.2500  -999.2500  -999.2500  -999.2500
   29.0000  -999.2500  -999.2500  -999.2500    96.4145  -999.2500  -999.2500  -999.2500  -999.2500
   29.5000  -999.2500  -999.2500  -999.2500    93.7406  -999.2500  -999.2500  -999.2500  -999.2500
   30.0000  -999.2500  -999.2500  -999.2500    91.9211  -999.2500  -999.2500  -999.2500  -999.2500
   30.5000  -999.2500  -999.2500  -999.2500    90.7703  -999.2500  -999.2500  -999.2500  -999.2500
   31.0000  -999.2500  -999.2500  -999.2500    89.6653  -999.2500  -999.2500  -999.2500  -999.2500
   31.5000  -999.2500  -999.2500  -999.2500    88.9036  -999.2500  -999.2500  -999.2500  -999.2500
   32.0000  -999.2500  -999.2500  -999.2500    87.1939  -999.2500  -999.2500  -999.2500  -999.2500
   32.5000  -999.2500  -999.2500  -999.2500    83.3514  -999.2500  -999.2500  -999.2500  -999.2500
   33.0000  -999.2500  -999.2500  -999.2500    79.4275  -999.2500  -999.2500  -999.2500  -999.2500
   33.5000  -999.2500  -999.2500  -999.2500    78.8611  -999.2500  -999.2500  -999.2500  -999.2500
   34.0000  -999.2500  -999.2500  -999.2500    84.5343     7.9538     2.3639     0.1937     0.0165
   34.5000  -999.2500  -999.2500  -999.2500    90.5725     7.8429     2.3639     0.1905     0.0165
   35.0000  -999.2500  -999.2500  -999.2500    99.6304     7.7320     2.3673     0.1840     0.0165
   35.5000  -999.2500  -999.2500  -999.2500   107.8267     7.7717     2.3778     0.1803     0.0165
   36.0000   -20.3632  -999.2500     1.6559   112.0283     7.8453     2.3788     0.1846     0.0167
   36.5000   -24.0867  -999.2500     1.7023   111.6790     7.9227     2.3723     0.1893     0.0144
   37.0000   -27.9708  -999.2500   778.0903   112.0905     7.9328     2.3678     0.1889     0.0145
   37.5000   -31.2684     7.5689   693.7033   112.6383     7.9260     2.3679     0.1881     0.0145
   38.0000   -36.6522     7.8925   429.9619   111.5994     7.9188     2.3734     0.1805     0.0145
   38.5000   -41.7411     8.4199   105.4783   110.1412     7.9117     2.3901     0.1672     0.0145
   39.0000   -45.3083     8.8671    25.7104   109.6322     7.9046     2.4101     0.1566     0.0143
   39.5000   -52.2611     9.7058    10.8502   111.9784     7.8980     2.4303     0.1503     0.0140
   40.0000   -59.0044     9.5183     9.8152   114.7059     7.8964     2.4420     0.1446     0.0137
   40.5000   -63.3338     9.2154     8.9585   121.1572     7.8946     2.4540     0.1388     0.0135
   41.0000   -69.0870     8.9221     8.2108   127.9437     7.8928     2.4615     0.1330     0.0132
   41.5000   -51.5061     8.7706     7.7636   132.0783     7.8910     2.4661     0.1273     0.0129
   42.0000   -59.9507     8.6902     7.3397   126.3321     7.8892     2.4706     0.1215     0.0127
   42.5000   -71.3892    10.3521     6.9420   121.4018     7.8874     2.4749     0.1197     0.0132
   43.0000   -51.6515     7.3626     6.6850   122.5506     7.8856     2.4752     0.1220     0.0171
   43.5000   -52.7437    10.0804     6.5932   124.0777     7.8838     2.4668     0.1264     0.0209
   44.0000   -53.5409     8.9032     6.7412   124.6015     7.8820     2.4566     0.1346     0.0244
   44.5000   -55.3668     8.3665     6.9022   126.8887     7.8802     2.4550     0.1357     0.0225
   45.0000   -57.1461     8.4272     6.8239   130.5914     7.8787     2.4549     0.1354     0.0204
   45.5000   -58.9353     8.5210     6.6832   134.3031     7.8819     2.4550     0.1350     0.0184
   46.0000   -59.9498     8.6157     6.5781   136.2757     7.8853     2.4550     0.1350     0.0166
   46.5000   -60.6511     8.7116     6.5372   136.3254     7.8886     2.4550     0.1352     0.0170
   47.0000   -61.3313     8.8083     6.4964   135.3616     7.8920     2.4550     0.1347     0.0181
   47.5000   -62.0098     8.9348     6.4560   134.4224     7.8953     2.4556     0.1341     0.0191
   48.0000   -62.6812     8.9331     6.4125   130.8033     7.8987     2.4571     0.1351     0.0202
   48.5000   -63.2280     8.9337     6.4196   126.2629     7.9020     2.4586     0.1345     0.0184
   49.0000   -63.4432     8.9337     6.4278   124.9331     7.9054     2.4601     0.1319     0.0153
   49.5000   -63.7884     8.9455     6.4359   124.3346     7.9087     2.4615     0.1292     0.0125
   50.0000   -64.2580     9.0588     6.4439   123.7386     7.9121     2.4616     0.1286     0.0131
   50.5000   -64.7361     9.1840     6.4520   120.2868     7.9154     2.4601     0.1288     0.0138
   51.0000   -64.8551     9.1840     6.4600   115.1789     7.9185     2.4568     0.1323     0.0146
   51.5000   -64.9541     9.1507     6.4719   112.6133     7.9229     2.4539     0.1333     0.0154
   52.0000   -65.0557     8.8843     6.4500   113.0110     7.9277     2.4540     0.1335     0.0162
   52.5000   -65.1571     8.6257     6.4089   113.9627     7.9326     2.4513     0.1336     0.0188
   53.0000   -65.1812     8.3746     6.3680   115.1803     7.9378     2.4466     0.1355     0.0251
   53.5000   -65.2014     8.1308     6.3273   117.6729     7.9253     2.4428     0.1413     0.0313
   54.0000   -65.2220     7.9147     6.2869   118.8666     7.9095     2.4439     0.1437     0.0375
   54.5000   -65.2428     7.7107     6.2378   119.5876     7.8936     2.4453     0.1419     0.0403
   55.0000   -65.2635     7.5120     6.2565   126.4459     7.8778     2.4486     0.1368     0.0345
   55.5000   -65.2842     7.3506     6.2807   130.1549     7.8620     2.4598     0.1310     0.0296
   56.0000   -65.3050     7.2154     6.3376   130.5160     7.8462     2.4697     0.1252     0.0248
   56.5000   -65.3255     7.0857     6.4450   130.6390     7.8304     2.4719     0.1208     0.0204
   57.0000   -65.3454     6.9603     6.5392   130.4241     7.8145     2.4709     0.1235     0.0205
