~VERSION INFORMATION
 VERS.                2.0:   CWLS LOG ASCII STANDARD - VERSION 2.0
 WRAP.                 NO:   ONE LINE PER DEPTH STEP
~WELL INFORMATION
#MNEM.UNIT      DATA TYPE    INFORMATION
#----------   ------------   ------------------------------
 STRT.F          372.0000:   START DEPTH
 STOP.F         1845.0000:   STOP DEPTH
 STEP.F            0.5000:   STEP LENGTH
 NULL.          -999.2500:   NO VALUE
 COMP.             T.H.E.:   COMPANY
 WELL. 63-1-STX-29 #63-29:   WELL
 FLD .             TEAPOT:   FIELD
 LOC .      S29 T39N R78W:   LOCATION
 CNTY.            NATRONA:   COUNTY
 STAT.            WYOMING:   STATE
 CTRY. UNITED STATES OF AMERICA:   COUNTRY
 SRVC.            Unknown:   SERVICE COMPANY
 DATE.        20-MAY-1996:   LOGDATE
 API .       490252279200:   API NUMBER
~CURVE INFORMATION
#MNEM.UNIT       API CODE    CURVE DESCRIPTION
#----------   ------------   ------------------------------
 DEPT.F                  :   
 ROP .MIN/FT 91 810 01 00:   RATE OF DRILLING PENETRATION
 TGAS.UNITS  91 830 01 00:   TOTAL GAS FROM HOTWIRE
~PARAMETER INFORMATION
#MNEM.UNIT          VALUE    DESCRIPTION
#----------   ------------   ------------------------------
 EKB .F              4983:   KELLING BUSHING
 EGL .F              4973:   GROUND LEVEL
 DATE.          5-20-1996:   RUN DATE
 RUN .                  1:   RUN NUMBER
 BLI .F              1845:   BOTTOM LOG INTERVAL
 TLI .F               372:   TOP LOG INTERVAL
 CS  .IN                7:   CASING SIZE
 CBD .F               354:   CASING BOTTOM DRILLER
 ENGI.   C. TOWER/R. HUSK:   RECORDING ENGINEER
 CLNT.            A2DTECH:   CLIENT CODE
 ORIG.           5" PRINT:   ORIGIN OF DATA
 UWI .       490252279200:   UNIQUE WELL ID
 DICO. A2D Technologies, Inc.:   DIGITIZING COMPANY
~OTHER INFORMATION
~A   DEPT        ROP     TGAS   
# ...
 1587.0000     1.2357    53.4349
 1587.5000     1.2355    53.4301
 1588.0000     1.2353    53.4260
 1588.5000     1.2352    53.2112
 1589.0000     1.2245    52.9963
 1589.5000     1.2244    52.9922
 1590.0000     1.2242    52.5665
 1590.5000     1.7872    52.5618
 1591.0000     1.7818    52.3469
 1591.5000     1.7799    52.3428
 1592.0000     1.1394    52.3387
 1592.5000     0.9559    52.3346
 1593.0000     0.9601    52.1197
 1593.5000     0.9599    52.1149
 1594.0000     0.9493    52.1108
 1594.5000     1.7491    52.1067
 1595.0000     1.7535    52.1026
 1595.5000     1.7593    52.0985
 1596.0000     1.7592    51.8836
 1596.5000     0.9485    51.4573
 1597.0000     0.9588    51.2424
 1597.5000     0.9723    51.2383
 1598.0000     0.9297    50.8127
 1598.5000     0.6426    50.8086
 1599.0000     0.6424    50.8045
 1599.5000     0.6567    50.7997
 1600.0000     0.7249    50.5862
 1600.5000     0.7241    50.6200
 1601.0000     0.7235    50.6492
 1601.5000     0.7228    50.6783
 1602.0000     0.8588    50.7074
 1602.5000     0.8793    50.7365
 1603.0000     0.8785    50.7657
 1603.5000     0.8673    50.7948
 1604.0000     0.8667    50.8239
 1604.5000     0.8661    50.8531
 1605.0000     0.8550    50.8822
 1605.5000     0.8544    50.9113
 1606.0000     0.8537    50.9404
 1606.5000     0.8530    50.9696
 1607.0000     0.8419    50.9987
 1607.5000     0.8413    51.0278
 1608.0000     1.0614    51.0570
 1608.5000     1.0607    51.0861
 1609.0000     1.0601    51.1152
 1609.5000     1.0488    50.9264
 1610.0000     0.6806    50.9227
 1610.5000     0.6800    50.9185
 1611.0000     0.6793    50.9143
 1611.5000     0.6893    50.9101
 1612.0000     1.0668    50.9059
 1612.5000     1.0662    50.9016
 1613.0000     1.0654    50.8974
 1613.5000     1.0543    50.8932
 1614.0000     0.6861    50.8890
 1614.5000     0.6854    50.8848
 1615.0000     0.6848    50.8806
 1615.5000     0.6948    50.8763
 1616.0000     0.7046    50.8721
 1616.5000     0.7040    50.8679
 1617.0000     0.7034    50.8637
 1617.5000     0.7027    50.8595
 1618.0000     0.7021    50.8553
 1618.5000     0.7015    50.8511
 1619.0000     0.7008    50.8468
 1619.5000     0.7002    50.8426
 1620.0000     0.6996    50.8384
 1620.5000     0.6989    50.8342
 1621.0000     0.6983    50.8300
 1621.5000     0.6977    50.8258
 1622.0000     0.6971    50.8215
 1622.5000     0.6964    50.8173
 1623.0000     0.6958    50.8131
 1623.5000     0.6951    50.8089
 1624.0000     0.8520    50.8047
 1624.5000     0.8514    50.8005
 1625.0000     0.8508    50.7963
 1625.5000     0.8502    50.7920
 1626.0000     0.8491    50.7878
 1626.5000     0.8474    50.7836
 1627.0000     0.8456    50.7794
 1627.5000     0.8439    50.7752
 1628.0000     0.8422    50.7710
 1628.5000     0.8405    50.7667
 1629.0000     0.8387    50.7625
 1629.5000     0.8370    50.7583
 1630.0000     0.8353    50.7541
 1630.5000     0.8336    50.7499
 1631.0000     0.8318    50.7457
 1631.5000     0.8301    50.7415
 1632.0000     0.8284    50.7372
 1632.5000     0.8267    50.7387
 1633.0000     0.8249    50.7403
 1633.5000     0.8232    50.7419
 1634.0000     0.8215    50.7435
 1634.5000     0.8198    50.7451
 1635.0000     0.8180    50.7467
 1635.5000     0.8166    50.7483
 1636.0000     1.0681    50.7500
 1636.5000     1.0673    50.7516
 1637.0000     1.0562    50.7532
 1637.5000     1.0556    50.7548
 1638.0000     0.9815    50.7564
 1638.5000     0.8023    50.7580
 1639.0000     0.7911    50.7596
 1639.5000     0.7904    50.7612
 1640.0000     0.7898    50.7628
 1640.5000     0.7892    50.7644
 1641.0000     0.7886    50.7660
 1641.5000     0.7985    50.7676
 1642.0000     1.0290    50.7692
 1642.5000     1.0389    50.7708
 1643.0000     1.0381    50.7724
 1643.5000     1.0375    50.7740
 1644.0000     1.0475    50.7756
 1644.5000     1.0468    50.7772
 1645.0000     1.0462    50.7788
 1645.5000     1.0456    50.7804
 1646.0000     1.0343    50.7820
 1646.5000     0.8446    50.7836
 1647.0000     0.8335    50.7852
 1647.5000     0.8329    50.7868
 1648.0000     0.8323    50.7884
 1648.5000     0.8317    50.7900
 1649.0000     0.8206    50.7916
 1649.5000     0.8305    50.7932
 1650.0000     0.8192    50.7948
 1650.5000     0.8186    50.7741
 1651.0000     0.8180    50.7462
 1651.5000     0.8174    50.7183
 1652.0000     0.8168    50.6904
 1652.5000     0.8056    50.6625
 1653.0000     0.8049    50.6346
 1653.5000     0.8043    50.6067
 1654.0000     0.8037    50.5788
 1654.5000     0.8031    50.5509
 1655.0000     0.8025    50.5230
 1655.5000     0.8019    50.4951
 1656.0000     0.8118    50.4672
 1656.5000     0.8110    50.4393
 1657.0000     0.8104    50.4114
 1657.5000     0.8098    50.3835
 1658.0000     0.8092    50.3556
 1658.5000     0.6300    50.3277
 1659.0000     0.5769    50.2998
 1659.5000     0.5761    50.2719
 1660.0000     0.5755    50.2440
 1660.5000     0.5749    50.2161
 1661.0000     0.5743    50.1882
 1661.5000     0.5737    50.1603
 1662.0000     0.5626    50.1324
 1662.5000     0.5619    50.1102
 1663.0000     0.5612    50.0999
 1663.5000     0.5606    50.0896
 1664.0000     0.5600    49.8669
 1664.5000     0.5594    49.8566
 1665.0000     0.5694    49.8463
 1665.5000     0.5793    49.8360
 1666.0000     0.5892    49.8258
 1666.5000     1.0610    49.8155
 1667.0000     1.0499    49.5927
 1667.5000     1.0388    49.1609
 1668.0000     1.0382    49.1507
 1668.5000     1.2581    49.1404
 1669.0000     1.3312    49.1301
 1669.5000     1.3198    49.1198
 1670.0000     1.3192    49.1096
 1670.5000     1.1610    49.0976
 1671.0000     1.0134    49.0873
 1671.5000     1.0128    49.2878
 1672.0000     1.0121    49.2775
 1672.5000     1.0115    49.4797
 1673.0000     1.0108    49.4678
 1673.5000     1.0102    49.2450
 1674.0000     1.0096    49.0239
 1674.5000     0.8409    49.0137
 1675.0000     0.8193    49.0034
 1675.5000     0.7977    48.7824
 1676.0000     0.7969    48.7721
 1676.5000     0.7963    48.7618
 1677.0000     0.7957    48.7498
 1677.5000     0.7951    48.7412
 1678.0000     0.7840    48.7301
 1678.5000     0.7834    48.7190
 1679.0000     0.7827    48.7087
 1679.5000     0.7820    48.9109
 1680.0000     0.7814    48.8972
 1680.5000     0.7808    48.8870
 1681.0000     0.7802    48.8767
 1681.5000     0.7796    48.8664
 1682.0000     0.7790    48.8562
 1682.5000     0.7783    49.0584
 1683.0000     0.7883    49.2571
 1683.5000     0.7875    49.2452
 1684.0000     0.9865    49.4457
 1684.5000     1.0280    49.4354
 1685.0000     1.0273    49.4251
 1685.5000     1.0266    49.6273
 1686.0000     1.0259    49.8261
 1686.5000     1.0253    50.0283
 1687.0000     1.0247    50.0202
 1687.5000     1.0241    50.0176
 1688.0000     1.0341    50.0150
 1688.5000     1.0334    50.0123
 1689.0000     1.0327    50.0097
 1689.5000     1.0427    50.0071
 1690.0000     1.0419    50.0044
 1690.5000     0.7367    50.0018
 1691.0000     0.6940    49.9992
 1691.5000     0.6829    49.9966
 1692.0000     0.6823    49.9939
 1692.5000     0.6712    49.9913
 1693.0000     0.6600    49.9887
 1693.5000     0.6489    49.9860
 1694.0000     0.6482    49.9834
 1694.5000     0.6476    49.9808
 1695.0000     0.6470    49.9782
 1695.5000     0.6464    49.9755
 1696.0000     0.9713    49.9729
 1696.5000     1.0654    49.9703
 1697.0000     1.0646    49.9676
 1697.5000     1.0640    49.9650
 1698.0000     1.0634    49.9624
 1698.5000     1.0523    49.9598
 1699.0000     0.7995    49.9571
 1699.5000     0.7988    49.9545
 1700.0000     0.7982    49.9515
 1700.5000     0.8083    49.9408
 1701.0000     0.8064    49.9282
 1701.5000     0.8043    49.9155
 1702.0000     0.8023    49.9029
 1702.5000     0.8003    49.8902
 1703.0000     0.7960    49.8776
 1703.5000     0.7959    49.8649
 1704.0000     0.7912    49.8523
 1704.5000     0.7852    49.8396
 1705.0000     0.7851    49.8270
 1705.5000     0.7850    49.8143
 1706.0000     0.7849    49.8017
 1706.5000     0.7848    49.7890
 1707.0000     0.7847    49.7764
 1707.5000     0.7951    49.7637
 1708.0000     0.7950    49.7510
