~VERSION INFORMATION
 VERS.                2.0:   CWLS LOG ASCII STANDARD - VERSION 2.0
 WRAP.                 NO:   ONE LINE PER DEPTH STEP
~WELL INFORMATION
#MNEM.UNIT      DATA TYPE    INFORMATION
#----------   ------------   ------------------------------
 STRT.F           20.0000:   START DEPTH
 STOP.F          599.0000:   STOP DEPTH
 STEP.F            0.5000:   STEP LENGTH
 NULL.          -999.2500:   NO VALUE
 COMP. FENIX & SCISSON INC:   COMPANY
 WELL.    47 SX 34 #47-34:   WELL
 FLD .             TEAPOT:   FIELD
 LOC .      S34 T39N R78W:   LOCATION
 CNTY.            NATRONA:   COUNTY
 STAT.            WYOMING:   STATE
 CTRY. UNITED STATES OF AMERICA:   COUNTRY
 SRVC.       Schlumberger:   SERVICE COMPANY
 DATE.        24-JAN-1979:   LOGDATE
 API .       490251077000:   API NUMBER
~CURVE INFORMATION
#MNEM.UNIT       API CODE    CURVE DESCRIPTION
#----------   ------------   ------------------------------
 DEPT.F                  :   
 SN  .OHMM   05 040 16 00:   SHORT NORMAL 16"
 ILD .OHMM   05 120 46 00:   INDUCTION LOG DEEP
 SPR .MV     05 010 01 00:   SPONTANEOUS POTENTIAL FROM RES.
 CALD.IN     45 280 60 00:   CALIPER
 GRD .GAPI   45 310 01 00:   GAMMA RAY FROM DENSITY LOG
 DPHI.DEC    45 890 12 00:   DENSITY POROSITY SANDSTONE
 CORR.G/C3   45 356 01 00:   DENSITY CORRECTION
 RHOB.G/C3   45 350 01 00:   BULK DENSITY
~PARAMETER INFORMATION
#MNEM.UNIT          VALUE    DESCRIPTION
#----------   ------------   ------------------------------
 PD  .                 GL:   PERMANENT DATUM
 EPD .F              5132:   ELEVATION PERMANENT DATUM
 LMF .                 KB:   LOG MEASURED FROM
 DAPD.F                 4:   FEET ABOVE PERMANENT DATUM
 DMF .                 KB:   DRILLING MEASURED FROM
 EKB .F              5136:   KELLING BUSHING
 EGL .F              5132:   GROUND LEVEL
 DATE.            1-24-79:   RUN DATE
 RUN .                  1:   RUN NUMBER
 DD  .F               600:   DEPTH DRILLER
 DL  .F               600:   DEPTH LOGGER
 BLI .F               594:   BOTTOM LOG INTERVAL
 TLI .F                28:   TOP LOG INTERVAL
 CS  .IN            8.625:   CASING SIZE
 CBD .F                40:   CASING BOTTOM DRILLER
 BS  .IN            7.875:   BIT SIZE
 BSD .F               600:   BIT SIZE AT DEPTH
 DFT .                KCL:   DRILLING FLUID TYPE
 DFD .                8.8:   DRILLING FLUID DENSITY
 DFV .                 60:   DRILLING FLUID VISCOSITY
 DFPH.                9.5:   DRILLING FLUID PH
 DFL .               10.8:   DRILLING FLUID LOSS
 MSS .           FLOWLINE:   MUD SAMPLE SOURCE
 RMS .OHMM            .22:   RESISTIVITY MUD SAMPLE
 MST .F                60:   MUD SAMPLE TEMPERATURE
 RMF .OHMM             .2:   RESISTIVITY MUD FILTRATE SAMPLE
 MFST.F                61:   MUD FILTRATE SAMPLE TEMPERATURE
 RMC .OHMM             .3:   RESISTIVITY MUD CAKE
 MCST.F                61:   MUD CAKE SAMPLE TEMPERATURE
 MFSS.           MEASURED:   MUD FILTRATE SAMPLE SOURCE
 MCSS.           MEASURED:   MUD CAKE SAMPLE SOURCE
 RMB .OHMM            .23:   RESISTIVITY MUD AT BHT
 BHT .F                58:   BOTTOM HOLE TEMPERATURE
 TCS .HRS               4:   TIME CURCULATED STOPPED
 MRT .F                58:   MAXIMUM RECORDED TEMPERATURE
 LUN .               3029:   LOGGING UNIT NUMBER
 LUL .             CASPER:   LOGGING UNIT LOCATION
 ENGI.         B. ROLLINS:   RECORDING ENGINEER
 WITN.         RICHARDSON:   WITNESSED BY
 CLNT.            A2DTECH:   CLIENT CODE
 ORIG.           5" PRINT:   ORIGIN OF DATA
 UWI .       490251077000:   UNIQUE WELL ID
 DICO. A2D Technologies, Inc.:   DIGITIZING COMPANY
~OTHER INFORMATION
~A   DEPT       SN        ILD        SPR         CALD       GRD        DPHI       CORR       RHOB 
# ...
  141.5000     6.3318     7.2689   -26.8701     8.0745   101.2606     0.1373     0.0240     2.4491
  142.0000     6.3318     7.3810   -26.0282     8.1621   102.7479     0.1396     0.0268     2.4429
  142.5000     6.3318     7.4523   -25.1958     8.0784   103.1592     0.1407     0.0333     2.4407
  143.0000     6.3318     7.5244   -24.3639     8.0003   103.4371     0.1414     0.0399     2.4445
  143.5000     6.3318     7.5971   -24.2801     7.9416   103.6456     0.1419     0.0464     2.4394
  144.0000     6.3318     7.6706   -24.6642     8.0214   105.9031     0.1425     0.0527     2.4366
  144.5000     6.3318     7.7057   -24.1095     8.1266   108.9275     0.1430     0.0625     2.4378
  145.0000     6.3314     7.7343   -23.2601     8.2278   111.8430     0.1388     0.0762     2.4507
  145.5000     6.3332     7.7629   -22.4021     8.2610   112.8842     0.1290     0.1045     2.4704
  146.0000     6.3318     7.7916   -21.5572     8.2857   113.9226     0.1215     0.1287     2.4880
  146.5000     6.5411     7.8205   -21.8305     8.2958   112.5032     0.1190     0.1140     2.4826
  147.0000     6.7111     7.8494   -23.3430     8.2627   108.4747     0.1186     0.1058     2.4793
  147.5000     6.9421     7.8785   -22.9518     8.2316   106.3242     0.1112     0.1058     2.4876
  148.0000     6.8491     7.9076   -22.1796     8.2028   107.4343     0.1078     0.1061     2.4968
  148.5000     6.7148     7.9369   -22.4556     8.2030   108.7066     0.1073     0.0886     2.5023
  149.0000     6.5692     7.9663   -22.8597     8.2273   110.0281     0.1094     0.0643     2.5023
  149.5000     6.6233     8.0150   -23.2469     8.2600   109.6224     0.1150     0.0415     2.4906
  150.0000     6.6845     8.0664   -23.4967     8.2932   110.0722     0.1189     0.0310     2.4806
  150.5000     6.7463     8.1181   -23.1303     8.3289   114.0526     0.1199     0.0210     2.4792
  151.0000     6.8086     8.1701   -22.7461     8.3187   117.4755     0.1210     0.0135     2.4781
  151.5000     6.8715     8.2224   -22.7516     8.2912   117.6844     0.1220     0.0093     2.4770
  152.0000     6.9349     8.2751   -22.9878     8.2693   112.2177     0.1244     0.0059     2.4711
  152.5000     6.9991     8.3281   -23.1134     8.2681   111.4418     0.1281     0.0080     2.4634
  153.0000     7.0637     8.3441   -22.6573     8.0892   112.4521     0.1247     0.0134     2.4630
  153.5000     7.1361     8.3843   -22.1582     7.9836   109.1134     0.1178     0.0285     2.4757
  154.0000     7.0948     8.4422   -21.6572     7.9838   107.8662     0.1156     0.0415     2.4876
  154.5000     7.0483     8.5006   -21.1511     8.0558   111.7656     0.1142     0.0351     2.4984
  155.0000     7.0062     8.5593   -21.5439     8.1983   114.9744     0.1118     0.0327     2.4988
  155.5000     7.0731     8.6279   -22.1783     8.2431   116.7575     0.1094     0.0318     2.4896
  156.0000     7.1356     8.7016   -22.8283     8.2477   113.1249     0.1196     0.0214     2.4793
  156.5000     7.1986     8.7759   -22.4606     8.2514   110.7443     0.1249     0.0115     2.4712
  157.0000     7.2621     8.8508   -21.8237     8.2552   108.4201     0.1182     0.0060     2.4777
  157.5000     7.3263     8.9264   -21.1837     8.2591   107.1526     0.1151     0.0095     2.4873
  158.0000     7.3910     9.0026   -21.1934     8.2631   110.2037     0.1148     0.0158     2.4954
  158.5000     7.4563     9.0795   -21.6025     8.2630   107.5540     0.1174     0.0159     2.4888
  159.0000     7.5221     9.1570   -21.7540     8.2510   105.0681     0.1157     0.0199     2.4784
  159.5000     7.5877     9.2352   -21.0586     8.1037   106.6264     0.1137     0.0233     2.4831
  160.0000     7.6584     9.3137   -20.3833     7.9336   108.9806     0.1117     0.0257     2.4941
  160.5000     7.7620     9.3947   -20.6920     8.0573   111.3751     0.1106     0.0265     2.5006
  161.0000     7.8671     9.5036   -21.2740     8.1925   112.2308     0.1106     0.0232     2.4964
  161.5000     7.9735     9.6588   -21.8635     8.2424   110.0693     0.1138     0.0199     2.4888
  162.0000     8.0814     9.8153   -22.2863     8.2424   111.5175     0.1170     0.0166     2.4824
  162.5000     8.1907     9.9743   -21.7281     8.2669   109.3085     0.1131     0.0142     2.4981
  163.0000     8.3015    10.1359   -21.1619     8.2769   106.9388     0.1105     0.0220     2.4946
  163.5000     8.4138    10.3001   -21.7197     8.2683   106.3688     0.1085     0.0302     2.4896
  164.0000     8.4997    10.4669   -22.4535     8.2285   103.6332     0.1064     0.0383     2.4965
  164.5000     8.4997    10.6365   -23.1703     8.1975    99.6172     0.1043     0.0464     2.5033
  165.0000     8.4373    10.6980   -23.0781     8.1633    98.6258     0.1023     0.0545     2.5101
  165.5000     8.3944    10.7969   -22.0576     8.0956    97.5147     0.1018     0.0578     2.5124
  166.0000     8.3517    10.7969   -21.0662     8.0029    96.3329     0.1090     0.0534     2.5056
  166.5000     8.3092    10.7351   -20.9281     8.0556   101.8245     0.1196     0.0384     2.4826
  167.0000     8.2669    10.6617   -21.6314     8.1090   106.8535     0.1257     0.0236     2.4623
  167.5000     8.2248    10.5889   -22.3498     8.1440   109.2608     0.1285     0.0137     2.4618
  168.0000     8.1830    10.5164   -22.9242     8.1676   111.0297     0.1251     0.0202     2.4695
  168.5000     8.1413    10.4445   -22.4894     8.2103   111.1810     0.1212     0.0283     2.4753
  169.0000     8.0999    10.3731   -21.9872     8.2542   107.2697     0.1194     0.0365     2.4769
  169.5000     8.0587    10.3022   -21.4461     8.2533   102.5944     0.1194     0.0458     2.4786
  170.0000     8.0177    10.2318   -21.7218     8.1803   105.0047     0.1159     0.0572     2.4875
  170.5000     7.9769    10.1618   -22.0717     8.1074   107.9288     0.1106     0.0687     2.4973
  171.0000     7.9363    10.0923   -22.4241     8.0409   110.0967     0.1102     0.0676     2.5002
  171.5000     7.8965    10.0233   -22.5450     7.9717   109.8037     0.1156     0.0552     2.4876
  172.0000     7.8829     9.9548   -22.1820     7.9048   106.3442     0.1187     0.0427     2.4772
  172.5000     7.8695     9.8867   -21.8780     7.9264   102.4844     0.1137     0.0519     2.4934
  173.0000     7.8561     9.8191   -22.2815     7.9466   102.4388     0.1098     0.0569     2.5100
  173.5000     7.8427     9.7520   -22.5900     7.9564   103.8831     0.1086     0.0469     2.5114
  174.0000     7.8294     9.6853   -22.9434     7.8868   105.3193     0.1131     0.0391     2.4946
  174.5000     7.7881     9.6191   -22.9132     7.8226   106.7544     0.1213     0.0371     2.4760
  175.0000     7.7288     9.5669   -22.6217     7.8403   108.2410     0.1284     0.0397     2.4576
  175.5000     7.6698     9.5352   -22.3211     7.8587   111.8750     0.1333     0.0468     2.4538
  176.0000     7.6111     9.5036   -22.0211     7.8768   117.8913     0.1353     0.0580     2.4556
  176.5000     7.5578     9.4721   -21.7214     7.8947   121.1626     0.1257     0.0764     2.4681
  177.0000     7.5040     9.4407   -21.4165     7.9029   118.3486     0.1181     0.0950     2.4802
  177.5000     7.4726     9.4095   -21.3195     7.9481   116.0727     0.1154     0.1133     2.4923
  178.0000     7.5408     9.3783   -21.9382     7.9979   113.7821     0.1191     0.1264     2.4990
  178.5000     7.5904     9.3472   -22.5908     8.0433   111.5020     0.1245     0.1299     2.4723
  179.0000     7.6114     9.3162   -23.2464     8.0441   110.1443     0.1299     0.1356     2.4459
  179.5000     7.5576     9.2854   -23.8983     8.0438   111.9967     0.1317     0.1629     2.4455
  180.0000     7.5032     9.2546   -23.0665     8.0450   115.2287     0.1229     0.1966     2.4925
  180.5000     7.4493     9.2239   -21.9887     8.0693   118.4631     0.1160     0.2136     2.5096
  181.0000     7.3959     9.1934   -20.9206     8.0935   118.3313     0.1146     0.1711     2.5005
  181.5000     7.3428     9.1629   -21.6699     8.1177   117.4763     0.1155     0.1523     2.4934
