~VERSION INFORMATION
 VERS.                2.0:   CWLS LOG ASCII STANDARD - VERSION 2.0
 WRAP.                 NO:   ONE LINE PER DEPTH STEP
~WELL INFORMATION
#MNEM.UNIT      DATA TYPE    INFORMATION
#----------   ------------   ------------------------------
 STRT.F          630.0000:   START DEPTH
 STOP.F         1708.0000:   STOP DEPTH
 STEP.F            0.5000:   STEP LENGTH
 NULL.          -999.2500:   NO VALUE
 COMP. FENIX & SCISSON INC:   COMPANY
 WELL.      SHX 34 #58-34:   WELL
 FLD .             TEAPOT:   FIELD
 LOC .      S34 T39N R78W:   LOCATION
 CNTY.            NATRONA:   COUNTY
 STAT.            WYOMING:   STATE
 CTRY. UNITED STATES OF AMERICA:   COUNTRY
 SRVC.           BIRDWELL:   SERVICE COMPANY
 DATE.        28-MAR-1979:   LOGDATE
 API .       490251077400:   API NUMBER
~CURVE INFORMATION
#MNEM.UNIT       API CODE    CURVE DESCRIPTION
#----------   ------------   ------------------------------
 DEPT.F                  :   
 CORR.G/C3   45 356 01 00:   DENSITY CORRECTION
 DPHI.DEC    45 890 12 00:   DENSITY POROSITY SANDSTONE
 RHOB.G/C3   45 350 01 00:   BULK DENSITY
 CALD.IN     45 280 60 00:   CALIPER
 GRD .GAPI   45 310 01 00:   GAMMA RAY FROM DENSITY LOG
~PARAMETER INFORMATION
#MNEM.UNIT          VALUE    DESCRIPTION
#----------   ------------   ------------------------------
 PD  .                 GL:   PERMANENT DATUM
 EPD .F              5120:   ELEVATION PERMANENT DATUM
 LMF .                 KB:   LOG MEASURED FROM
 DAPD.F                10:   FEET ABOVE PERMANENT DATUM
 DMF .                 KB:   DRILLING MEASURED FROM
 EKB .F              5130:   KELLING BUSHING
 EGL .F              5120:   GROUND LEVEL
 DATE.            3-28-79:   RUN DATE
 RUN .                  2:   RUN NUMBER
 DD  .F              1720:   DEPTH DRILLER
 DL  .F              1708:   DEPTH LOGGER
 BLI .F              1708:   BOTTOM LOG INTERVAL
 TLI .F               649:   TOP LOG INTERVAL
 CS  .IN            9.625:   CASING SIZE
 CBD .F               639:   CASING BOTTOM DRILLER
 CBL .F               646:   CASING BOTTOM LOGGER
 BS  .IN             8.75:   BIT SIZE
 BSD .F              1720:   BIT SIZE AT DEPTH
 DFT .                OIL:   DRILLING FLUID TYPE
 TCS .HRS               3:   TIME CURCULATED STOPPED
 MRT .F               150:   MAXIMUM RECORDED TEMPERATURE
 LUN .               2959:   LOGGING UNIT NUMBER
 LUL .             CASPER:   LOGGING UNIT LOCATION
 ENGI.         B. ROLLINS:   RECORDING ENGINEER
 WITN.              AMEND:   WITNESSED BY
 CLNT.            A2DTECH:   CLIENT CODE
 ORIG.           5" PRINT:   ORIGIN OF DATA
 UWI .       490251077400:   UNIQUE WELL ID
 DICO. A2D Technologies, Inc.:   DIGITIZING COMPANY
~OTHER INFORMATION
~A   DEPT     CORR       DPHI       RHOB       CALD         GRD  
# ...
  996.0000     0.0481     0.0335     2.4989     9.5496   118.6509
  996.5000     0.0365     0.0369     2.4910     9.5716   120.4739
  997.0000     0.0318     0.0425     2.4811     9.5707   119.5643
  997.5000     0.0262     0.0481     2.4703     9.5448   118.1542
  998.0000     0.0259     0.0510     2.4645     9.5227   117.0493
  998.5000     0.0397     0.0452     2.4662     9.4975   117.1305
  999.0000     0.0581     0.0376     2.4778     9.4735   117.1859
  999.5000     0.0699     0.0303     2.4877     9.4662   117.1783
 1000.0000     0.0694     0.0303     2.4999     9.5023   112.3821
 1000.5000     0.0581     0.0332     2.4978     9.4920   105.5674
 1001.0000     0.0457     0.0359     2.4942     9.4894   106.4937
 1001.5000     0.0400     0.0366     2.4903     9.4858   112.1716
 1002.0000     0.0426     0.0375     2.4893     9.4811   117.2976
 1002.5000     0.0434     0.0307     2.4966     9.4774   121.7477
 1003.0000     0.0390     0.0235     2.5048     9.4733   117.6898
 1003.5000     0.0280     0.0205     2.5129     9.4695   114.0320
 1004.0000     0.0262     0.0205     2.5202     9.4647   110.0327
 1004.5000     0.0249     0.0283     2.5091     9.4606   110.0756
 1005.0000     0.0194     0.0397     2.4871     9.4227   112.8941
 1005.5000     0.0099     0.0480     2.4706     9.3740   115.4468
 1006.0000     0.0104     0.0517     2.4676     9.3255   118.1444
 1006.5000     0.0165     0.0466     2.4753     9.2767   118.4205
 1007.0000     0.0221     0.0446     2.4762     9.2291   114.9806
 1007.5000     0.0277     0.0458     2.4740     9.1805   110.9674
 1008.0000     0.0320     0.0469     2.4714     9.1278   112.4150
 1008.5000     0.0326     0.0478     2.4683     9.1063   115.3632
 1009.0000     0.0333     0.0535     2.4520     9.1394   117.7346
 1009.5000     0.0340     0.0607     2.4399     9.1676   115.8744
 1010.0000     0.0346     0.0675     2.4301     9.1970   108.6642
 1010.5000     0.0352     0.0712     2.4284     9.2257   109.9635
 1011.0000     0.0359     0.0689     2.4360     9.2579   112.1270
 1011.5000     0.0365     0.0653     2.4410     9.2722   113.7274
 1012.0000     0.0371     0.0542     2.4452     9.2883   110.9908
 1012.5000     0.0378     0.0398     2.4813     9.3029   107.0547
 1013.0000     0.0384     0.0397     2.5147     9.3181   110.5905
 1013.5000     0.0391     0.0394     2.5246     9.3333   115.1035
 1014.0000     0.0399     0.0391     2.5007     9.3483   119.5156
 1014.5000     0.0448     0.0387     2.4668     9.3635   123.0514
 1015.0000     0.0513     0.0384     2.4715     9.3785   126.6172
 1015.5000     0.0580     0.0382     2.4866     9.3938   123.0537
 1016.0000     0.0564     0.0379     2.5046     9.4091   119.2262
 1016.5000     0.0439     0.0395     2.5046     9.4191   117.6120
 1017.0000     0.0316     0.0411     2.4948     9.4153   118.7085
 1017.5000     0.0191     0.0427     2.4860     9.4120   120.8288
 1018.0000     0.0081     0.0443     2.4773     9.4082   120.9912
 1018.5000     0.0067     0.0462     2.4716     9.4045   117.3106
 1019.0000     0.0040     0.0462     2.4698     9.4009   115.6185
 1019.5000     0.0040     0.0446     2.4747     9.3972   117.5673
 1020.0000     0.0071     0.0406     2.4848     9.3935   118.4346
 1020.5000     0.0081     0.0393     2.4847     9.3899   122.3373
 1021.0000     0.0117     0.0379     2.4867     9.3862   125.4505
 1021.5000     0.0153     0.0364     2.4907     9.3823   128.9259
 1022.0000     0.0199     0.0349     2.4963     9.3832   124.5359
 1022.5000     0.0164     0.0349     2.4828     9.3954   115.9842
 1023.0000     0.0075     0.0445     2.4657     9.4072   117.4280
 1023.5000    -0.0007     0.0532     2.4516     9.4193   121.1521
 1024.0000    -0.0025     0.0597     2.4489     9.4313   124.5640
 1024.5000     0.0005     0.0615     2.4432     9.4432   121.3061
 1025.0000     0.0076     0.0632     2.4375     9.4556   118.5382
 1025.5000     0.0186     0.0632     2.4438     9.4604   119.7970
 1026.0000     0.0232     0.0573     2.4702     9.4600   121.0222
 1026.5000     0.0259     0.0514     2.4718     9.4600   119.9244
 1027.0000     0.0276     0.0455     2.4737     9.4601   118.9355
 1027.5000     0.0293     0.0449     2.4812     9.4600   118.7688
 1028.0000     0.0312     0.0482     2.4740     9.4602   122.8695
 1028.5000     0.0329     0.0502     2.4679     9.4601   127.3051
 1029.0000     0.0347     0.0491     2.4702     9.4600   125.6449
 1029.5000     0.0365     0.0486     2.4649     9.4607   122.1273
 1030.0000     0.0383     0.0459     2.4691     9.4597   119.3064
 1030.5000     0.0399     0.0431     2.4757     9.4578   118.0421
 1031.0000     0.0397     0.0403     2.4855     9.4166   117.0327
 1031.5000     0.0402     0.0390     2.4931     9.3758   115.9835
 1032.0000     0.0370     0.0482     2.4844     9.3325   118.0015
 1032.5000     0.0311     0.0561     2.4615     9.2914   118.1669
 1033.0000     0.0218     0.0652     2.4393     9.2494   117.3968
 1033.5000     0.0119     0.0759     2.4069     9.2031   116.1222
 1034.0000     0.0077     0.0821     2.4186     9.1908   117.1235
 1034.5000  -999.2500     0.0574     2.4536     9.2341   121.6420
 1035.0000  -999.2500     0.0539     2.4643     9.2718   124.2881
 1035.5000  -999.2500     0.0502     2.4726     9.3113   125.1022
 1036.0000  -999.2500     0.0466     2.4908     9.3525   120.0883
 1036.5000  -999.2500     0.0429     2.4986     9.3659   116.5139
 1037.0000  -999.2500     0.0392     2.5014     9.3159   117.3480
 1037.5000  -999.2500     0.0355     2.5055     9.2653   119.0789
 1038.0000  -999.2500     0.0318     2.5108     9.2083   116.9711
 1038.5000  -999.2500     0.0281     2.5130     9.2106   114.5970
 1039.0000  -999.2500     0.0244     2.5092     9.2997   116.3089
 1039.5000  -999.2500     0.0215     2.5119     9.3280   118.4236
 1040.0000  -999.2500     0.0243     2.5094     9.3695   111.6736
 1040.5000  -999.2500     0.0307     2.5003     9.4087   112.8328
 1041.0000  -999.2500     0.0371     2.4840     9.4462   113.6316
 1041.5000  -999.2500     0.0430     2.4694     9.4898   113.1682
 1042.0000  -999.2500     0.0462     2.4704     9.4769   112.5813
 1042.5000  -999.2500     0.0496     2.4641     9.4305   112.9194
 1043.0000  -999.2500     0.0518     2.4595     9.4355   112.1570
 1043.5000  -999.2500     0.0518     2.4614     9.4924   109.6722
 1044.0000  -999.2500     0.0503     2.4769     9.5462   105.8199
 1044.5000  -999.2500     0.0446     2.4781     9.5998   102.1528
 1045.0000  -999.2500     0.0402     2.4635     9.6553   105.2616
 1045.5000  -999.2500     0.0388     2.4814     9.7115   111.4497
 1046.0000  -999.2500     0.0375     2.5165     9.7401   117.7155
 1046.5000  -999.2500     0.0367     2.5495     9.6856   122.7625
 1047.0000  -999.2500     0.0370     2.5437     9.6372   120.4779
 1047.5000  -999.2500     0.0373     2.5068     9.5855   117.1946
 1048.0000  -999.2500     0.0391     2.4738     9.5303   114.2455
 1048.5000  -999.2500     0.0430     2.4802     9.4971   119.4382
 1049.0000  -999.2500     0.0432     2.4824     9.5006   125.6915
 1049.5000  -999.2500     0.0436     2.4778     9.4999   124.7646
 1050.0000  -999.2500     0.0446     2.4767     9.4995   121.3227
 1050.5000  -999.2500     0.0461     2.4704     9.5000   118.0025
 1051.0000  -999.2500     0.0470     2.4718     9.4999   114.7165
 1051.5000  -999.2500     0.0451     2.4767     9.4998   112.6187
 1052.0000  -999.2500     0.0423     2.4727     9.5000   114.6115
 1052.5000  -999.2500     0.0415     2.4737     9.5000   116.3519
 1053.0000  -999.2500     0.0399     2.4828     9.4994   118.1938
 1053.5000  -999.2500     0.0390     2.4980     9.5065   120.0733
 1054.0000  -999.2500     0.0400     2.5062     9.5209   121.8877
 1054.5000  -999.2500     0.0436     2.5102     9.5345   123.2927
 1055.0000  -999.2500     0.0472     2.4992     9.5480   122.5118
 1055.5000  -999.2500     0.0509     2.4875     9.5615   121.8823
 1056.0000  -999.2500     0.0545     2.4766     9.5757   120.3504
 1056.5000  -999.2500     0.0582     2.4526     9.5780   119.0760
