~VERSION INFORMATION
 VERS.                2.0:   CWLS LOG ASCII STANDARD - VERSION 2.0
 WRAP.                 NO:   ONE LINE PER DEPTH STEP
~WELL INFORMATION
#MNEM.UNIT      DATA TYPE    INFORMATION
#----------   ------------   ------------------------------
 STRT.F         1304.0000:   START DEPTH
 STOP.F         2900.0000:   STOP DEPTH
 STEP.F            0.5000:   STEP LENGTH
 NULL.          -999.2500:   NO VALUE
 COMP.   FLUOR DANIEL INC:   COMPANY
 WELL. NAVAL PETROLEUM RESERVE 3 SHX- #18-14:   WELL
 FLD .             TEAPOT:   FIELD
 LOC .      S14 T38N R78W:   LOCATION
 CNTY.            NATRONA:   COUNTY
 STAT.            WYOMING:   STATE
 CTRY. UNITED STATES OF AMERICA:   COUNTRY
 SRVC.            Unknown:   SERVICE COMPANY
 DATE.        17-APR-1995:   LOGDATE
 API .       490252270800:   API NUMBER
~CURVE INFORMATION
#MNEM.UNIT       API CODE    CURVE DESCRIPTION
#----------   ------------   ------------------------------
 DEPT.F                  :   
 ROP .FT/HR  91 810 01 00:   RAT OF DRILLING PENETRATION
 TGAS.TC/CC  91 830 01 00:   TOTAL GAS UNIT
~PARAMETER INFORMATION
#MNEM.UNIT          VALUE    DESCRIPTION
#----------   ------------   ------------------------------
 EKB .F              5271:   KELLING BUSHING
 EGL .F              5281:   GROUND LEVEL
 DATE.        17-APR-1995:   RUN DATE
 RUN .                  1:   RUN NUMBER
 BLI .F              2900:   BOTTOM LOG INTERVAL
 TLI .F              1310:   TOP LOG INTERVAL
 WITN.     C.TOWER/R.HUSK:   WITNESSED BY
 CLNT.            A2DTECH:   CLIENT CODE
 ORIG.           5" PRINT:   ORIGIN OF DATA
 UWI .       490252270800:   UNIQUE WELL ID
 DICO. A2D Technologies, Inc.:   DIGITIZING COMPANY
~OTHER INFORMATION
~A  DEPT         ROP     TGAS   
# ...
 1911.5000     0.8141    50.0000
 1912.0000     0.8143    50.0000
 1912.5000     0.8145    50.0000
 1913.0000     0.8147    50.1887
 1913.5000     0.8149    50.1887
 1914.0000     0.8151    50.1887
 1914.5000     0.8153    50.1887
 1915.0000     0.8154    50.1887
 1915.5000     0.8153    50.1887
 1916.0000     0.8144    50.0000
 1916.5000     0.8134    49.9954
 1917.0000     0.8125    49.8113
 1917.5000     0.8115    49.8113
 1918.0000     0.8106    49.8113
 1918.5000     0.8096    50.0000
 1919.0000     0.8087    50.0000
 1919.5000     0.8077    50.1887
 1920.0000     0.8068    50.1887
 1920.5000     0.8059    50.1887
 1921.0000     0.8049    50.1711
 1921.5000     0.8040    50.0000
 1922.0000     0.8030    50.1887
 1922.5000     0.8021    50.1887
 1923.0000     0.8011    50.1887
 1923.5000     0.8002    50.0000
 1924.0000     0.8283    49.8113
 1924.5000     0.8379    49.8113
 1925.0000     0.8380    49.8113
 1925.5000     0.8379    49.6226
 1926.0000     0.8374    49.8113
 1926.5000     0.8369    49.8113
 1927.0000     0.8364    49.8113
 1927.5000     0.8359    49.8113
 1928.0000     0.8354    49.8113
 1928.5000     0.8349    49.8113
 1929.0000     0.8344    49.6226
 1929.5000     0.8339    49.6226
 1930.0000     0.8334    49.5974
 1930.5000     0.8329    49.4340
 1931.0000     0.8324    49.8113
 1931.5000     0.8319    49.4340
 1932.0000     0.8314    49.4340
 1932.5000     0.8309    49.4340
 1933.0000     0.8304    49.3956
 1933.5000     0.8299    49.2453
 1934.0000     0.8294    49.0566
 1934.5000     0.8289    49.2453
 1935.0000     0.8284    49.0566
 1935.5000     0.8279    49.2453
 1936.0000     0.8273    49.2453
 1936.5000     0.8268    49.2453
 1937.0000     0.8263    49.2453
 1937.5000     0.8258    49.2453
 1938.0000     0.8253    49.2453
 1938.5000     0.8248    49.2453
 1939.0000     0.8253    49.2453
 1939.5000     0.8294    49.2453
 1940.0000     0.8335    49.4340
 1940.5000     0.8377    49.4340
 1941.0000     0.8418    49.8113
 1941.5000     0.8459    49.8113
 1942.0000     0.8500    49.8113
 1942.5000     0.8542    49.8113
 1943.0000     0.8583    49.6226
 1943.5000     0.8624    49.4340
 1944.0000     0.8640    49.4340
 1944.5000     0.8925    49.4340
 1945.0000     0.9209    49.4340
 1945.5000     0.9493    49.4340
 1946.0000     0.9692    49.4340
 1946.5000     0.9968    49.4340
 1947.0000     0.9970    49.4340
 1947.5000     0.9972    49.2453
 1948.0000     0.9880    49.2453
 1948.5000     0.9222    49.2453
 1949.0000     0.8471    49.2453
 1949.5000     0.8473    49.2453
 1950.0000     0.8475    49.2460
 1950.5000     0.8462    49.2478
 1951.0000     0.8450    49.2496
 1951.5000     0.8438    49.2513
 1952.0000     0.8426    49.2531
 1952.5000     0.8413    49.2549
 1953.0000     0.8401    49.2567
 1953.5000     0.8389    49.2586
 1954.0000     0.8377    49.2604
 1954.5000     0.8365    49.0736
 1955.0000     0.8352    49.0755
 1955.5000     0.8340    49.0774
 1956.0000     0.8328    49.0792
 1956.5000     0.8316    49.0811
 1957.0000     0.8303    49.2721
 1957.5000     0.8308    49.2739
 1958.0000     0.8319    49.0866
 1958.5000     0.8330    49.2776
 1959.0000     0.8342    49.0903
 1959.5000     0.8353    49.0927
 1960.0000     0.8364    49.0943
 1960.5000     0.8376    49.0964
 1961.0000     0.8387    49.0982
 1961.5000     0.8398    49.2888
 1962.0000     0.8410    49.4793
 1962.5000     0.8421    49.4812
 1963.0000     0.8432    49.4830
 1963.5000     0.8444    49.4849
 1964.0000     0.8455    49.4868
 1964.5000     0.8466    49.4887
 1965.0000     0.8478    49.4909
 1965.5000     0.8489    49.4928
 1966.0000     0.8500    49.4946
 1966.5000     0.8506    49.4965
 1967.0000     0.8507    49.4984
 1967.5000     0.8508    49.5002
 1968.0000     0.8508    49.5021
 1968.5000     0.8509    49.5038
 1969.0000     0.8510    49.5057
 1969.5000     0.8511    49.5076
 1970.0000     0.8512    49.5095
 1970.5000     0.8513    49.5114
 1971.0000     0.8514    49.5132
 1971.5000     0.8515    49.5151
 1972.0000     0.8516    49.5170
 1972.5000     0.8517    49.3301
 1973.0000     0.8518    49.1433
 1973.5000     0.8331    49.1456
 1974.0000     0.7861    49.1475
 1974.5000     0.7767    49.1493
 1975.0000     0.7580    49.3399
 1975.5000     0.7581    49.1526
 1976.0000     0.7676    48.4002
 1976.5000     0.7771    48.0242
 1977.0000     0.7772    47.8374
 1977.5000     0.7679    47.8397
 1978.0000     0.7668    47.6528
 1978.5000     0.7658    47.6547
 1979.0000     0.7647    47.6566
 1979.5000     0.7636    47.6585
 1980.0000     0.7626    47.4716
 1980.5000     0.7615    47.2849
 1981.0000     0.7605    47.2868
 1981.5000     0.7594    47.0998
 1982.0000     0.7583    47.1022
 1982.5000     0.7573    46.9154
 1983.0000     0.7562    46.9172
 1983.5000     0.7552    46.9191
 1984.0000     0.7541    46.9209
 1984.5000     0.7531    46.9228
 1985.0000     0.7520    47.1133
 1985.5000     0.7509    47.1152
 1986.0000     1.5699    47.1170
 1986.5000     1.5700    46.9302
 1987.0000     1.5701    46.9321
 1987.5000     1.2123    46.9340
 1988.0000     1.2104    46.9359
 1988.5000     1.2082    46.9381
 1989.0000     1.2060    46.9396
 1989.5000     1.2039    47.1305
 1990.0000     0.8908    47.1324
 1990.5000     0.8866    47.1342
 1991.0000     0.8823    47.1361
 1991.5000     0.8780    47.3266
 1992.0000     0.8177    47.3285
 1992.5000     0.8178    47.3303
 1993.0000     0.8179    47.2830
 1993.5000     0.8180    47.1453
 1994.0000     0.8181    47.1472
 1994.5000     0.5733    47.1491
 1995.0000     0.5743    47.1509
 1995.5000     0.5750    47.3415
 1996.0000     0.5758    47.3434
 1996.5000     0.5766    47.3453
 1997.0000     0.5773    47.3475
 1997.5000     0.5781    47.3494
 1998.0000     0.5789    47.3512
 1998.5000     0.5796    47.3531
 1999.0000     0.5804    47.3549
 1999.5000     0.5812    47.3568
 2000.0000     0.5819    47.3774
 2000.5000     0.5827    47.4943
 2001.0000     0.5835    47.6112
 2001.5000     0.5843    47.7281
 2002.0000     0.5850    47.8450
 2002.5000     0.5858    47.8965
 2003.0000     0.5866    47.8896
 2003.5000     0.5873    47.6954
 2004.0000     0.5881    47.6899
 2004.5000     0.5889    47.6844
 2005.0000     0.5896    47.4902
 2005.5000     0.5904    47.2960
 2006.0000     0.5912    47.4792
 2006.5000     0.5919    47.6623
 2007.0000     0.5927    47.6566
 2007.5000     0.5935    47.6499
 2008.0000     0.5942    47.4557
 2008.5000     0.5944    47.4502
 2009.0000     0.5933    47.4447
 2009.5000     0.5921    47.4392
 2010.0000     0.5909    47.2450
 2010.5000     0.5897    47.2395
 2011.0000     0.5885    47.4227
 2011.5000     0.5874    47.4170
 2012.0000     0.5862    47.4103
 2012.5000     0.5850    47.4047
 2013.0000     0.5838    47.3992
 2013.5000     0.5826    47.3943
 2014.0000     0.5814    47.3882
 2014.5000     0.5803    47.5717
 2015.0000     0.5791    47.5659
 2015.5000     0.5779    47.5603
 2016.0000     0.7751    47.7435
 2016.5000     0.7728    47.7366
 2017.0000     0.7707    47.5424
 2017.5000     0.7686    47.5369
 2018.0000     0.7661    47.5314
 2018.5000     0.9357    47.7146
 2019.0000     0.9358    47.5204
 2019.5000     0.9359    47.5151
 2020.0000     0.9682    47.5093
 2020.5000     1.0204    47.5038
 2021.0000     1.0197    47.4981
 2021.5000     1.0189    47.4914
 2022.0000     1.0182    47.4859
 2022.5000     1.0175    47.4811
 2023.0000     1.0167    47.4749
 2023.5000     1.0160    47.4694
 2024.0000     1.0153    47.6525
 2024.5000     1.0146    47.4583
 2025.0000     1.0138    47.6415
 2025.5000     1.0131    47.6359
 2026.0000     0.9899    47.8192
 2026.5000     0.7960    47.6236
 2027.0000     0.7960    47.4302
 2027.5000     0.7961    47.4239
 2028.0000     0.7962    47.4184
 2028.5000     0.6568    47.4132
 2029.0000     0.5422    47.4075
 2029.5000     0.5423    47.4018
 2030.0000     0.5424    47.2075
 2030.5000     0.5425    47.3908
 2031.0000     0.5426    47.3839
 2031.5000     0.5427    47.3784
 2032.0000     0.5427    47.5629
 2032.5000     0.5428    47.7447
