~VERSION INFORMATION
 VERS.                2.0:   CWLS LOG ASCII STANDARD - VERSION 2.0
 WRAP.                 NO:   ONE LINE PER DEPTH STEP
~WELL INFORMATION
#MNEM.UNIT      DATA TYPE    INFORMATION
#----------   ------------   ------------------------------
 STRT.F           12.0000:   START DEPTH
 STOP.F          549.0000:   STOP DEPTH
 STEP.F            0.5000:   STEP LENGTH
 NULL.          -999.2500:   NO VALUE
 COMP. LAWRENCE/ALLISON INC:   COMPANY
 WELL.  58-64-1 SX 3 #3-3:   WELL
 FLD .             TEAPOT:   FIELD
 LOC .       S3 T38N R78W:   LOCATION
 CNTY.            NATRONA:   COUNTY
 STAT.            WYOMING:   STATE
 CTRY. UNITED STATES OF AMERICA:   COUNTRY
 SRVC.      Dresser Atlas:   SERVICE COMPANY
 DATE.        05-DEC-1984:   LOGDATE
 API .       490251117800:   API NUMBER
~CURVE INFORMATION
#MNEM.UNIT       API CODE    CURVE DESCRIPTION
#----------   ------------   ------------------------------
 DEPT.F                  :   
 RFOC.OHMM   07 220 04 00:   RESISTIVITY FOCUSED LOG
 RILD.OHMM   07 120 46 00:   INDUCTION LOG DEEP RESISTIVITY
 RILM.OHMM   07 120 44 00:   INDUCTION LOG MEDIUM RESISTIVITY
 SPR .MV     07 010 01 00:   SPONTANEOUS POTENTIAL
 CALD.IN     45 280 60 00:   CALIPER FROM DENSITY LOG
 CNC .DEC    42 890 03 00:   NEUTRON POROSITY SANDSTONE
 CORR.G/C3   45 356 01 00:   DENSITY CORRECTION
 DEN .G/C3   45 350 01 00:   COMPENSATED BULK DENSTIY
 GRD .GAPI   45 310 01 00:   GAMMA RAY FROM DENSITY LOG
 PORD.DEC    45 890 12 00:   POROSITY DENSITY SANDSTONE
 DT  .US/F   60 520 00 00:   INTERVAL TRANSIT TIME
~PARAMETER INFORMATION
#MNEM.UNIT          VALUE    DESCRIPTION
#----------   ------------   ------------------------------
 PD  .                 GL:   PERMANENT DATUM
 EPD .F              5188:   ELEVATION PERMANENT DATUM
 LMF .                 KB:   LOG MEASURED FROM
 DMF .                 KB:   DRILLING MEASURED FROM
 EGL .F              5188:   GROUND LEVEL
 DATE.         5-DEC-1984:   RUN DATE
 RUN .                  1:   RUN NUMBER
 DD  .F               556:   DEPTH DRILLER
 DL  .F               551:   DEPTH LOGGER
 BLI .F               549:   BOTTOM LOG INTERVAL
 CS  .IN            8.625:   CASING SIZE
 CBD .F                20:   CASING BOTTOM DRILLER
 CBL .F                20:   CASING BOTTOM LOGGER
 BS  .IN            7.875:   BIT SIZE
 BSD .F               556:   BIT SIZE AT DEPTH
 DFT .          KCL WATER:   DRILLING FLUID TYPE
 MSS .           FLOWLINE:   MUD SAMPLE SOURCE
 RMS .OHMM            .36:   RESISTIVITY MUD SAMPLE
 MST .F                70:   MUD SAMPLE TEMPERATURE
 RMF .OHMM            .26:   RESISTIVITY MUD FILTRATE SAMPLE
 MFST.F                70:   MUD FILTRATE SAMPLE TEMPERATURE
 RMC .OHMM            .46:   RESISTIVITY MUD CAKE
 MCST.F                70:   MUD CAKE SAMPLE TEMPERATURE
 MFSS.               CALC:   MUD FILTRATE SAMPLE SOURCE
 MCSS.               CALC:   MUD CAKE SAMPLE SOURCE
 RMB .OHMM            .29:   RESISTIVITY MUD AT BHT
 BHT .F                85:   BOTTOM HOLE TEMPERATURE
 TCS .HRS               3:   TIME CURCULATED STOPPED
 MRT .F               100:   MAXIMUM RECORDED TEMPERATURE
 LUN .               6274:   LOGGING UNIT NUMBER
 LUL .               GLTE:   LOGGING UNIT LOCATION
 ENGI.             RAUTIO:   RECORDING ENGINEER
 WITN.       GROOMS/LUERS:   WITNESSED BY
 CLNT.            A2DTECH:   CLIENT CODE
 ORIG.         2.5" PRINT:   ORIGIN OF DATA
 UWI .       490251117800:   UNIQUE WELL ID
 DICO. A2D Technologies, Inc.:   DIGITIZING COMPANY
~OTHER INFORMATION
~A   DEPT     RFOC       RILD       RILM        SPR       CALD        CNC       CORR        DEN         GRD      PORD         DT   
# ...
  439.0000    12.7523    12.5384    12.4028   -56.4546     8.0312     0.2452     0.0429     2.5011    96.5539     0.1082    89.7250
  439.5000    12.9256    12.5350    12.5714   -56.7690     8.0313     0.2416     0.0516     2.5117    95.8065     0.1001    89.4746
  440.0000    12.9203    12.7072    12.5662   -56.7795     8.0314     0.2404     0.0539     2.5147    95.3191     0.0980    89.3814
  440.5000    12.9150    12.7036    12.5611   -57.0939     8.0315     0.2465     0.0420     2.5083    95.3100     0.1038    89.5332
  441.0000    12.9096    12.5247    12.5559   -57.4084     8.0316     0.2459     0.0130     2.4992    96.1358     0.1105    89.9025
  441.5000    12.7260    12.3451    12.3773   -57.7228     8.0317     0.2459    -0.0051     2.4934    98.8501     0.1135    90.3484
  442.0000    12.5450    11.9983    11.8664   -58.0372     8.0318     0.2478     0.0065     2.4934   102.5289     0.1123    91.0397
  442.5000    12.1957    11.6612    11.3766   -58.3517     8.0319     0.2502     0.0266     2.4972   105.0000     0.1087    91.4995
  443.0000    11.8562    11.3498    11.0588   -58.6661     8.0320     0.2515     0.0330     2.5014   104.0264     0.1057    92.0302
  443.5000    11.3668    11.1695    10.8935   -58.9805     8.0321     0.2526     0.0354     2.5060   103.7644     0.1027    92.3359
  444.0000    11.3621    10.8798    10.5911   -58.9910     8.0322     0.2512     0.0324     2.5091   103.7555     0.1015    92.7280
  444.5000    11.2005    10.6985    10.4481   -59.0015     8.0323     0.2488     0.0263     2.5115   105.5703     0.1003    92.9472
  445.0000    11.1959    10.3980    10.2852   -58.7080     8.0324     0.2467     0.0256     2.5131   107.3851     0.0992    93.1600
  445.5000    11.0367    10.1058    10.0126   -58.7185     8.0325     0.2483     0.0353     2.5146   107.9842     0.0980    93.4624
  446.0000    10.7294     9.9595     9.8701   -58.4250     8.0326     0.2518     0.0382     2.5176   108.5836     0.0981    93.4632
  446.5000    10.4306     9.8564     9.7297   -58.7401     8.0327     0.2590     0.0291     2.5160   110.3980     0.0995    93.7656
  447.0000    10.2822     9.8537     9.7256   -58.7973     8.0328     0.2664     0.0199     2.5100   108.5573     0.1021    94.0680
  447.5000    10.2780     9.9894     9.7216   -59.1211     8.0329     0.2750     0.0169     2.5039   107.2999     0.1041    94.3704
  448.0000    10.4177     9.9328     9.6853   -59.3799     8.0330     0.2812     0.0267     2.5084   106.7239     0.1006    94.6728
  448.5000    10.4132     9.9027     9.5793   -59.3906     8.0331     0.2740     0.0350     2.5145   108.7487     0.0957    94.9752
  449.0000    10.4089     9.9806     9.5753   -59.4012     8.0332     0.2628     0.0349     2.5175   111.3739     0.0986    94.9759
  449.5000    10.5506    10.1176     9.5713   -59.7158     8.0333     0.2565     0.0271     2.5114   112.7763     0.1005    94.9767
  450.0000    10.5459    10.1148     9.7020   -59.7264     8.0334     0.2542     0.0177     2.5038   109.3212     0.1036    95.0025
  450.5000    10.5698    10.1120     9.6973   -59.7371     8.0335     0.2524     0.0082     2.5069   107.0507     0.1071    94.9781
  451.0000    10.6852    10.1092     9.6932   -59.7477     8.0336     0.2506     0.0001     2.5050   106.0608     0.1104    94.8281
  451.5000    10.8305    10.1064     9.8257   -59.7584     8.0337     0.2512    -0.0017     2.4987   107.8673     0.1116    94.6780
  452.0000    10.9777    10.1030     9.8208   -59.7690     8.0338     0.2542    -0.0017     2.4958   111.2949     0.1128    94.3771
  452.5000    10.9725    10.1002     9.8167   -59.7796     8.0339     0.2573     0.0013     2.4946   110.8949     0.1129    94.3779
  453.0000    10.9679     9.9580     9.7485   -59.6343     8.0340     0.2603     0.0073     2.4961   110.2781     0.1105    94.3731
  453.5000    10.9116     9.8177     9.4739   -59.3318     8.0341     0.2634     0.0163     2.4946   112.0929     0.1087    94.5302
  454.0000    10.6040     9.5456     9.3361   -59.2036     8.0342     0.2688     0.0345     2.4973   114.5156     0.1056    94.8336
  454.5000    10.1082     9.4112     9.2003   -59.2164     8.0343     0.2773     0.0405     2.5020   116.9384     0.1020    95.2901
  455.0000     9.7399     9.0240     8.9411   -59.2268     8.0344     0.2735     0.0465     2.5074   113.2821     0.0996    95.6033
  455.5000     9.5979     8.5332     8.5693   -59.5413     8.0345     0.2700     0.0465     2.5136   110.2337     0.0972    96.0523
  456.0000     9.4581     8.2967     8.2824   -59.8557     8.0346     0.2689     0.0404     2.5173   108.4011     0.0948    96.3580
  456.5000     9.3840     8.1798     8.2790   -60.1701     8.0347     0.2688     0.0402     2.5203   107.7842     0.0928    96.6637
  457.0000     9.3801     8.1776     8.2756   -60.4846     8.0348     0.2680     0.0403     2.5248   108.3833     0.0925    97.0995
  457.5000     9.3762     8.1753     8.2721   -61.1030     8.0349     0.2649     0.0402     2.5263   109.6707     0.0953    97.2750
  458.0000     9.3723     8.1731     8.1545   -61.1134     8.0350     0.2642     0.0407     2.5187   112.2392     0.0986    97.4299
  458.5000     9.4460     8.1709     8.0385   -61.1239     8.0351     0.2687     0.0462     2.5185   114.8723     0.0972    97.7051
  459.0000     9.4957     8.0546     7.8147   -60.8304     8.0352     0.2736     0.0444     2.5202   118.2513     0.0960    98.0075
  459.5000     9.6247     7.7202     7.4921   -60.5370     8.0353     0.2771     0.0360     2.5232   119.7011     0.0948    98.0083
  460.0000     9.7548     7.1966     7.0836   -60.2435     8.0354     0.2749     0.0327     2.5247   121.3374     0.0926    98.0090
  460.5000     9.6160     7.1017     7.0807   -60.2540     8.0355     0.2706     0.0278     2.5262   123.4600     0.0927    98.0098
  461.0000     9.3483     7.0997     7.0778   -59.9605     8.0356     0.2736     0.0278     2.5246   123.1835     0.0958    98.0106
  461.5000     8.9625     7.1128     7.0749   -59.6670     8.0356     0.2810     0.0294     2.5199   117.8815     0.0987    98.2114
  462.0000     7.9044     7.1954     7.1710   -59.6778     8.0357     0.2873     0.0368     2.5165   110.7217     0.1000   100.3549
  462.5000     7.8787     7.3153     7.2685   -59.7138     8.0358     0.2885     0.0458     2.5140   104.0259     0.0976   102.8771
  463.0000     8.1207     7.4186     7.3673   -60.0030     8.0359     0.2862     0.0518     2.5171   102.1933     0.0988   103.7451
  463.5000     8.4633     7.6009     7.4674   -60.0137     8.0360     0.2795     0.0306     2.5160   104.0081     0.1001   103.3180
  464.0000     9.1964     7.7687     7.5689   -60.0243     8.0361     0.2747     0.0154     2.5140   108.2545     0.0989   102.4917
  464.5000     9.8548     8.0315     7.8894   -60.0350     8.0362     0.2729     0.0153     2.5153   114.3247     0.0952   101.3572
  465.0000    10.2706     8.3369     8.2288   -60.0456     8.0363     0.2760     0.0214     2.5178   117.9632     0.0922    99.9145
  465.5000    10.7040     8.8186     8.8309   -60.0562     8.0365     0.2778     0.0274     2.5217   117.3464     0.0892    98.2398
  466.0000    11.0015     9.2524     9.5833   -60.0669     8.0366     0.2706     0.0365     2.5291   108.1216     0.0862    96.7160
  466.5000    11.1510     9.7306     9.8673   -59.6753     8.0367     0.2664     0.0460     2.5367   104.4489     0.0870    95.5764
  467.0000    11.1464    10.0196    10.1123   -59.4784     8.0369     0.2670     0.0580     2.5306   103.3374     0.0900    94.5943
  467.5000    11.2979    10.0168    10.1078   -59.1849     8.0370     0.2683     0.0636     2.5291   104.7873     0.0905    94.0711
  468.0000    11.2931    10.0140    10.1281   -59.1976     8.0371     0.2679     0.0536     2.5306   107.8825     0.0866    93.6472
  468.5000    11.2884    10.0112    10.2412   -59.2082     8.0372     0.2606     0.0313     2.5351   110.1834     0.0840    93.6479
  469.0000    11.1278     9.8701    10.2366   -59.3627     8.0374     0.2575     0.0271     2.5442   112.0304     0.0805    93.6487
