~VERSION INFORMATION
 VERS.                2.0:   CWLS LOG ASCII STANDARD - VERSION 2.0
 WRAP.                 NO:   ONE LINE PER DEPTH STEP
~WELL INFORMATION
#MNEM.UNIT      DATA TYPE    INFORMATION
#----------   ------------   ------------------------------
 STRT.F            0.0000:   START DEPTH
 STOP.F          551.0000:   STOP DEPTH
 STEP.F            0.1000:   STEP LENGTH
 NULL.          -999.2500:   NO VALUE
 COMP.       F D SERV INC:   COMPANY
 WELL.    62-2 SX-3 #62-3:   WELL
 FLD .          N.P.R. #3:   FIELD
 LOC .       S3 T38N R78W:   LOCATION
 CNTY.            NATRONA:   COUNTY
 STAT.            WYOMING:   STATE
 CTRY. UNITED STATES OF AMERICA:   COUNTRY
 SRVC.     Atlas Wireline:   SERVICE COMPANY
 DATE.        17-APR-1992:   LOGDATE
 API .       490252250700:   API NUMBER
~CURVE INFORMATION
#MNEM.UNIT       API CODE    CURVE DESCRIPTION
#----------   ------------   ------------------------------
 DEPT.F                  :   
 GRR .GAPI   07 310 01 00:   GAMMA RAY
 RILD.OHMM   07 120 46 00:   INDUCTION LOG DEEP RESISTIVITY
 RILM.OHMM   07 120 44 00:   INDUCTION LOG MEDIUM RESISTIVITY
~PARAMETER INFORMATION
#MNEM.UNIT          VALUE    DESCRIPTION
#----------   ------------   ------------------------------
 PD  .                 GL:   PERMANENT DATUM
 EPD .F              5130:   ELEVATION PERMANENT DATUM
 LMF .                 KB:   LOG MEASURED FROM
 DAPD.F                 5:   FEET ABOVE PERMANENT DATUM
 DMF .                 KB:   DRILLING MEASURED FROM
 EKB .F              5135:   KELLING BUSHING
 EDF .F              5134:   DRILLING FLOOR
 EGL .F              5130:   GROUND LEVEL
 DATE.        17-APR-1992:   RUN DATE
 RUN .                  1:   RUN NUMBER
 DD  .F               560:   DEPTH DRILLER
 DL  .F               560:   DEPTH LOGGER
 BLI .F               558:   BOTTOM LOG INTERVAL
 CS  .IN            8.625:   CASING SIZE
 CBD .F                47:   CASING BOTTOM DRILLER
 CBL .F                50:   CASING BOTTOM LOGGER
 BS  .IN            7.875:   BIT SIZE
 BSD .F               560:   BIT SIZE AT DEPTH
 DFT .                AIR:   DRILLING FLUID TYPE
 TCS .HRS               2:   TIME CURCULATED STOPPED
 MRT .F                83:   MAXIMUM RECORDED TEMPERATURE
 LUN .           HL- 6274:   LOGGING UNIT NUMBER
 LUL .             CASPER:   LOGGING UNIT LOCATION
 ENGI.            LEBSOCK:   RECORDING ENGINEER
 WITN.        GARY STRONG:   WITNESSED BY
 CLNT.            A2DTECH:   CLIENT CODE
 ORIG.           5" PRINT:   ORIGIN OF DATA
 UWI .       490252250700:   UNIQUE WELL ID
 DICO. A2D Technologies, Inc.:   DIGITIZING COMPANY
~OTHER INFORMATION
~A    DEPT      GRR      RILD       RILM   
# ...
  491.4000   122.9529     6.1437     5.9363
  491.5000   121.5258     6.1780     5.9719
  491.6000   120.0902     6.1886     6.0540
  491.7000   118.5215     6.2244     6.0825
  491.8000   117.0491     6.2665     6.1383
  491.9000   115.6497     6.3268     6.2091
  492.0000   114.5904     6.3776     6.2855
  492.1000   114.5949     6.4145     6.4048
  492.2000   114.5997     6.4516     6.4383
  492.3000   114.7175     6.4919     6.5262
  492.4000   115.0816     6.5611     6.6049
  492.5000   115.8245     6.6368     6.6518
  492.6000   116.3214     6.7134     6.7286
  492.7000   116.8185     6.8002     6.8063
  492.8000   117.3155     6.9173     6.9154
  492.9000   117.8125     6.9973     7.0353
  493.0000   118.2895     7.1101     7.1439
  493.1000   118.5774     7.2333     7.2340
  493.2000   119.0012     7.3726     7.4240
  493.3000   119.3448     7.5429     7.5356
  493.4000   119.4989     7.7392     7.6381
  493.5000   119.5441     7.9363     7.7447
  493.6000   119.8115     8.1360     7.8787
  493.7000   120.0460     8.3039     8.0205
  493.8000   120.2969     8.4476     8.1095
  493.9000   120.4309     8.5987     8.2377
  494.0000   120.4357     8.6947     8.3561
  494.1000   120.4406     8.8324     8.4525
  494.2000   120.4454     8.9328     8.5499
  494.3000   120.4502     8.9992     8.6658
  494.4000   120.4551     9.1030     8.7902
  494.5000   120.3791     9.2261     8.9737
  494.6000   120.1617     9.3144     9.1613
  494.7000   120.1677     9.4219     9.3198
  494.8000   119.9581     9.5305     9.4938
  494.9000   119.7168     9.6404     9.5445
  495.0000   119.5764     9.7607     9.6381
  495.1000   119.4483     9.8642     9.7232
  495.2000   118.6786     9.9387     9.7796
  495.3000   118.2154    10.0229     9.8363
  495.4000   117.5505    10.1247     9.8933
  495.5000   117.0590    10.1833     9.9958
  495.6000   116.7532    10.2423    10.0787
  495.7000   116.2818    10.2558    10.1176
  495.8000   116.2878    10.2890    10.1249
  495.9000   116.2917    10.3292    10.1904
  496.0000   116.4377    10.3358    10.1911
  496.1000   116.6040    10.4034    10.1920
  496.2000   116.6370    10.4040    10.2179
  496.3000   116.9167    10.4430    10.2772
  496.4000   117.1390    10.5034    10.3381
  496.5000   117.2284    10.5528    10.3389
  496.6000   117.3381    10.5536    10.3841
  496.7000   117.5891    10.5543    10.4132
  496.8000   117.8483    10.5550    10.4140
  496.9000   117.8529    10.5863    10.4149
  497.0000   118.0393    10.6307    10.4159
  497.1000   118.2903    10.6345    10.4669
  497.2000   118.4726    10.7070    10.4906
  497.3000   118.4774    10.7580    10.5150
  497.4000   118.4832    10.7835    10.5659
  497.5000   118.6889    10.8070    10.5669
  497.6000   118.9398    10.8608    10.6244
  497.7000   119.1907    10.8617    10.6860
  497.8000   119.4416    10.9191    10.7182
  497.9000   119.7173    10.9823    10.7350
  498.0000   119.9435    11.0459    10.7973
  498.1000   120.1945    11.0952    10.8720
  498.2000   120.4454    11.0962    10.9228
  498.3000   120.6963    11.1604    10.9862
  498.4000   120.9514    11.1754    11.0276
  498.5000   121.1982    11.2113    11.0365
  498.6000   121.4490    11.2761    11.1069
  498.7000   121.6999    11.3354    11.1077
  498.8000   121.8783    11.3362    11.1515
  498.9000   121.8994    11.3930    11.1875
  499.0000   122.1914    11.4590    11.2025
  499.1000   122.1955    11.4983    11.2678
  499.2000   122.2003    11.5112    11.2688
  499.3000   122.2051    11.5807    11.3192
  499.4000   122.1739    11.6449    11.3497
  499.5000   121.9127    11.6637    11.3507
  499.6000   121.6911    11.6979    11.3573
  499.7000   121.4498    11.7656    11.4323
  499.8000   121.2086    11.8305    11.4331
  499.9000   120.8543    11.8315    11.4341
  500.0000   120.1210    11.8634    11.4501
  500.1000   119.5278    11.9023    11.4879
  500.2000   118.9345    11.9412    11.5257
  500.3000   118.3413    11.9802    11.5635
  500.4000   117.7481    12.0191    11.6012
  500.5000   117.1548    12.0581    11.6390
  500.6000   116.5123    12.0970    11.6803
  500.7000   116.5156    12.1360    11.6807
  500.8000   116.6936    12.1749    11.6812
  500.9000   116.9459    12.2139    11.7133
  501.0000   117.1982    12.2588    11.7812
  501.1000   117.4631    12.2593    11.8494
  501.2000   118.0472    12.3041    11.9308
  501.3000   118.2578    12.3755    11.9872
  501.4000   118.5101    12.4472    12.0154
  501.5000   118.8622    12.5215    12.0420
  501.6000   119.3173    12.5921    12.1007
  501.7000   119.5777    12.6105    12.1012
  501.8000   120.3039    12.6498    12.1672
  501.9000   120.8665    12.7002    12.1871
  502.0000   121.5007    12.7078    12.1875
  502.1000   122.2506    12.7905    12.2080
  502.2000   122.9749    12.8558    12.2740
  502.3000   123.5332    12.8813    12.2746
  502.4000   123.9770    12.8819    12.3350
  502.5000   124.3117    12.8990    12.3617
  502.6000   124.4514    12.9734    12.3622
  502.7000   124.5138    12.9740    12.3627
  502.8000   124.7612    12.9745    12.3632
  502.9000   124.4630    13.0175    12.4331
  503.0000   124.2663    13.0667    12.4510
  503.1000   123.8754    13.0673    12.4515
  503.2000   123.4735    13.0679    12.4748
  503.3000   123.1904    13.1371    12.5398
  503.4000   122.6653    13.1607    12.5404
  503.5000   122.2029    13.1613    12.6045
  503.6000   121.3506    13.1618    12.6294
  503.7000   120.4846    13.1652    12.6622
  503.8000   119.7422    13.2555    12.7190
  503.9000   118.9819    13.2559    12.7195
  504.0000   117.8462    13.2564    12.7201
  504.1000   117.4246    13.2570    12.7206
  504.2000   116.7723    13.2576    12.7629
  504.3000   116.1344    13.2582    12.8109
  504.4000   115.5900    13.2587    12.8115
  504.5000   114.8382    13.2593    12.8120
  504.6000   114.3504    13.2987    12.8125
  504.7000   113.8565    13.3535    12.8130
  504.8000   113.5008    13.3596    12.8136
  504.9000   113.2557    13.4485    12.8141
  505.0000   113.0105    13.4490    12.8146
  505.1000   112.7422    13.4987    12.8153
  505.2000   112.9707    13.5445    12.8157
  505.3000   113.2230    13.5605    12.8162
  505.4000   113.4753    13.6409    12.8452
  505.5000   113.6641    13.6415    12.9072
  505.6000   113.6871    13.6420    12.9078
  505.7000   114.2772    13.6426    12.9083
  505.8000   114.6893    13.6432    12.9088
  505.9000   115.1904    13.6438    12.9473
  506.0000   115.6913    13.6444    13.0005
  506.1000   116.1925    13.6449    13.0010
  506.2000   116.7154    13.6455    13.0016
  506.3000   117.1947    13.6461    13.0661
  506.4000   117.6957    13.6466    13.0938
  506.5000   118.0666    13.6471    13.0943
  506.6000   118.3190    13.6477    13.0949
  506.7000   118.5712    13.6483    13.0955
  506.8000   118.8555    13.6488    13.0960
  506.9000   119.0759    13.6494    13.0965
  507.0000   119.3284    13.6500    13.0971
  507.1000   119.4711    13.6506    13.0733
  507.2000   119.4747    13.6511    13.0069
  507.3000   119.4783    13.6517    13.0076
  507.4000   119.2314    13.6523    13.0081
  507.5000   118.9864    13.6529    13.0086
  507.6000   118.5985    13.6534    12.9756
  507.7000   118.1046    13.6541    12.9191
  507.8000   117.6460    13.6546    12.9197
  507.9000   117.3824    13.6552    12.9202
  508.0000   116.6960    13.6557    12.8619
  508.1000   115.9531    13.6429    12.8313
  508.2000   115.0882    13.5617    12.8056
  508.3000   114.1657    13.5622    12.7430
  508.4000   113.4083    13.5628    12.7436
  508.5000   112.2608    13.5634    12.7441
  508.6000   111.4266    13.5640    12.6934
  508.7000   110.5906    13.5584    12.6564
  508.8000   109.9497    13.4705    12.6570
  508.9000   109.4561    13.4710    12.6541
  509.0000   108.9502    13.4716    12.5700
  509.1000   108.4684    13.4721    12.5704
  509.2000   108.1635    13.4727    12.5270
  509.3000   107.9184    13.4733    12.4839
  509.4000   107.7543    13.4739    12.4844
  509.5000   107.7579    13.4744    12.4850
