~VERSION INFORMATION
 VERS.                2.0:   CWLS LOG ASCII STANDARD - VERSION 2.0
 WRAP.                 NO:   ONE LINE PER DEPTH STEP
~WELL INFORMATION
#MNEM.UNIT      DATA TYPE    INFORMATION
#----------   ------------   ------------------------------
 STRT.F           12.0000:   START DEPTH
 STOP.F          551.0000:   STOP DEPTH
 STEP.F            0.5000:   STEP LENGTH
 NULL.          -999.2500:   NO VALUE
 COMP. LAWRENCE-ALLISON &AS:   COMPANY
 WELL. NPR 3 #58-46SX3LP4:   WELL
 FLD .             TEAPOT:   FIELD
 LOC .       S3 T38N R78W:   LOCATION
 CNTY.            NATRONA:   COUNTY
 STAT.            WYOMING:   STATE
 CTRY. UNITED STATES OF AMERICA:   COUNTRY
 SRVC.      Dresser Atlas:   SERVICE COMPANY
 DATE.        14-DEC-1984:   LOGDATE
 API .       490251099900:   API NUMBER
~CURVE INFORMATION
#MNEM.UNIT       API CODE    CURVE DESCRIPTION
#----------   ------------   ------------------------------
 DEPT.F                  :   
 RD  .OHMM   11 220 10 00:   RESISTIVITY DEEP
 RS  .OHMM   11 220 09 00:   RESISTIVITY SHALLOW
 SPR .MV     11 010 01 00:   SPONTANEOUS POTENTIAL FROM RES.
 AC  .US/F   60 520 00 00:   ACOUSTIC SONIC
 CALD.IN     45 280 60 00:   CALIPER FROM DENSITY
 CORR.G/C3   45 356 01 00:   DENSITY CORRECTION
 DEN .G/C3   45 350 01 00:   COMPENSATED BULK DENSTIY
 GRD .GAPI   45 310 01 00:   GAMMA RAY FROM DENSITY LOG
 PORD.DEC    45 890 12 00:   POROSITY DENSITY SANDSTONE
 CNC .DEC    42 890 03 00:   NEUTRON POROSITY SANDSTONE
~PARAMETER INFORMATION
#MNEM.UNIT          VALUE    DESCRIPTION
#----------   ------------   ------------------------------
 PD  .                 GL:   PERMANENT DATUM
 EPD .F              5201:   ELEVATION PERMANENT DATUM
 LMF .                 GL:   LOG MEASURED FROM
 DMF .                 GL:   DRILLING MEASURED FROM
 EGL .F              5201:   GROUND LEVEL
 DATE.        14-DEC-1984:   RUN DATE
 RUN .                  1:   RUN NUMBER
 DD  .F               552:   DEPTH DRILLER
 DL  .F               552:   DEPTH LOGGER
 BLI .F               550:   BOTTOM LOG INTERVAL
 TLI .F                20:   TOP LOG INTERVAL
 CS  .IN            8.625:   CASING SIZE
 CBD .F                20:   CASING BOTTOM DRILLER
 CBL .F                20:   CASING BOTTOM LOGGER
 BS  .IN            7.875:   BIT SIZE
 BSD .F               552:   BIT SIZE AT DEPTH
 DFT .          KCL WATER:   DRILLING FLUID TYPE
 MSS .            MUDTANK:   MUD SAMPLE SOURCE
 RMS .OHMM          0.152:   RESISTIVITY MUD SAMPLE
 MST .F                76:   MUD SAMPLE TEMPERATURE
 RMF .OHMM           0.11:   RESISTIVITY MUD FILTRATE SAMPLE
 MFST.F                76:   MUD FILTRATE SAMPLE TEMPERATURE
 RMC .OHMM           0.19:   RESISTIVITY MUD CAKE
 MCST.F                76:   MUD CAKE SAMPLE TEMPERATURE
 MFSS.               CALC:   MUD FILTRATE SAMPLE SOURCE
 MCSS.               CALC:   MUD CAKE SAMPLE SOURCE
 TCS .HRS               5:   TIME CURCULATED STOPPED
 MRT .F               100:   MAXIMUM RECORDED TEMPERATURE
 LUN .               6270:   LOGGING UNIT NUMBER
 ENGI.            LEBSOCK:   RECORDING ENGINEER
 WITN.        GREG GROOMS:   WITNESSED BY
 CLNT.            A2DTECH:   CLIENT CODE
 ORIG.           5" PRINT:   ORIGIN OF DATA
 UWI .       490251099900:   UNIQUE WELL ID
 DICO. A2D Technologies, Inc.:   DIGITIZING COMPANY
~OTHER INFORMATION
~A   DEPT       RD         RS        SPR         AC       CALD       CORR        DEN        GRD       PORD          CNC 
# ...
  313.5000    23.7152    22.9903   -53.5767    99.6221     7.9562     0.0218     2.3551    79.3173     0.2003     0.2474
  314.0000    23.5648    22.8443   -53.8635    99.6906     7.9591     0.0277     2.3588    79.2862     0.1948     0.2435
  314.5000    23.2541    22.6993   -54.0015    99.6021     7.9442     0.0005     2.3611    78.3799     0.1915     0.2389
  315.0000    23.1066    22.5552   -53.9910    99.2211     7.9594    -0.0116     2.3603    76.6009     0.1905     0.2415
  315.5000    23.1224    22.5706   -53.8323    98.9153     7.9596     0.0064     2.3587    76.4475     0.1905     0.2491
  316.0000    23.1350    22.5829   -53.5173    98.7618     7.9597    -0.0027     2.3548    79.9032     0.1905     0.2569
  316.5000    23.3081    22.5953   -53.2181    98.8307     7.9599    -0.0058     2.3450    82.0062     0.1975     0.2627
  317.0000    23.6453    22.7645   -52.7626    99.1239     7.9600     0.0063     2.3420    80.1979     0.2011     0.2503
  317.5000    23.9875    22.9349   -53.0761    99.7933     7.9602     0.0032     2.3420    78.3904     0.2020     0.2361
  318.0000    24.3345    23.1067   -53.7784   100.8384     7.9453    -0.0044     2.3390    78.0866     0.2017     0.2310
  318.5000    24.5166    23.6039   -54.3616   101.4326     7.9454    -0.0301     2.3231    76.5799     0.2075     0.2367
  319.0000    24.5300    23.4498   -54.5023   101.8017     7.9456    -0.0332     2.3095    76.1258     0.2171     0.2443
  319.5000    24.3711    23.1320   -54.7887   101.7947     7.9457    -0.0031     2.3041    76.2731     0.2226     0.2479
  320.0000    24.0530    22.5255   -54.9268   101.4874     7.9609    -0.0001     2.3147    78.0746     0.2222     0.2512
  320.5000    23.8972    22.0472   -55.3591   100.9547     7.9460     0.0028     2.3222    80.1769     0.2180     0.2524
  321.0000    23.7456    21.4846   -55.4998   100.2717     7.9462     0.0058     2.3237    80.6258     0.2125     0.2497
  321.5000    23.2743    21.2040   -55.6379    99.5136     7.9463    -0.0018     2.3237    76.5619     0.2119     0.2443
  322.0000    23.1263    20.9242   -55.7734    98.7555     7.9465    -0.0366     2.3274    73.5514     0.2128     0.2394
  322.5000    22.8215    20.9356   -55.6147    98.1476     7.9466    -0.0125     2.3327    74.1498     0.2101     0.2488
  323.0000    22.5209    20.9470   -55.6045    97.6149     7.9468     0.0085     2.3402    78.3574     0.2049     0.2506
  323.5000    22.2214    20.9585   -55.5942    97.2324     7.9469     0.0055     2.3447    78.0536     0.2019     0.2497
  324.0000    21.9210    20.8254   -55.5839    97.0754     7.9471    -0.0037     2.3508    76.5469     0.1994     0.2370
  324.5000    21.4927    20.8368   -56.0187    97.4442     7.9472    -0.0097     2.3590    76.5439     0.1979     0.2346
  325.0000    21.0633    20.4201   -56.1573    98.0385     7.9474     0.0113     2.3681    77.1431     0.1936     0.2446
  325.5000    20.7855    20.1507   -56.4436    98.4825     7.9325     0.0147     2.3696    76.2371     0.1873     0.2575
  326.0000    20.3702    19.7478   -56.7298    98.4006     7.9327     0.0140     2.3650    75.0311     0.1860     0.2597
  326.5000    20.1044    19.3524   -56.8680    97.9430     7.9328     0.0232     2.3567    74.1258     0.1912     0.2588
  327.0000    19.8393    18.9659   -57.1543    97.3351     7.9330     0.0231     2.3529    75.3266     0.1936     0.2548
  327.5000    19.8501    18.7155   -57.2924    96.6522     7.9030     0.0170     2.3679    76.0747     0.1936     0.2413
  328.0000    19.8610    18.5968   -57.4305    96.0443     7.9032     0.0140     2.3777    77.7258     0.1887     0.2321
  328.5000    19.8718    18.6071   -57.5885    95.8872     7.9033     0.0260     2.3845    80.7304     0.1811     0.2251
  329.0000    19.8827    18.4889   -57.7067    96.0307     7.9035     0.0455     2.3860    82.0815     0.1766     0.2237
  329.5000    19.8935    18.3715   -57.5455    96.3244     7.9337     0.0500     2.3845    81.0251     0.1744     0.2328
  330.0000    19.9044    18.5116   -57.0901    96.4696     7.9639     0.0409     2.3784    79.5183     0.1751     0.2418
  330.5000    19.9153    18.6502   -56.6347    96.2357     8.0242    -0.0046     2.3716    81.0191     0.1800     0.2355
  331.0000    19.9262    18.6604   -56.6245    96.0035     7.9943    -0.0196     2.3708    83.5725     0.1835     0.2400
  331.5000    19.9370    18.6706   -56.9109    95.9216     7.9042    -0.0179     2.3761    84.3221     0.1838     0.2509
  332.0000    19.8102    18.8078   -57.3457    95.7645     7.8893     0.0002     2.3792    83.1154     0.1826     0.2512
  332.5000    19.5494    18.6884   -58.2257    95.6826     7.9045     0.0256     2.3807    80.4056     0.1786     0.2466
  333.0000    19.4253    18.4443   -58.9572    95.5256     7.9047     0.0218     2.3798    80.5530     0.1777     0.2442
  333.5000    19.0351    18.0755   -59.3946    95.2934     7.9048     0.0009     2.3726    80.7011     0.1795     0.2445
  334.0000    18.7862    17.5920   -59.5327    94.9109     7.9050    -0.0066     2.3688    80.5470     0.1816     0.2590
  334.5000    18.5385    17.0035   -59.5199    94.2279     7.9051    -0.0042     2.3718    79.7921     0.1822     0.2617
  335.0000    18.4209    16.8933   -59.2129    93.7704     7.9203     0.0106     2.3770    77.6838     0.1810     0.2466
  335.5000    18.4335    16.9048   -58.7575    93.6884     7.9054     0.0209     2.3861    73.7710     0.1770     0.2288
  336.0000    18.4436    16.9140   -58.1538    93.9822     7.9056     0.0341     2.4042    72.4146     0.1655     0.2285
  336.5000    18.4536    16.9233   -57.9951    94.5013     7.9057     0.0250     2.4124    77.3741     0.1603     0.2363
  337.0000    18.4637    16.8158   -57.6881    94.6464     7.9059     0.0068     2.4117    80.5289     0.1597     0.2306
  337.5000    18.2203    16.5939   -57.5295    94.5642     7.9060     0.0098     2.3988    81.2786     0.1652     0.2242
  338.0000    17.9776    16.4826   -57.5192    94.1598     7.9062     0.0173     2.3874    79.4703     0.1739     0.2233
  338.5000    17.6208    16.1472   -57.6573    93.6301     7.9063    -0.0009     2.3814    79.1673     0.1751     0.2282
  339.0000    17.5066    16.0389   -57.9437    93.1084     7.9065     0.0066     2.3889    83.5245     0.1724     0.2366
  339.5000    17.5186    15.9544   -58.0949    92.9594     7.9066     0.0156     2.4040    86.0778     0.1639     0.2378
  340.0000    17.5281    15.9652   -58.2394    93.1079     7.9068     0.0155     2.4190    83.9696     0.1587     0.2381
  340.5000    17.6593    15.9740   -58.6548    93.5540     7.9069     0.0064     2.4182    82.4628     0.1566     0.2353
  341.0000    17.7914    15.9827   -59.0870    94.0721     7.9071    -0.0012     2.4175    82.1598     0.1560     0.2430
  341.5000    18.0489    16.1024   -59.3735    94.5858     7.9072    -0.0027     2.4144    86.2162     0.1575     0.2508
  342.0000    18.1839    16.4489   -59.5141    94.8790     7.9074     0.0032     2.4076    86.6651     0.1617     0.2517
  342.5000    18.5749    16.6870   -59.7980    94.9474     7.9075     0.0001     2.3932    86.9621     0.1660     0.2429
  343.0000    18.7139    16.9286   -59.7878    95.0158     7.9077     0.0001     2.3886    87.2606     0.1699     0.2384
  343.5000    18.9847    17.0554   -59.7775    95.0841     7.9078     0.0151     2.3886    87.2568     0.1720     0.2411
  344.0000    19.1269    17.1831   -59.7672    95.1525     7.9080     0.0090     2.3961    83.0433     0.1712     0.2408
  344.5000    19.1375    17.1925   -59.7569    95.1456     7.9232    -0.0031     2.4021    79.1305     0.1674     0.2333
  345.0000    19.1481    17.2019   -59.4499    95.0636     7.9384     0.0179     2.4066    78.2253     0.1650     0.2340
  345.5000    19.0288    17.0927   -58.9945    94.9066     7.9385     0.0164     2.4066    78.8238     0.1631     0.2366
  346.0000    18.7779    17.1020   -58.5392    94.7495     7.9387     0.0118     2.4036    81.3772     0.1628     0.2357
  346.5000    18.5278    16.9934   -57.7871    94.4422     7.9087     0.0193     2.3967    82.1268     0.1661     0.2296
