~VERSION INFORMATION
 VERS.                2.0:   CWLS LOG ASCII STANDARD - VERSION 2.0
 WRAP.                 NO:   ONE LINE PER DEPTH STEP
~WELL INFORMATION
#MNEM.UNIT      DATA TYPE    INFORMATION
#----------   ------------   ------------------------------
 STRT.F            0.0000:   START DEPTH
 STOP.F          533.0000:   STOP DEPTH
 STEP.F            0.1000:   STEP LENGTH
 NULL.          -999.2500:   NO VALUE
 COMP.   FLUOR DANIEL INC:   COMPANY
 WELL.   84-4 X 10 #81-10:   WELL
 FLD .             TEAPOT:   FIELD
 LOC .      S10 T38N R78W:   LOCATION
 CNTY.            NATRONA:   COUNTY
 STAT.            WYOMING:   STATE
 CTRY. UNITED STATES OF AMERICA:   COUNTRY
 SRVC.     Atlas Wireline:   SERVICE COMPANY
 DATE.        25-SEP-1994:   LOGDATE
 API .       490252264000:   API NUMBER
~CURVE INFORMATION
#MNEM.UNIT       API CODE    CURVE DESCRIPTION
#----------   ------------   ------------------------------
 DEPT.F                  :   
 GRR .GAPI   07 310 01 00:   GAMMA RAY
 RILD.OHMM   07 120 46 00:   INDUCTION LOG DEEP RESISTIVITY
 RILM.OHMM   07 120 44 00:   INDUCTION LOG MEDIUM RESISTIVITY
~PARAMETER INFORMATION
#MNEM.UNIT          VALUE    DESCRIPTION
#----------   ------------   ------------------------------
 PD  .                 GL:   PERMANENT DATUM
 EPD .F              5150:   ELEVATION PERMANENT DATUM
 LMF .                 KB:   LOG MEASURED FROM
 DAPD.F                10:   FEET ABOVE PERMANENT DATUM
 DMF .                 KB:   DRILLING MEASURED FROM
 EKB .F              5160:   KELLING BUSHING
 EDF .F              5159:   DRILLING FLOOR
 EGL .F              5150:   GROUND LEVEL
 DATE.        25-SEP-1994:   RUN DATE
 RUN .                  1:   RUN NUMBER
 DD  .F               545:   DEPTH DRILLER
 DL  .F               541:   DEPTH LOGGER
 BLI .F               533:   BOTTOM LOG INTERVAL
 CS  .IN            9.625:   CASING SIZE
 CBD .F                76:   CASING BOTTOM DRILLER
 CBL .F                76:   CASING BOTTOM LOGGER
 BS  .IN             8.75:   BIT SIZE
 BSD .F               545:   BIT SIZE AT DEPTH
 DFT .                AIR:   DRILLING FLUID TYPE
 MRT .F                85:   MAXIMUM RECORDED TEMPERATURE
 LUN .            HL 6401:   LOGGING UNIT NUMBER
 LUL .         FT. MORGAN:   LOGGING UNIT LOCATION
 ENGI.    DAVE FREDERICKS:   RECORDING ENGINEER
 WITN.        GARY STRONG:   WITNESSED BY
 CLNT.            A2DTECH:   CLIENT CODE
 ORIG.           5' PRINT:   ORIGIN OF DATA
 UWI .       490252264000:   UNIQUE WELL ID
 DICO. A2D Technologies, Inc.:   DIGITIZING COMPANY
~OTHER INFORMATION
~A    DEPT      GRR      RILD       RILM   
# ...
  163.8000   138.8064     9.7610     9.8587
  163.9000   139.0628     9.7032     9.8589
  164.0000   139.3192     9.7034     9.8590
  164.1000   139.6161     9.7037     9.8591
  164.2000   139.8320     9.7040     9.8593
  164.3000   139.9227     9.7042     9.8594
  164.4000   139.9251     9.7045     9.8595
  164.5000   139.9275     9.7048     9.8597
  164.6000   139.9299     9.7051     9.8598
  164.7000   139.9326     9.7053     9.8599
  164.8000   139.7076     9.7056     9.8601
  164.9000   139.6350     9.7058     9.8602
  165.0000   139.5066     9.7061     9.8604
  165.1000   139.2550     9.7064     9.8235
  165.2000   139.0034     9.7067     9.7926
  165.3000   138.7385     9.7069     9.7928
  165.4000   138.0193     9.7072     9.7929
  165.5000   137.2598     9.7075     9.7930
  165.6000   136.5003     9.7077     9.7932
  165.7000   135.8369     9.7080     9.7933
  165.8000   135.3313     9.7083     9.7934
  165.9000   134.8254     9.7086     9.7936
  166.0000   133.9219     9.7088     9.7838
  166.1000   132.8956     9.7091     9.7263
  166.2000   131.6281     9.7093     9.7265
  166.3000   130.4700     9.7096     9.7266
  166.4000   129.2730     9.7099     9.7267
  166.5000   127.5367     9.7102     9.7268
  166.6000   126.3834     9.7104     9.7270
  166.7000   125.9477     9.7107     9.7271
  166.8000   125.7837     9.7109     9.7273
  166.9000   125.7861     9.7112     9.7274
  167.0000   125.8630     9.7115     9.7676
  167.1000   126.1195     9.7118     9.7952
  167.2000   126.3978     9.7121     9.7953
  167.3000   126.6322     9.7123     9.7955
  167.4000   126.8886     9.7126     9.7956
  167.5000   127.1450     9.7128     9.7957
  167.6000   127.4892     9.7131     9.7959
  167.7000   127.9202     9.7134     9.7960
  167.8000   127.9227     9.7137     9.7962
  167.9000   127.9251     9.7139     9.7963
  168.0000   127.9275     9.7142     9.7964
  168.1000   127.9299     9.7144     9.7966
  168.2000   127.9323     9.7147     9.7967
  168.3000   127.9347     9.7150     9.7968
  168.4000   127.9420     9.7153     9.7970
  168.5000   128.2421     9.7155     9.7971
  168.6000   128.2441     9.7158     9.7972
  168.7000   128.5716     9.7495     9.7974
  168.8000   129.1964     9.7838     9.8518
  168.9000   129.9607     9.7841     9.8657
  169.0000   130.7431     9.7826     9.8658
  169.1000   131.8819     9.7172     9.8660
  169.2000   133.0038     9.7174     9.8661
  169.3000   134.4520     9.7177     9.8662
  169.4000   135.7229     9.6909     9.8664
  169.5000   136.8208     9.6347     9.8665
  169.6000   138.1246     9.5788     9.8666
  169.7000   139.7512     9.5189     9.8396
  169.8000   140.2279     9.4680     9.7660
  169.9000   140.1710     9.4131     9.6584
  170.0000   139.7785     9.3585     9.5978
  170.1000   139.2729     9.2844     9.5464
  170.2000   138.7226     9.1864     9.4503
  170.3000   137.9529     9.1330     9.3707
  170.4000   136.9530     9.0703     9.2963
  170.5000   136.1420     8.9848     9.1982
  170.6000   135.3825     8.9460     9.1447
  170.7000   134.6230     8.9001     9.0818
  170.8000   133.9795     8.8101     9.0387
  170.9000   133.7180     8.7590     8.9531
  171.0000   133.1363     8.7026     8.8956
  171.1000   133.1384     8.6577     8.8819
  171.2000   133.1408     8.6075     8.8303
  171.3000   133.3821     8.5318     8.7737
  171.4000   133.8924     8.4657     8.7279
  171.5000   134.4028     8.4586     8.6772
  171.6000   134.9634     8.4078     8.6535
  171.7000   135.1945     8.3607     8.6361
  171.8000   135.0892     8.2746     8.5859
  171.9000   134.9704     8.2356     8.5349
  172.0000   134.8036     8.2161     8.4863
  172.1000   134.3345     8.1684     8.4370
  172.2000   134.0714     8.1230     8.4179
  172.3000   133.5892     8.1232     8.3971
  172.4000   133.0836     8.0829     8.3601
  172.5000   132.5780     8.0360     8.3573
  172.6000   132.0725     8.0121     8.3027
  172.7000   131.5172     7.9983     8.2605
  172.8000   130.7609     7.9573     8.2124
  172.9000   130.4633     7.9575     8.1889
  173.0000   130.2578     7.9577     8.1890
  173.1000   130.3249     7.9580     8.1825
  173.2000   130.8036     7.9582     8.1328
  173.3000   131.5049     7.9584     8.1329
  173.4000   132.0302     7.9586     8.0964
  173.5000   132.8946     7.9588     8.0770
  173.6000   133.5590     7.9591     8.0581
  173.7000   133.9780     7.9593     8.0215
  173.8000   133.9855     7.9595     8.0216
  173.9000   133.7340     7.9597     8.0218
  174.0000   133.4824     7.9599     8.0219
  174.1000   133.2111     7.9602     8.0220
  174.2000   132.7452     7.9604     8.0449
  174.3000   132.6115     7.9606     8.0779
  174.4000   132.6139     7.9608     8.0780
  174.5000   132.7059     7.9858     8.0781
  174.6000   133.0038     8.0166     8.0782
  174.7000   133.5276     8.0168     8.1138
  174.8000   134.0245     8.0170     8.1346
  174.9000   134.5349     8.0173     8.1347
  175.0000   135.0453     8.0175     8.1442
  175.1000   135.6586     8.0177     8.1914
  175.2000   136.3682     8.0377     8.1915
  175.3000   136.8786     8.0739     8.1916
  175.4000   137.4723     8.0741     8.1917
  175.5000   137.8993     8.0743     8.1918
  175.6000   138.5740     8.1155     8.2053
  175.7000   139.3383     8.1309     8.2535
  175.8000   139.9666     8.1311     8.3064
  175.9000   140.2028     8.1313     8.3065
  176.0000   139.9036     8.1376     8.3420
  176.1000   139.2283     8.1883     8.3644
  176.2000   138.6465     8.1885     8.3645
  176.3000   138.2705     8.1887     8.3732
  176.4000   137.9376     8.1890     8.4228
  176.5000   137.4982     8.1892     8.4229
  176.6000   137.5010     8.1894     8.4230
  176.7000   137.2643     8.1905     8.4232
  176.8000   137.0127     8.2468     8.4233
  176.9000   136.9039     8.2470     8.4234
  177.0000   136.8117     8.2472     8.4235
  177.1000   136.6062     8.2475     8.4236
  177.2000   136.6091     8.2477     8.4237
  177.3000   136.3098     8.2479     8.4239
  177.4000   135.9033     8.2482     8.4240
  177.5000   135.5539     8.2923     8.4241
  177.6000   135.3023     8.3059     8.4242
  177.7000   134.9311     8.3062     8.4243
  177.8000   134.1833     8.3064     8.4244
  177.9000   133.6052     8.3148     8.4246
  178.0000   133.1722     8.3646     8.4247
  178.1000   132.4973     8.3648     8.4248
  178.2000   131.6165     8.3650     8.4249
  178.3000   130.7492     8.3653     8.4274
  178.4000   130.2188     8.3655     8.4837
  178.5000   129.3900     8.3657     8.5268
  178.6000   128.9305     8.3689     8.5428
  178.7000   128.6076     8.4244     8.5678
  178.8000   128.3561     8.4246     8.6023
  178.9000   128.1909     8.4248     8.6090
  179.0000   128.2316     8.4500     8.6623
  179.1000   128.4980     8.4838     8.6624
  179.2000   128.9885     8.4840     8.6626
  179.3000   130.0868     8.4843     8.6920
  179.4000   131.3591     8.5318     8.7229
  179.5000   132.7312     8.5821     8.7338
  179.6000   134.2574     8.6033     8.7851
  179.7000   135.7836     8.6036     8.8449
  179.8000   137.5787     8.6145     8.8450
  179.9000   138.8363     8.6638     8.8451
  180.0000   140.3626     8.6641     8.8698
  180.1000   141.8888     8.7071     8.9068
  180.2000   143.2854     8.7248     8.9069
  180.3000   144.2870     8.7250     8.9070
  180.4000   145.1459     8.7252     8.9072
  180.5000   145.5931     8.7255     8.9458
  180.6000   145.7547     8.7257     8.9693
  180.7000   145.7571     8.7729     8.9889
  180.8000   145.7595     8.7868     9.0318
  180.9000   145.7319     8.7871     9.0320
  181.0000   145.4624     8.8061     9.0948
  181.1000   145.2288     8.8486     9.0949
  181.2000   144.9772     8.8489     9.0950
  181.3000   144.5861     8.8492     9.1192
  181.4000   144.1720     8.8914     9.1584
  181.5000   143.8772     8.9111     9.1585
  181.6000   143.3620     8.9114     9.1587
  181.7000   142.6169     8.9116     9.1588
  181.8000   141.6564     8.9155     9.1589
  181.9000   140.7958     8.9741     9.1876
