~VERSION INFORMATION
 VERS.                2.0:   CWLS LOG ASCII STANDARD - VERSION 2.0
 WRAP.                 NO:   ONE LINE PER DEPTH STEP
~WELL INFORMATION
#MNEM.UNIT      DATA TYPE    INFORMATION
#----------   ------------   ------------------------------
 STRT.F          458.0000:   START DEPTH
 STOP.F         2155.0000:   STOP DEPTH
 STEP.F            0.5000:   STEP LENGTH
 NULL.          -999.2500:   NO VALUE
 COMP.   FLUOR DANIEL INC:   COMPANY
 WELL. NAVAL PETROLEUM RESERVE 3 SHX- 1 #33-29:   WELL
 FLD .             TEAPOT:   FIELD
 LOC .      S29 T39N R78W:   LOCATION
 CNTY.            NATRONA:   COUNTY
 STAT.            WYOMING:   STATE
 CTRY. UNITED STATES OF AMERICA:   COUNTRY
 SRVC.            Unknown:   SERVICE COMPANY
 DATE.        29-JUN-1995:   LOGDATE
 API .       490252272500:   API NUMBER
~CURVE INFORMATION
#MNEM.UNIT       API CODE    CURVE DESCRIPTION
#----------   ------------   ------------------------------
 DEPT.F                  :   
 C1  .VF     91 831 01 00:   METHANE
 C2  .VF     91 832 01 00:   ETHANE
 C3  .VF     91 833 01 00:   PROPANE
 C4  .VF     91 834 01 00:   BUTANE
 ROP .FT/HR  91 810 01 00:   RAT OF DRILLING PENETRATION
 TGAS.TC/CC  91 830 01 00:   TOTAL GAS UNIT
~PARAMETER INFORMATION
#MNEM.UNIT          VALUE    DESCRIPTION
#----------   ------------   ------------------------------
 EKB .F              5020:   KELLING BUSHING
 EGL .F              5010:   GROUND LEVEL
 DATE.        29-JUN-1995:   RUN DATE
 RUN .                  1:   RUN NUMBER
 BLI .F              2155:   BOTTOM LOG INTERVAL
 TLI .F               460:   TOP LOG INTERVAL
 ENGI.     C.TOWER/R.HUSK:   RECORDING ENGINEER
 CLNT.            A2DTECH:   CLIENT CODE
 ORIG.           5" PRINT:   ORIGIN OF DATA
 UWI .       490252272500:   UNIQUE WELL ID
 DICO. A2D Technologies, Inc.:   DIGITIZING COMPANY
~OTHER INFORMATION
~A   DEPT       C1         C2         C3         C4          ROP       TGAS 
# ...
 1030.0000     3.4125     0.4860     0.0000     0.0000     0.7533    23.2528
 1030.5000     3.4069     0.4832     0.0000     0.0000     0.7624    25.1311
 1031.0000     3.4013     0.5741     0.0000     0.0000     0.7621    25.1265
 1031.5000     3.3947     0.4773     0.0000     0.0000     0.7618    26.0670
 1032.0000     3.3892     0.4745     0.0000     0.0000     0.7520    27.9415
 1032.5000     3.3837     0.4718     0.0000     0.0000     0.7517    28.8772
 1033.0000     3.3782     0.5626     0.0000     0.0000     0.7514    28.8726
 1033.5000     3.3727     0.5598     0.0000     0.0000     0.7510    28.8680
 1034.0000     3.3672     0.5570     0.0000     0.0000     0.7507    29.8060
 1034.5000     3.3617     0.5542     0.0000     0.0000     0.7598    29.8002
 1035.0000     3.3562     0.4574     0.0000     0.0000     0.7595    29.7956
 1035.5000     3.3506     0.4551     0.0000     0.0000     0.7592    29.7910
 1036.0000     3.3439     0.4523     0.0000     0.0000     0.7589    29.7864
 1036.5000     3.3384     0.4492     0.0000     0.0000     0.7586    29.7818
 1037.0000     3.3329     0.3530     0.0000     0.0000     0.7583    30.7186
 1037.5000     3.5163     0.3502     0.0000     0.0000     0.7580    30.7139
 1038.0000     3.5095     0.3475     0.0000     0.0000     0.7483    30.7092
 1038.5000     3.5040     0.3448     0.0000     0.0000     0.7480    30.7036
 1039.0000     3.4987     0.5290     0.0000     0.0000     0.7476    31.6416
 1039.5000     3.6806     0.7168     0.0000     0.0000     0.7473    30.6944
 1040.0000     3.6750     0.8973     0.0000     0.0000     0.7470    29.7484
 1040.5000     3.6881     0.8939     0.0000     0.0000     0.7467    29.7438
 1041.0000     3.8515     0.7977     0.0000     0.0000     0.7464    30.6818
 1041.5000     4.0322     0.7949     0.0000     0.0000     0.7482    29.7346
 1042.0000     4.0267     0.6987     0.0000     0.0000     0.7529    29.7300
 1042.5000     4.0212     0.6960     0.0000     0.0000     0.7576    29.7254
 1043.0000     4.0157     0.6932     0.0000     0.0000     0.7624    28.7793
 1043.5000     4.0102     0.6905     0.0000     0.0000     0.7671    28.7746
 1044.0000     4.1936     0.5943     0.0000     0.0000     0.7727    28.7690
 1044.5000     4.1867     0.5916     0.0000     0.0000     0.5841    28.7644
 1045.0000     4.1813     0.5888     0.0000     0.0000     0.5838    27.8184
 1045.5000     4.1756     0.4925     0.0000     0.0000     0.5835    27.8138
 1046.0000     4.1700     0.4892     0.0000     0.0000     0.5737    27.8092
 1046.5000     4.1634     0.4865     0.0000     0.0000     0.5734    27.8046
 1047.0000     4.1579     0.3903     0.0000     0.0000     0.5731    27.8000
 1047.5000     4.1524     0.3875     0.0000     0.0000     0.5728    26.8539
 1048.0000     4.1470     0.2913     0.0000     0.0000     0.5725    26.8493
 1048.5000     4.1415     0.2886     0.0000     0.0000     0.5722    26.8447
 1049.0000     4.1360     0.3800     0.0000     0.0000     0.5718    26.8400
 1049.5000     4.1306     0.3766     0.0000     0.0000     0.5715    27.7770
 1050.0000     4.1250     0.3738     0.0000     0.0000     0.5712    27.7712
 1050.5000     4.1194     0.3710     0.0000     0.0000     0.5803    26.8252
 1051.0000     4.1127     0.4618     0.0000     0.0000     0.5800    26.8211
 1051.5000     4.1072     0.4720     0.0000     0.0000     0.5797    27.7574
 1052.0000     4.1017     0.6432     0.0000     0.0000     0.5794    28.6946
 1052.5000     4.0962     0.7340     0.0000     0.0000     0.5885    29.6322
 1053.0000     4.0907     0.7305     0.0000     0.0000     0.5882    30.5680
 1053.5000     4.0852     0.8219     0.0000     0.0000     0.5879    30.5632
 1054.0000     4.0797     0.7980     0.0000     0.0000     0.5876    30.5586
 1054.5000     4.0742     0.7813     0.0000     0.0000     0.5872    30.5539
 1055.0000     4.0519     0.7749     0.0000     0.0000     0.5869    31.4909
 1055.5000     4.0232     0.7685     0.0000     0.0000     0.5866    31.4851
 1056.0000     3.9945     0.7621     0.0000     0.0000     0.5863    31.4805
 1056.5000     3.7912     0.6622     0.0000     0.0000     0.5860    31.4759
 1057.0000     3.7800     0.6558     0.0000     0.0000     0.5857    30.5303
 1057.5000     3.7665     0.5559     0.0000     0.0000     0.5854    29.5838
 1058.0000     3.7555     0.5495     0.0000     0.0000     0.5851    29.5792
 1058.5000     3.7445     0.5391     0.0000     0.0000     0.5847    28.6332
 1059.0000     3.7335     0.4430     0.0000     0.0000     0.5844    28.6286
 1059.5000     3.7238     0.3418     0.0000     0.0000     0.6029    26.7007
 1060.0000     3.5250     0.3354     0.0000     0.0000     0.6780    25.7950
 1060.5000     3.3254     0.3299     0.0000     0.0000     0.6776    25.7894
 1061.0000     3.3143     0.3226     0.0000     0.0000     0.6772    24.8434
 1061.5000     3.0375     0.3168     0.0000     0.0000     0.6769    24.8387
 1062.0000     2.9175     0.4048     0.0000     0.0000     0.6671    24.8341
 1062.5000     2.9062     0.4903     0.0000     0.0000     0.6668    24.8295
 1063.0000     2.8950     0.4838     0.0000     0.0000     0.6664    25.7664
 1063.5000     2.8837     0.4774     0.0000     0.0000     0.6566    25.7618
 1064.0000     2.8704     0.5645     0.0000     0.0000     0.6657    25.7572
 1064.5000     2.8613     0.5579     0.0000     0.0000     0.6653    25.7525
 1065.0000     2.8750     0.5514     0.0000     0.0000     0.6650    25.7479
 1065.5000     3.0262     0.5437     0.0000     0.0000     0.6929    25.7432
 1066.0000     3.1125     0.5372     0.0000     0.0000     0.7679    25.7376
 1066.5000     3.1930     0.5318     0.0000     0.0000     0.7675    25.7330
 1067.0000     3.1792     0.5244     0.0000     0.0000     0.7578    25.7284
 1067.5000     3.1682     0.4246     0.0000     0.0000     0.7574    25.7238
 1068.0000     3.1572     0.4182     0.0000     0.0000     0.7571    25.7192
 1068.5000     3.1461     0.4117     0.0000     0.0000     0.7567    24.7731
 1069.0000     3.1350     0.4053     0.0000     0.0000     0.7563    24.7685
 1069.5000     3.1237     0.3989     0.0000     0.0000     0.7559    25.7055
 1070.0000     3.1103     0.3925     0.0000     0.0000     0.7556    25.7008
 1070.5000     3.1013     0.3860     0.0000     0.0000     0.7553    25.6961
 1071.0000     3.0882     0.3794     0.0000     0.0000     0.7549    25.6914
 1071.5000     3.2675     0.4668     0.0000     0.0000     0.7546    25.6858
 1072.0000     3.2537     0.4287     0.0000     0.0000     0.7542    26.6238
 1072.5000     3.2426     0.4539     0.0000     0.0000     0.7553    26.6180
 1073.0000     3.4219     0.4459     0.0000     0.0000     0.7535    27.5560
 1073.5000     3.4081     0.4395     0.0000     0.0000     0.7438    27.5502
 1074.0000     3.3971     0.4331     0.0000     0.0000     0.7434    27.5456
 1074.5000     3.3860     0.3332     0.0000     0.0000     0.7430    27.5410
 1075.0000     3.3750     0.3268     0.0000     0.0000     0.7426    25.6536
 1075.5000     3.3640     0.3206     0.0000     0.0000     0.7046    25.6490
 1076.0000     3.6125     0.3140     0.0000     0.0000     0.6666    25.6321
 1076.5000     3.7169     0.3075     0.0000     0.0000     0.6663    23.7568
 1077.0000     3.7050     0.3009     0.0000     0.0000     0.6659    22.8097
 1077.5000     3.6921     0.2944     0.0000     0.0000     0.6656    22.8051
 1078.0000     3.6811     0.2879     0.0000     0.0000     0.6652    23.7431
 1078.5000     3.6700     0.2804     0.0000     0.0000     0.6649    22.7959
 1079.0000     3.6590     0.2740     0.0000     0.0000     0.6645    22.7913
 1079.5000     3.6480     0.3626     0.0000     0.0000     0.6642    23.7293
 1080.0000     3.6369     0.3551     0.0000     0.0000     0.5587    24.6661
 1080.5000     3.6259     0.3482     0.0000     0.0000     0.5504    24.6604
 1081.0000     3.4274     0.3421     0.0000     0.0000     0.5501    25.5973
 1081.5000     3.2287     0.3354     0.0000     0.0000     0.5497    25.5926
