~VERSION INFORMATION
 VERS.                2.0:   CWLS LOG ASCII STANDARD - VERSION 2.0
 WRAP.                 NO:   ONE LINE PER DEPTH STEP
~WELL INFORMATION
#MNEM.UNIT      DATA TYPE    INFORMATION
#----------   ------------   ------------------------------
 STRT.F            6.0000:   START DEPTH
 STOP.F          495.0000:   STOP DEPTH
 STEP.F            0.5000:   STEP LENGTH
 NULL.          -999.2500:   NO VALUE
 COMP. FENIX & SCISSON INC:   COMPANY
 WELL. FI NPR-3 #65-25 SX3:   WELL
 FLD .  NAVAL RESERVES #3:   FIELD
 LOC .       S3 T38N R78W:   LOCATION
 CNTY.            NATRONA:   COUNTY
 STAT.            WYOMING:   STATE
 CTRY. UNITED STATES OF AMERICA:   COUNTRY
 SRVC.       Schlumberger:   SERVICE COMPANY
 DATE.        22-MAY-1980:   LOGDATE
 API .       490251080300:   API NUMBER
~CURVE INFORMATION
#MNEM.UNIT       API CODE    CURVE DESCRIPTION
#----------   ------------   ------------------------------
 DEPT.F                  :   
 SPR .MV     07 010 01 00:   SPONTANEOUS POTENTIAL
 SFL .OHMM   07 220 01 00:   SHALLOW FOCUSED LOG RESISTIVITY
 ILD .OHMM   07 120 46 00:   INDUCTION LOG DEEP RESISTIVITY
 ILM .OHMM   07 120 44 00:   INDUCTION LOG MEDIUM
 GRD .GAPI   45 310 01 00:   GAMMA RAY FROM DENSITY LOG
 CALD.IN     45 280 60 00:   CALIPER
 DPHI.DEC    45 890 12 00:   DENSITY POROSITY SANDSTONE
 RHOB.G/C3   45 350 01 00:   BULK DENSITY
 CORR.G/C3   45 356 01 00:   DENSITY CORRECTION
 NPHI.DEC    42 890 03 00:   NEUTRON POROSITY SANDSTONE
~PARAMETER INFORMATION
#MNEM.UNIT          VALUE    DESCRIPTION
#----------   ------------   ------------------------------
 PD  .                 GL:   PERMANENT DATUM
 EPD .F              5162:   ELEVATION PERMANENT DATUM
 LMF .                 KB:   LOG MEASURED FROM
 DAPD.F                 4:   FEET ABOVE PERMANENT DATUM
 DMF .                 KB:   DRILLING MEASURED FROM
 EKB .F              5166:   KELLING BUSHING
 EGL .F              5162:   GROUND LEVEL
 DATE.            5-22-80:   RUN DATE
 RUN .                  1:   RUN NUMBER
 DD  .F               500:   DEPTH DRILLER
 DL  .F               498:   DEPTH LOGGER
 BLI .F               492:   BOTTOM LOG INTERVAL
 TLI .F                10:   TOP LOG INTERVAL
 BS  .IN            9.875:   BIT SIZE
 BSD .F               500:   BIT SIZE AT DEPTH
 DFT .                KCL:   DRILLING FLUID TYPE
 DFD .                9.6:   DRILLING FLUID DENSITY
 DFV .                 45:   DRILLING FLUID VISCOSITY
 DFL .                8.9:   DRILLING FLUID LOSS
 MSS .               PITS:   MUD SAMPLE SOURCE
 RMS .OHMM            .21:   RESISTIVITY MUD SAMPLE
 MST .F                76:   MUD SAMPLE TEMPERATURE
 RMF .OHMM            .19:   RESISTIVITY MUD FILTRATE SAMPLE
 MFST.F                76:   MUD FILTRATE SAMPLE TEMPERATURE
 MFSS.               MEAS:   MUD FILTRATE SAMPLE SOURCE
 TLAB.HRS            0845:   TIME LOGGER AT BOTTOM
 LUN .               8035:   LOGGING UNIT NUMBER
 LUL .               CSPR:   LOGGING UNIT LOCATION
 ENGI.           C. DRAKE:   RECORDING ENGINEER
 WITN.              AMEND:   WITNESSED BY
 CLNT.            A2DTECH:   CLIENT CODE
 ORIG.           5" PRINT:   ORIGIN OF DATA
 UWI .       490251080300:   UNIQUE WELL ID
 DICO. A2D Technologies, Inc.:   DIGITIZING COMPANY
~OTHER INFORMATION
~A    DEPT     SPR        SFL        ILD        ILM         GRD       CALD      DPHI       RHOB       CORR        NPHI  
# ...
  475.0000   -62.1340     9.4902     8.7778     7.5343   122.2765     9.8483     0.1043     2.4997     0.0068     0.3046
  475.5000   -61.9740     9.3693     8.5598     7.3843   119.7858     9.8480     0.1091     2.4922     0.0026     0.3106
  476.0000   -61.6893     8.9674     8.3472     7.2372   118.6561     9.8477     0.1141     2.4837     0.0011     0.3228
  476.5000   -61.3000     8.5827     8.1399     7.0930   120.9477     9.8475     0.1136     2.4859     0.0057     0.3379
  477.0000   -60.9155     8.2145     7.9548     6.9890   123.4939     9.8472     0.1104     2.4927     0.0041     0.3379
  477.5000   -60.8973     8.1028     7.9548     7.1553  -999.2500     9.8470     0.1079     2.4955    -0.0013     0.3307
  478.0000   -60.9004     8.6195     8.2445     7.3426  -999.2500     9.8467     0.1096     2.4913    -0.0025     0.3150
  478.5000   -60.9005     9.1283     8.5811     7.5364  -999.2500     9.8465     0.1103     2.4898    -0.0016     0.2976
  479.0000   -60.8301     9.6629     8.9315     7.7358  -999.2500     9.8462     0.1065     2.4982     0.0020     0.2888
  479.5000   -60.3906    10.2362     9.2963     7.9533  -999.2500     9.8460     0.0986     2.5071     0.0057     0.2866
  480.0000   -59.9550    10.5667     9.6759     8.1160  -999.2500     9.8457     0.0982     2.5115     0.0030     0.2906
  480.5000   -59.5203    10.8179    10.0561     8.2946  -999.2500     9.8455     0.1044     2.5008    -0.0020     0.2937
  481.0000   -59.0858    11.0718    10.3521     8.4771  -999.2500     9.8452     0.1066     2.4975    -0.0052     0.2968
  481.5000   -58.6512    11.3314    10.6586     8.6637  -999.2500     9.8450     0.1048     2.5011    -0.0054     0.2989
  482.0000   -58.2158    11.5975    10.9872     8.8547  -999.2500     9.8447     0.1011     2.5067    -0.0037     0.3014
  482.5000   -57.7755    11.7344    10.9829     9.0483  -999.2500     9.8445     0.0978     2.5123    -0.0018     0.2990
  483.0000   -57.6643    11.7840    10.9842     9.1547  -999.2500     9.8442     0.0955     2.5148     0.0001     0.2974
  483.5000   -57.6201    11.8339    10.9842     9.1902  -999.2500     9.8439     0.0938     2.5175     0.0005     0.2954
  484.0000   -57.5780    11.8839    10.9842     9.2192  -999.2500     9.8461     0.0938     2.5184    -0.0010     0.2982
  484.5000   -57.5334    11.9342    10.9843     9.1576  -999.2500     9.8492     0.0966     2.5153    -0.0024     0.3033
  485.0000   -57.4270    11.8257    10.9841     9.1059  -999.2500     9.8523     0.1021     2.5085    -0.0050     0.3083
  485.5000   -57.0635    11.7158    10.9876     9.0545  -999.2500     9.8554     0.1078     2.4952    -0.0089     0.3134
  486.0000   -56.7079    11.6071    10.8864     9.0034  -999.2500     9.8585     0.1138     2.4882    -0.0115     0.3292
  486.5000   -56.3555    11.5026    10.7280     8.9525  -999.2500     9.8615     0.1099     2.4919    -0.0082     0.3351
  487.0000   -56.1308    11.5020    10.5719     8.9020  -999.2500     9.8615     0.1034     2.5011    -0.0023     0.3354
  487.5000   -55.9425    11.5023    10.4106     8.8517  -999.2500     9.8537     0.0948     2.5153     0.0037     0.3361
  488.0000   -55.3525    11.5024    10.1940     8.8039  -999.2500     9.8465     0.0904     2.5238     0.0097     0.3363
  488.5000   -54.7055    11.5024    10.2108     8.8895  -999.2500     9.8215     0.0914     2.5240     0.0105     0.3365
  489.0000   -54.5404    11.5024    10.0168     8.9724  -999.2500     9.7882     0.0968     2.5161     0.0093     0.3367
  489.5000   -54.5927    11.5024    10.0168     9.0561  -999.2500     9.7547     0.1025     2.5023     0.0050     0.3368
  490.0000   -54.6511    11.5024    10.0168     9.1406  -999.2500     9.7210     0.1078     2.4904    -0.0014     0.3370
  490.5000   -54.6850    11.1357    10.0168     9.3046  -999.2500     9.6871     0.1106     2.4926    -0.0063     0.3371
  491.0000   -54.3908    10.7297    10.0168     8.9932  -999.2500     9.6855     0.1102     2.4926    -0.0045     0.3373
  491.5000   -54.1024    10.3385    10.0168     8.5546  -999.2500     9.6858     0.1099     2.4910    -0.0007     0.3375
  492.0000   -53.8960    10.2074    10.0168     8.1779  -999.2500     9.6858     0.1102     2.4897     0.0031     0.3376
  492.5000  -999.2500  -999.2500  -999.2500  -999.2500  -999.2500     9.6583     0.1098     2.4934     0.0068     0.3378
  493.0000  -999.2500  -999.2500  -999.2500  -999.2500  -999.2500     9.6265     0.1098     2.4923     0.0075     0.3388
  493.5000  -999.2500  -999.2500  -999.2500  -999.2500  -999.2500     9.5947     0.1100     2.4915     0.0075     0.3399
  494.0000  -999.2500  -999.2500  -999.2500  -999.2500  -999.2500     9.5410     0.1102     2.4908     0.0088     0.3399
  494.5000  -999.2500  -999.2500  -999.2500  -999.2500  -999.2500     9.4518     0.1094     2.4898     0.0142     0.3415
  495.0000  -999.2500  -999.2500  -999.2500  -999.2500  -999.2500  -999.2500  -999.2500  -999.2500     0.0200  -999.2500
