~VERSION INFORMATION
 VERS.                2.0:   CWLS LOG ASCII STANDARD - VERSION 2.0
 WRAP.                 NO:   ONE LINE PER DEPTH STEP
~WELL INFORMATION
#MNEM.UNIT      DATA TYPE    INFORMATION
#----------   ------------   ------------------------------
 STRT.F           29.0000:   START DEPTH
 STOP.F          435.0000:   STOP DEPTH
 STEP.F            0.5000:   STEP LENGTH
 NULL.          -999.2500:   NO VALUE
 COMP. FENIX & SCISSON INC:   COMPANY
 WELL.    525 X 10 #52-10:   WELL
 FLD .             TEAPOT:   FIELD
 LOC .      S10 T38N R78W:   LOCATION
 CNTY.            NATRONA:   COUNTY
 STAT.            WYOMING:   STATE
 CTRY. UNITED STATES OF AMERICA:   COUNTRY
 SRVC.       Schlumberger:   SERVICE COMPANY
 DATE.        18-NOV-1978:   LOGDATE
 API .       490251077700:   API NUMBER
~CURVE INFORMATION
#MNEM.UNIT       API CODE    CURVE DESCRIPTION
#----------   ------------   ------------------------------
 DEPT.F                  :   
 NEUT.NAPI   35 330 01 00:   NEUTRON
 SPR .MV     07 010 01 00:   SPONTANEOUS POTENTIAL
 SFL .OHMM   07 220 01 00:   SHALLOW FOCUSED LOG RESISTIVITY
 ILD .OHMM   07 120 46 00:   INDUCTION LOG DEEP RESISTIVITY
 ILM .OHMM   07 120 44 00:   INDUCTION LOG MEDIUM
 CORR.G/C3   45 356 01 00:   DENSITY CORRECTION
 RHOB.G/C3   45 350 01 00:   BULK DENSITY
 DPHI.DEC    45 890 12 00:   DENSITY POROSITY SANDSTONE
 CALD.IN     45 280 60 00:   CALIPER
 GRD .GAPI   45 310 01 00:   GAMMA RAY FROM DENSITY LOG
~PARAMETER INFORMATION
#MNEM.UNIT          VALUE    DESCRIPTION
#----------   ------------   ------------------------------
 PD  .                 GL:   PERMANENT DATUM
 EPD .F              5176:   ELEVATION PERMANENT DATUM
 LMF .                 KB:   LOG MEASURED FROM
 DAPD.F                 4:   FEET ABOVE PERMANENT DATUM
 DMF .                 KB:   DRILLING MEASURED FROM
 EKB .F              5180:   KELLING BUSHING
 EGL .F              5176:   GROUND LEVEL
 DATE.           11-18-78:   RUN DATE
 RUN .                  1:   RUN NUMBER
 DD  .F               433:   DEPTH DRILLER
 DL  .F               435:   DEPTH LOGGER
 BLI .F               429:   BOTTOM LOG INTERVAL
 TLI .F                48:   TOP LOG INTERVAL
 CS  .IN            8.625:   CASING SIZE
 CBD .F                40:   CASING BOTTOM DRILLER
 CBL .F                48:   CASING BOTTOM LOGGER
 BS  .IN            7.875:   BIT SIZE
 BSD .F               433:   BIT SIZE AT DEPTH
 DFT .            KCL MUD:   DRILLING FLUID TYPE
 DFD .                8.5:   DRILLING FLUID DENSITY
 DFV .                 30:   DRILLING FLUID VISCOSITY
 DFPH.                9.6:   DRILLING FLUID PH
 DFL .                 16:   DRILLING FLUID LOSS
 MSS .             MUDPIT:   MUD SAMPLE SOURCE
 RMS .OHMM            .45:   RESISTIVITY MUD SAMPLE
 MST .F                50:   MUD SAMPLE TEMPERATURE
 RMF .OHMM            .37:   RESISTIVITY MUD FILTRATE SAMPLE
 MFST.F                50:   MUD FILTRATE SAMPLE TEMPERATURE
 RMC .OHMM            .43:   RESISTIVITY MUD CAKE
 MCST.F                50:   MUD CAKE SAMPLE TEMPERATURE
 MFSS.                  M:   MUD FILTRATE SAMPLE SOURCE
 MCSS.                  C:   MUD CAKE SAMPLE SOURCE
 RMB .OHMM            .42:   RESISTIVITY MUD AT BHT
 BHT .F                63:   BOTTOM HOLE TEMPERATURE
 TCS .HRS            2400:   TIME CURCULATED STOPPED
 TLAB.HRS            1300:   TIME LOGGER AT BOTTOM
 MRT .F                63:   MAXIMUM RECORDED TEMPERATURE
 LUN .               7663:   LOGGING UNIT NUMBER
 LUL .                GLT:   LOGGING UNIT LOCATION
 ENGI.        SATTERFIELD:   RECORDING ENGINEER
 WITN.              AMEND:   WITNESSED BY
 CLNT.            A2DTECH:   CLIENT CODE
 ORIG.     1", 2.5" PRINT:   ORIGIN OF DATA
 UWI .       490251077700:   UNIQUE WELL ID
 DICO. A2D Technologies, Inc.:   DIGITIZING COMPANY
~OTHER INFORMATION
~A   DEPT     NEUT        SPR        SFL        ILD        ILM       CORR       RHOB       DPHI       CALD         GRD  
# ...
  230.0000   284.0993   -31.7733     8.4962     6.7741     7.1868    -0.0115     2.4760     0.1232     8.3373   125.3912
  230.5000   284.1378   -31.5739     8.8939     7.1299     7.5232    -0.0090     2.4716     0.1247     8.3374   123.9352
  231.0000   284.1762   -31.3745     9.3102     7.5040     7.8754    -0.0057     2.4815     0.1196     8.3374   122.4118
  231.5000   284.2146   -31.1764     9.7460     7.8976     8.2440    -0.0024     2.4911     0.1142     8.3374   121.9280
  232.0000   284.2531   -30.9745     9.8563     8.3228     8.4804     0.0004     2.4912     0.1164     8.3374   121.8207
  232.5000   284.2911   -30.7795     9.8974     8.4483     8.6075    -0.0003     2.4834     0.1189     8.3374   121.6981
  233.0000   284.3293   -30.5758     9.9387     8.5792     8.7397    -0.0027     2.4780     0.1213     8.3374   121.5661
  233.5000   284.3564   -30.4854     9.9801     8.7122     8.8740    -0.0037     2.4806     0.1239     8.3374   121.4479
  234.0000   285.0338   -30.3941    10.0217     8.8017     8.9711    -0.0022     2.4875     0.1181     8.3374   121.3159
  234.5000   285.9572   -30.3089    10.0634     8.8017     8.9650     0.0013     2.4954     0.1113     8.3374   121.2869
  235.0000   286.8859   -30.2199    10.1054     8.8017     8.9658     0.0047     2.5037     0.1045     8.3374   121.6754
  235.5000   287.8138   -30.1322    10.1475     8.8017     8.9678     0.0095     2.5103     0.1022     8.3374   121.9046
  236.0000   288.7416   -30.0446    10.1898     8.8017     8.9674     0.0143     2.5152     0.0998     8.3374   122.0499
  236.5000   289.6638   -29.9564    10.2822     8.8017     8.9671     0.0200     2.5202     0.0947     8.3374   122.4803
  237.0000   290.5619   -29.8688    10.4402     8.8017     8.9670     0.0211     2.5177     0.0979     8.3374   125.1014
  237.5000   291.5165   -29.7806    10.6006     8.8017     8.9671     0.0151     2.5054     0.1075     8.3374   125.8762
  238.0000   296.0865   -29.6920    10.7635     8.8009     8.9669     0.0092     2.4884     0.1182     8.3374   127.0588
  238.5000   300.5258   -29.6069    10.7996     8.8019     8.9669     0.0120     2.4955     0.1117     8.3374   128.3046
  239.0000   304.4083   -29.5131    10.4856     8.8037     8.9669     0.0157     2.5069     0.1042     8.3374   127.6066
  239.5000   274.7024   -29.4310    10.1706     8.8003     9.0861     0.0198     2.5212     0.0968     8.3375   125.7738
  240.0000   273.7997   -29.3717     9.8651     8.9082     9.2464     0.0216     2.5098     0.0947     8.3359   124.0917
  240.5000   273.4839   -29.6066     9.6594     9.0224     9.4603     0.0125     2.4879     0.0956     8.3293   122.4284
  241.0000   273.6298   -29.8167    10.1424     9.1347     9.6792     0.0089     2.4968     0.1085     8.3228   120.7372
  241.5000   273.7304   -30.0458    10.7058     9.2458     9.9197     0.0104     2.5019     0.1067     8.3161   119.0293
  242.0000   273.8325   -30.2947    11.3006     9.3087    10.0448     0.0114     2.5087     0.1015     8.3094   117.3957
  242.5000   273.9342   -30.5741    11.9283     8.7963     9.4159     0.0126     2.5058     0.0980     8.3029   115.6377
  243.0000   274.0359   -30.8737    12.3011     8.3364     8.5236     0.0109     2.4870     0.1094     8.2970   115.5831
  243.5000   274.1376   -30.9305    12.0726     7.7511     7.8782     0.0070     2.4612     0.1221     8.2968   117.1989
  244.0000   274.2393   -30.8219    11.8519     7.1223     7.2601     0.0016     2.4536     0.1348     8.2967   120.7167
  244.5000   274.3410   -30.7372     9.6954     6.6433     6.5604     0.0129     2.4454     0.1498     8.2968   124.2281
  245.0000   274.4427   -30.6433     6.7842     5.8861     5.9287     0.0246     2.4298     0.1539     8.2967   125.9918
  245.5000   274.5445   -30.5506     7.2906     5.0382     5.2291     0.0240     2.4100     0.1618     8.2967   120.7263
  246.0000   274.6461   -30.3093     8.3044     5.4651     5.6650     0.0125     2.3983     0.1692     8.2968   115.4341
  246.5000   274.7479   -30.0954     9.4592     6.7842     7.2029     0.0044     2.4632     0.1546     8.2967   112.0373
  247.0000   274.8496   -29.8693    10.7746     7.3231     8.3241     0.0068     2.5140     0.1279     8.2968   111.3855
  247.5000   274.9513   -29.6504    12.2729     7.8432     8.8510     0.0139     2.5227     0.1013     8.2968   111.4557
  248.0000   275.0530   -29.4272    13.4997     8.7084     9.4797     0.0187     2.5222     0.0930     8.2968   111.4251
  248.5000   275.1547   -29.2091    13.5466     9.8383    10.1530     0.0187     2.5207     0.0952     8.2968   111.4003
  249.0000   275.2532   -28.9585    13.6503    10.8385    11.0023     0.0180     2.5164     0.0975     8.2968   111.8087
  249.5000   275.4326   -28.6208    13.7595    11.0052    11.2088     0.0152     2.5124     0.0988     8.2968   112.5543
  250.0000   275.1707   -28.2160    13.5390    11.2088    11.4071     0.0125     2.5154     0.0988     8.2968   113.2060
  250.5000   275.7423   -27.8132    13.1841    11.2088    11.6056     0.0098     2.5178     0.0988     8.2968   113.7673
  251.0000   222.1749   -27.4121    12.7551    11.2699    11.8075     0.0069     2.5196     0.0961     8.2967   113.2086
  251.5000   362.0274   -26.7880    12.7692    11.3743    12.0744     0.0037     2.5198     0.0931     8.2968   110.0732
  252.0000   270.7610   -26.0903    12.7514    12.1136    12.5319     0.0005     2.5116     0.1004     8.2968   106.0072
  252.5000   271.2538   -25.3935    13.2380    13.4290    13.4776    -0.0031     2.4913     0.1150     8.2966    98.3873
  253.0000   271.8672   -24.6995    13.8651    14.8873    14.8200    -0.0069     2.4705     0.1278     8.2971    89.1300
  253.5000   272.4406   -24.0026    16.6566    16.5039    16.2962    -0.0114     2.4468     0.1407     8.2928    79.3967
  254.0000   272.2438   -23.3110    20.3237    18.2961    17.9193    -0.0100     2.4229     0.1553     8.2856    73.1167
  254.5000   271.9514   -22.6082    32.9601    20.2829    19.7042    -0.0055     2.3998     0.1718     8.2790    71.6595
  255.0000   271.6590   -21.9211    35.5035    22.4854    21.6669    -0.0029     2.3761     0.1883     8.2724    72.0056
  255.5000   271.3679   -21.2295    34.0152    23.9284    24.0265     0.0024     2.3516     0.2048     8.2658    72.3202
  256.0000   271.0758   -20.4737    31.2230    25.0578    25.7248     0.0089     2.3314     0.2213     8.2589    73.0281
  256.5000   270.7813   -19.9708    28.4039    26.2405    27.7268     0.0031     2.2926     0.2378     8.2556    72.0186
  257.0000   270.5290   -19.9386    28.4039    27.4791    29.8846     0.0025     2.2808     0.2413     8.2523    69.6834
  257.5000   271.2587   -19.8384    34.2273    28.7761    31.1717     0.0091     2.2843     0.2413     8.2490    64.4233
  258.0000   272.0838   -19.7488    40.6226    29.8418    31.4254     0.0128     2.2688     0.2501     8.2456    61.0301
  258.5000   272.6759   -19.6673    49.6214    30.6163    31.7166     0.0066     2.2522     0.2567     8.2424    60.1253
  259.0000   274.2962   -19.5767    48.5805    31.4109    32.0105     0.0008     2.2560     0.2547     8.2390    63.2005
  259.5000   275.4999   -19.4899    45.5955    32.3529    32.3529    -0.0059     2.2645     0.2484     8.2357    67.2457
  260.0000   277.0846   -19.4042    40.6301    31.9344    32.3529    -0.0057     2.2792     0.2422     8.2324    68.5481
  260.5000   278.9089   -19.3174    35.5054    31.4473    31.7933    -0.0023     2.2816     0.2389     8.2291    69.7878
  261.0000   279.4157   -19.2199    34.8512    30.9675    31.2606     0.0010     2.2764     0.2405     8.2256    70.9549
  261.5000   279.3982   -19.0455    35.1245    30.5973    30.7437     0.0045     2.2835     0.2370     8.2227    72.1964
  262.0000   279.4610   -18.8708    35.5691    30.8158    30.0262     0.0019     2.2953     0.2290     8.2190    73.3434
  262.5000   286.1409   -18.6448    36.0193    31.3533    30.0366    -0.0033     2.3070     0.2210     8.2136    74.5831
  263.0000   290.1600   -18.5752    36.4752    31.9003    30.6679     0.0064     2.3186     0.2146     8.1704    74.1330
