~VERSION INFORMATION
 VERS.                2.0:   CWLS LOG ASCII STANDARD - VERSION 2.0
 WRAP.                 NO:   ONE LINE PER DEPTH STEP
~WELL INFORMATION
#MNEM.UNIT      DATA TYPE    INFORMATION
#----------   ------------   ------------------------------
 STRT.F          714.0000:   START DEPTH
 STOP.F         2268.0000:   STOP DEPTH
 STEP.F            0.5000:   STEP LENGTH
 NULL.          -999.2500:   NO VALUE
 COMP. LAWRENCE/ALLISON INC:   COMPANY
 WELL. 25-1-STX 10 #25-10:   WELL
 FLD .             TEAPOT:   FIELD
 LOC .      S10 T38N R78W:   LOCATION
 CNTY.            NATRONA:   COUNTY
 STAT.            WYOMING:   STATE
 CTRY. UNITED STATES OF AMERICA:   COUNTRY
 SRVC.            Unknown:   SERVICE COMPANY
 DATE.        07-JUN-1991:   LOGDATE
 API .       490251091300:   API NUMBER
~CURVE INFORMATION
#MNEM.UNIT       API CODE    CURVE DESCRIPTION
#----------   ------------   ------------------------------
 DEPT.F                  :   
 TGAS.UNITS  91 830 01 00:   TOTAL GAS FROM HOTWIRE
 ROP .MIN/FT 91 810 01 00:   RATE OF DRILLING PENETRATION
~PARAMETER INFORMATION
#MNEM.UNIT          VALUE    DESCRIPTION
#----------   ------------   ------------------------------
 EKB .F              5243:   KELLING BUSHING
 EGL .F              5233:   GROUND LEVEL
 DATE.             6-8-91:   RUN DATE
 BLI .F              2280:   BOTTOM LOG INTERVAL
 TLI .F              1680:   TOP LOG INTERVAL
 CS  .IN            9.625:   CASING SIZE
 CBD .F               740:   CASING BOTTOM DRILLER
 ENGI.              TOWER:   RECORDING ENGINEER
 WITN.               HUSK:   WITNESSED BY
 CLNT.            A2DTECH:   CLIENT CODE
 ORIG.           5" PRINT:   ORIGIN OF DATA
 UWI .       490251091300:   UNIQUE WELL ID
 DICO. A2D Technologies, Inc.:   DIGITIZING COMPANY
~OTHER INFORMATION
~A   DEPT     TGAS          ROP 
# ...
  957.0000  -999.2500     0.3550
  957.5000  -999.2500     0.3561
  958.0000  -999.2500     0.3195
  958.5000  -999.2500     0.3206
  959.0000  -999.2500     0.3217
  959.5000  -999.2500     0.3228
  960.0000  -999.2500     0.3239
  960.5000  -999.2500     0.3250
  961.0000  -999.2500     0.3262
  961.5000  -999.2500     0.3273
  962.0000  -999.2500     0.3284
  962.5000  -999.2500     0.3296
  963.0000  -999.2500     0.3307
  963.5000  -999.2500     0.3318
  964.0000  -999.2500     0.3330
  964.5000  -999.2500     0.3440
  965.0000  -999.2500     0.3729
  965.5000  -999.2500     0.3740
  966.0000  -999.2500     0.3751
  966.5000  -999.2500     0.3763
  967.0000  -999.2500     0.3774
  967.5000  -999.2500     0.3785
  968.0000  -999.2500     0.3797
  968.5000  -999.2500     0.3808
  969.0000  -999.2500     0.3819
  969.5000  -999.2500     0.3831
  970.0000  -999.2500     0.3842
  970.5000  -999.2500     0.3853
  971.0000  -999.2500     0.3864
  971.5000  -999.2500     0.3876
  972.0000  -999.2500     0.3887
  972.5000  -999.2500     0.3898
  973.0000  -999.2500     0.3910
  973.5000  -999.2500     0.3921
  974.0000  -999.2500     0.3558
  974.5000  -999.2500     0.3569
  975.0000  -999.2500     0.3956
  975.5000  -999.2500     0.3967
  976.0000  -999.2500     0.3978
  976.5000  -999.2500     0.3612
  977.0000  -999.2500     0.3623
  977.5000  -999.2500     0.3635
  978.0000  -999.2500     0.3646
  978.5000  -999.2500     0.3657
  979.0000  -999.2500     0.3669
  979.5000  -999.2500     0.3680
  980.0000  -999.2500     0.3691
  980.5000  -999.2500     0.3702
  981.0000  -999.2500     0.3714
  981.5000  -999.2500     0.3725
  982.0000  -999.2500     0.3843
  982.5000  -999.2500     0.4124
  983.0000  -999.2500     0.4136
  983.5000  -999.2500     0.4147
  984.0000  -999.2500     0.4158
  984.5000  -999.2500     0.4169
  985.0000  -999.2500     0.4181
  985.5000  -999.2500     0.4192
  986.0000  -999.2500     0.4009
  986.5000  -999.2500     0.3838
  987.0000  -999.2500     0.3633
  987.5000  -999.2500     0.3484
  988.0000  -999.2500     0.3734
  988.5000  -999.2500     0.3883
  989.0000  -999.2500     0.4155
  989.5000  -999.2500     0.4282
  990.0000  -999.2500     0.4294
  990.5000  -999.2500     0.4305
  991.0000  -999.2500     0.4695
  991.5000  -999.2500     0.4329
  992.0000  -999.2500     0.4340
  992.5000  -999.2500     0.4351
  993.0000  -999.2500     0.4739
  993.5000  -999.2500     0.4373
  994.0000  -999.2500     0.4384
  994.5000  -999.2500     0.4395
  995.0000  -999.2500     0.4407
  995.5000  -999.2500     0.4418
  996.0000  -999.2500     0.4429
  996.5000  -999.2500     0.4489
  997.0000  -999.2500     0.4829
  997.5000  -999.2500     0.4769
  998.0000  -999.2500     0.4475
  998.5000  -999.2500     0.4486
  999.0000  -999.2500     0.4497
  999.5000  -999.2500     0.4508
 1000.0000  -999.2500     0.4145
 1000.5000  -999.2500     0.3786
 1001.0000  -999.2500     0.3805
 1001.5000  -999.2500     0.3823
 1002.0000  -999.2500     0.3842
 1002.5000  -999.2500     0.3861
 1003.0000  -999.2500     0.3879
 1003.5000  -999.2500     0.3946
 1004.0000  -999.2500     0.4294
 1004.5000  -999.2500     0.4313
 1005.0000  -999.2500     0.4331
 1005.5000  -999.2500     0.4350
 1006.0000  -999.2500     0.4369
 1006.5000  -999.2500     0.4388
 1007.0000  -999.2500     0.4407
 1007.5000  -999.2500     0.4426
 1008.0000  -999.2500     0.4295
 1008.5000  -999.2500     0.4087
 1009.0000  -999.2500     0.4105
 1009.5000  -999.2500     0.4124
 1010.0000  -999.2500     0.4143
 1010.5000  -999.2500     0.4162
 1011.0000  -999.2500     0.4181
 1011.5000  -999.2500     0.3971
 1012.0000  -999.2500     0.3842
 1012.5000  -999.2500     0.3861
 1013.0000  -999.2500     0.3879
 1013.5000  -999.2500     0.3898
 1014.0000  -999.2500     0.3632
 1014.5000  -999.2500     0.3559
 1015.0000  -999.2500     0.3582
 1015.5000  -999.2500     0.3976
 1016.0000  -999.2500     0.3995
 1016.5000  -999.2500     0.4013
 1017.0000  -999.2500     0.4408
 1017.5000  -999.2500     0.4426
 1018.0000  -999.2500     0.4068
 1018.5000  -999.2500     0.4086
 1019.0000  -999.2500     0.3728
 1019.5000  -999.2500     0.3746
 1020.0000  -999.2500     0.3388
 1020.5000  -999.2500     0.3409
 1021.0000  -999.2500     0.3427
 1021.5000  -999.2500     0.3446
 1022.0000  -999.2500     0.3465
 1022.5000  -999.2500     0.3484
 1023.0000  -999.2500     0.3503
 1023.5000  -999.2500     0.3522
 1024.0000  -999.2500     0.3540
 1024.5000  -999.2500     0.3559
 1025.0000  -999.2500     0.3578
 1025.5000  -999.2500     0.3597
 1026.0000  -999.2500     0.3616
 1026.5000  -999.2500     0.3635
 1027.0000  -999.2500     0.3653
 1027.5000  -999.2500     0.3886
 1028.0000  -999.2500     0.4068
 1028.5000  -999.2500     0.4323
 1029.0000  -999.2500     0.4482
 1029.5000  -999.2500     0.4501
 1030.0000  -999.2500     0.4520
 1030.5000  -999.2500     0.4539
 1031.0000  -999.2500     0.4265
 1031.5000  -999.2500     0.4580
 1032.0000  -999.2500     0.4598
 1032.5000  -999.2500     0.4616
 1033.0000  -999.2500     0.4635
 1033.5000  -999.2500     0.4653
 1034.0000  -999.2500     0.4671
 1034.5000  -999.2500     0.4690
 1035.0000  -999.2500     0.4331
 1035.5000  -999.2500     0.4368
 1036.0000  -999.2500     0.4744
 1036.5000  -999.2500     0.4386
 1037.0000  -999.2500     0.4355
 1037.5000  -999.2500     0.4046
 1038.0000  -999.2500     0.4068
 1038.5000  -999.2500     0.4087
 1039.0000  -999.2500     0.4105
 1039.5000  -999.2500     0.4124
 1040.0000  -999.2500     0.4143
 1040.5000  -999.2500     0.4162
 1041.0000  -999.2500     0.4181
 1041.5000  -999.2500     0.4200
 1042.0000  -999.2500     0.4218
 1042.5000  -999.2500     0.4237
 1043.0000  -999.2500     0.4256
 1043.5000  -999.2500     0.4275
 1044.0000  -999.2500     0.4294
 1044.5000  -999.2500     0.4313
 1045.0000  -999.2500     0.4331
 1045.5000  -999.2500     0.4350
 1046.0000  -999.2500     0.4114
 1046.5000  -999.2500     0.4011
 1047.0000  -999.2500     0.4030
 1047.5000  -999.2500     0.4049
 1048.0000  -999.2500     0.4072
 1048.5000  -999.2500     0.4466
 1049.0000  -999.2500     0.4485
 1049.5000  -999.2500     0.4503
 1050.0000  -999.2500     0.4257
 1050.5000  -999.2500     0.4151
 1051.0000  -999.2500     0.4158
 1051.5000  -999.2500     0.4166
 1052.0000  -999.2500     0.4173
 1052.5000  -999.2500     0.4181
 1053.0000  -999.2500     0.4188
 1053.5000  -999.2500     0.4197
 1054.0000  -999.2500     0.4205
 1054.5000  -999.2500     0.4212
 1055.0000  -999.2500     0.4219
 1055.5000  -999.2500     0.4226
 1056.0000  -999.2500     0.4234
 1056.5000  -999.2500     0.4241
 1057.0000  -999.2500     0.4249
 1057.5000  -999.2500     0.4256
 1058.0000  -999.2500     0.4264
 1058.5000  -999.2500     0.4271
 1059.0000  -999.2500     0.4279
 1059.5000  -999.2500     0.4286
 1060.0000  -999.2500     0.4294
 1060.5000  -999.2500     0.4301
 1061.0000  -999.2500     0.4309
 1061.5000  -999.2500     0.4316
 1062.0000  -999.2500     0.4324
 1062.5000  -999.2500     0.4331
 1063.0000  -999.2500     0.4339
 1063.5000  -999.2500     0.4347
 1064.0000  -999.2500     0.4354
 1064.5000  -999.2500     0.4362
 1065.0000  -999.2500     0.4369
 1065.5000  -999.2500     0.4377
 1066.0000  -999.2500     0.4384
 1066.5000  -999.2500     0.4392
 1067.0000  -999.2500     0.4399
 1067.5000  -999.2500     0.4407
 1068.0000  -999.2500     0.4414
 1068.5000  -999.2500     0.4421
 1069.0000  -999.2500     0.4394
 1069.5000  -999.2500     0.4369
 1070.0000  -999.2500     0.4345
 1070.5000  -999.2500     0.4320
 1071.0000  -999.2500     0.4296
 1071.5000  -999.2500     0.4272
 1072.0000  -999.2500     0.4247
 1072.5000  -999.2500     0.4223
 1073.0000  -999.2500     0.4198
 1073.5000  -999.2500     0.4174
 1074.0000  -999.2500     0.4149
 1074.5000  -999.2500     0.4148
 1075.0000  -999.2500     0.4193
 1075.5000  -999.2500     0.4238
 1076.0000  -999.2500     0.4283
 1076.5000  -999.2500     0.4327
 1077.0000  -999.2500     0.4372
 1077.5000  -999.2500     0.4417
 1078.0000  -999.2500     0.4462
