~VERSION INFORMATION
 VERS.                2.0:   CWLS LOG ASCII STANDARD - VERSION 2.0
 WRAP.                 NO:   ONE LINE PER DEPTH STEP
~WELL INFORMATION
#MNEM.UNIT      DATA TYPE    INFORMATION
#----------   ------------   ------------------------------
 STRT.F          717.0000:   START DEPTH
 STOP.F         2448.0000:   STOP DEPTH
 STEP.F            0.5000:   STEP LENGTH
 NULL.          -999.2500:   NO VALUE
 COMP.   FLUOR DANIEL INC:   COMPANY
 WELL. NAVAL PETROLEUM RESERVE 3X27 #34-27:   WELL
 FLD .             TEAPOT:   FIELD
 LOC .      S27 T39N R78W:   LOCATION
 CNTY.            NATRONA:   COUNTY
 STAT.            WYOMING:   STATE
 CTRY. UNITED STATES OF AMERICA:   COUNTRY
 SRVC.            Unknown:   SERVICE COMPANY
 DATE.        17-MAY-1996:   LOGDATE
 API .       490252279300:   API NUMBER
~CURVE INFORMATION
#MNEM.UNIT       API CODE    CURVE DESCRIPTION
#----------   ------------   ------------------------------
 DEPT.F                  :   
 TGAS.TC/CC  91 830 01 00:   TOTAL GAS UNIT
 ROP .FT/HR  91 810 01 00:   RAT OF DRILLING PENETRATION
~PARAMETER INFORMATION
#MNEM.UNIT          VALUE    DESCRIPTION
#----------   ------------   ------------------------------
 EPD .F              5039:   ELEVATION PERMANENT DATUM
 EKB .F              5049:   KELLING BUSHING
 EGL .F              5039:   GROUND LEVEL
 DATE.        17-MAY-1996:   RUN DATE
 RUN .                  1:   RUN NUMBER
 ENGI.     R.HUSK/C.TOWER:   RECORDING ENGINEER
 CLNT.            A2DTECH:   CLIENT CODE
 ORIG.           5" PRINT:   ORIGIN OF DATA
 UWI .       490252279300:   UNIQUE WELL ID
 DICO. A2D Technologies, Inc.:   DIGITIZING COMPANY
~OTHER INFORMATION
~A   DEPT       TGAS        ROP 
# ...
 1689.0000     1.6571     2.0312
 1689.5000     1.6498     2.0222
 1690.0000     1.6425     0.6128
 1690.5000     1.6353     0.5472
 1691.0000     1.4413     0.5383
 1691.5000     1.4340     0.5482
 1692.0000     1.4266     0.5486
 1692.5000     1.4191     0.5489
 1693.0000     1.4103     0.5493
 1693.5000     1.4030     0.5497
 1694.0000     1.3957     0.5500
 1694.5000     1.3884     0.5504
 1695.0000     1.3811     0.5508
 1695.5000     1.3738     0.5511
 1696.0000     1.3666     0.5515
 1696.5000     1.3593     0.6741
 1697.0000     1.3519     0.6744
 1697.5000     1.3444     0.6843
 1698.0000     1.1489     0.6940
 1698.5000     1.3301     1.0234
 1699.0000     1.3210     1.0237
 1699.5000     1.5023     1.0241
 1700.0000     1.4932     1.0150
 1700.5000     1.4859     1.0154
 1701.0000     1.4786     1.0158
 1701.5000     1.4713     1.0162
 1702.0000     1.2772     1.0165
 1702.5000     1.2697     1.3092
 1703.0000     1.2609     1.3275
 1703.5000     1.2536     1.3184
 1704.0000     1.2463     1.3094
 1704.5000     1.4276     1.0090
 1705.0000     1.2318     1.0094
 1705.5000     1.2245     1.0098
 1706.0000     1.0754     0.6812
 1706.5000     1.0718     0.6816
 1707.0000     1.0680     0.6820
 1707.5000     0.8776     0.6823
 1708.0000     0.8732     0.6827
 1708.5000     0.8695     0.6831
 1709.0000     0.8658     0.6835
 1709.5000     0.8622     0.6826
 1710.0000     1.0461     0.6807
 1710.5000     1.0416     0.6788
 1711.0000     0.8512     0.6770
 1711.5000     0.6608     0.6751
 1712.0000     0.6571     0.6733
 1712.5000     0.4667     0.6714
 1713.0000     0.4631     0.6697
 1713.5000     0.4593     0.6698
 1714.0000     0.4556     0.6699
 1714.5000     0.4512     0.6700
 1715.0000     0.4475     0.6701
 1715.5000     0.4438     0.6702
 1716.0000     0.4402     0.6703
 1716.5000     0.4365     0.6704
 1717.0000     0.4328     0.6705
 1717.5000     0.4292     0.6706
 1718.0000     0.4255     0.8117
 1718.5000     0.4218     0.8118
 1719.0000     0.4182     0.8119
 1719.5000     0.4145     0.8119
 1720.0000     0.5976     0.8120
 1720.5000     0.9674     1.0095
 1721.0000     0.9628     1.0096
 1721.5000     1.1467     1.0097
 1722.0000     0.9554     0.9746
 1722.5000     0.9518     0.6809
 1723.0000     0.9481     0.6810
 1723.5000     0.9444     0.6811
 1724.0000     0.9408     0.6718
 1724.5000     0.9371     0.6719
 1725.0000     0.9335     0.6720
 1725.5000     0.9298     0.6721
 1726.0000     0.9261     0.6722
 1726.5000     0.9224     0.6723
 1727.0000     0.9187     0.6724
 1727.5000     1.1009     0.6725
 1728.0000     1.0973     0.7290
 1728.5000     1.0936     0.8230
 1729.0000     1.0899     0.8231
 1729.5000     1.0863     0.8232
 1730.0000     1.0826     0.6917
 1730.5000     1.0790     0.5414
 1731.0000     1.0753     0.5415
 1731.5000     1.0716     0.5416
 1732.0000     1.0680     0.5417
 1732.5000     1.2510     1.7918
 1733.0000     1.2473     1.7825
 1733.5000     1.2436     1.7826
 1734.0000     1.2391     1.7827
 1734.5000     1.2354     1.2753
 1735.0000     1.0451     1.2660
 1735.5000     1.0414     1.2661
 1736.0000     1.0377     1.1346
 1736.5000     1.0341     1.1441
 1737.0000     0.8437     1.1442
 1737.5000     0.8400     1.1443
 1738.0000     1.0232     1.0867
 1738.5000     0.8327     0.5241
 1739.0000     1.0158     0.5337
 1739.5000     1.0120     0.5338
 1740.0000     1.0083     0.5338
 1740.5000     1.0038     0.5339
 1741.0000     1.0002     0.5340
 1741.5000     0.9965     0.5341
 1742.0000     0.9928     0.5342
 1742.5000     1.1768     0.5343
 1743.0000     1.1722     0.5344
 1743.5000     1.1686     0.5345
 1744.0000     1.1649     0.5440
 1744.5000     1.1612     0.5441
 1745.0000     1.1576     0.5442
 1745.5000     1.1539     0.5443
 1746.0000     1.1502     0.5444
 1746.5000     0.9598     0.6854
 1747.0000     0.9553     0.6855
 1747.5000     0.9516     0.6856
 1748.0000     0.9480     0.6857
 1748.5000     1.1319     0.5542
 1749.0000     1.1274     0.5543
 1749.5000     1.1237     0.5544
 1750.0000     1.1094     0.5545
 1750.5000     1.0386     0.5546
 1751.0000     0.9679     0.5547
 1751.5000     0.9279     0.5548
 1752.0000     0.9261     0.5549
 1752.5000     0.9242     0.5550
 1753.0000     0.9224     0.5551
 1753.5000     0.7338     0.5552
 1754.0000     0.7320     0.5553
 1754.5000     0.7301     0.5554
 1755.0000     0.7282     0.5555
 1755.5000     0.7260     0.5556
 1756.0000     0.7241     0.5557
 1756.5000     0.7223     0.5557
 1757.0000     0.5337     0.5558
 1757.5000     0.7191     0.5559
 1758.0000     0.7168     0.5560
 1758.5000     0.7149     0.5561
 1759.0000     0.7131     0.5562
 1759.5000     0.7112     0.5563
 1760.0000     0.8966     0.5564
 1760.5000     2.0146     0.5565
 1761.0000     3.3198     0.5566
 1761.5000     4.8117     0.5567
 1762.0000     6.4904     0.5568
 1762.5000     8.1690     0.5475
 1763.0000     9.8477     0.5485
 1763.5000    11.1560     0.5508
 1764.0000    12.2839     0.5530
 1764.5000    12.8514     0.5553
 1765.0000    13.3880     0.5576
 1765.5000    12.8256     0.5598
 1766.0000    11.8901     0.5605
 1766.5000    10.9547     0.5608
 1767.0000    10.3927     0.5609
 1767.5000     9.6439     0.5611
 1768.0000     9.0819     0.9936
 1768.5000     8.5199     1.0032
 1769.0000     8.1446     1.0034
 1769.5000     7.7693     1.0036
 1770.0000     7.3940     1.0038
 1770.5000     6.8320     1.1543
 1771.0000     6.2700     1.1545
 1771.5000     5.8947     1.1641
 1772.0000     5.3327     1.1549
 1772.5000     5.1442     0.6851
 1773.0000     4.7689     0.6948
 1773.5000     4.3936     0.6950
 1774.0000     4.2050     0.5542
 1774.5000     4.0164     0.5167
 1775.0000     3.6411     0.5263
 1775.5000     3.6389     0.5359
 1776.0000     3.2636     0.5361
 1776.5000     3.0750     0.7994
 1777.0000     2.8864     0.7996
 1777.5000     2.8846     0.7998
 1778.0000     2.8827     1.8056
 1778.5000     2.8809     1.7964
 1779.0000     2.8791     1.8060
 1779.5000     2.8772     1.8062
 1780.0000     2.8754     1.9004
 1780.5000     2.6868     2.0134
 1781.0000     2.4982     2.0230
 1781.5000     2.3097     2.0325
 1782.0000     2.1211     2.2959
 1782.5000     1.7458     2.2961
 1783.0000     2.1174     2.2963
 1783.5000     1.9257     2.3058
 1784.0000     1.7402     2.2966
 1784.5000     1.7384     0.6803
 1785.0000     1.7365     0.6805
 1785.5000     1.7343     0.6806
 1786.0000     1.7324     0.6809
 1786.5000     1.7306     0.6810
 1787.0000     1.9159     0.6812
 1787.5000     1.7269     0.6720
 1788.0000     1.7251     0.6722
 1788.5000     1.7232     0.6724
 1789.0000     1.7214     0.6726
 1789.5000     1.7195     0.6728
 1790.0000     1.7177     0.6729
 1790.5000     1.7158     0.6731
 1791.0000     1.7140     0.6733
 1791.5000     1.7122     0.6735
 1792.0000     1.7103     0.6747
 1792.5000     1.7085     1.5591
 1793.0000     1.7066     1.5763
 1793.5000     1.5180     1.5765
 1794.0000     1.7029     1.5579
 1794.5000     1.7010     1.2855
 1795.0000     1.6992     1.2857
 1795.5000     1.8837     1.2859
 1796.0000     2.0685     1.2767
 1796.5000     2.0670     0.6471
 1797.0000     2.0651     0.6474
 1797.5000     2.0633     0.6476
 1798.0000     2.0612     0.6477
 1798.5000     2.0593     1.2964
 1799.0000     2.0575     1.2966
 1799.5000     2.0556     1.2968
 1800.0000     2.0538     1.3064
 1800.5000     2.0519     1.5604
 1801.0000     2.0501     1.5605
 1801.5000     2.0329     1.5513
 1802.0000     1.9543     1.3072
 1802.5000     1.7190     1.2885
 1803.0000     1.5378     1.2887
 1803.5000     0.9850     1.2889
 1804.0000     0.6188     1.5053
 1804.5000     0.2546     1.5336
 1805.0000     0.2619     1.5432
 1805.5000     0.0807     1.5434
 1806.0000     0.0898     1.5342
 1806.5000     0.2839     0.7731
 1807.0000     0.2913     0.7733
 1807.5000     0.4855     0.7735
 1808.0000     0.4929     0.7705
 1808.5000     0.6885     0.7625
 1809.0000     0.6959     0.7552
 1809.5000     0.7032     0.7555
 1810.0000     0.5220     0.6429
