~VERSION INFORMATION
 VERS.                2.0:   CWLS LOG ASCII STANDARD - VERSION 2.0
 WRAP.                 NO:   ONE LINE PER DEPTH STEP
~WELL INFORMATION
#MNEM.UNIT      DATA TYPE    INFORMATION
#----------   ------------   ------------------------------
 STRT.F           31.0000:   START DEPTH
 STOP.F          600.0000:   STOP DEPTH
 STEP.F            0.5000:   STEP LENGTH
 NULL.          -999.2500:   NO VALUE
 COMP. FENIX & SCISSON INC:   COMPANY
 WELL.      NPR 3 #84 S-3:   WELL
 FLD .             TEAPOT:   FIELD
 LOC .       S3 T38N R78W:   LOCATION
 CNTY.            NATRONA:   COUNTY
 STAT.            WYOMING:   STATE
 CTRY. UNITED STATES OF AMERICA:   COUNTRY
 SRVC.              Welex:   SERVICE COMPANY
 DATE.        29-MAR-1977:   LOGDATE
 API .       490251032000:   API NUMBER
~CURVE INFORMATION
#MNEM.UNIT       API CODE    CURVE DESCRIPTION
#----------   ------------   ------------------------------
 DEPT.F                  :   
 CALD.IN     45 280 60 00:   CALIPER FROM DENSITY LOG
 GRD .GAPI   45 310 01 00:   GAMMA RAY FROM DENSITY LOG
 CORR.G/C3   45 356 01 00:   DENSITY CORRECTION
 DPHI.DEC    45 890 12 00:   DENSITY POROSITY SANDSTONE
 RHOB.G/C3   45 350 01 00:   BULK DENSITY
 SPR .MV     07 010 01 00:   SPONTANEOUS POTENTIAL
 ILD .OHMM   07 120 46 00:   INDUCTION LOG DEEP
 ILM .OHMM   07 120 44 00:   INDUCTION LOG MEDIUM
 SGRD.OHMM   07 221 05 00:   SHALLOW SHORT GUARD RESISTIVITY
~PARAMETER INFORMATION
#MNEM.UNIT          VALUE    DESCRIPTION
#----------   ------------   ------------------------------
 PD  .                 GL:   PERMANENT DATUM
 EPD .F              5146:   ELEVATION PERMANENT DATUM
 LMF .                 GL:   LOG MEASURED FROM
 DMF .                 GL:   DRILLING MEASURED FROM
 EGL .F              5146:   GROUND LEVEL
 DATE.        29-MAR-1977:   RUN DATE
 RUN .                  1:   RUN NUMBER
 DD  .F               610:   DEPTH DRILLER
 DL  .F               602:   DEPTH LOGGER
 BLI .F               600:   BOTTOM LOG INTERVAL
 TLI .F                30:   TOP LOG INTERVAL
 CS  .IN            8.625:   CASING SIZE
 BSD .F               610:   BIT SIZE AT DEPTH
 DFT .                KCL:   DRILLING FLUID TYPE
 DFD .                8.8:   DRILLING FLUID DENSITY
 BHT .F                63:   BOTTOM HOLE TEMPERATURE
 TCS .HRS            0500:   TIME CURCULATED STOPPED
 MRT .F                63:   MAXIMUM RECORDED TEMPERATURE
 ENGI.            C. DOAK:   RECORDING ENGINEER
 WITN.            R. LYON:   WITNESSED BY
 CLNT.            A2DTECH:   CLIENT CODE
 ORIG.           5" PRINT:   ORIGIN OF DATA
 UWI .       490251032000:   UNIQUE WELL ID
 DICO. A2D Technologies, Inc.:   DIGITIZING COMPANY
~OTHER INFORMATION
~A   DEPT     CALD        GRD       CORR       DPHI       RHOB        SPR        ILD        ILM       SGRD   
# ...
  359.5000     7.8941   124.0844     0.0016     0.0945     2.4906   -34.6918     5.0729     5.7091     6.6463
  360.0000     7.8788   123.6802    -0.0013     0.0969     2.4831   -36.1658     5.1098     6.2496    11.1016
  360.5000     7.9272   123.1063    -0.0042     0.0963     2.4795   -35.8568     5.2913     6.8886     6.3839
  361.0000     7.9437   122.6725    -0.0057     0.0938     2.4865   -34.0619     5.5554     7.3349     8.7100
  361.5000     7.9155   122.0986    -0.0040     0.0944     2.4879   -31.5240     5.7925     7.9738     9.6858
  362.0000     7.8873   121.6693    -0.0009     0.0947     2.4857   -28.9861     6.0817     8.3159     9.2338
  362.5000     7.9188   120.9419     0.0038     0.0944     2.4850   -29.1228     6.3413     8.4358    10.2878
  363.0000     7.9353   119.3203     0.0099     0.0917     2.4903   -30.4483     6.5664     8.3816    10.7682
  363.5000     7.9064   116.8045     0.0176     0.0863     2.5016   -29.8420     6.7996     8.8631    10.2675
  364.0000     7.8480   115.4766     0.0222     0.0808     2.5114   -30.5731     7.0899     9.5028    10.7849
  364.5000     7.7896   119.8207     0.0209     0.0807     2.5130   -31.0491     7.1415     9.0578    11.3265
  365.0000     7.7630   121.6268     0.0165     0.0829     2.5070   -30.2522     7.2936     9.6445    10.8748
  365.5000     7.7820   122.6878     0.0105     0.0844     2.5019   -28.6059     7.4489     9.3211    11.1089
  366.0000     7.8259   123.4463     0.0061     0.0856     2.4997   -27.5539     7.6603     9.5212    10.8128
  366.5000     7.8726   121.5311     0.0032     0.0867     2.4990   -27.6906     7.7695     9.3301    11.1242
  367.0000     7.9040   119.9095     0.0018     0.0888     2.4961   -29.0160     7.8261     9.1427    11.2112
  367.5000     7.9355   118.4370     0.0020     0.0906     2.4916   -28.5584     7.8288     9.7351    11.5340
  368.0000     7.9371   117.2625     0.0051     0.0915     2.4932   -28.9903     7.8315    10.0827    11.3832
  368.5000     7.9387   116.2370     0.0097     0.0900     2.4977   -29.7214     7.8342     9.7445    11.1568
  369.0000     7.9553   114.7645     0.0159     0.0846     2.5045   -30.4525     7.8369     9.6734    11.3202
  369.5000     7.9416   112.9939     0.0175     0.0809     2.5113   -30.8864     7.8396     9.5536    11.8066
  370.0000     7.9283   111.9684     0.0207     0.0791     2.5166   -31.7660     7.8423     8.9811    11.3358
  370.5000     7.9005   112.4333     0.0208     0.0797     2.5137   -33.5372     7.7903     8.9149    11.1104
  371.0000     7.8873   114.2394     0.0209     0.0844     2.5048   -34.1227     7.7936     9.3709    10.5189
  371.5000     7.8833   116.7907     0.0194     0.0913     2.4996   -35.1480     7.7419     9.9779    10.1679
  372.0000     7.8754   119.3420     0.0164     0.1102     2.4914   -34.9905     7.6913     9.7102    10.1029
  372.5000     7.8622   121.7443     0.0105     0.1191     2.4780   -35.8701     7.6410     9.7047    10.6876
  373.0000     7.8641   124.4446     0.0033     0.1359     2.4433   -36.1525     7.5393    10.0618    11.4619
  373.5000     7.8655   125.5056    -0.0011     0.1421     2.4059   -37.4779     7.3363    10.2779    12.1232
  374.0000     7.8672   117.6247    -0.0055     0.1376     2.4026   -41.9237     7.0897    10.1415    12.8226
  374.5000     7.8687   111.0851    -0.0039     0.1041     2.4509   -42.6577     6.7572     9.8694    12.3092
  375.0000     7.8705   109.4635    -0.0022     0.0801     2.4968   -38.9282     6.2648     9.4073    12.1462
  375.5000     7.8743   109.7874    -0.0006     0.0795     2.5143   -38.1734     5.8892     8.5428    12.9384
  376.0000     7.8886   111.6095    -0.0005     0.0818     2.5084   -37.5701     5.6519     7.0904     8.3696
  376.5000     7.8903   113.2668    -0.0004     0.0860     2.5009   -40.2299     5.4998     5.4160     5.1224
  377.0000     7.9067   114.4689     0.0028     0.0873     2.4972   -39.9208     5.6169     5.8068     4.3403
  377.5000     7.9086   113.8549     0.0059     0.0794     2.5123   -39.0204     5.8567     6.6720     5.8508
  378.0000     7.9101   113.5708     0.0105     0.0752     2.5221   -41.2344     6.0646     7.3036    13.4405
  378.5000     7.9117   112.8395     0.0152     0.0755     2.5184   -42.5598     6.1938     8.1626    13.2647
  379.0000     7.9133   111.9946     0.0213     0.0757     2.5207   -43.7396     6.5934     9.1227    13.0753
  379.5000     7.9149   110.8201     0.0275     0.0751     2.5215   -42.5361     7.1659     9.7136    13.6561
  380.0000     7.9166   109.6456     0.0336     0.0798     2.5058   -46.2389     7.6283    10.8562    14.2453
  380.5000     7.9182   108.0240     0.0413     0.0870     2.4992   -46.9730     8.1787    11.4005    14.2551
  381.0000     7.9198   104.7631     0.0475     0.0864     2.4992   -45.7724     8.7085    11.6453    14.0685
  381.5000     7.9066    97.7764     0.0506     0.0888     2.4940   -45.0146     9.2087    11.8133    13.8846
  382.0000     7.9083    76.4827     0.0477     0.1175     2.4739   -43.9626     9.5335    11.7375    13.7031
  382.5000     7.9108    69.9431     0.0448     0.1315     2.4141   -45.5852     9.7376    11.5019    13.5241
  383.0000     7.9264    69.3603     0.0434     0.1528     2.3857   -46.3163    10.0151    11.5075    13.4400
  383.5000     7.9280    69.2334     0.0420     0.1744     2.3655   -47.4932    10.3804    12.1684    13.5427
  384.0000     7.9297    67.3138     0.0376     0.1889     2.3416   -46.2926    10.8260    13.2284    13.7411
  384.5000     7.9314    63.3077     0.0332     0.2021     2.3043   -46.8780    11.4479    14.3807    13.9515
  385.0000     7.9333    61.3881     0.0258     0.2139     2.2804   -45.2317    12.4593    15.5257    16.6443
  385.5000     7.9349    60.6562     0.0198     0.2205     2.2707   -46.5571    13.6572    16.4173    24.7979
  386.0000     7.9216    62.4668     0.0140     0.2176     2.2783   -47.5824    15.6075    17.7244    26.4195
  386.5000     7.9083    64.5710     0.0141     0.2042     2.2963   -44.8960    17.4379    20.7923    27.1634
  387.0000     7.8951    66.5262     0.0157     0.1916     2.3175   -43.3982    19.6181    23.0777    30.5971
  387.5000     7.8818    68.6304     0.0176     0.1832     2.3311   -40.2660    21.3214    24.4031    30.8729
  388.0000     7.8681    69.8404     0.0235     0.1715     2.3434   -39.3626    22.2315    25.9838    36.2640
  388.5000     7.8399    70.0028     0.0312     0.1651     2.3644   -39.5023    22.8624    27.6669    46.7856
  389.0000     7.7973    69.4288     0.0358     0.1645     2.3692   -37.8958    23.5111    30.4961    45.5387
  389.5000     7.7836    67.9563     0.0405     0.1594     2.3760   -35.9136    24.0118    32.2437    39.6762
  390.0000     7.7703    67.0754     0.0451     0.1540     2.3895   -36.2157    24.3543    27.1379    43.7456
  390.5000     7.7570    67.3957     0.0498     0.1591     2.3806   -40.6063    24.7017    26.2245    40.0070
  391.0000     7.7591    67.5625     0.0529     0.1749     2.3552   -42.6508    25.0541    29.3126    35.0988
  391.5000     7.7756    67.7293     0.0470     0.1959     2.3114   -41.7256    25.0627    30.5701    28.7276
  392.0000     7.7921    67.8961     0.0350     0.2111     2.2844   -43.3680    25.0713    29.9565    39.8131
  392.5000     7.8087    67.9235     0.0276     0.2171     2.2874   -43.6553    24.9051    29.1493    35.6620
  393.0000     7.8401    67.9316     0.0202     0.2183     2.2801   -43.9207    25.0886    31.2568    43.3226
  393.5000     7.8566    67.5023     0.0158     0.2308     2.2603   -44.8084    25.6228    34.9333    40.4519
  394.0000     7.8732    67.0730     0.0099     0.2380     2.2463   -44.2972    26.3500    38.2400    63.9344
  394.5000     7.9046    66.9417     0.0085     0.2323     2.2628   -44.6460    27.2856    37.4725    58.4704
  395.0000     7.9211    67.7647     0.0101     0.2188     2.2853   -47.1175    28.2544    39.6246    41.9638
  395.5000     7.9377    72.3329     0.0133     0.2083     2.3049   -44.8588    29.2576    41.9004    43.1722
