~VERSION INFORMATION
 VERS.                2.0:   CWLS LOG ASCII STANDARD - VERSION 2.0
 WRAP.                 NO:   ONE LINE PER DEPTH STEP
~WELL INFORMATION
#MNEM.UNIT      DATA TYPE    INFORMATION
#----------   ------------   ------------------------------
 STRT.F            2.0000:   START DEPTH
 STOP.F          560.0000:   STOP DEPTH
 STEP.F            0.1000:   STEP LENGTH
 NULL.          -999.2500:   NO VALUE
 COMP.       F D SERV INC:   COMPANY
 WELL. NAVAL PETROLEUM RESERVE 3 SX-3 #88-3:   WELL
 FLD .             NPR #3:   FIELD
 LOC .       S3 T38N R78W:   LOCATION
 CNTY.            NATRONA:   COUNTY
 STAT.            WYOMING:   STATE
 CTRY. UNITED STATES OF AMERICA:   COUNTRY
 SRVC.      Western Atlas:   SERVICE COMPANY
 DATE.        30-OCT-1992:   LOGDATE
 API .       490252254900:   API NUMBER
~CURVE INFORMATION
#MNEM.UNIT       API CODE    CURVE DESCRIPTION
#----------   ------------   ------------------------------
 DEPT.F                  :   
 GRR .GAPI   07 310 01 00:   GAMMA RAY
 RILD.OHMM   07 120 46 00:   INDUCTION LOG DEEP RESISTIVITY
 RILM.OHMM   07 120 44 00:   INDUCTION LOG MEDIUM RESISTIVITY
~PARAMETER INFORMATION
#MNEM.UNIT          VALUE    DESCRIPTION
#----------   ------------   ------------------------------
 PD  .                 GL:   PERMANENT DATUM
 EPD .F              5131:   ELEVATION PERMANENT DATUM
 LMF .                 KB:   LOG MEASURED FROM
 DAPD.F                10:   FEET ABOVE PERMANENT DATUM
 DMF .                 KB:   DRILLING MEASURED FROM
 EKB .F              5141:   KELLING BUSHING
 EDF .F              5140:   DRILLING FLOOR
 EGL .F              5131:   GROUND LEVEL
 DATE.        30-OCT-1992:   RUN DATE
 RUN .                  1:   RUN NUMBER
 DD  .F               568:   DEPTH DRILLER
 DL  .F               568:   DEPTH LOGGER
 BLI .F               560:   BOTTOM LOG INTERVAL
 CS  .IN            8.625:   CASING SIZE
 CBD .F                73:   CASING BOTTOM DRILLER
 CBL .F                73:   CASING BOTTOM LOGGER
 BS  .IN            7.875:   BIT SIZE
 BSD .F               568:   BIT SIZE AT DEPTH
 DFT .           AIR FOAM:   DRILLING FLUID TYPE
 BHT .F                63:   BOTTOM HOLE TEMPERATURE
 TCS .HRS               2:   TIME CURCULATED STOPPED
 MRT .F                63:   MAXIMUM RECORDED TEMPERATURE
 LUN .            HL-6274:   LOGGING UNIT NUMBER
 LUL .             CASPER:   LOGGING UNIT LOCATION
 ENGI.             RAUTIO:   RECORDING ENGINEER
 WITN.          BOB SYLAR:   WITNESSED BY
 CLNT.            A2DTECH:   CLIENT CODE
 ORIG.           5" PRINT:   ORIGIN OF DATA
 UWI .       490252254900:   UNIQUE WELL ID
 DICO. A2D Technologies, Inc.:   DIGITIZING COMPANY
~OTHER INFORMATION
~A    DEPT      GRR      RILD       RILM   
# ...
  457.0000    91.1619    14.1699    13.5936
  457.1000    92.1680    14.1273    13.5947
  457.2000    93.0219    14.0742    13.5955
  457.3000    93.7097    14.0615    13.5430
  457.4000    95.0212    13.9791    13.5037
  457.5000    96.5602    13.9802    13.4798
  457.6000    97.9321    13.9810    13.4123
  457.7000    98.9592    13.9312    13.4134
  457.8000   100.0379    13.8865    13.4143
  457.9000   100.7697    13.8875    13.3543
  458.0000   101.5404    13.8820    13.3236
  458.1000   102.0181    13.7937    13.3245
  458.2000   102.1784    13.7946    13.3068
  458.3000   102.1808    13.7378    13.2344
  458.4000   102.1833    13.7013    13.2355
  458.5000   102.1861    13.7023    13.2363
  458.6000   102.1881    13.6894    13.1829
  458.7000   102.1906    13.6097    13.1468
  458.8000   102.0801    13.6108    13.1477
  458.9000   101.8910    13.6115    13.1361
  459.0000   101.8772    13.6125    13.0589
  459.1000   101.5918    13.6134    13.0600
  459.2000   101.3698    13.5931    13.0607
  459.3000   101.1161    13.5213    13.0616
  459.4000   100.8625    13.5224    13.0284
  459.5000   100.6089    13.5233    12.9733
  459.6000   100.3244    13.5242    12.9742
  459.7000    99.7798    13.5252    12.9752
  459.8000    99.5434    13.4975    12.9760
  459.9000    99.0994    13.4336    12.9769
  460.0000    98.7317    13.4347    12.9360
  460.1000    98.5717    13.4358    12.8892
  460.2000    98.5741    13.4365    12.8901
  460.3000    98.5766    13.3874    12.8910
  460.4000    98.5795    13.3457    12.8920
  460.5000    98.5814    13.3467    12.8928
  460.6000    98.5839    13.3476    12.8937
  460.7000    98.5863    13.3486    12.8946
  460.8000    98.7088    13.3494    12.8732
  460.9000    99.2117    13.2933    12.8073
  461.0000    99.5072    13.2592    12.8084
  461.1000    99.9483    13.2601    12.8092
  461.2000   100.4631    13.2464    12.8101
  461.3000   100.7318    13.1705    12.7676
  461.4000   100.7342    13.1716    12.7235
  461.5000   100.7367    13.1723    12.7244
  461.6000   100.7393    13.1732    12.7222
  461.7000   100.7416    13.1384    12.6385
  461.8000   100.3722    13.0842    12.6392
  461.9000    99.8625    13.0851    12.6401
  462.0000    99.3527    13.0861    12.6410
  462.1000    98.8429    13.0869    12.6419
  462.2000    98.3185    13.0878    12.6427
  462.3000    98.0721    13.0887    12.6437
  462.4000    98.2194    13.0896    12.6445
  462.5000    98.3257    13.0905    12.6454
  462.6000    98.4320    13.0915    12.6462
  462.7000    98.6906    13.0925    12.6471
  462.8000    98.9492    13.1575    12.6480
  462.9000    99.2491    13.1851    12.6489
  463.0000    99.6813    13.1860    12.6498
  463.1000   101.2739    13.1869    12.6506
  463.2000   102.1443    13.1878    12.6515
  463.3000   102.9182    13.1888    12.6524
  463.4000   103.6209    13.2617    12.6532
  463.5000   104.1106    13.2822    12.6541
  463.6000   104.3870    13.2831    12.6550
  463.7000   104.6233    13.3141    12.7439
  463.8000   104.6868    13.3772    12.8058
  463.9000   104.6843    13.3781    12.8340
  464.0000   104.6819    13.3792    12.8694
  464.1000   104.6795    13.3799    12.9249
  464.2000   104.6770    13.4329    12.9332
  464.3000   104.6742    13.4747    13.0166
  464.4000   104.4489    13.4757    13.0174
  464.5000   104.1877    13.4766    13.0749
  464.6000   103.7947    13.4776    13.1096
  464.7000   103.2746    13.4785    13.1105
  464.8000   102.7953    13.4794    13.1114
  464.9000   102.5290    13.5259    13.1123
  465.0000   101.3085    13.5749    13.1134
  465.1000   100.6826    13.5758    13.1141
  465.2000    99.7414    13.5767    13.1150
  465.3000    98.7039    13.5778    13.1159
  465.4000    97.8087    13.5112    13.1168
  465.5000    97.2887    13.4859    13.1178
  465.6000    96.7280    13.4869    13.1187
  465.7000    96.2488    13.4878    13.1196
  465.8000    95.9217    13.4887    13.1205
  465.9000    95.6605    13.4897    13.0763
  466.0000    95.5008    13.4162    13.0318
  466.1000    95.4983    13.3985    13.0327
  466.2000    95.5060    13.3538    13.0298
  466.3000    95.7975    13.3079    12.9447
  466.4000    96.2419    13.2917    12.9455
  466.5000    96.7569    13.2179    12.9464
  466.6000    97.4039    13.2190    12.9085
  466.7000    98.1779    13.1536    12.8589
  466.8000    98.9923    13.1296    12.8482
  466.9000   100.0450    13.0924    12.7720
  467.0000   100.9554    13.0408    12.7729
  467.1000   101.3695    13.0417    12.7143
  467.2000   102.2094    13.0427    12.6408
  467.3000   103.0085    13.0435    12.5677
  467.4000   103.5234    12.9857    12.5139
  467.5000   104.0892    12.9107    12.5148
  467.6000   105.2029    12.8669    12.5157
  467.7000   105.6775    12.8678    12.4507
  467.8000   106.1926    12.8652    12.4311
  467.9000   106.5605    12.7810    12.4319
  468.0000   106.9183    12.7817    12.4328
  468.1000   107.3775    12.7826    12.4204
  468.2000   107.6339    12.7459    12.3488
  468.3000   107.9254    12.6962    12.3498
  468.4000   108.3698    12.6971    12.2910
  468.5000   108.7072    12.6980    12.2662
  468.6000   108.8317    12.6989    12.2670
  468.7000   108.9155    12.6419    12.2679
  468.8000   109.1316    12.6130    12.2687
  468.9000   109.1287    12.5832    12.2696
  469.0000   109.1259    12.5278    12.2704
  469.1000   109.1239    12.5287    12.2175
  469.2000   109.2839    12.5296    12.1875
  469.3000   109.4234    12.5304    12.1883
  469.4000   109.4920    12.4806    12.1892
  469.5000   109.7232    12.4457    12.1900
  469.6000   109.7204    12.4225    12.1910
  469.7000   109.7181    12.3615    12.1917
  469.8000   109.7157    12.3625    12.1925
  469.9000   109.7132    12.3633    12.1934
  470.0000   109.7108    12.3073    12.1718
  470.1000   109.6526    12.2363    12.1109
  470.2000   109.4015    12.1959    12.1118
  470.3000   109.3988    12.1794    12.1126
  470.4000   109.1734    12.1134    12.1135
  470.5000   108.7347    12.1144    12.1143
  470.6000   108.2148    12.0528    12.0855
  470.7000   107.7810    12.0324    12.0156
  470.8000   107.5604    11.9967    11.9461
  470.9000   107.5579    11.9511    11.8688
  471.0000   107.8595    11.9519    11.8695
  471.1000   107.8575    11.9528    11.8217
  471.2000   108.0175    11.8854    11.7893
  471.3000   108.3904    11.8720    11.7901
  471.4000   108.8345    11.8728    11.7797
  471.5000   109.1161    11.8736    11.7105
  471.6000   109.6312    11.8570    11.6306
  471.7000   110.1463    11.7885    11.6313
  471.8000   110.8542    11.7130    11.6321
  471.9000   111.4809    11.7137    11.6329
  472.0000   111.8945    11.6660    11.6337
  472.1000   112.0392    11.6345    11.6345
  472.2000   111.7678    11.6118    11.6354
  472.3000   111.1765    11.5447    11.6361
  472.4000   110.9512    11.4770    11.6369
  472.5000   110.5125    11.3988    11.6377
  472.6000   110.1244    11.3994    11.6385
  472.7000   109.8632    11.3588    11.6393
  472.8000   109.6426    11.3224    11.6402
  472.9000   109.6401    11.3232    11.6411
  473.0000   109.3329    11.3239    11.6418
  473.1000   109.3309    11.3248    11.6426
  473.2000   109.1661    11.2662    11.6434
  473.3000   109.0216    11.2482    11.6442
  473.4000   109.0192    11.2490    11.6450
  473.5000   108.9914    11.2497    11.6458
  473.6000   108.7097    11.2620    11.5828
  473.7000   108.7075    11.3294    11.5671
  473.8000   108.7050    11.3304    11.5679
  473.9000   108.7026    11.3310    11.5629
  474.0000   108.5987    11.3738    11.5492
  474.1000   108.3933    11.4414    11.5355
  474.2000   108.3909    11.5094    11.5218
  474.3000   108.3881    11.5719    11.5081
  474.4000   108.3860    11.5728    11.4930
  474.5000   108.3836    11.6351    11.4937
  474.6000   108.3811    11.6547    11.4463
  474.7000   108.5512    11.6555    11.4160
  474.8000   109.0662    11.6563    11.4168
  474.9000   109.5914    11.6571    11.4176
  475.0000   109.8930    11.6579    11.4184
  475.1000   110.0991    11.6588    11.4986
