~VERSION INFORMATION
 VERS.                2.0:   CWLS LOG ASCII STANDARD - VERSION 2.0
 WRAP.                 NO:   ONE LINE PER DEPTH STEP
~WELL INFORMATION
#MNEM.UNIT      DATA TYPE    INFORMATION
#----------   ------------   ------------------------------
 STRT.F           30.5000:   START DEPTH
 STOP.F          674.0000:   STOP DEPTH
 STEP.F            0.5000:   STEP LENGTH
 NULL.          -999.2500:   NO VALUE
 COMP. FENIX & SCISSON INC:   COMPANY
 WELL. NPR 3 #37 SX 34-34:   WELL
 FLD .        TEAPOT DOME:   FIELD
 LOC .      S34 T39N R78W:   LOCATION
 CNTY.            NATRONA:   COUNTY
 STAT.            WYOMING:   STATE
 CTRY. UNITED STATES OF AMERICA:   COUNTRY
 SRVC.           BIRDWELL:   SERVICE COMPANY
 DATE.        21-JAN-1979:   LOGDATE
 API .       490251074400:   API NUMBER
~CURVE INFORMATION
#MNEM.UNIT       API CODE    CURVE DESCRIPTION
#----------   ------------   ------------------------------
 DEPT.F                  :   
 SPR .MV     05 010 01 00:   SPONTANEOUS POTENTIAL FROM RES.
 SN  .OHMM   05 040 16 00:   SHORT NORMAL 16"
 IL  .OHMM   05 120 00 00:   INDUCTION LOG
 CALD.IN     45 280 60 00:   CALIPER
 GRD .GAPI   45 310 01 00:   GAMMA RAY FROM DENSITY LOG
 RHOB.G/C3   45 350 01 00:   BULK DENSITY
 DPHI.DEC    45 890 12 00:   DENSITY POROSITY SANDSTONE
 CORR.G/C3   45 356 01 00:   DENSITY CORRECTION
~PARAMETER INFORMATION
#MNEM.UNIT          VALUE    DESCRIPTION
#----------   ------------   ------------------------------
 PD  .                 GL:   PERMANENT DATUM
 EPD .F              5175:   ELEVATION PERMANENT DATUM
 LMF .                 KB:   LOG MEASURED FROM
 DAPD.F                 4:   FEET ABOVE PERMANENT DATUM
 DMF .                 KB:   DRILLING MEASURED FROM
 EKB .F              5179:   KELLING BUSHING
 EGL .F              5175:   GROUND LEVEL
 DATE.            1-21-79:   RUN DATE
 RUN .                  1:   RUN NUMBER
 DD  .F               674:   DEPTH DRILLER
 DL  .F               673:   DEPTH LOGGER
 BLI .F               666:   BOTTOM LOG INTERVAL
 TLI .F                40:   TOP LOG INTERVAL
 CS  .IN            8.625:   CASING SIZE
 CBD .F                40:   CASING BOTTOM DRILLER
 CBL .F                30:   CASING BOTTOM LOGGER
 BS  .IN            7.875:   BIT SIZE
 BSD .F               674:   BIT SIZE AT DEPTH
 DFT .                KCL:   DRILLING FLUID TYPE
 DFD .                8.8:   DRILLING FLUID DENSITY
 DFV .                 60:   DRILLING FLUID VISCOSITY
 DFPH.                9.5:   DRILLING FLUID PH
 DFL .                  8:   DRILLING FLUID LOSS
 MSS .           FLOWLINE:   MUD SAMPLE SOURCE
 RMS .OHMM            .23:   RESISTIVITY MUD SAMPLE
 MST .F                56:   MUD SAMPLE TEMPERATURE
 MFSS.           MEASURED:   MUD FILTRATE SAMPLE SOURCE
 MCSS.           MEASURED:   MUD CAKE SAMPLE SOURCE
 RMB .OHMM            .22:   RESISTIVITY MUD AT BHT
 BHT .F                60:   BOTTOM HOLE TEMPERATURE
 TCS .HRS               4:   TIME CURCULATED STOPPED
 MRT .F                60:   MAXIMUM RECORDED TEMPERATURE
 LUN .               3006:   LOGGING UNIT NUMBER
 LUL .             CASPER:   LOGGING UNIT LOCATION
 ENGI.            ROLLINS:   RECORDING ENGINEER
 WITN.           DINSMORE:   WITNESSED BY
 CLNT.            A2DTECH:   CLIENT CODE
 ORIG.       2", 5" PRINT:   ORIGIN OF DATA
 UWI .       490251074400:   UNIQUE WELL ID
 DICO. A2D Technologies, Inc.:   DIGITIZING COMPANY
~OTHER INFORMATION
~A   DEPT      SPR         SN         IL       CALD        GRD       RHOB       DPHI       CORR   
# ...
  476.0000   -32.1740    13.7570    19.5810     8.0420    78.2800     2.3500     0.1990     0.0120
  476.5000   -32.1860    13.6350    19.5640     8.0450    80.6700     2.3460     0.2230     0.0190
  477.0000   -32.1990    13.5140    19.5460     8.0490    80.5850     2.3290     0.2260     0.0190
  477.5000   -32.2110    13.3930    19.5280     8.0520    76.8110     2.3120     0.2290     0.0130
  478.0000   -32.2230    13.2720    19.5100     8.0550    76.8150     2.2960     0.2320     0.0120
  478.5000   -32.2350    13.1500    19.4920     8.0570    77.1740     2.2920     0.2330     0.0120
  479.0000   -32.2470    13.0290    19.4740     8.0570    74.8750     2.2900     0.2300     0.0090
  479.5000   -32.2590    12.9670    19.4540     8.0570    72.6130     2.2960     0.2100     0.0060
  480.0000   -32.2710    12.9670    19.0290     8.0570    75.3790     2.3240     0.1860     0.0060
  480.5000   -32.2830    12.9670    18.5600     8.0570    79.6250     2.3540     0.1730     0.0070
  481.0000   -32.2950    12.9670    18.0920     8.0570    81.5690     2.3820     0.1710     0.0080
  481.5000   -32.3070    12.9670    17.6230     8.0570    81.7370     2.3910     0.1680     0.0080
  482.0000   -32.3190    12.9670    17.1550     8.0570    80.4920     2.3970     0.1650     0.0090
  482.5000   -32.3310    12.9670    16.7950     8.0490    79.7500     2.4000     0.1650     0.0090
  483.0000   -32.3440    12.9670    16.6140     8.0300    81.9680     2.4000     0.1670     0.0100
  483.5000   -32.3550    12.9670    16.5800     8.0110    87.0790     2.3980     0.1740     0.0100
  484.0000   -32.3580    12.9670    16.5460     7.9930    83.1460     2.3910     0.1810     0.0080
  484.5000   -32.6100    12.9670    16.5110     7.9770    83.8170     2.3820     0.1810     0.0070
  485.0000   -32.9030    12.9670    16.4800     7.9790    84.5530     2.3760     0.1820     0.0060
  485.5000   -33.1990    12.9670    16.6950     7.9810    85.2550     2.3750     0.1820     0.0040
  486.0000   -33.4950    12.9670    16.8950     7.9820    85.6560     2.3740     0.1880     0.0070
  486.5000   -33.7910    12.9670    17.0990     7.9840    83.7420     2.3670     0.1940     0.0110
  487.0000   -34.0870    12.9670    17.0090     7.9860    79.6050     2.3600     0.1960     0.0150
  487.5000   -34.3620    12.9670    16.9170     7.9870    76.0450     2.3540     0.1950     0.0210
  488.0000   -34.3700    12.9670    16.8260     7.9890    77.2690     2.3510     0.1940     0.0270
  488.5000   -34.3690    12.9670    16.7340     7.9910    77.9600     2.3520     0.1940     0.0230
  489.0000   -34.3690    12.9670    16.6430     7.9930    80.9520     2.3540     0.1920     0.0140
  489.5000   -34.3690    12.9670    16.5520     7.9940    85.0010     2.3580     0.1820     0.0020
  490.0000   -34.3690    13.0490    16.4800     7.9960    85.3470     2.3670     0.1710    -0.0010
  490.5000   -34.3690    13.1850    17.1910     7.9960    84.9550     2.3760     0.1450    -0.0020
  491.0000   -34.3690    13.3210    17.7770     7.9950    84.2480     2.4150     0.1170    -0.0010
  491.5000   -34.3690    13.4570    18.4070     7.9930    80.2890     2.4580     0.0890     0.0070
  492.0000   -34.3690    13.5930    18.4310     7.9910    75.7830     2.4980     0.0830     0.0200
  492.5000   -34.3690    13.7220    18.4570     7.9900    72.5150     2.5340     0.1030     0.0140
  493.0000   -34.3690    13.8160    18.4830     7.9880    70.3070     2.5360     0.1280     0.0060
  493.5000   -34.3690    13.9100    18.5090     7.9870    74.0720     2.5010     0.1530     0.0060
  494.0000   -34.3690    13.9600    18.5350     7.9850    80.0490     2.4620     0.1660     0.0050
  494.5000   -34.3690    13.3940    18.5610     7.9830    83.6160     2.4210     0.1790     0.0050
  495.0000   -34.3690    12.9520    18.5780     7.9820    84.3520     2.3940     0.1860     0.0040
  495.5000   -34.3700    12.5110    17.6280     7.9800    83.7920     2.3720     0.1910     0.0040
  496.0000   -34.3710    12.0690    16.9420     7.9780    83.0360     2.3680     0.1950     0.0030
  496.5000   -34.5370    11.7700    15.9780     7.9770    82.5790     2.3570     0.1930     0.0030
  497.0000   -34.9150    11.6450    15.2940     7.9790    82.2920     2.3490     0.1880     0.0030
  497.5000   -35.2910    11.5950    15.2440     7.9800    81.6660     2.3600     0.1830     0.0020
  498.0000   -35.6640    11.5740    15.1940     7.9820    80.7030     2.3680     0.1830     0.0030
  498.5000   -35.9870    11.5540    15.1440     7.9840    79.7650     2.3700     0.1810     0.0040
  499.0000   -36.0110    11.5340    15.0940     7.9850    79.5570     2.3720     0.1780     0.0050
  499.5000   -36.0420    11.5140    15.0440     7.9870    79.7190     2.3760     0.1770     0.0060
  500.0000   -36.0750    11.4940    14.8980     7.9890    80.6520     2.3800     0.1770     0.0070
  500.5000   -36.1080    11.4730    14.7050     7.9900    81.7290     2.3830     0.1760     0.0080
  501.0000   -36.1380    11.4530    14.6180     7.9920    82.9730     2.3840     0.1730     0.0090
  501.5000   -36.1900    11.4330    14.6180     7.9940    84.6570     2.3870     0.1710     0.0100
  502.0000   -36.7440    11.4130    14.6180     7.9950    87.3390     2.3900     0.1710     0.0110
  502.5000   -37.3150    11.3930    14.6180     7.9970    87.7440     2.3910     0.1740     0.0120
  503.0000   -37.8850    11.3720    14.6180     7.9970    83.1070     2.3910     0.1790     0.0130
  503.5000   -38.4540    11.3520    14.6180     7.9970    82.6630     2.3860     0.1840     0.0140
  504.0000   -39.0240    11.3320    14.6180     7.9970    83.5080     2.3760     0.1840     0.0130
  504.5000   -39.5640    11.3120    14.6180     7.9970    83.8240     2.3720     0.1810     0.0110
  505.0000   -39.5990    11.2920    14.6180     7.9970    82.0290     2.3730     0.1780     0.0100
  505.5000   -39.6150    11.3910    14.6180     7.9970    81.0780     2.3770     0.1770     0.0080
  506.0000   -39.6320    11.4860    14.6190     7.9970    84.1130     2.3800     0.1770     0.0070
  506.5000   -39.6500    11.5810    14.6180     7.9970    86.2850     2.3800     0.1710     0.0050
  507.0000   -39.6680    11.6760    14.7470     7.9970    87.5860     2.3860     0.1630     0.0040
  507.5000   -39.6860    11.7710    15.1020     7.9970    90.4310     2.3960     0.1500     0.0060
  508.0000   -39.7030    11.8660    15.7210     7.9970    90.7770     2.4140     0.1270     0.0080
  508.5000   -39.7210    11.9600    16.4000     7.9970    86.1040     2.4450     0.1010     0.0100
  509.0000   -39.7390    12.0450    16.7860     7.9970    82.7500     2.4770     0.0830     0.0120
  509.5000   -39.7570    12.0450    16.7860     8.0010    82.3490     2.5080     0.0800     0.0140
  510.0000   -39.7740    12.0450    16.7860     8.0060    80.7390     2.5410     0.0880     0.0120
  510.5000   -39.7920    12.0450    16.7860     8.0100    78.4490     2.5410     0.1120     0.0100
  511.0000   -39.8100    11.7850    16.7860     8.0150    79.2570     2.5220     0.1370     0.0080
  511.5000   -39.8270    11.4670    16.0590     8.0190    86.3750     2.4770     0.1620     0.0060
  512.0000   -39.8450    11.1500    15.3080     8.0240    87.1540     2.4370     0.1740     0.0040
  512.5000   -39.8630    10.8330    14.5140     8.0280    86.4840     2.4090     0.1710     0.0060
  513.0000   -39.8800    10.5150    13.6490     8.0330    85.8340     2.3900     0.1680     0.0080
  513.5000   -39.8980    10.2030    12.8990     8.0370    84.9330     2.3930     0.1680     0.0090
  514.0000   -39.9160    10.1850    12.5770     8.0300    84.0040     2.3970     0.1680     0.0110
  514.5000   -39.9330    10.1670    12.2550     8.0230    84.0870     2.3960     0.1690     0.0130
  515.0000   -39.9510    10.1480    12.1570     8.0160    84.2860     2.3960     0.1670     0.0130
  515.5000   -39.9690    10.1300    12.1570     8.0080    85.5650     2.3960     0.1640     0.0120
  516.0000   -39.9870    10.1120    12.1570     8.0010    87.1250     2.3980     0.1630     0.0100
