~VERSION INFORMATION
 VERS.                2.0:   CWLS LOG ASCII STANDARD - VERSION 2.0
 WRAP.                 NO:   ONE LINE PER DEPTH STEP
~WELL INFORMATION
#MNEM.UNIT      DATA TYPE    INFORMATION
#----------   ------------   ------------------------------
 STRT.F            3.0000:   START DEPTH
 STOP.F          523.0000:   STOP DEPTH
 STEP.F            0.1000:   STEP LENGTH
 NULL.          -999.2500:   NO VALUE
 COMP.     BROWN JOHN E&C:   COMPANY
 WELL.   NPR 3 #52-2-SX-3:   WELL
 FLD .             TEAPOT:   FIELD
 LOC .       S3 T38N R78W:   LOCATION
 CNTY.            NATRONA:   COUNTY
 STAT.            WYOMING:   STATE
 CTRY. UNITED STATES OF AMERICA:   COUNTRY
 SRVC.     Atlas Wireline:   SERVICE COMPANY
 DATE.        18-APR-1992:   LOGDATE
 API .       490252251500:   API NUMBER
~CURVE INFORMATION
#MNEM.UNIT       API CODE    CURVE DESCRIPTION
#----------   ------------   ------------------------------
 DEPT.F                  :   
 GRR .GAPI   07 310 01 00:   GAMMA RAY
 RILD.OHMM   07 120 46 00:   INDUCTION LOG DEEP RESISTIVITY
 RILM.OHMM   07 120 44 00:   INDUCTION LOG MEDIUM RESISTIVITY
~PARAMETER INFORMATION
#MNEM.UNIT          VALUE    DESCRIPTION
#----------   ------------   ------------------------------
 PD  .                 GL:   PERMANENT DATUM
 EPD .F              5128:   ELEVATION PERMANENT DATUM
 LMF .                 KB:   LOG MEASURED FROM
 DAPD.F                 5:   FEET ABOVE PERMANENT DATUM
 DMF .                 KB:   DRILLING MEASURED FROM
 EKB .F              5133:   KELLING BUSHING
 EDF .F              5132:   DRILLING FLOOR
 EGL .F              5128:   GROUND LEVEL
 DATE.        18-APR-1992:   RUN DATE
 RUN .                  1:   RUN NUMBER
 DD  .F               525:   DEPTH DRILLER
 DL  .F               526:   DEPTH LOGGER
 BLI .F               524:   BOTTOM LOG INTERVAL
 CS  .IN            8.625:   CASING SIZE
 CBD .F                48:   CASING BOTTOM DRILLER
 CBL .F                49:   CASING BOTTOM LOGGER
 BS  .IN            7.875:   BIT SIZE
 BSD .F               525:   BIT SIZE AT DEPTH
 DFT .                AIR:   DRILLING FLUID TYPE
 TCS .HRS               2:   TIME CURCULATED STOPPED
 MRT .F                87:   MAXIMUM RECORDED TEMPERATURE
 LUN .            HL 6274:   LOGGING UNIT NUMBER
 LUL .             CASPER:   LOGGING UNIT LOCATION
 ENGI.            LEBSOCK:   RECORDING ENGINEER
 WITN.             STRONG:   WITNESSED BY
 CLNT.            A2DTECH:   CLIENT CODE
 ORIG.       2", 5" PRINT:   ORIGIN OF DATA
 UWI .       490252251500:   UNIQUE WELL ID
 DICO. A2D Technologies, Inc.:   DIGITIZING COMPANY
~OTHER INFORMATION
~A    DEPT     GRR       RILD       RILM   
# ...
  257.8000   141.7236     8.4987     7.8992
  257.9000   141.7224     8.4983     7.8985
  258.0000   141.7212     8.4979     7.8773
  258.1000   140.9377     8.4976     7.8422
  258.2000   140.0848     8.4973     7.8415
  258.3000   139.4250     8.4736     7.8408
  258.4000   138.9583     8.4374     7.8043
  258.5000   138.6847     8.4351     7.7850
  258.6000   138.4598     8.3779     7.7843
  258.7000   138.3794     8.3776     7.7837
  258.8000   138.4921     8.3484     7.7830
  258.9000   138.7980     8.3185     7.7824
  259.0000   139.3094     8.3182     7.7817
  259.1000   140.7965     8.3178     7.7811
  259.2000   141.8893     8.3175     7.7804
  259.3000   143.3069     8.2828     7.7798
  259.4000   144.8677     8.2589     7.7790
  259.5000   146.0424     8.2585     7.8163
  259.6000   146.8532     8.2551     7.8323
  259.7000   147.3029     8.2003     7.8317
  259.8000   147.6274     8.2000     7.8310
  259.9000   147.8743     8.1996     7.8304
  260.0000   148.0606     8.1993     7.8297
  260.1000   148.0594     8.1902     7.8291
  260.2000   148.0580     8.1415     7.8284
  260.3000   148.2558     8.1412     7.8278
  260.4000   148.5026     8.1061     7.8271
  260.5000   148.7495     8.0838     7.8264
  260.6000   149.0304     8.0692     7.8258
  260.7000   149.5672     8.0268     7.8251
  260.8000   150.7013     8.0265     7.8245
  260.9000   151.7685     7.9863     7.8238
  261.0000   152.6425     7.9699     7.8232
  261.1000   153.3232     7.9696     7.8225
  261.2000   153.8183     7.9693     7.8218
  261.3000   154.4082     7.9689     7.8212
  261.4000   154.6077     7.9686     7.8205
  261.5000   154.8546     7.9683     7.8199
  261.6000   155.1920     7.9679     7.8192
  261.7000   155.6159     7.9676     7.8186
  261.8000   155.3114     7.9673     7.8179
  261.9000   153.9384     7.9669     7.8173
  262.0000   153.3172     7.9666     7.8166
  262.1000   153.1867     7.9663     7.8159
  262.2000   153.1855     7.9659     7.8152
  262.3000   153.1842     7.9656     7.7771
  262.4000   153.1828     7.9653     7.7596
  262.5000   153.1818     7.9649     7.7589
  262.6000   153.1806     7.9646     7.7583
  262.7000   153.2715     7.9643     7.7576
  262.8000   153.4814     7.9639     7.7570
  262.9000   153.4799     7.9636     7.7563
  263.0000   153.9394     7.9632     7.7557
  263.1000   154.2590     7.9629     7.7550
  263.2000   154.5059     7.9626     7.7544
  263.3000   154.8182     7.9623     7.7536
  263.4000   155.3027     7.9619     7.7139
  263.5000   155.5937     7.9616     7.6984
  263.6000   155.7964     7.9612     7.6781
  263.7000   155.8945     7.9236     7.6335
  263.8000   155.8933     7.8780     7.5891
  263.9000   155.8921     7.7987     7.5451
  264.0000   155.8908     7.6795     7.5013
  264.1000   155.6578     7.6327     7.4577
  264.2000   155.4085     7.5100     7.3992
  264.3000   155.1591     7.3818     7.3141
  264.4000   154.8428     7.2557     7.2237
  264.5000   154.3455     7.1316     7.1469
  264.6000   153.7622     7.0045     7.0364
  264.7000   153.3507     6.7760     6.8965
  264.8000   152.4025     6.6783     6.7392
  264.9000   151.1609     6.5411     6.5854
  265.0000   150.0001     6.3925     6.4112
  265.1000   149.2108     6.2537     6.2594
  265.2000   148.5092     6.1432     6.0819
  265.3000   148.1208     6.0754     5.8959
  265.4000   147.7479     6.0316     5.6954
  265.5000   147.3192     5.9969     5.4954
  265.6000   147.0699     5.9624     5.3450
  265.7000   146.7792     5.9250     5.2157
  265.8000   146.7782     5.8485     5.1123
  265.9000   146.7770     5.8192     5.0426
  266.0000   146.7758     5.8073     5.0161
  266.1000   146.7746     5.7928     5.0156
  266.2000   146.7733     5.7594     5.0152
  266.3000   146.7721     5.7260     5.0339
  266.4000   146.9511     5.6933     5.0625
  266.5000   147.1980     5.6856     5.0912
  266.6000   147.4449     5.6674     5.1203
  266.7000   147.7072     5.6456     5.1791
  266.8000   148.2810     5.6416     5.2146
  266.9000   149.3225     5.6057     5.2442
  267.0000   150.5616     5.6055     5.2739
  267.1000   151.6035     5.6053     5.3038
  267.2000   152.3465     5.6197     5.3363
  267.3000   153.1236     5.6441     5.3642
  267.4000   153.8326     5.6439     5.3946
  267.5000   154.3939     5.6437     5.4252
  267.6000   154.8889     5.6434     5.4645
  267.7000   155.2400     5.6432     5.5254
  267.8000   155.2388     5.6546     5.5619
  267.9000   155.2374     5.6823     5.5615
  268.0000   155.2364     5.6820     5.5808
  268.1000   155.2351     5.7118     5.6125
  268.2000   155.2339     5.7214     5.6385
  268.3000   155.1875     5.7370     5.6379
  268.4000   154.9284     5.7611     5.6687
  268.5000   154.4505     5.7608     5.6765
  268.6000   154.1366     5.7605     5.6760
  268.7000   153.7587     5.7875     5.6857
  268.8000   153.3349     5.8005     5.7149
  268.9000   153.0485     5.8130     5.7143
  269.0000   152.1938     5.8461     5.7139
  269.1000   151.7693     5.8814     5.7134
  269.2000   151.1151     5.8811     5.7129
  269.3000   150.1659     5.8809     5.7125
  269.4000   148.9712     5.8637     5.7120
  269.5000   147.9454     5.8299     5.7115
  269.6000   146.9841     5.7964     5.6853
  269.7000   146.1757     5.7579     5.6708
  269.8000   145.6905     5.7023     5.6474
  269.9000   145.4413     5.6775     5.5825
  270.0000   145.2121     5.6773     5.5130
  270.1000   145.2107     5.6770     5.4549
  270.2000   145.4230     5.6768     5.3922
  270.3000   145.9866     5.6766     5.3156
  270.4000   146.7297     5.6763     5.2322
  270.5000   147.5696     5.6761     5.1734
  270.6000   148.8412     5.6759     5.1383
  270.7000   149.5648     5.6756     5.1135
  270.8000   150.3079     5.6754     5.0838
  270.9000   150.9192     5.7035     5.0658
  271.0000   151.4141     5.7361     5.0654
  271.1000   151.9308     5.7545     5.0649
  271.2000   152.7732     5.7613     5.0645
  271.3000   152.9871     5.7944     5.0858
  271.4000   153.2340     5.7942     5.1302
  271.5000   153.3758     5.8196     5.1889
  271.6000   153.3746     5.8528     5.2511
  271.7000   153.3733     5.8862     5.3534
  271.8000   153.1289     5.9159     5.4071
  271.9000   153.0679     5.8745     5.4691
  272.0000   152.7999     5.8742     5.5458
  272.1000   152.2242     5.8740     5.6343
  272.2000   151.5022     5.8737     5.6986
  272.3000   150.9417     5.8735     5.6981
  272.4000   150.0745     5.8732     5.6976
  272.5000   149.4041     5.8730     5.6972
  272.6000   148.8000     5.8728     5.7082
  272.7000   148.1580     5.8725     5.7450
  272.8000   147.9054     5.8843     5.8164
  272.9000   147.1697     5.9132     5.8159
  273.0000   146.4244     5.9129     5.8623
  273.1000   145.8138     5.9439     5.9295
  273.2000   145.3164     5.9779     5.9883
  273.3000   144.8191     6.0120     6.0239
  273.4000   144.2617     6.0462     6.1048
  273.5000   143.8243     6.0821     6.1335
  273.6000   143.4901     6.1645     6.1901
  273.7000   143.1325     6.2227     6.2610
  273.8000   142.6885     6.2942     6.3263
  273.9000   142.4376     6.3525     6.3636
  274.0000   142.1899     6.3887     6.4336
  274.1000   141.9406     6.4272     6.4796
  274.2000   141.6913     6.4618     6.5361
  274.3000   141.5236     6.5258     6.5993
  274.4000   141.5491     6.6007     6.6367
  274.5000   141.8241     6.6765     6.6793
  274.6000   142.0428     6.7505     6.7122
  274.7000   142.2897     6.7950     6.7503
  274.8000   142.6466     6.8278     6.7886
  274.9000   143.0865     6.8916     6.8271
  275.0000   143.3333     6.9543     6.8658
  275.1000   143.5802     7.0016     6.8652
  275.2000   143.8270     7.0845     6.8956
  275.3000   144.0739     7.1633     6.9347
  275.4000   144.3208     7.2770     6.9601
  275.5000   144.5676     7.4256     6.9647
  275.6000   144.8411     7.5973     7.0077
  275.7000   144.8400     7.7606     7.0439
  275.8000   144.0065     7.8107     7.0557
  275.9000   142.9879     7.8104     7.0745
