~VERSION INFORMATION
 VERS.                2.0:   CWLS LOG ASCII STANDARD - VERSION 2.0
 WRAP.                 NO:   ONE LINE PER DEPTH STEP
~WELL INFORMATION
#MNEM.UNIT      DATA TYPE    INFORMATION
#----------   ------------   ------------------------------
 STRT.M            0.0000:   START DEPTH
 STOP.M          642.0000:   STOP DEPTH
 STEP.M            0.1000:   STEP LENGTH
 NULL.          -999.2500:   NO VALUE
 COMP.   FLUOR DANIEL INC:   COMPANY
 WELL.     71-1 X 3 #71-3:   WELL
 FLD .             TEAPOT:   FIELD
 LOC .       S3 T38N R78W:   LOCATION
 CNTY.            NATRONA:   COUNTY
 STAT.            WYOMING:   STATE
 CTRY. UNITED STATES OF AMERICA:   COUNTRY
 SRVC.      Western Atlas:   SERVICE COMPANY
 DATE.        04-JAN-1995:   LOGDATE
 API .       490252267900:   API NUMBER
~CURVE INFORMATION
#MNEM.UNIT       API CODE    CURVE DESCRIPTION
#----------   ------------   ------------------------------
 DEPT.M                  :   
 RILD.OHMM   07 120 46 00:   INDUCTION LOG DEEP RESISTIVITY
 RILM.OHMM   07 120 44 00:   INDUCTION LOG MEDIUM RESISTIVITY
 GRR .GAPI   07 310 01 00:   GAMMA RAY
~PARAMETER INFORMATION
#MNEM.UNIT          VALUE    DESCRIPTION
#----------   ------------   ------------------------------
 PD  .                 GL:   PERMANENT DATUM
 EPD .F              5123:   ELEVATION PERMANENT DATUM
 LMF .                 KB:   LOG MEASURED FROM
 DAPD.F                10:   FEET ABOVE PERMANENT DATUM
 DMF .                 KB:   DRILLING MEASURED FROM
 EKB .F              5133:   KELLING BUSHING
 EDF .F              5132:   DRILLING FLOOR
 EGL .F              5123:   GROUND LEVEL
 DATE.        04-JAN-1995:   RUN DATE
 RUN .                  1:   RUN NUMBER
 DD  .F               647:   DEPTH DRILLER
 DL  .F               650:   DEPTH LOGGER
 BLI .F               642:   BOTTOM LOG INTERVAL
 TLI .F                96:   TOP LOG INTERVAL
 CS  .IN            9.625:   CASING SIZE
 CBD .F                96:   CASING BOTTOM DRILLER
 CBL .F                96:   CASING BOTTOM LOGGER
 BS  .IN             8.75:   BIT SIZE
 BSD .F               647:   BIT SIZE AT DEPTH
 DFT .                AIR:   DRILLING FLUID TYPE
 MRT .F                91:   MAXIMUM RECORDED TEMPERATURE
 LUN .            HL 6530:   LOGGING UNIT NUMBER
 LUL .             CASPER:   LOGGING UNIT LOCATION
 ENGI.        VERN RAUTIO:   RECORDING ENGINEER
 WITN.        GARY STRONG:   WITNESSED BY
 CLNT.            A2DTECH:   CLIENT CODE
 ORIG.           5" PRINT:   ORIGIN OF DATA
 UWI .       490252267900:   UNIQUE WELL ID
 DICO. A2D Technologies, Inc.:   DIGITIZING COMPANY
~OTHER INFORMATION
~A    DEPT    RILD       RILM        GRR   
# ...
  400.4000     7.2598     7.6159   137.1650
  400.5000     7.2660     7.6159   137.1832
  400.6000     7.2722     7.6159   137.4697
  400.7000     7.2784     7.6159   137.6759
  400.8000     7.2846     7.6159   137.7740
  400.9000     7.2909     7.6159   137.9577
  401.0000     7.2971     7.6159   138.4492
  401.1000     7.3033     7.6159   138.9862
  401.2000     7.3095     7.6584   139.2097
  401.3000     7.3157     7.6690   139.4560
  401.4000     7.3219     7.6690   139.7023
  401.5000     7.3282     7.6690   139.8973
  401.6000     7.3344     7.6690   139.8985
  401.7000     7.3406     7.6690   139.6602
  401.8000     7.3468     7.6690   139.4163
  401.9000     7.3530     7.6690   139.0469
  402.0000     7.3592     7.6690   138.6264
  402.1000     7.3655     7.6690   138.3709
  402.2000     7.3717     7.6690   137.7912
  402.3000     7.3779     7.6690   137.5925
  402.4000     7.3841     7.6690   137.2061
  402.5000     7.3903     7.6690   136.6315
  402.6000     7.3965     7.6566   135.9259
  402.7000     7.4028     7.6159   135.3802
  402.8000     7.4090     7.6159   134.9478
  402.9000     7.4152     7.6159   134.7783
  403.0000     7.4214     7.6159   134.7795
  403.1000     7.4276     7.5993   134.7807
  403.2000     7.4338     7.5563   134.7819
  403.3000     7.4386     7.5109   134.7831
  403.4000     7.4386     7.5109   134.9611
  403.5000     7.4386     7.4806   135.2074
  403.6000     7.4222     7.4382   135.5794
  403.7000     7.4012     7.4073   136.3102
  403.8000     7.3871     7.4056   136.8017
  403.9000     7.3831     7.3560   137.2931
  404.0000     7.3360     7.3220   137.9216
  404.1000     7.3360     7.3051   138.5781
  404.2000     7.3360     7.3051   139.0694
  404.3000     7.3360     7.2992   139.6292
  404.4000     7.3285     7.2545   140.0524
  404.5000     7.2853     7.2545   140.6979
  404.6000     7.2461     7.2545   141.3374
  404.7000     7.2349     7.2545   141.8288
  404.8000     7.2349     7.2445   142.3542
  404.9000     7.2349     7.2043   142.8117
  405.0000     7.2332     7.2043   143.3031
  405.1000     7.1849     7.2043   143.7945
  405.2000     7.1849     7.2043   144.2860
  405.3000     7.1849     7.2043   144.7772
  405.4000     7.1849     7.2043   145.0235
  405.5000     7.1900     7.2043   145.4582
  405.6000     7.2349     7.2043   145.6870
  405.7000     7.2349     7.2043   145.7626
  405.8000     7.2349     7.2043   146.0089
  405.9000     7.2349     7.2043   146.2951
  406.0000     7.2349     7.2043   146.0907
  406.1000     7.2349     7.2043   145.8467
  406.2000     7.2349     7.2043   145.5114
  406.3000     7.2349     7.2269   145.0568
  406.4000     7.2349     7.2545   144.7905
  406.5000     7.2349     7.2545   144.3464
  406.6000     7.2349     7.2545   143.8573
  406.7000     7.2349     7.2545   143.4769
  406.8000     7.2349     7.2545   143.1815
  406.9000     7.2349     7.2545   142.6816
  407.0000     7.2349     7.2545   142.2035
  407.1000     7.2349     7.2545   142.0798
  407.2000     7.2349     7.2143   141.8296
  407.3000     7.1971     7.2043   141.4779
  407.4000     7.1566     7.1827   141.4675
  407.5000     7.1352     7.1420   141.1785
  407.6000     7.1254     7.1016   141.1795
  407.7000     7.0853     7.0557   141.1807
  407.8000     7.0454     7.0215   141.1819
  407.9000     7.0057     6.9569   141.1831
  408.0000     6.9662     6.8943   141.1844
  408.1000     6.9142     6.8553   141.1855
  408.2000     6.8403     6.8149   141.3466
  408.3000     6.7968     6.7779   141.4900
  408.4000     6.7634     6.7396   141.5372
  408.5000     6.7011     6.6822   141.7946
  408.6000     6.6258     6.6174   142.0299
  408.7000     6.5581     6.5800   142.2761
  408.8000     6.5196     6.5367   142.5224
  408.9000     6.4844     6.5058   142.8318
  409.0000     6.4215     6.4690   143.3233
  409.1000     6.3494     6.4324   143.8147
  409.2000     6.2780     6.3960   144.5003
  409.3000     6.2104     6.3576   145.2369
  409.4000     6.2104     6.3576   145.9735
  409.5000     6.1536     6.3576   146.7332
  409.6000     6.1248     6.3576   147.8503
  409.7000     6.1248     6.3576   148.9077
  409.8000     6.1203     6.3576   150.1345
  409.9000     6.0824     6.3576   151.3612
  410.0000     6.0824     6.3576   152.5880
  410.1000     6.0824     6.3576   153.8986
  410.2000     6.0824     6.3576   154.5849
  410.3000     6.0824     6.3525   155.1501
  410.4000     6.0824     6.3136   155.5271
  410.5000     6.1164     6.3136   155.7734
  410.6000     6.1248     6.3136   156.0193
  410.7000     6.1248     6.3136   156.0205
  410.8000     6.1248     6.3048   155.8332
  410.9000     6.1248     6.2699   155.4578
  411.0000     6.1248     6.2699   154.8943
  411.1000     6.1248     6.2699   154.1424
  411.2000     6.1248     6.2699   153.0056
  411.3000     6.1248     6.2699   151.9784
  411.4000     6.1193     6.2655   150.7541
  411.5000     6.0824     6.2265   149.8047
  411.6000     6.0824     6.1949   149.3157
  411.7000     6.0584     6.1834   148.7820
  411.8000     6.0403     6.1834   148.7831
  411.9000     6.0403     6.1755   148.7843
  412.0000     6.0392     6.1406   148.8943
  412.1000     5.9714     6.1406   149.1406
  412.2000     5.9571     6.1137   149.3922
  412.3000     5.9383     6.0602   149.6332
  412.4000     5.9048     5.9918   149.8795
  412.5000     5.8682     5.9242   150.0000
  412.6000     5.7939     5.8492   150.0012
  412.7000     5.7654     5.7343   150.0024
  412.8000     5.6916     5.6263   150.0038
  412.9000     5.5959     5.5314   150.0048
  413.0000     5.5017     5.4317   149.8630
  413.1000     5.4054     5.3071   149.6191
  413.2000     5.2898     5.1908   149.3461
  413.3000     5.1717     5.1178   148.8013
  413.4000     5.0562     5.0300   148.1512
  413.5000     4.9506     4.9339   147.5771
  413.6000     4.8697     4.8760   147.0880
  413.7000     4.8373     4.7820   146.6451
  413.8000     4.7929     4.7130   146.3904
  413.9000     4.7548     4.6500   146.1573
  414.0000     4.7280     4.5871   145.9134
  414.1000     4.7048     4.5096   145.7897
  414.2000     4.7048     4.4303   145.7909
  414.3000     4.6809     4.3824   145.8046
  414.4000     4.6545     4.3330   146.2960
  414.5000     4.6400     4.2964   146.7874
  414.6000     4.6400     4.2721   147.5536
  414.7000     4.6400     4.2494   148.3747
  414.8000     4.6400     4.2494   148.8895
  414.9000     4.6400     4.2697   149.7271
  415.0000     4.6400     4.2940   150.1511
  415.1000     4.6400     4.3184   150.4880
  415.2000     4.6420     4.3429   150.6369
  415.3000     4.6723     4.3691   150.5976
  415.4000     4.6723     4.4160   150.3372
  415.5000     4.6887     4.4303   149.8812
  415.6000     4.7048     4.4550   149.0489
  415.7000     4.7048     4.4990   147.6110
  415.8000     4.7048     4.5257   145.5938
  415.9000     4.7297     4.5868   143.3909
  416.0000     4.7471     4.6081   141.9215
  416.1000     4.7605     4.6500   140.2634
  416.2000     4.7773     4.7031   138.9439
  416.3000     4.8043     4.7567   138.2634
  416.4000     4.8316     4.8154   138.2824
  416.5000     4.8590     4.8659   138.5682
  416.6000     4.8865     4.9214   138.7750
  416.7000     4.9235     4.9776   139.3191
  416.8000     4.9824     5.0343   139.9638
  416.9000     5.0781     5.0917   140.4203
  417.0000     5.1543     5.1499   140.6889
  417.1000     5.2232     5.2087   140.9130
  417.2000     5.2825     5.2681   140.9933
  417.3000     5.3484     5.3388   140.9946
  417.4000     5.4431     5.4265   140.8918
  417.5000     5.5328     5.4947   140.3928
  417.6000     5.6040     5.5795   139.9138
  417.7000     5.6677     5.6536   139.4247
  417.8000     5.7321     5.7180   138.9357
  417.9000     5.7987     5.7833   138.4468
  418.0000     5.9159     5.8492   137.9818
  418.1000     5.9433     5.9497   137.9833
  418.2000     6.0174     6.0520   137.9843
  418.3000     6.1075     6.1365   138.1287
  418.4000     6.1768     6.2064   138.3750
  418.5000     6.2536     6.2772   138.5921
