~VERSION INFORMATION
 VERS.                2.0:   CWLS LOG ASCII STANDARD - VERSION 2.0
 WRAP.                 NO:   ONE LINE PER DEPTH STEP
~WELL INFORMATION
#MNEM.UNIT      DATA TYPE    INFORMATION
#----------   ------------   ------------------------------
 STRT.F           19.0000:   START DEPTH
 STOP.F          600.0000:   STOP DEPTH
 STEP.F            0.5000:   STEP LENGTH
 NULL.          -999.2500:   NO VALUE
 COMP. FENIX & SCISSON INC:   COMPANY
 WELL.       NPR-3 #18-34:   WELL
 FLD .             TEAPOT:   FIELD
 LOC .      S34 T39N R78W:   LOCATION
 CNTY.            NATRONA:   COUNTY
 STAT.            WYOMING:   STATE
 CTRY. UNITED STATES OF AMERICA:   COUNTRY
 SRVC.           BIRDWELL:   SERVICE COMPANY
 DATE.        10-AUG-1978:   LOGDATE
 API .       490251068100:   API NUMBER
~CURVE INFORMATION
#MNEM.UNIT       API CODE    CURVE DESCRIPTION
#----------   ------------   ------------------------------
 DEPT.F                  :   
 SPR .MV     05 010 01 00:   SPONTANEOUS POTENTIAL FROM RES.
 SN  .OHMM   05 040 16 00:   SHORT NORMAL 16"
 ILD .OHMM   05 120 46 00:   INDUCTION LOG DEEP
 GRD .GAPI   45 310 01 00:   GAMMA RAY FROM DENSITY LOG
 CALD.IN     45 280 60 00:   CALIPER
 CORR.G/C3   45 356 01 00:   DENSITY CORRECTION
 DPHI.DEC    45 890 12 00:   DENSITY POROSITY SANDSTONE
 DEN .G/C3   45 350 01 00:   COMPENSATED BULK DENSTIY
~PARAMETER INFORMATION
#MNEM.UNIT          VALUE    DESCRIPTION
#----------   ------------   ------------------------------
 PD  .                 GL:   PERMANENT DATUM
 EPD .F              5159:   ELEVATION PERMANENT DATUM
 LMF .                 KB:   LOG MEASURED FROM
 DAPD.F                 4:   FEET ABOVE PERMANENT DATUM
 DMF .                 KB:   DRILLING MEASURED FROM
 EKB .F              5163:   KELLING BUSHING
 EGL .F              5159:   GROUND LEVEL
 DATE.            8-10-78:   RUN DATE
 RUN .                  1:   RUN NUMBER
 DD  .F               605:   DEPTH DRILLER
 DL  .F               606:   DEPTH LOGGER
 BLI .F               600:   BOTTOM LOG INTERVAL
 TLI .F                35:   TOP LOG INTERVAL
 CS  .IN            8.625:   CASING SIZE
 CBD .F                40:   CASING BOTTOM DRILLER
 BS  .IN            7.875:   BIT SIZE
 BSD .F               605:   BIT SIZE AT DEPTH
 DFT .                KCL:   DRILLING FLUID TYPE
 DFD .                8.7:   DRILLING FLUID DENSITY
 DFV .                 33:   DRILLING FLUID VISCOSITY
 DFPH.                  9:   DRILLING FLUID PH
 MSS .          FLOW LINE:   MUD SAMPLE SOURCE
 RMS .OHMM            .14:   RESISTIVITY MUD SAMPLE
 MST .F                88:   MUD SAMPLE TEMPERATURE
 MFSS.               MEAS:   MUD FILTRATE SAMPLE SOURCE
 MCSS.               MEAS:   MUD CAKE SAMPLE SOURCE
 TCS .HRS               1:   TIME CURCULATED STOPPED
 LUN .               3006:   LOGGING UNIT NUMBER
 LUL .               CASP:   LOGGING UNIT LOCATION
 ENGI.             MILLER:   RECORDING ENGINEER
 WITN.           MCGINLEY:   WITNESSED BY
 CLNT.            A2DTECH:   CLIENT CODE
 ORIG.           5" PRINT:   ORIGIN OF DATA
 UWI .       490251068100:   UNIQUE WELL ID
 DICO. A2D Technologies, Inc.:   DIGITIZING COMPANY
~OTHER INFORMATION
~A   DEPT      SPR         SN        ILD         GRD      CALD       CORR       DPHI        DEN   
# ...
  505.0000   -26.8308    10.0422    10.8967    72.7697     7.8889     0.0249     0.1671     2.4038
  505.5000   -26.9324     9.8515    10.6677    73.1929     7.9205     0.0210     0.1616     2.4080
  506.0000   -27.0324     9.6645    10.4436    71.9022     7.9032     0.0171     0.1568     2.4190
  506.5000   -27.1326     9.4810    10.2242    70.1701     7.8866     0.0169     0.1580     2.4181
  507.0000   -27.2328     9.3188    10.0307    70.0672     7.8699     0.0169     0.1547     2.4196
  507.5000   -27.3330     9.3014     9.9885    71.4845     7.8534     0.0169     0.1524     2.4227
  508.0000   -27.4332     9.2856     9.9502    71.7827     7.8405     0.0169     0.1536     2.4237
  508.5000   -27.5334     9.2697     9.9122    71.1750     7.8351     0.0169     0.1535     2.4246
  509.0000   -27.6336     9.2540     9.8738    70.4019     7.8295     0.0169     0.1533     2.4258
  509.5000   -27.7339     9.2382     9.8425    70.7867     7.8242     0.0168     0.1528     2.4268
  510.0000   -27.8333     9.2225     9.8230    72.1493     7.8045     0.0211     0.1499     2.4281
  510.5000   -27.9206     9.2068     9.8039    73.5093     7.7819     0.0272     0.1469     2.4355
  511.0000   -27.9786     9.1911     9.7848    73.0549     7.7794     0.0342     0.1453     2.4376
  511.5000   -28.0368     9.1755     9.7658    71.6692     7.8790     0.0429     0.1449     2.4393
  512.0000   -28.1028     9.1598     9.7468    70.5003     7.8460     0.0515     0.1364     2.4458
  512.5000   -28.3914     9.1442     9.7279    72.5741     7.7519     0.0577     0.1317     2.4535
  513.0000   -28.6972     9.1287     9.7090    75.1215     7.8566     0.0598     0.1264     2.4625
  513.5000   -28.9176     9.1131     9.6902    75.5579     7.6556     0.0619     0.1212     2.4762
  514.0000   -29.0148     9.0976     9.6713    73.4499     7.7764     0.0677     0.1181     2.4771
  514.5000   -29.1159     9.0821     9.6525    71.0653     7.6678     0.0757     0.1181     2.4773
  515.0000   -29.2160     9.0667     9.6338    68.6470     7.7823     0.0803     0.1195     2.4763
  515.5000   -29.3160     9.0512     9.6151    67.9186     7.8215     0.0831     0.1202     2.4754
  516.0000   -29.4163     9.0358     9.5963    71.0619     7.8114     0.0854     0.1204     2.4745
  516.5000   -29.5332     9.0204     9.5791    73.9468     7.8177     0.0870     0.1230     2.4736
  517.0000   -29.7316     9.0050     9.5795    75.5613     7.8925     0.0889     0.1262     2.4727
  517.5000   -29.9131     8.9894     9.5807    77.1599     7.9608     0.0970     0.1257     2.4736
  518.0000   -30.2602     8.9823     9.5267    79.5921     7.9623     0.1052     0.1156     2.4814
  518.5000   -30.5028     9.0512     9.4862    82.3954     7.9819     0.1130     0.1086     2.4983
  519.0000   -30.4994     9.0976     9.4459    84.5413     8.0115     0.1290     0.1019     2.5064
  519.5000   -30.4983     9.1442     9.4058    82.9435     8.0415     0.1383     0.0890     2.5276
  520.0000   -30.4883     9.1911     9.3658    79.4180     8.0719     0.1296     0.0936     2.5224
  520.5000   -31.0156     9.2335     9.3260    76.0319     8.0790     0.1110     0.1000     2.5120
  521.0000   -32.1267     9.1302     9.2863    77.3770     8.0753     0.0941     0.0892     2.5008
  521.5000   -32.7439     9.0374     9.2469    79.4484     8.0714     0.0378     0.1060     2.4647
  522.0000   -32.8439     8.9454     9.2076    80.5272     8.0674     0.0233     0.1277     2.4667
  522.5000   -32.8966     8.8878     9.1684    80.5822     8.0640     0.0207     0.1245     2.4684
  523.0000   -32.8816     8.8638     9.1354    80.6318     8.0813     0.0189     0.1205     2.4700
  523.5000   -32.8685     8.8398     9.1083    80.6844     8.1640     0.0170     0.1258     2.4710
  524.0000   -32.8553     8.8159     9.0813    80.7401     8.2187     0.0151     0.1318     2.4588
  524.5000   -32.8421     8.7921     9.0544    80.9400     8.2031     0.0153     0.1349     2.4573
  525.0000   -32.8289     8.7682     9.0275    81.7604     8.1912     0.0157     0.1337     2.4557
  525.5000   -32.8158     8.7437     9.0008    81.9898     8.1801     0.0161     0.1349     2.4541
  526.0000   -32.8026     8.7135     8.9741    80.6549     8.1692     0.0165     0.1333     2.4537
  526.5000   -32.7894     8.6792     8.9475    80.4898     8.1643     0.0170     0.1300     2.4585
  527.0000   -32.7762     8.6450     8.9210    80.7546     8.1742     0.0249     0.1247     2.4682
  527.5000   -32.7630     8.6110     8.8945    81.0660     8.1679     0.0252     0.1221     2.4687
  528.0000   -32.7498     8.5772     8.8682    81.3520     8.1237     0.0222     0.1285     2.4659
  528.5000   -32.7366     8.5437     8.8419    80.8452     8.1164     0.0191     0.1361     2.4571
  529.0000   -32.7234     8.5097     8.8183    80.1693     8.1100     0.0169     0.1354     2.4545
  529.5000   -32.7099     8.4315     8.7443    80.2841     8.1039     0.0176     0.1352     2.4522
  530.0000   -32.7016     8.3351     8.6775    80.4820     8.0646     0.0184     0.1373     2.4517
  530.5000   -32.7530     8.2398     8.6112    79.9976     8.0131     0.0196     0.1373     2.4517
  531.0000   -32.8041     8.1925     8.5782    78.4156     8.0069     0.0218     0.1334     2.4555
  531.5000   -32.8615     8.2539     8.6153    79.0611     8.0155     0.0239     0.1315     2.4616
  532.0000   -33.1071     8.2950     8.6401    82.7227     8.0244     0.0256     0.1300     2.4619
  532.5000   -34.0758     8.3364     8.6575    84.5109     8.0333     0.0269     0.1244     2.4712
  533.0000   -34.1057     8.3779     8.4273    84.9070     8.0421     0.0281     0.1151     2.4813
  533.5000   -34.1011     8.4197     8.2551    84.6534     8.0508     0.0281     0.1159     2.4847
  534.0000   -34.0990     8.4617     8.0840    83.0015     8.0592     0.0257     0.1196     2.4797
  534.5000   -34.0931     8.4997     7.9630    83.1965     8.1005     0.0234     0.1205     2.4748
  535.0000   -34.3586     8.4216     7.9348    83.4906     8.1493     0.0230     0.1205     2.4740
  535.5000   -34.6656     8.3444     7.9103    83.6393     8.1248     0.0232     0.1209     2.4713
  536.0000   -34.9132     8.2217     7.8556    82.6648     8.0745     0.0233     0.1288     2.4651
  536.5000   -34.9466     8.0884     7.7761    80.9899     8.1350     0.0235     0.1140     2.4629
  537.0000   -34.9833     7.9564     7.7298    80.9741     8.1179     0.0236     0.1258     2.4682
  537.5000   -35.0204     7.8267     7.6839    81.0661     8.0604     0.0238     0.1261     2.4716
  538.0000   -35.0571     7.6992     7.5241    83.9392     8.0616     0.0239     0.1214     2.4717
  538.5000   -35.0916     7.5812     7.3361    86.7674     8.0617     0.0241     0.1264     2.4631
  539.0000   -35.2166     7.4724     7.3320    86.6226     8.0620     0.0242     0.1349     2.4502
  539.5000   -35.3532     7.3193     7.3435    85.1859     8.0788     0.0244     0.1367     2.4478
  540.0000   -35.4900     7.1534     6.3946    84.0281     8.1210     0.0245     0.1373     2.4446
  540.5000   -35.6259     7.0057     5.8212    89.0895     8.1606     0.0247     0.1473     2.4333
  541.0000   -35.6761     6.7743     5.5410    92.0348     8.1521     0.0249     0.1571     2.4222
  541.5000   -35.6227     6.5277     5.3654   100.6119     8.1395     0.0297     0.1608     2.4137
  542.0000   -35.5697     6.2893     5.3162   111.5743     8.2416     0.0409     0.1391     2.4209
  542.5000   -35.5220     5.9900     5.4755   114.3963     8.2170     0.0416     0.1240     2.4560
  543.0000   -35.2834     6.0645     5.6245   105.7839     8.1230     0.0263     0.1125     2.4881
  543.5000   -34.9179     6.1594     5.8121    96.4000     8.1107     0.0147     0.1155     2.4870
  544.0000   -34.5593     6.6934     6.0215    88.2213     8.1010     0.0149     0.1200     2.4809
  544.5000   -34.2627     7.2252     6.2164    85.5087     8.0910     0.0149     0.1216     2.4776
  545.0000   -34.1287     7.7132     7.2489    83.9593     8.0823     0.0149     0.1201     2.4779
