~VERSION INFORMATION
 VERS.                2.0:   CWLS LOG ASCII STANDARD - VERSION 2.0
 WRAP.                 NO:   ONE LINE PER DEPTH STEP
~WELL INFORMATION
#MNEM.UNIT      DATA TYPE    INFORMATION
#----------   ------------   ------------------------------
 STRT.F            0.0000:   START DEPTH
 STOP.F          596.0000:   STOP DEPTH
 STEP.F            0.1000:   STEP LENGTH
 NULL.          -999.2500:   NO VALUE
 COMP. BROWN JOHN E&C INC:   COMPANY
 WELL.    72-5 SX-3 #72-3:   WELL
 FLD .             TEAPOT:   FIELD
 LOC .       S3 T38N R78W:   LOCATION
 CNTY.            NATRONA:   COUNTY
 STAT.            WYOMING:   STATE
 CTRY. UNITED STATES OF AMERICA:   COUNTRY
 SRVC.      Western Atlas:   SERVICE COMPANY
 DATE.        15-APR-1992:   LOGDATE
 API .       490252250900:   API NUMBER
~CURVE INFORMATION
#MNEM.UNIT       API CODE    CURVE DESCRIPTION
#----------   ------------   ------------------------------
 DEPT.F                  :   
 GRR .GAPI   07 310 01 00:   GAMMA RAY
 RILD.OHMM   07 120 46 00:   INDUCTION LOG DEEP RESISTIVITY
 RILM.OHMM   07 120 44 00:   INDUCTION LOG MEDIUM RESISTIVITY
~PARAMETER INFORMATION
#MNEM.UNIT          VALUE    DESCRIPTION
#----------   ------------   ------------------------------
 PD  .                 GL:   PERMANENT DATUM
 EPD .F              5132:   ELEVATION PERMANENT DATUM
 LMF .                 KB:   LOG MEASURED FROM
 DAPD.F                 5:   FEET ABOVE PERMANENT DATUM
 DMF .                 KB:   DRILLING MEASURED FROM
 EKB .F              5137:   KELLING BUSHING
 EDF .F              5136:   DRILLING FLOOR
 EGL .F              5132:   GROUND LEVEL
 DATE.        15-APR-1992:   RUN DATE
 RUN .                  1:   RUN NUMBER
 DD  .F               605:   DEPTH DRILLER
 DL  .F               599:   DEPTH LOGGER
 BLI .F               596:   BOTTOM LOG INTERVAL
 TLI .F                46:   TOP LOG INTERVAL
 CS  .IN            8.625:   CASING SIZE
 CBD .F                48:   CASING BOTTOM DRILLER
 CBL .F                46:   CASING BOTTOM LOGGER
 BS  .IN            7.875:   BIT SIZE
 BSD .F               605:   BIT SIZE AT DEPTH
 DFT .                AIR:   DRILLING FLUID TYPE
 LUN .            HL-6321:   LOGGING UNIT NUMBER
 LUL .        RK. SPRINGS:   LOGGING UNIT LOCATION
 ENGI.            TRIBBLE:   RECORDING ENGINEER
 WITN.             STRONG:   WITNESSED BY
 CLNT.            A2DTECH:   CLIENT CODE
 ORIG.           5" PRINT:   ORIGIN OF DATA
 UWI .       490252250900:   UNIQUE WELL ID
 DICO. A2D Technologies, Inc.:   DIGITIZING COMPANY
~OTHER INFORMATION
~A    DEPT     GRR       RILD       RILM   
# ...
  182.0000   132.5212     8.4082     8.2681
  182.1000   133.0526     8.4082     8.2681
  182.2000   133.2788     8.4082     8.2681
  182.3000   133.1800     8.4082     8.2681
  182.4000   132.9309     8.4082     8.2681
  182.5000   132.5606     8.3828     8.2681
  182.6000   131.8171     8.3496     8.2681
  182.7000   131.0733     8.3496     8.2681
  182.8000   130.3297     8.3496     8.2681
  182.9000   129.4454     8.3496     8.2681
  183.0000   128.5394     8.3496     8.2681
  183.1000   127.7958     8.3309     8.2681
  183.2000   126.9719     8.2915     8.2681
  183.3000   126.3085     8.2915     8.2681
  183.4000   125.7297     8.2915     8.2681
  183.5000   125.1243     8.2915     8.2681
  183.6000   124.4339     8.2915     8.2681
  183.7000   123.9327     8.2915     8.2623
  183.8000   123.4412     8.2915     8.2106
  183.9000   123.1339     8.2915     8.2106
  184.0000   122.7515     8.2915     8.2106
  184.1000   122.3327     8.2915     8.2106
  184.2000   122.0618     8.2915     8.2106
  184.3000   121.4973     8.2915     8.2106
  184.4000   120.8557     8.2915     8.2106
  184.5000   120.1121     8.2915     8.2106
  184.6000   119.2666     8.2602     8.2106
  184.7000   118.2757     8.2337     8.1961
  184.8000   117.2460     8.2337     8.1534
  184.9000   116.0564     8.2337     8.1534
  185.0000   115.1818     8.2337     8.1534
  185.1000   114.6903     8.2337     8.1534
  185.2000   114.5115     8.2091     8.1534
  185.3000   114.5097     8.1764     8.1452
  185.4000   114.5076     8.1764     8.0967
  185.5000   114.7121     8.1764     8.0967
  185.6000   115.4084     8.1764     8.0633
  185.7000   116.3012     8.1478     8.0404
  185.8000   117.0412     8.1195     8.0279
  185.9000   117.8320     8.1195     7.9844
  186.0000   118.5212     8.1195     7.9844
  186.1000   119.2612     8.0764     7.9844
  186.2000   120.1200     8.0629     7.9575
  186.3000   121.0443     8.0629     7.9289
  186.4000   121.7769     8.0629     7.9289
  186.5000   122.3663     8.0618     7.9289
  186.6000   122.9612     8.0161     7.9289
  186.7000   123.5582     8.0068     7.9289
  186.8000   124.0509     7.9809     7.9081
  186.9000   124.5436     7.9510     7.8737
  187.0000   125.0847     7.9510     7.8737
  187.1000   125.5291     7.9510     7.8737
  187.2000   126.1891     7.9510     7.8737
  187.3000   126.9291     7.9213     7.8737
  187.4000   127.6691     7.8957     7.8590
  187.5000   128.4091     7.8865     7.8189
  187.6000   129.1490     7.8407     7.8189
  187.7000   129.8891     7.8407     7.8189
  187.8000   130.6291     7.8407     7.7901
  187.9000   131.0491     7.8407     7.7645
  188.0000   130.7757     7.8276     7.7645
  188.1000   130.2161     7.7861     7.7645
  188.2000   129.9988     7.7861     7.7645
  188.3000   129.7497     7.7490     7.7645
  188.4000   129.6048     7.7318     7.7417
  188.5000   129.6515     7.7150     7.7105
  188.6000   129.9042     7.6780     7.7077
  188.7000   130.1424     7.6780     7.6568
  188.8000   130.3879     7.6375     7.6568
  188.9000   130.6333     7.6245     7.6303
  189.0000   130.8788     7.6245     7.6035
  189.1000   131.1242     7.6245     7.5967
  189.2000   131.4082     7.6245     7.5506
  189.3000   131.6151     7.6245     7.5506
  189.4000   131.7079     7.6245     7.5506
  189.5000   131.7061     7.6245     7.5506
  189.6000   131.6630     7.6245     7.5506
  189.7000   131.3993     7.6245     7.5506
  189.8000   131.1648     7.6245     7.5506
  189.9000   130.9158     7.6245     7.5506
  190.0000   130.6667     7.6245     7.5506
  190.1000   130.4176     7.6245     7.5506
  190.2000   130.1685     7.6332     7.5506
  190.3000   129.8730     7.6780     7.5506
  190.4000   129.6703     7.6780     7.5506
  190.5000   129.2758     7.6780     7.5506
  190.6000   128.8691     7.6780     7.5506
  190.7000   128.5861     7.6780     7.5598
  190.8000   128.0459     7.6780     7.6035
  190.9000   127.3679     7.6780     7.6035
  191.0000   126.7940     7.7146     7.6035
  191.1000   126.1836     7.7318     7.6267
  191.2000   125.4982     7.7318     7.6568
  191.3000   124.9993     7.7386     7.6603
  191.4000   124.2558     7.7861     7.7105
  191.5000   123.5121     7.8272     7.7105
  191.6000   122.6303     7.8407     7.7381
  191.7000   121.5570     7.8407     7.7645
  191.8000   120.3988     7.8515     7.7645
  191.9000   119.8440     7.8957     7.7645
  192.0000   120.2788     7.8957     7.7645
  192.1000   120.6091     7.9312     7.7965
  192.2000   121.1746     7.9764     7.8189
  192.3000   122.0600     8.0068     7.8309
  192.4000   122.5624     8.0116     7.8737
  192.5000   123.0455     8.0629     7.8737
  192.6000   123.5382     8.0629     7.9104
  192.7000   123.6382     8.0629     7.9556
  192.8000   123.3891     8.0629     7.9844
  192.9000   123.1400     8.0719     7.9844
  193.0000   122.8543     8.1195     7.9844
  193.1000   122.4309     8.1195     8.0259
  193.2000   122.0897     8.1538     8.0718
  193.3000   121.9400     8.1764     8.1178
  193.4000   121.9382     8.1764     8.1534
  193.5000   121.9363     8.1791     8.1536
  193.6000   122.4048     8.2337     8.2002
  193.7000   122.8976     8.2337     8.2106
  193.8000   123.3903     8.2621     8.2106
  193.9000   123.9509     8.2915     8.2106
  194.0000   124.6667     8.2915     8.2106
  194.1000   124.9554     8.2915     8.2106
  194.2000   125.1576     8.2915     8.2106
  194.3000   124.9594     8.3243     8.2408
  194.4000   124.5552     8.3496     8.2681
  194.5000   124.3060     8.3496     8.2681
  194.6000   124.0374     8.3501     8.2681
  194.7000   123.8079     8.3978     8.2681
  194.8000   123.3867     8.4082     8.3030
  194.9000   122.8903     8.4348     8.3260
  195.0000   122.3940     8.4671     8.3260
  195.1000   121.8879     8.4671     8.3289
  195.2000   120.8970     8.4671     8.3844
  195.3000   120.4951     8.4671     8.3844
  195.4000   120.5273     8.4983     8.3844
  195.5000   120.8576     8.5265     8.4026
  195.6000   121.3212     8.5265     8.4431
  195.7000   121.5931     8.5265     8.4431
  195.8000   122.0327     8.5265     8.4431
  195.9000   122.6903     8.5265     8.4431
  196.0000   123.4303     8.5265     8.4431
  196.1000   124.3303     8.5265     8.4431
  196.2000   125.8266     8.5265     8.4431
  196.3000   127.5390     8.5265     8.4431
  196.4000   129.2680     8.5265     8.4431
  196.5000   130.7303     8.5265     8.4431
  196.6000   131.6545     8.5265     8.4431
  196.7000   131.9218     8.5265     8.4431
  196.8000   132.4822     8.5265     8.4431
  196.9000   132.4806     8.5265     8.4431
  197.0000   132.3212     8.5265     8.4751
  197.1000   132.0721     8.5265     8.5023
  197.2000   131.7769     8.5265     8.5023
  197.3000   131.2611     8.5265     8.5023
  197.4000   130.5467     8.5265     8.5023
  197.5000   129.0758     8.5265     8.5023
  197.6000   127.4692     8.5265     8.5023
  197.7000   126.1946     8.5265     8.5023
  197.8000   125.4800     8.5265     8.5023
  197.9000   125.1894     8.5265     8.5023
  198.0000   125.3940     8.5265     8.5023
  198.1000   125.6394     8.5265     8.4722
  198.2000   125.9794     8.5265     8.4431
  198.3000   126.4333     8.5265     8.4431
  198.4000   126.6956     8.5265     8.4431
  198.5000   127.1545     8.5265     8.4431
  198.6000   127.4727     8.4912     8.4431
  198.7000   127.7182     8.4671     8.4431
  198.8000   127.9006     8.4671     8.4431
  198.9000   127.8988     8.4671     8.4431
  199.0000   127.8966     8.4671     8.4431
  199.1000   127.8951     8.4671     8.4431
  199.2000   127.8933     8.4387     8.4431
  199.3000   127.7170     8.4082     8.4259
  199.4000   127.1576     8.4082     8.3844
  199.5000   126.0695     8.4082     8.3844
  199.6000   124.9526     8.3648     8.3413
  199.7000   123.7144     8.3173     8.3260
  199.8000   122.5878     8.2915     8.3046
  199.9000   121.5969     8.2808     8.2591
  200.0000   120.6061     8.2337     8.2191
  200.1000   120.1900     8.2179     8.1791
