~VERSION INFORMATION
 VERS.                2.0:   CWLS LOG ASCII STANDARD - VERSION 2.0
 WRAP.                 NO:   ONE LINE PER DEPTH STEP
~WELL INFORMATION
#MNEM.UNIT      DATA TYPE    INFORMATION
#----------   ------------   ------------------------------
 STRT.F           30.0000:   START DEPTH
 STOP.F          562.0000:   STOP DEPTH
 STEP.F            0.5000:   STEP LENGTH
 NULL.          -999.2500:   NO VALUE
 COMP. LAWRENCE/ALLISON INC:   COMPANY
 WELL. NPR 3 #53-16-SX-10:   WELL
 FLD .             TEAPOT:   FIELD
 LOC .      S10 T38N R78W:   LOCATION
 CNTY.            NATRONA:   COUNTY
 STAT.            WYOMING:   STATE
 CTRY. UNITED STATES OF AMERICA:   COUNTRY
 SRVC.      Dresser Atlas:   SERVICE COMPANY
 DATE.        27-AUG-1984:   LOGDATE
 API .       490251098200:   API NUMBER
~CURVE INFORMATION
#MNEM.UNIT       API CODE    CURVE DESCRIPTION
#----------   ------------   ------------------------------
 DEPT.F                  :   
 RILD.OHMM   07 120 46 00:   INDUCTION LOG DEEP RESISTIVITY
 RILM.OHMM   07 120 44 00:   INDUCTION LOG MEDIUM RESISTIVITY
 RFOC.OHMM   07 220 04 00:   RESISTIVITY FOCUSED LOG
 SPR .MV     07 010 01 00:   SPONTANEOUS POTENTIAL
 AC  .US/F   60 520 00 00:   ACOUSTIC SONIC
 DEN .G/C3   45 350 01 00:   COMPENSATED BULK DENSTIY
 CORR.G/C3   45 356 01 00:   DENSITY CORRECTION
 CNC .DEC    42 890 01 00:   NEUTRON POROSITY LIMESTONE
 CALD.IN     45 280 60 00:   CALIPER
 GRD .GAPI   45 310 01 00:   GAMMA RAY FROM DENSITY LOG
 PORD.DEC    45 890 10 00:   POROSITY DENSITY LIMESTONE
~PARAMETER INFORMATION
#MNEM.UNIT          VALUE    DESCRIPTION
#----------   ------------   ------------------------------
 PD  .                 GL:   PERMANENT DATUM
 EPD .F              5199:   ELEVATION PERMANENT DATUM
 LMF .                 GL:   LOG MEASURED FROM
 DMF .                 GL:   DRILLING MEASURED FROM
 EGL .F              5199:   GROUND LEVEL
 DATE.            8-27-84:   RUN DATE
 RUN .                  1:   RUN NUMBER
 DD  .F               550:   DEPTH DRILLER
 DL  .F               549:   DEPTH LOGGER
 BLI .F               547:   BOTTOM LOG INTERVAL
 TLI .F                30:   TOP LOG INTERVAL
 CS  .IN            9.625:   CASING SIZE
 CBD .F                40:   CASING BOTTOM DRILLER
 CBL .F                44:   CASING BOTTOM LOGGER
 BS  .IN            7.875:   BIT SIZE
 BSD .F               550:   BIT SIZE AT DEPTH
 DFT .          KCL/WATER:   DRILLING FLUID TYPE
 MSS .           MUD TANK:   MUD SAMPLE SOURCE
 RMS .OHMM            .28:   RESISTIVITY MUD SAMPLE
 MST .F                78:   MUD SAMPLE TEMPERATURE
 TCS .HRS               4:   TIME CURCULATED STOPPED
 LUN .               4082:   LOGGING UNIT NUMBER
 LUL .          ROOSEVELT:   LOGGING UNIT LOCATION
 ENGI.            FRANCIS:   RECORDING ENGINEER
 WITN.              FIVAS:   WITNESSED BY
 CLNT.            A2DTECH:   CLIENT CODE
 ORIG.       2", 5" PRINT:   ORIGIN OF DATA
 UWI .       490251098200:   UNIQUE WELL ID
 DICO. A2D Technologies, Inc.:   DIGITIZING COMPANY
~OTHER INFORMATION
~A   DEPT     RILD       RILM       RFOC        SPR         AC        DEN       CORR          CNC     CALD         GRD      PORD   
# ...
  457.0000     8.7489     9.3156    10.3569   -11.5895    95.9327     2.5373     0.0838     0.2340     8.5050   114.7736     0.0851
  457.5000     8.6434     9.1837    10.2687   -11.7366    95.9494     2.5399     0.0863     0.2270     8.5050   115.5096     0.0839
  458.0000     8.5393     9.0536    10.1895   -11.8910    96.2533     2.5480     0.0813     0.2272     8.5050   116.2605     0.0793
  458.5000     8.4364     8.9254    10.2127   -12.0446    96.5631     2.5587     0.0761     0.2306     8.5054   115.9439     0.0747
  459.0000     8.3347     8.7990    10.2348   -12.1980    96.6024     2.5694     0.0746     0.2340     8.5059   115.0928     0.0676
  459.5000     8.2690     8.6743    10.2566   -12.3514    96.6425     2.5791     0.0774     0.2372     8.5063   114.8457     0.0620
  460.0000     8.2119     8.5515    10.2840   -12.5048    97.0252     2.5731     0.0762     0.2372     8.5068   114.7815     0.0614
  460.5000     8.1552     8.4559     9.9339   -12.6581    97.7778     2.5547     0.0663     0.2332     8.5072   114.7226     0.0731
  461.0000     8.0989     8.3926     9.4636   -12.8118    98.5304     2.5366     0.0565     0.2369     8.5077   114.6619     0.0848
  461.5000     8.0429     8.3937     9.0155   -12.9654    99.2685     2.5215     0.0478     0.2378     8.5081   114.6046     0.0936
  462.0000     7.9874     8.3894     8.8710   -13.1166    99.3687     2.5240     0.0604     0.2307     8.5086   114.5460     0.0923
  462.5000     7.9401     8.6968     9.4745   -13.1363    98.1162     2.5277     0.0742     0.2197     8.5090   114.1984     0.0902
  463.0000     8.3287     8.9878    10.1895   -12.9708    96.5915     2.5314     0.0736     0.2119     8.5095   112.1037     0.0881
  463.5000     8.6843     9.2868    10.8343   -12.8073    95.4881     2.5351     0.0617     0.2130     8.5099   109.9654     0.0860
  464.0000     9.0551     9.5956    11.0991   -12.6430    94.8182     2.5346     0.0438     0.2160     8.5104   110.8047     0.0856
  464.5000     9.4417     9.9147    11.3715   -12.4790    94.1483     2.5293     0.0259     0.2172     8.5108   112.0133     0.0883
  465.0000     9.8444    10.2443    11.6506   -12.3150    93.2851     2.5316     0.0134     0.2127     8.5113   111.1458     0.0878
  465.5000    10.0181    10.5850    11.8574   -12.1509    92.5134     2.5352    -0.0014     0.2103     8.5118   110.2417     0.0857
  466.0000    10.0374    10.9710    11.9627   -11.9867    92.0792     2.5339    -0.0163     0.2160     8.5122   110.0589     0.0867
  466.5000    10.0583    10.9710    12.0683   -11.8228    91.6533     2.5296    -0.0016     0.2262     8.5126   110.0548     0.0884
  467.0000    10.0796    10.9710    12.1751   -11.7099    91.5395     2.5328     0.0395     0.2301     8.5131   110.0592     0.0873
  467.5000    10.1008    10.9710    12.2572   -11.6079    91.4279     2.5362     0.0598     0.2245     8.5136   110.2104     0.0850
  468.0000    10.1222    10.9710    12.1265   -11.5060    91.4473     2.5324     0.0661     0.2117     8.5140   111.9278     0.0860
  468.5000    10.1435    10.9710    12.0219   -11.4038    91.7368     2.5273     0.0519     0.2083     8.5145   114.0007     0.0900
  469.0000    10.1649    10.9710    11.9183   -11.3014    92.1298     2.5283     0.0639     0.2106     8.5149   115.2215     0.0904
  469.5000    10.1866    10.9710    11.8155   -11.1975    92.5930     2.5319     0.0758     0.2161     8.5154   112.2897     0.0888
  470.0000    10.1963    10.9711    11.7039   -11.3232    92.6143     2.5357     0.0835     0.2217     8.5158   109.2618     0.0863
  470.5000    10.2063    10.9710    11.7162   -11.5121    92.5669     2.5387     0.0780     0.2237     8.5163   109.4555     0.0835
  471.0000    10.2164    10.9709    11.7335   -11.7018    92.3841     2.5362     0.0692     0.2185     8.5167   111.4181     0.0843
  471.5000    10.2265    10.9553    11.7507   -11.8912    92.1562     2.5304     0.0603     0.2164     8.5172   108.8073     0.0875
  472.0000    10.2366    10.9301    11.7680   -12.0805    91.9282     2.5268     0.0559     0.2185     8.5176   106.2208     0.0904
  472.5000    10.2468    10.9049    11.7852   -12.2704    91.7836     2.5242     0.0513     0.2190     8.5181   104.9027     0.0919
  473.0000    10.2570    10.8797    11.8024   -12.4591    91.9124     2.5217     0.0472     0.2169     8.5185   104.3357     0.0934
  473.5000    10.2675    10.8546    11.8138   -12.5854    92.1357     2.5216     0.0426     0.2147     8.5190   103.7467     0.0948
  474.0000    10.2773    10.8296    11.6715   -12.4941    92.3547     2.5216     0.0259     0.2139     8.5194   104.4522     0.0946
  474.5000    10.2840    10.8046    11.5589   -12.4085    92.4137     2.5207     0.0181     0.2134     8.5199   104.9893     0.0944
  475.0000    10.0647    10.7797    11.4473   -12.3229    92.5551     2.5149     0.0103     0.2126     8.5203   104.2832     0.0958
  475.5000     9.9033    10.5205    11.3368   -12.2374    92.9025     2.5042     0.0033     0.2091     8.5208   103.7314     0.1024
  476.0000     9.6203    10.1293    11.0583   -12.1516    93.2565     2.4938     0.0097     0.2079     8.5212   107.3236     0.1085
  476.5000     9.2143     9.7527    10.6080   -12.0652    93.8186     2.4894     0.0237     0.2147     8.5217   109.2018     0.1144
  477.0000     8.8275     9.3901    10.1760   -11.9976    94.3587     2.4936     0.0397     0.2232     8.5222   108.7289     0.1140
  477.5000     8.4698     9.0409     9.7617   -12.1432    95.6814     2.4988     0.0568     0.2273     8.5226   109.6403     0.1095
  478.0000     8.0082     8.7048     9.3642   -12.2945    96.6633     2.5024     0.0581     0.2208     8.5231   111.6808     0.1056
  478.5000     7.2769     7.8101     8.9829   -12.4441    97.5050     2.5013     0.0443     0.2136     8.5235   113.3865     0.1063
  479.0000     6.0764     6.5734     8.6171   -12.6043    98.0715     2.5008     0.0488     0.2068     8.5240   110.6521     0.1071
  479.5000     5.0762     5.5305     8.2662   -13.0252    98.4162     2.5033     0.0716     0.2116     8.5244   108.1250     0.1059
  480.0000     4.2406     4.6534     7.8128   -13.4662    98.7691     2.5053     0.0848     0.2233     8.5248   109.5064     0.1043
  480.5000     3.5426     3.9158     7.2431   -13.9075   102.4750     2.4978     0.0667     0.2544     8.5241   110.8473     0.1064
  481.0000     3.0520     3.2950     6.0460   -14.3398   106.4846     2.4737     0.0527     0.2915     8.5211   110.4770     0.1171
  481.5000     2.7191     2.7955     5.0016   -14.5264   113.6419     2.4390     0.0469     0.3300     8.5181   112.1480     0.1375
  482.0000     2.6941     2.7955     4.1389   -13.7874   121.5778     2.3495     0.0658     0.3558     8.5152   114.2913     0.1778
  482.5000     2.6941     2.9481     3.3941   -12.7848   128.9529     2.2705     0.1050     0.3592     8.5124   110.5452     0.2289
  483.0000     2.7596     3.0946     3.3941   -11.7712   134.1383     2.1911     0.1435     0.3209     8.5090   104.9323     0.2831
  483.5000     2.8781     3.2408     3.8409   -10.7524   131.2325     2.1214     0.1640     0.2961     8.5076   100.6325     0.3327
  484.0000     3.0016     3.7811     4.9214    -9.8146   119.9900     2.1363     0.1347     0.2620     8.3248    97.3381     0.2915
  484.5000     3.4210     4.3806     6.3059   -10.2344   109.1884     2.3005     0.0972     0.2557     8.0246    97.0923     0.2336
  485.0000     4.0399     5.0752     8.4705   -10.6888   102.6753     2.4357     0.0881     0.2404     7.9799    98.9836     0.1492
  485.5000     4.7708     5.8798     8.3688   -10.9550    99.7381     2.5180     0.0805     0.2222     7.9786   103.6256     0.0892
  486.0000     5.6339     6.8121     8.2449   -10.8413    99.1170     2.5365     0.0625     0.2262     7.9778   106.8625     0.0843
  486.5000     6.6584     7.4347     8.1632   -10.7342    99.0776     2.5322     0.0344     0.2330     7.9764   106.9312     0.0883
  487.0000     7.5805     7.6589     8.4836   -10.6256    98.6467     2.5248     0.0356     0.2368     7.9750   106.3581     0.0928
