~VERSION INFORMATION
 VERS.                2.0:   CWLS LOG ASCII STANDARD - VERSION 2.0
 WRAP.                 NO:   ONE LINE PER DEPTH STEP
~WELL INFORMATION
#MNEM.UNIT      DATA TYPE    INFORMATION
#----------   ------------   ------------------------------
 STRT.F            8.0000:   START DEPTH
 STOP.F          970.0000:   STOP DEPTH
 STEP.F            0.1000:   STEP LENGTH
 NULL.          -999.2500:   NO VALUE
 COMP.       F D SERV INC:   COMPANY
 WELL. N P R 3 STX-35 #15-35:   WELL
 FLD .             TEAPOT:   FIELD
 LOC .      S35 T39N R78W:   LOCATION
 CNTY.            NATRONA:   COUNTY
 STAT.            WYOMING:   STATE
 CTRY. UNITED STATES OF AMERICA:   COUNTRY
 SRVC.     Atlas Wireline:   SERVICE COMPANY
 DATE.        02-FEB-1992:   LOGDATE
 API .       490252250100:   API NUMBER
~CURVE INFORMATION
#MNEM.UNIT       API CODE    CURVE DESCRIPTION
#----------   ------------   ------------------------------
 DEPT.F                  :   
 GRR .GAPI   07 310 01 00:   GAMMA RAY
 RILD.OHMM   07 120 46 00:   INDUCTION LOG DEEP RESISTIVITY
 RILM.OHMM   07 120 44 00:   INDUCTION LOG MEDIUM RESISTIVITY
~PARAMETER INFORMATION
#MNEM.UNIT          VALUE    DESCRIPTION
#----------   ------------   ------------------------------
 PD  .                 GL:   PERMANENT DATUM
 EPD .F              5084:   ELEVATION PERMANENT DATUM
 LMF .                 KB:   LOG MEASURED FROM
 DAPD.F                10:   FEET ABOVE PERMANENT DATUM
 DMF .                 KB:   DRILLING MEASURED FROM
 EKB .F              5094:   KELLING BUSHING
 EDF .F              5093:   DRILLING FLOOR
 EGL .F              5084:   GROUND LEVEL
 DATE.        02-FEB-1982:   RUN DATE
 RUN .                  1:   RUN NUMBER
 DD  .F               980:   DEPTH DRILLER
 CS  .IN            8.625:   CASING SIZE
 BSD .F               980:   BIT SIZE AT DEPTH
 DFT .                AIR:   DRILLING FLUID TYPE
 LUN .            HL-6272:   LOGGING UNIT NUMBER
 LUL .             CASPER:   LOGGING UNIT LOCATION
 ENGI.       R. RASMLSSEN:   RECORDING ENGINEER
 WITN.          G. STRONG:   WITNESSED BY
 CLNT.            A2DTECH:   CLIENT CODE
 ORIG.           5" PRINT:   ORIGIN OF DATA
 UWI .       490252250100:   UNIQUE WELL ID
 DICO. A2D Technologies, Inc.:   DIGITIZING COMPANY
~OTHER INFORMATION
~A    DEPT      GRR      RILD       RILM   
# ...
  717.8000    99.3136    12.4402    11.6780
  717.9000    99.5678    12.4669    11.6786
  718.0000    99.7454    12.5266    11.7042
  718.1000    99.7735    12.5264    11.7725
  718.2000   100.0562    12.5977    11.8437
  718.3000   100.0594    12.6709    11.9104
  718.4000   100.0630    12.7011    11.9800
  718.5000   100.1848    12.7299    12.0112
  718.6000   100.5051    12.7893    12.0365
  718.7000   100.9830    12.7891    12.1067
  718.8000   100.9872    12.7889    12.1810
  718.9000   101.2023    12.8485    12.2485
  719.0000   101.2970    12.9232    12.3200
  719.1000   101.4079    12.9983    12.3920
  719.2000   101.6073    13.0738    12.4889
  719.3000   101.6109    13.1510    12.6243
  719.4000   101.6153    13.3320    12.7028
  719.5000   101.6182    13.3957    12.9108
  719.6000   101.6219    13.5227    13.0261
  719.7000   101.6255    13.6805    13.1424
  719.8000   101.5850    13.8212    13.2955
  719.9000   101.3298    13.9043    13.4598
  720.0000   101.3333    14.0927    13.7144
  720.1000   101.1468    14.2310    13.8616
  720.2000   100.7620    14.3971    14.0232
  720.3000   100.2643    14.5270    14.1867
  720.4000    99.7665    14.6114    14.3780
  720.5000    99.2306    14.7010    14.6293
  720.6000    98.7708    14.8967    14.9096
  720.7000    98.0938    14.9712    15.0673
  720.8000    97.4724    15.1166    15.3053
  720.9000    96.9001    15.2928    15.5732
  721.0000    96.1066    15.4959    15.8732
  721.1000    94.7071    15.7605    16.2257
  721.2000    93.3857    15.9669    16.4354
  721.3000    92.2226    16.2136    16.7787
  721.4000    91.3399    16.4327    17.1715
  721.5000    90.4642    16.6719    17.5730
  721.6000    89.2141    16.9356    17.9537
  721.7000    87.7594    17.1330    18.2675
  721.8000    86.7139    17.3533    18.6269
  721.9000    85.6215    17.6274    18.8175
  722.0000    84.5175    17.8637    19.1114
  722.1000    83.3200    18.0721    19.3927
  722.2000    82.3203    18.2827    19.6186
  722.3000    81.0702    18.4959    19.8395
  722.4000    80.2182    18.7296    19.9713
  722.5000    79.4695    18.8294    20.1721
  722.6000    78.7208    18.8596    20.2524
  722.7000    78.0144    18.8594    20.0955
  722.8000    77.4959    18.8591    19.6955
  722.9000    77.0192    18.8589    19.1301
  723.0000    76.3333    18.8586    18.3826
  723.1000    75.7203    18.8584    18.0292
  723.2000    75.2227    18.8581    17.6842
  723.3000    74.7251    18.7395    17.3817
  723.4000    74.1846    18.5599    17.0613
  723.5000    73.7294    18.4522    16.6758
  723.6000    73.5855    18.3403    16.3436
  723.7000    73.5891    18.2387    16.1112
  723.8000    73.8096    17.8962    15.8358
  723.9000    74.5455    17.5416    15.6030
  724.0000    75.1156    17.2022    15.4052
  724.1000    75.7738    16.8227    15.1433
  724.2000    76.6959    16.5243    14.9395
  724.3000    77.7026    16.2465    14.7306
  724.4000    78.6475    15.9659    14.5300
  724.5000    79.4131    15.7957    14.3643
  724.6000    80.5921    15.6345    14.1833
  724.7000    81.4254    15.3807    13.9416
  724.8000    82.2763    15.2015    13.8468
  724.9000    83.0318    15.0271    13.6567
  725.0000    83.7875    14.7853    13.4696
  725.1000    84.5491    14.6309    13.2856
  725.2000    85.2993    14.4784    13.0583
  725.3000    86.2512    14.2449    12.8331
  725.4000    86.9696    14.0778    12.6880
  725.5000    87.6587    13.6960    12.4866
  725.6000    88.6253    13.4395    12.2323
  725.7000    89.4196    13.1779    12.0062
  725.8000    90.1367    12.9502    11.8691
  725.9000    90.5215    12.7428    11.7306
  726.0000    90.6424    12.5953    11.5349
  726.1000    90.6461    12.4259    11.3884
  726.2000    90.6783    12.3060    11.2216
  726.3000    90.9567    12.1638    11.0763
  726.4000    90.9600    12.0231    11.0027
  726.5000    90.9636    11.9009    10.8726
  726.6000    90.9673    11.8284    10.8129
  726.7000    91.0409    11.6719    10.7514
  726.8000    91.2953    11.5567    10.6901
  726.9000    91.5847    11.4231    10.6292
  727.0000    92.0198    11.2910    10.5779
  727.1000    92.3613    11.1776    10.5786
  727.2000    92.7272    11.1082    10.5214
  727.3000    93.1731    10.9637    10.5066
  727.4000    93.4276    10.9636    10.5072
  727.5000    93.7279    10.9634    10.4872
  727.6000    93.9362    10.9632    10.4357
  727.7000    94.1906    10.9631    10.4364
  727.8000    94.4450    10.9629    10.4369
  727.9000    94.6509    10.9627    10.4375
  728.0000    94.6546    10.9626    10.4381
  728.1000    95.1515    10.9625    10.4387
  728.2000    95.4623    10.9623    10.4393
  728.3000    95.5746    10.9621    10.4399
  728.4000    95.6679    10.9620    10.4404
  728.5000    95.9222    10.9618    10.4410
  728.6000    96.1917    11.0200    10.4416
  728.7000    96.4310    11.0380    10.4421
  728.8000    96.6853    11.0378    10.4427
  728.9000    96.9395    11.0376    10.4433
  729.0000    97.1938    11.0375    10.4438
  729.1000    97.4482    11.0373    10.4444
  729.2000    97.7289    11.0971    10.4752
  729.3000    97.9570    11.1140    10.5183
  729.4000    98.0388    11.1138    10.5189
  729.5000    98.1626    11.1359    10.5195
  729.6000    98.4171    11.1910    10.5200
  729.7000    98.6713    11.1908    10.5626
  729.8000    98.9630    11.2526    10.5945
  729.9000    98.9660    11.2685    10.6124
  730.0000    99.1314    11.3050    10.6743
  730.1000    99.2764    11.3467    10.7443
  730.2000    99.2800    11.3466    10.7448
  730.3000    99.2837    11.3464    10.7454
  730.4000    99.2880    11.4103    10.7460
  730.5000    99.2909    11.4252    10.7633
  730.6000    99.2946    11.4250    10.8219
  730.7000    99.2982    11.4248    10.8227
  730.8000    99.2557    11.4370    10.8232
  730.9000    99.0025    11.5042    10.8238
  731.0000    99.0061    11.5040    10.8244
  731.1000    98.8176    11.5570    10.8250
  731.2000    98.5704    11.5839    10.8256
  731.3000    98.4109    11.5837    10.8263
  731.4000    98.3794    11.5836    10.8268
  731.5000    98.1154    11.5839    10.8274
  731.6000    98.1188    11.6639    10.8280
  731.7000    97.9412    11.6638    10.8286
  731.8000    97.6941    11.6636    10.8292
  731.9000    97.4470    11.6634    10.8299
  732.0000    97.2002    11.6633    10.7785
  732.1000    96.9253    11.6632    10.7562
  732.2000    96.9285    11.6630    10.7303
  732.3000    96.7620    11.6629    10.6692
  732.4000    96.5149    11.6627    10.6097
  732.5000    96.3334    11.6625    10.6104
  732.6000    96.3370    11.6624    10.6109
  732.7000    96.3412    11.6622    10.5739
  732.8000    96.1325    11.6620    10.5387
  732.9000    96.2043    11.6619    10.5393
  733.0000    96.3516    11.6617    10.5399
  733.1000    96.3552    11.6615    10.5406
  733.2000    96.3613    11.6614    10.5411
  733.3000    96.6662    11.6568    10.5417
  733.4000    96.6691    11.5803    10.5422
  733.5000    96.8213    11.5802    10.5428
  733.6000    97.0757    11.5800    10.5434
  733.7000    97.3738    11.5798    10.5440
  733.8000    97.8959    11.5797    10.5446
  733.9000    98.6257    11.5795    10.5451
  734.0000    99.1919    11.5793    10.5457
  734.1000    99.8345    11.5792    10.5463
  734.2000   100.5049    11.5791    10.5470
  734.3000   101.0098    11.5789    10.5476
  734.4000   101.5542    11.5787    10.5482
  734.5000   102.0201    11.5786    10.5487
  734.6000   102.5252    11.5784    10.5493
  734.7000   103.0303    11.5782    10.5499
  734.8000   103.5355    11.5781    10.5505
  734.9000   104.0184    11.5779    10.5511
  735.0000   104.3035    11.5777    10.5516
  735.1000   104.5272    11.5776    10.5522
  735.2000   104.6133    11.5774    10.5528
  735.3000   104.6170    11.5772    10.5534
  735.4000   104.6206    11.5771    10.5540
  735.5000   104.6243    11.5411    10.5546
  735.6000   104.6285    11.4966    10.5551
  735.7000   104.6315    11.4965    10.5557
  735.8000   104.6352    11.4963    10.5563
  735.9000   104.6388    11.4961    10.5569
