~VERSION INFORMATION
 VERS.                2.0:   CWLS LOG ASCII STANDARD - VERSION 2.0
 WRAP.                 NO:   ONE LINE PER DEPTH STEP
~WELL INFORMATION
#MNEM.UNIT      DATA TYPE    INFORMATION
#----------   ------------   ------------------------------
 STRT.F         1460.0000:   START DEPTH
 STOP.F         2374.5000:   STOP DEPTH
 STEP.F            0.5000:   STEP LENGTH
 NULL.          -999.2500:   NO VALUE
 COMP. BROWN JOHN E&C INC:   COMPANY
 WELL. 15-1 STX-14 #15-14:   WELL
 FLD .             TEAPOT:   FIELD
 LOC .      S14 T38N R78W:   LOCATION
 CNTY.            NATRONA:   COUNTY
 STAT.            WYOMING:   STATE
 CTRY. UNITED STATES OF AMERICA:   COUNTRY
 SRVC.            Unknown:   SERVICE COMPANY
 DATE.        20-OCT-1991:   LOGDATE
 API .       490251098600:   API NUMBER
~CURVE INFORMATION
#MNEM.UNIT       API CODE    CURVE DESCRIPTION
#----------   ------------   ------------------------------
 DEPT.F                  :   
 ROP .MIN/FT 91 810 01 00:   RATE OF DRILLING PENETRATION
 TGAS.UNITS  91 830 01 00:   TOTAL GAS FROM HOTWIRE
~PARAMETER INFORMATION
#MNEM.UNIT          VALUE    DESCRIPTION
#----------   ------------   ------------------------------
 EKB .F              5247:   KELLING BUSHING
 EGL .F              5237:   GROUND LEVEL
 DATE.           10-20-91:   RUN DATE
 DD  .F              2379:   DEPTH DRILLER
 BLI .F              2392:   BOTTOM LOG INTERVAL
 TLI .F              1460:   TOP LOG INTERVAL
 CS  .IN            8.625:   CASING SIZE
 CBD .F               815:   CASING BOTTOM DRILLER
 ENGI.               HUSK:   RECORDING ENGINEER
 WITN.              TOWER:   WITNESSED BY
 CLNT.            A2DTECH:   CLIENT CODE
 ORIG.         2.5" PRINT:   ORIGIN OF DATA
 UWI .       490251098600:   UNIQUE WELL ID
 DICO. A2D Technologies, Inc.:   DIGITIZING COMPANY
~OTHER INFORMATION
~A  DEPT       ROP       TGAS   
 1460.0000  -999.2500  -999.2500
 1460.5000     0.8832  -999.2500
 1461.0000     0.8442  -999.2500
 1461.5000     0.8051  -999.2500
 1462.0000     0.7272  -999.2500
 1462.5000     0.7077  -999.2500
 1463.0000     0.8243  -999.2500
 1463.5000     0.8826  -999.2500
 1464.0000     0.9214  -999.2500
 1464.5000     0.9797  -999.2500
 1465.0000     1.0379  -999.2500
 1465.5000     1.0962  -999.2500
 1466.0000     1.1934  -999.2500
 1466.5000     1.2711  -999.2500
 1467.0000     1.3488  -999.2500
 1467.5000     1.3098  -999.2500
 1468.0000     1.2708  -999.2500
 1468.5000     1.2123  -999.2500
 1469.0000     1.1928  -999.2500
 1469.5000     1.2316  -999.2500
 1470.0000     1.2315  -999.2500
 1470.5000     1.1925  -999.2500
 1471.0000     0.9589  -999.2500
 1471.5000     0.8616  -999.2500
 1472.0000     0.7836  -999.2500
 1472.5000     0.7252  -999.2500
 1473.0000     0.6278  -999.2500
 1473.5000     0.5888  -999.2500
 1474.0000     0.5693  -999.2500
 1474.5000     0.5108  -999.2500
 1475.0000     0.4523  -999.2500
 1475.5000     0.4133  -999.2500
 1476.0000     0.3743  -999.2500
 1476.5000     0.3742  -999.2500
 1477.0000     0.3936  -999.2500
 1477.5000     0.4324  -999.2500
 1478.0000     0.4907  -999.2500
 1478.5000     0.5684  -999.2500
 1479.0000     0.6461  -999.2500
 1479.5000     0.7627  -999.2500
 1480.0000     0.8405  -999.2500
 1480.5000     0.7236   557.7105
 1481.0000     0.7235   558.8522
 1481.5000     0.7040   559.9938
 1482.0000     0.6844   561.1355
 1482.5000     0.6843   562.2772
 1483.0000     0.6648   563.4188
 1483.5000     0.6452   564.5605
 1484.0000     0.6257   565.7021
 1484.5000     0.6061   566.8438
 1485.0000     0.5671   567.9854
 1485.5000     0.5670   569.1271
 1486.0000     0.5280   570.2687
 1486.5000     0.4695   571.4104
 1487.0000     0.4500   572.5521
 1487.5000     0.4499   573.6937
 1488.0000     0.4887   574.8354
 1488.5000     0.5275   575.9771
 1489.0000     0.5664   577.1187
 1489.5000     0.6052   578.2604
 1490.0000     0.6440   579.4020
 1490.5000     0.6050   580.7494
 1491.0000     0.6048   581.0260
 1491.5000     0.6048   581.4543
 1492.0000     0.6047   581.8827
 1492.5000     0.6435   582.3110
 1493.0000     0.6823   582.7394
 1493.5000     0.7406   583.1678
 1494.0000     0.7210   583.5961
 1494.5000     0.6431   584.0245
 1495.0000     0.5652   584.4528
 1495.5000     0.5262   584.8812
 1496.0000     0.5455   585.3095
 1496.5000     0.5454   585.7379
 1497.0000     0.5453   586.1662
 1497.5000     0.5452   586.5945
 1498.0000     0.5451   587.0229
 1498.5000     0.5256   587.4512
 1499.0000     0.4866   587.8796
 1499.5000     0.4087   588.3079
 1500.0000     0.3891   588.7363
 1500.5000     0.3695   589.1646
 1501.0000     0.3694   589.5930
 1501.5000     0.3888   590.0214
 1502.0000     0.4471   590.4497
 1502.5000     0.5248   590.8781
 1503.0000     0.5442   591.3064
 1503.5000     0.5441   591.7347
 1504.0000     0.5440   592.1631
 1504.5000     0.5633   592.5914
 1505.0000     0.5632   593.0198
 1505.5000     0.5631   593.4481
 1506.0000     0.6019   593.8765
 1506.5000     0.6408   594.3048
 1507.0000     0.7185   594.7332
 1507.5000     0.7573   595.1615
 1508.0000     0.7767   595.5898
 1508.5000     0.6598   596.0182
 1509.0000     0.6403   596.4466
 1509.5000     0.6402   596.8749
 1510.0000     0.6401   597.3033
 1510.5000     0.6594   597.7316
 1511.0000     0.6593   598.1600
 1511.5000     0.6592   598.5883
 1512.0000     0.6591   599.0167
 1512.5000     0.6201   599.4450
 1513.0000     0.5811   599.8734
 1513.5000     0.5616   600.3017
 1514.0000     0.5031   600.7300
 1514.5000     0.4835   601.1584
 1515.0000     0.4445   601.5867
 1515.5000     0.4055   602.0151
 1516.0000     0.3665   602.4435
 1516.5000     0.3275   602.8718
 1517.0000     0.2885   603.3002
 1517.5000     0.2884   603.7285
 1518.0000     0.2883   604.1569
 1518.5000     0.3077   604.5852
 1519.0000     0.3271   605.0135
 1519.5000     0.4048   605.4419
 1520.0000     0.4630   605.8702
 1520.5000     0.5213   606.2986
 1521.0000     0.5796   606.7269
 1521.5000     0.6184   607.1553
 1522.0000     0.6572   607.5836
 1522.5000     0.6376   608.0120
 1523.0000     0.6181   608.4404
 1523.5000     0.5985   608.8687
 1524.0000     0.6374   609.2971
 1524.5000     0.7151   609.7254
 1525.0000     0.7928   610.1537
 1525.5000     0.8316   610.5821
 1526.0000     0.8704   611.0104
 1526.5000     0.7925   611.4388
 1527.0000     0.7535   611.8671
 1527.5000     0.7339   612.2955
 1528.0000     0.7144   612.7238
 1528.5000     0.6754   613.1522
 1529.0000     0.7142   613.5805
 1529.5000     0.7141   614.0089
 1530.0000     0.7529   614.4372
 1530.5000     0.7723   614.8656
 1531.0000     0.7916   615.2939
 1531.5000     0.7915   615.7223
 1532.0000     0.7720   616.1506
 1532.5000     0.7330   616.6739
 1533.0000     0.6940   618.1820
 1533.5000     0.6160   619.6902
 1534.0000     0.5576   621.1983
 1534.5000     0.5964   622.7065
 1535.0000     0.5963   624.2147
 1535.5000     0.6351   625.7228
 1536.0000     0.6739   627.2310
 1536.5000     0.7322   628.7391
 1537.0000     0.7516   630.2473
 1537.5000     0.6736   631.7554
 1538.0000     0.6346   633.2635
 1538.5000     0.5956   634.7717
 1539.0000     0.6344   636.2798
 1539.5000     0.6733   637.7880
 1540.0000     0.7315   638.9735
 1540.5000     0.7703   678.1520
 1541.0000     0.7897   756.2605
 1541.5000     0.7312   795.4079
 1542.0000     0.6922   834.5554
 1542.5000     0.6337   912.6949
 1543.0000     0.5947   951.8424
 1543.5000     0.6530   990.9899
 1544.0000     0.7113  1030.1683
 1544.5000     0.7695  1049.8353
 1545.0000     0.8084  1030.5413
 1545.5000     0.7499  1011.2471
 1546.0000     0.7109   972.4725
 1546.5000     0.6330   914.2484
 1547.0000     0.5940   875.4739
 1547.5000     0.6911   856.1486
 1548.0000     0.7494   817.4050
 1548.5000     0.8271   778.6615
 1549.0000     0.8854   759.3364
 1549.5000     0.9437   720.5617
 1550.0000     0.8657   681.7871
 1550.5000     0.7878   682.0357
 1551.0000     0.7294   682.2220
 1551.5000     0.6904   701.9201
 1552.0000     0.6708   741.0676
 1552.5000     0.6513   780.2150
 1553.0000     0.6512   799.8819
 1553.5000     0.6705   839.0604
 1554.0000     0.6704   839.2469
 1554.5000     0.6703   839.4333
 1555.0000     0.7091   820.1082
 1555.5000     0.7480   800.8140
 1556.0000     0.8062   781.5199
 1556.5000     0.8645   762.2569
 1557.0000     0.9033   723.5134
 1557.5000     0.8254   704.1881
 1558.0000     0.7864   665.4756
 1558.5000     0.7474   646.1506
 1559.0000     0.7084   607.3759
 1559.5000     0.7083   607.6245
 1560.0000     0.7082   607.8109
 1560.5000     0.7275   607.9973
 1561.0000     0.7274   608.2148
 1561.5000     0.7468   608.4012
 1562.0000     0.6883   608.5876
 1562.5000     0.5909   608.8051
 1563.0000     0.5908   608.9915
 1563.5000     0.5908   609.1779
 1564.0000     0.5906   609.3643
 1564.5000     0.6100   609.5818
 1565.0000     0.5321   609.7682
 1565.5000     0.4542   609.9547
 1566.0000     0.3957   610.1411
 1566.5000     0.3762   590.8780
 1567.0000     0.3761   552.1033
 1567.5000     0.3760   513.2977
 1568.0000     0.3759   474.5541
 1568.5000     0.3952   435.8106
 1569.0000     0.4730   416.4854
 1569.5000     0.5118   377.7108
 1570.0000     0.5506   358.4788
 1570.5000     0.5505   339.1226
 1571.0000     0.5115   319.8596
 1571.5000     0.4725   300.5655
 1572.0000     0.4335   300.8140
 1572.5000     0.3944   301.0004
 1573.0000     0.3943   301.1869
 1573.5000     0.3748   301.3733
 1574.0000     0.3552   301.5908
 1574.5000     0.3552   301.7772
 1575.0000     0.3940   301.9636
 1575.5000     0.4328   302.1811
 1576.0000     0.4716   341.3286
 1576.5000     0.4715   360.9955
 1577.0000     0.4519   400.1429
 1577.5000     0.4129   439.3215
 1578.0000     0.3934   497.9494
 1578.5000     0.3738   537.0969
 1579.0000     0.3543   556.7638
 1579.5000     0.3542   595.9423
 1580.0000     0.3541   596.1039
 1580.5000     0.3540   596.2987
 1581.0000     0.3928   596.4935
