~VERSION INFORMATION
 VERS.                2.0:   CWLS LOG ASCII STANDARD - VERSION 2.0
 WRAP.                 NO:   ONE LINE PER DEPTH STEP
~WELL INFORMATION
#MNEM.UNIT      DATA TYPE    INFORMATION
#----------   ------------   ------------------------------
 STRT.F          458.0000:   START DEPTH
 STOP.F         2155.0000:   STOP DEPTH
 STEP.F            0.5000:   STEP LENGTH
 NULL.          -999.2500:   NO VALUE
 COMP.   FLUOR DANIEL INC:   COMPANY
 WELL. NAVAL PETROLEUM RESERVE 3 SHX- 1 #33-29:   WELL
 FLD .             TEAPOT:   FIELD
 LOC .      S29 T39N R78W:   LOCATION
 CNTY.            NATRONA:   COUNTY
 STAT.            WYOMING:   STATE
 CTRY. UNITED STATES OF AMERICA:   COUNTRY
 SRVC.            Unknown:   SERVICE COMPANY
 DATE.        29-JUN-1995:   LOGDATE
 API .       490252272500:   API NUMBER
~CURVE INFORMATION
#MNEM.UNIT       API CODE    CURVE DESCRIPTION
#----------   ------------   ------------------------------
 DEPT.F                  :   
 C1  .VF     91 831 01 00:   METHANE
 C2  .VF     91 832 01 00:   ETHANE
 C3  .VF     91 833 01 00:   PROPANE
 C4  .VF     91 834 01 00:   BUTANE
 ROP .FT/HR  91 810 01 00:   RAT OF DRILLING PENETRATION
 TGAS.TC/CC  91 830 01 00:   TOTAL GAS UNIT
~PARAMETER INFORMATION
#MNEM.UNIT          VALUE    DESCRIPTION
#----------   ------------   ------------------------------
 EKB .F              5020:   KELLING BUSHING
 EGL .F              5010:   GROUND LEVEL
 DATE.        29-JUN-1995:   RUN DATE
 RUN .                  1:   RUN NUMBER
 BLI .F              2155:   BOTTOM LOG INTERVAL
 TLI .F               460:   TOP LOG INTERVAL
 ENGI.     C.TOWER/R.HUSK:   RECORDING ENGINEER
 CLNT.            A2DTECH:   CLIENT CODE
 ORIG.           5" PRINT:   ORIGIN OF DATA
 UWI .       490252272500:   UNIQUE WELL ID
 DICO. A2D Technologies, Inc.:   DIGITIZING COMPANY
~OTHER INFORMATION
~A   DEPT       C1         C2         C3         C4          ROP       TGAS 
# ...
  562.0000    12.3298     0.6130     0.1158     0.0000     0.7781    98.8142
  562.5000    11.9529     0.5140     0.1167     0.0000     0.7780    97.9080
  563.0000    11.5761     0.4059     0.1173     0.0000     0.7779    95.1220
  563.5000    11.3868     0.3149     0.1180     0.0000     0.7778    94.2173
  564.0000    11.0100     0.2160     0.1187     0.0000     0.7778    93.3126
  564.5000    10.8206     0.1171     0.1194     0.0000     0.7777    91.4665
  565.0000    10.8188     0.1116     0.1201     0.0000     0.7776    89.6296
  565.5000    10.8165     0.1062     0.1208     0.0000     0.7775    87.7834
  566.0000    10.8150     0.1009     0.1215     0.0000     0.7869    86.8788
  566.5000    10.8129     0.0953     0.1222     0.0000     0.7868    85.0327
  567.0000    10.6237     0.0897     0.0381     0.0000     0.7867    84.1188
  567.5000    10.6219     0.0792     0.0390     0.0000     0.7866    83.2218
  568.0000    10.4324     0.0000     0.0000     0.0000     0.8619    81.3772
  568.5000    10.4305     0.0000     0.0404     0.0000     0.9466    79.5311
  569.0000    10.4288     0.0000     0.0411     0.0000     0.9653    78.6264
  569.5000    10.4269     0.0000     0.0417     0.0000     0.9652    77.7309
  570.0000    10.2375     0.0000     0.1272     0.0000     0.9652    76.8170
  570.5000    10.2353     0.0000     0.1279     0.0000     0.9651    75.9123
  571.0000    10.2334     0.0000     0.1286     0.0000     0.9650    75.9583
  571.5000    10.2319     0.0393     0.1292     0.0000     0.8519    75.9950
  572.0000    10.2300     0.0336     0.1299     0.0000     0.7577    76.0317
  572.5000    10.2280     0.0280     0.1306     0.0000     0.7576    76.0685
  573.0000    10.2261     0.0224     0.1315     0.0000     0.7575    76.1052
  573.5000    10.2244     0.0286     0.1322     0.0000     0.7574    76.1423
  574.0000    10.2225     0.1055     0.1329     0.0000     0.7480    76.1799
  574.5000    10.2206     0.1393     0.1336     0.0000     0.7385    77.1660
  575.0000    10.2188     0.1869     0.1342     0.0000     0.7384    77.2028
  575.5000    10.2165     0.1813     0.1349     0.0000     0.7383    76.2889
  576.0000    10.2147     0.1757     0.1356     0.0000     0.7382    77.2763
  576.5000    10.2129     0.1701     0.1363     0.0000     0.7381    76.3624
  577.0000    10.2111     0.0700     0.1370     0.0000     0.7381    76.4083
  577.5000    10.2092     0.0654     0.1377     0.0000     0.7380    76.4450
  578.0000    10.2074     0.0591     0.1384     0.0000     0.7379    75.5397
  578.5000    10.2056     0.0000     0.1392     0.0000     0.7472    75.5774
  579.0000    10.2037     0.0496     0.1399     0.0000     0.7472    75.6151
  579.5000    10.2019     0.1362     0.1406     0.0000     0.7565    75.6598
  580.0000    10.1996     0.1308     0.1413     0.0000     0.8077    73.8045
  580.5000    10.1978     0.1252     0.1420     0.0000     0.8505    72.9090
  581.0000    10.1962     0.1196     0.1427     0.0000     0.8504    72.9457
  581.5000    10.1944     0.1130     0.1434     0.0000     0.8504    72.9825
  582.0000    10.1923     0.1076     0.2288     0.0000     0.7090    73.0192
  582.5000    10.1905     0.1021     0.3143     0.0000     0.6619    73.0559
  583.0000    10.1888     0.0966     0.3150     0.0000     0.6618    73.0927
  583.5000    10.1868     0.0912     0.3158     0.0000     0.6711    74.0711
  584.0000    10.1850     0.0857     0.3165     0.0000     0.8123    74.1088
  584.5000    10.1831     0.0803     0.3172     0.0000     0.8687    74.1535
  585.0000    10.1809     0.0748     0.3179     0.0000     0.8592    74.1902
  585.5000    10.3670     0.0692     0.1489     0.0000     0.8591    74.2270
  586.0000    10.3647     0.1574     0.1498     0.0000     0.8591    74.2637
  586.5000    10.3631     0.1505     0.1505     0.0000     0.8590    74.3004
  587.0000    10.3612     0.2399     0.1512     0.0000     0.8589    74.3372
  587.5000    10.3593     0.2331     0.1518     0.0000     0.8494    74.3739
  588.0000    10.3574     0.2276     0.1525     0.0000     0.8493    75.3521
  588.5000    10.3556     0.2222     0.1532     0.0000     0.8493    75.3891
  589.0000    10.3538     0.2167     0.1541     0.0000     0.8492    75.4268
  589.5000    10.3519     0.2112     0.1548     0.0000     0.8491    76.4129
  590.0000    10.3497     0.2056     0.1555     0.0000     0.8490    76.4496
  590.5000    10.3478     0.1990     0.1562     0.0000     0.8489    76.4864
  591.0000    10.3462     0.1935     0.1568     0.0000     0.8583    77.4645
  591.5000    10.3444     0.1881     0.1575     0.0000     0.8582    77.5013
  592.0000    10.3422     0.1826     0.1582     0.0000     0.8676    77.5380
  592.5000    10.3406     0.1771     0.1589     0.0000     0.8675    77.5748
  593.0000    10.3387     0.1717     0.1596     0.0000     0.8674    78.5529
  593.5000    10.3369     0.1662     0.1603     0.0000     0.8673    78.5900
  594.0000    10.3350     0.1607     0.1612     0.0000     0.8672    78.6276
  594.5000    10.3328     0.1551     0.1618     0.0000     0.8672    78.6723
  595.0000    10.3313     0.1485     0.2473     0.0000     0.8671    78.7091
  595.5000    10.3291     0.1430     0.2480     0.0000     0.8670    78.7458
  596.0000    10.3273     0.1376     0.3334     0.0000     0.8669    77.8319
  596.5000    10.3254     0.1327     0.3341     0.0000     0.8668    77.8778
  597.0000    10.3237     0.1267     0.3348     0.0000     0.8668    77.9146
  597.5000    10.3219     0.2147     0.3355     0.0000     0.8667    77.9513
  598.0000    10.3200     0.2092     0.3362     0.0000     0.8666    77.9881
  598.5000    10.3181     0.2037     0.2521     0.0000     0.8665    78.0251
  599.0000    10.3162     0.1981     0.2528     0.0000     0.8664    78.0628
  599.5000    10.3140     0.1915     0.2537     0.0000     0.8664    78.1075
  600.0000    10.3122     0.1860     0.2544     0.0000     0.8670    78.1442
  600.5000    10.3104     0.1281     0.2564     0.0000     0.8758    75.3368
  601.0000    10.4965     0.0895     0.2585     0.0000     0.8759    75.3713
  601.5000    10.6822     0.0876     0.2606     0.0000     0.8572    74.4575
  602.0000    10.6799     0.0858     0.2627     0.0000     0.8008    74.4854
  602.5000    10.8656     0.0840     0.1800     0.0000     0.8010    75.4550
  603.0000    11.4375     0.0821     0.1826     0.0000     0.7917    74.5403
  603.5000    11.2500     0.0803     0.1847     0.0000     0.7918    74.5748
  604.0000    11.0625     0.0785     0.1868     0.0000     0.7448    74.6024
  604.5000    10.8750     0.0766     0.1888     0.0000     0.7261    74.6300
  605.0000    10.6875     0.1682     0.1909     0.0000     0.7262    74.6576
  605.5000    10.5000     0.1664     0.1930     0.0000     0.7263    74.6852
  606.0000    10.5000     0.1645     0.1951     0.0000     0.7928    74.7128
  606.5000    10.5000     0.1623     0.1971     0.0000     0.8019    73.7981
  607.0000    10.3943     0.1607     0.1992     0.0000     0.8020    73.8265
  607.5000    10.3125     0.1586     0.2013     0.0000     0.8022    73.8546
  608.0000    10.1250     0.1568     0.2034     0.0000     0.8023    73.8828
  608.5000    10.1250     0.1551     0.2055     0.0000     0.8024    73.9162
  609.0000     9.9375     0.1533     0.2080     0.0000     0.8025    73.9438
  609.5000     9.9375     0.1512     0.2101     0.0000     0.8026    73.9714
  610.0000     9.9375     0.2430     0.2122     0.0000     0.8027    73.9990
  610.5000     9.9375     0.2411     0.2142     0.0000     0.8029    74.9681
  611.0000     9.9375     0.2392     0.2163     0.0000     0.8030    74.9957
  611.5000     9.9375     0.2979     0.2184     0.0000     0.9635    75.0233
  612.0000    10.1250     0.4224     0.2205     0.0000     0.9915    75.0509
  612.5000    10.1250     0.4206     0.2225     0.0000     0.9917    75.0785
  613.0000    10.1250     0.4187     0.2246     0.0000     0.9918    75.1067
  613.5000    10.1250     0.4168     0.2267     0.0000     0.9072    76.0820
