~VERSION INFORMATION
 VERS.                2.0:   CWLS LOG ASCII STANDARD - VERSION 2.0
 WRAP.                 NO:   ONE LINE PER DEPTH STEP
~WELL INFORMATION
#MNEM.UNIT      DATA TYPE    INFORMATION
#----------   ------------   ------------------------------
 STRT.F           20.0000:   START DEPTH
 STOP.F          599.0000:   STOP DEPTH
 STEP.F            0.5000:   STEP LENGTH
 NULL.          -999.2500:   NO VALUE
 COMP. FENIX & SCISSON INC:   COMPANY
 WELL.    47 SX 34 #47-34:   WELL
 FLD .             TEAPOT:   FIELD
 LOC .      S34 T39N R78W:   LOCATION
 CNTY.            NATRONA:   COUNTY
 STAT.            WYOMING:   STATE
 CTRY. UNITED STATES OF AMERICA:   COUNTRY
 SRVC.       Schlumberger:   SERVICE COMPANY
 DATE.        24-JAN-1979:   LOGDATE
 API .       490251077000:   API NUMBER
~CURVE INFORMATION
#MNEM.UNIT       API CODE    CURVE DESCRIPTION
#----------   ------------   ------------------------------
 DEPT.F                  :   
 SN  .OHMM   05 040 16 00:   SHORT NORMAL 16"
 ILD .OHMM   05 120 46 00:   INDUCTION LOG DEEP
 SPR .MV     05 010 01 00:   SPONTANEOUS POTENTIAL FROM RES.
 CALD.IN     45 280 60 00:   CALIPER
 GRD .GAPI   45 310 01 00:   GAMMA RAY FROM DENSITY LOG
 DPHI.DEC    45 890 12 00:   DENSITY POROSITY SANDSTONE
 CORR.G/C3   45 356 01 00:   DENSITY CORRECTION
 RHOB.G/C3   45 350 01 00:   BULK DENSITY
~PARAMETER INFORMATION
#MNEM.UNIT          VALUE    DESCRIPTION
#----------   ------------   ------------------------------
 PD  .                 GL:   PERMANENT DATUM
 EPD .F              5132:   ELEVATION PERMANENT DATUM
 LMF .                 KB:   LOG MEASURED FROM
 DAPD.F                 4:   FEET ABOVE PERMANENT DATUM
 DMF .                 KB:   DRILLING MEASURED FROM
 EKB .F              5136:   KELLING BUSHING
 EGL .F              5132:   GROUND LEVEL
 DATE.            1-24-79:   RUN DATE
 RUN .                  1:   RUN NUMBER
 DD  .F               600:   DEPTH DRILLER
 DL  .F               600:   DEPTH LOGGER
 BLI .F               594:   BOTTOM LOG INTERVAL
 TLI .F                28:   TOP LOG INTERVAL
 CS  .IN            8.625:   CASING SIZE
 CBD .F                40:   CASING BOTTOM DRILLER
 BS  .IN            7.875:   BIT SIZE
 BSD .F               600:   BIT SIZE AT DEPTH
 DFT .                KCL:   DRILLING FLUID TYPE
 DFD .                8.8:   DRILLING FLUID DENSITY
 DFV .                 60:   DRILLING FLUID VISCOSITY
 DFPH.                9.5:   DRILLING FLUID PH
 DFL .               10.8:   DRILLING FLUID LOSS
 MSS .           FLOWLINE:   MUD SAMPLE SOURCE
 RMS .OHMM            .22:   RESISTIVITY MUD SAMPLE
 MST .F                60:   MUD SAMPLE TEMPERATURE
 RMF .OHMM             .2:   RESISTIVITY MUD FILTRATE SAMPLE
 MFST.F                61:   MUD FILTRATE SAMPLE TEMPERATURE
 RMC .OHMM             .3:   RESISTIVITY MUD CAKE
 MCST.F                61:   MUD CAKE SAMPLE TEMPERATURE
 MFSS.           MEASURED:   MUD FILTRATE SAMPLE SOURCE
 MCSS.           MEASURED:   MUD CAKE SAMPLE SOURCE
 RMB .OHMM            .23:   RESISTIVITY MUD AT BHT
 BHT .F                58:   BOTTOM HOLE TEMPERATURE
 TCS .HRS               4:   TIME CURCULATED STOPPED
 MRT .F                58:   MAXIMUM RECORDED TEMPERATURE
 LUN .               3029:   LOGGING UNIT NUMBER
 LUL .             CASPER:   LOGGING UNIT LOCATION
 ENGI.         B. ROLLINS:   RECORDING ENGINEER
 WITN.         RICHARDSON:   WITNESSED BY
 CLNT.            A2DTECH:   CLIENT CODE
 ORIG.           5" PRINT:   ORIGIN OF DATA
 UWI .       490251077000:   UNIQUE WELL ID
 DICO. A2D Technologies, Inc.:   DIGITIZING COMPANY
~OTHER INFORMATION
~A   DEPT       SN        ILD        SPR         CALD       GRD        DPHI       CORR       RHOB 
# ...
   60.5000     6.1039     7.1173   -26.4674     8.3637   103.3722     0.1455     0.0197     2.4374
   61.0000     6.0487     7.0203   -25.3525     8.3433   102.8933     0.1485     0.0181     2.4307
   61.5000     5.9652     6.9241   -25.4926     8.1752   103.6047     0.1506     0.0112     2.4255
   62.0000     5.8837     6.8155   -25.7991     8.0010   107.9789     0.1503     0.0111     2.4269
   62.5000     5.8032     6.8704   -25.6676     8.0011   110.8135     0.1447     0.0166     2.4385
   63.0000     5.7752     6.9354   -25.1997     8.3486   107.3291     0.1391     0.0219     2.4435
   63.5000     5.9104     7.0010   -24.7517     8.4215   104.4820     0.1336     0.0273     2.4569
   64.0000     6.0056     7.0673   -25.3140     8.3865   103.3708     0.1301     0.0265     2.4625
   64.5000     6.1023     7.1342   -26.1771     8.3472   102.6056     0.1297     0.0247     2.4600
   65.0000     6.2164     7.2018   -27.0347     8.3268   101.8813     0.1345     0.0229     2.4546
   65.5000     6.1559     7.2698   -27.1317     8.3475   101.8858     0.1385     0.0212     2.4492
   66.0000     6.0624     7.3361   -26.9960     8.3563   102.2661     0.1412     0.0200     2.4438
   66.5000     6.0471     7.2753   -26.8861     8.3171   106.7036     0.1436     0.0229     2.4383
   67.0000     6.0471     7.2171   -26.7817     8.3060   104.7072     0.1443     0.0353     2.4357
   67.5000     6.0395     7.1593   -26.9229     8.3114   103.5268     0.1411     0.0473     2.4412
   68.0000     6.0275     7.1020   -27.8757     8.3170   102.6408     0.1389     0.0425     2.4472
   68.5000     6.0154     7.0452   -28.0227     8.3226   104.5793     0.1372     0.0354     2.4506
   69.0000     6.0033     6.9888   -27.7202     8.3282   109.9478     0.1353     0.0283     2.4553
   69.5000     5.9914     6.9329   -27.4197     8.3338   112.8477     0.1323     0.0269     2.4605
   70.0000     5.9909     6.8785   -27.1074     8.3394   108.2547     0.1284     0.0249     2.4658
   70.5000     6.0967     6.9432   -27.3859     8.3450   100.6376     0.1244     0.0176     2.4717
   71.0000     6.1719     7.0073   -27.7091     8.3506    99.0177     0.1210     0.0168     2.4790
   71.5000     6.2480     7.0719   -28.0324     8.3563    99.1658     0.1218     0.0177     2.4804
   72.0000     6.3250     7.1372   -28.3541     8.3624   100.8721     0.1274     0.0173     2.4722
   72.5000     6.4029     7.2030   -28.6714     8.3464   105.7262     0.1329     0.0130     2.4625
   73.0000     6.4494     7.2694   -28.8999     8.3245   107.3576     0.1356     0.0087     2.4528
   73.5000     6.4286     7.3364   -28.9169     8.3320   108.8049     0.1374     0.0059     2.4493
   74.0000     6.4139     7.4040   -27.8008     8.3417   110.5602     0.1368     0.0062     2.4470
   74.5000     6.3987     7.4968   -26.8126     8.3361   111.0469     0.1323     0.0132     2.4519
   75.0000     6.3906     7.5907   -27.2890     8.3274   109.3098     0.1285     0.0206     2.4652
   75.5000     6.4748     7.6857   -26.5796     8.2930   105.9135     0.1285     0.0208     2.4657
   76.0000     6.5361     7.7819   -25.7544     8.2400   101.9480     0.1299     0.0179     2.4628
   76.5000     6.5978     7.8793   -27.0171     8.1052   100.1380     0.1309     0.0150     2.4583
   77.0000     6.6600     7.9778   -26.7308     8.1462    99.5498     0.1313     0.0139     2.4562
   77.5000     6.7228     8.0777   -25.1977     8.2032   101.6634     0.1290     0.0203     2.4621
   78.0000     6.7864     8.1788   -23.9306     8.1443   107.0048     0.1235     0.0293     2.4743
   78.5000     6.8508     8.2811   -25.2957     8.0826   110.9318     0.1178     0.0306     2.4784
   79.0000     6.9421     8.3447   -26.6010     8.0943   109.7530     0.1215     0.0278     2.4756
   79.5000     6.8719     8.2611   -27.8976     8.1374   108.6272     0.1259     0.0249     2.4689
   80.0000     6.7533     8.1911   -29.2181     8.1817   106.7514     0.1303     0.0255     2.4621
   80.5000     6.6367     8.1218   -28.6762     8.2180   104.0013     0.1341     0.0303     2.4553
   81.0000     6.5220     8.0530   -27.4025     8.2478   101.2485     0.1313     0.0353     2.4593
   81.5000     6.4096     7.9848   -26.1413     8.2773   102.8206     0.1286     0.0387     2.4648
   82.0000     6.2979     7.9172   -25.9312     8.3063   105.7436     0.1304     0.0404     2.4653
   82.5000     6.2718     7.8502   -26.7564     8.3357   107.8453     0.1291     0.0421     2.4601
   83.0000     6.2663     7.7837   -27.5112     8.3626   108.4588     0.1253     0.0439     2.4653
   83.5000     6.2607     7.7178   -27.2374     8.3632   110.2265     0.1270     0.0374     2.4671
   84.0000     6.2552     7.6525   -26.2152     8.3631   107.1016     0.1294     0.0302     2.4632
   84.5000     6.2497     7.6111   -24.9727     8.3639   101.6173     0.1310     0.0229     2.4618
   85.0000     6.2442     7.6381   -25.1453     8.2694    96.0365     0.1319     0.0157     2.4582
   85.5000     6.2386     7.6579   -25.6646     8.2597    93.9560     0.1339     0.0159     2.4545
   86.0000     6.2331     7.6779   -25.3094     8.2354    95.6153     0.1346     0.0204     2.4564
   86.5000     6.2275     7.6979   -24.5143     8.1898    99.2832     0.1222     0.0266     2.4691
   87.0000     6.2221     7.7180   -23.7295     8.2313   102.8739     0.1218     0.0276     2.4808
   87.5000     6.2164     7.7380   -22.8801     8.2906   104.5894     0.1214     0.0255     2.4795
   88.0000     6.3534     7.7582   -23.7861     8.3307   102.2864     0.1202     0.0257     2.4763
   88.5000     6.5010     7.7784   -24.6345     8.2639   104.9862     0.1190     0.0309     2.4787
   89.0000     6.6519     7.7986   -23.5473     8.2437   108.2756     0.1202     0.0320     2.4848
   89.5000     6.8064     7.8189   -23.3027     8.2418   110.4487     0.1249     0.0265     2.4748
   90.0000     6.9421     7.8393   -23.3139     8.1859   106.5182     0.1280     0.0211     2.4641
   90.5000     6.6969     7.8597   -22.7523     8.0927   108.8582     0.1299     0.0190     2.4631
   91.0000     6.4455     7.8801   -22.1144     8.2030   110.9401     0.1317     0.0169     2.4618
   91.5000     6.3318     7.9006   -22.8221     8.3131   109.0924     0.1336     0.0135     2.4570
   92.0000     6.3318     7.9212   -23.6399     8.3354   104.9156     0.1355     0.0093     2.4524
   92.5000     6.3468     7.9418   -23.1138     8.2859   100.8474     0.1373     0.0061     2.4530
   93.0000     6.4626     7.9625   -22.8040     8.2351    98.4138     0.1253     0.0110     2.4657
   93.5000     6.5806     7.9832   -23.2581     8.1839    96.2611     0.1222     0.0161     2.4761
   94.0000     6.7007     8.0039   -23.6867     8.2537    98.4339     0.1222     0.0179     2.4777
   94.5000     6.8230     8.0248   -24.1118     8.3455   101.0821     0.1222     0.0191     2.4772
   95.0000     6.9482     8.0431   -24.5317     8.3205   102.8913     0.1287     0.0196     2.4667
   95.5000     7.0743     7.9457   -24.5496     8.2100   103.3398     0.1297     0.0187     2.4603
   96.0000     7.1383     7.8411   -24.2155     8.1082   104.2840     0.1298     0.0177     2.4611
   96.5000     6.7900     7.7380   -23.8205     8.1500   107.3171     0.1314     0.0168     2.4624
   97.0000     6.5365     7.6361   -23.4204     8.1970   110.2951     0.1339     0.0160     2.4573
   97.5000     6.2712     7.5356   -23.0197     8.2435   113.3042     0.1363     0.0158     2.4523
   98.0000     6.2738     7.4364   -22.6019     8.2894   114.2937     0.1377     0.0233     2.4505
   98.5000     6.2255     7.3386   -22.4992     8.3152   114.2519     0.1345     0.0340     2.4526
   99.0000     6.1937     7.2420   -22.4903     8.2875   112.1533     0.1308     0.0448     2.4641
   99.5000     6.1621     7.1467   -22.5645     8.3224   108.9442     0.1291     0.0458     2.4658
  100.0000     6.1306     7.0526   -23.7060     8.3233   105.3736     0.1362     0.0325     2.4575
  100.5000     6.0993     6.9421   -24.6668     8.3257   101.7516     0.1399     0.0195     2.4476
