~VERSION INFORMATION
 VERS.                2.0:   CWLS LOG ASCII STANDARD - VERSION 2.0
 WRAP.                 NO:   ONE LINE PER DEPTH STEP
~WELL INFORMATION
#MNEM.UNIT      DATA TYPE    INFORMATION
#----------   ------------   ------------------------------
 STRT.F           12.5000:   START DEPTH
 STOP.F          604.0000:   STOP DEPTH
 STEP.F            0.5000:   STEP LENGTH
 NULL.          -999.2500:   NO VALUE
 COMP. FENIX & SCISSON INC:   COMPANY
 WELL.   SX-3 NPR 3 #61-3:   WELL
 FLD .             TEAPOT:   FIELD
 LOC .       S3 T38N R78W:   LOCATION
 CNTY.            NATRONA:   COUNTY
 STAT.            WYOMING:   STATE
 CTRY. UNITED STATES OF AMERICA:   COUNTRY
 SRVC.           BIRDWELL:   SERVICE COMPANY
 DATE.        03-DEC-1978:   LOGDATE
 API .       490251074100:   API NUMBER
~CURVE INFORMATION
#MNEM.UNIT       API CODE    CURVE DESCRIPTION
#----------   ------------   ------------------------------
 DEPT.F                  :   
 SPR .MV     05 010 01 00:   SPONTANEOUS POTENTIAL FROM RES.
 SN  .OHMM   05 040 16 00:   SHORT NORMAL 16"
 IL  .OHMM   05 120 00 00:   INDUCTION LOG
 CALD.IN     45 280 60 00:   CALIPER
 GRD .GAPI   45 310 01 00:   GAMMA RAY FROM DENSITY LOG
 DEN .G/C3   45 350 01 00:   COMPENSATED BULK DENSTIY
 CORR.G/C3   45 356 01 00:   DENSITY CORRECTION
 DPHI.DEC    45 890 12 00:   DENSITY POROSITY SANDSTONE
~PARAMETER INFORMATION
#MNEM.UNIT          VALUE    DESCRIPTION
#----------   ------------   ------------------------------
 PD  .                 GL:   PERMANENT DATUM
 EPD .F              5099:   ELEVATION PERMANENT DATUM
 LMF .                 KB:   LOG MEASURED FROM
 DAPD.F                 4:   FEET ABOVE PERMANENT DATUM
 DMF .                 KB:   DRILLING MEASURED FROM
 EKB .F              5103:   KELLING BUSHING
 EGL .F              5099:   GROUND LEVEL
 DATE.            12-3-78:   RUN DATE
 RUN .                  1:   RUN NUMBER
 DD  .F               615:   DEPTH DRILLER
 DL  .F               604:   DEPTH LOGGER
 BLI .F               598:   BOTTOM LOG INTERVAL
 TLI .F                40:   TOP LOG INTERVAL
 CS  .IN            8.625:   CASING SIZE
 CBL .F                35:   CASING BOTTOM LOGGER
 BS  .IN            7.875:   BIT SIZE
 BSD .F               615:   BIT SIZE AT DEPTH
 DFT .                KCL:   DRILLING FLUID TYPE
 DFD .                8.8:   DRILLING FLUID DENSITY
 DFV .                 42:   DRILLING FLUID VISCOSITY
 DFPH.               12.2:   DRILLING FLUID PH
 DFL .                 10:   DRILLING FLUID LOSS
 MSS .           FLOWLINE:   MUD SAMPLE SOURCE
 RMS .OHMM            .24:   RESISTIVITY MUD SAMPLE
 MST .F                58:   MUD SAMPLE TEMPERATURE
 RMF .OHMM             .3:   RESISTIVITY MUD FILTRATE SAMPLE
 MFST.F                54:   MUD FILTRATE SAMPLE TEMPERATURE
 RMC .OHMM            .34:   RESISTIVITY MUD CAKE
 MCST.F                56:   MUD CAKE SAMPLE TEMPERATURE
 MFSS.           MEASURED:   MUD FILTRATE SAMPLE SOURCE
 MCSS.           MEASURED:   MUD CAKE SAMPLE SOURCE
 RMB .OHMM            .27:   RESISTIVITY MUD AT BHT
 BHT .F                56:   BOTTOM HOLE TEMPERATURE
 TCS .HRS               3:   TIME CURCULATED STOPPED
 MRT .F                52:   MAXIMUM RECORDED TEMPERATURE
 LUN .               2958:   LOGGING UNIT NUMBER
 LUL .                CPR:   LOGGING UNIT LOCATION
 ENGI.            ROLLINS:   RECORDING ENGINEER
 WITN.              AMEND:   WITNESSED BY
 CLNT.            A2DTECH:   CLIENT CODE
 ORIG.       2", 5" PRINT:   ORIGIN OF DATA
 UWI .       490251074100:   UNIQUE WELL ID
 DICO. A2D Technologies, Inc.:   DIGITIZING COMPANY
~OTHER INFORMATION
~A   DEPT      SPR         SN         IL       CALD         GRD       DEN       CORR       DPHI   
# ...
  417.5000   -58.6318     8.6913     8.1659     8.0645   106.3034     2.4726    -0.0026     0.1486
  418.0000   -58.8201     8.6497     7.7559     8.0635   108.2367     2.4454     0.0050     0.1646
  418.5000   -59.0084     8.6090     7.0198     8.0625   113.8099     2.4182     0.0177     0.1806
  419.0000   -59.1967     8.5671     6.3535     8.0613   125.0875     2.3854     0.0301     0.1863
  419.5000   -59.3851     8.3386     5.9628     8.0535   120.6553     2.4029     0.0184     0.1603
  420.0000   -59.5734     7.9727     5.9080     8.0367   111.6226     2.4307     0.0040     0.1427
  420.5000   -59.7618     7.6241     5.9845     8.0200   100.0345     2.4587     0.0032     0.1273
  421.0000   -59.9513     7.2907     6.0407     8.0032   102.2288     2.4867     0.0031     0.1134
  421.5000   -60.1354     6.9127     6.0974     7.9865   106.0004     2.5041     0.0030     0.1091
  422.0000   -60.1425     7.0416     6.1873     7.9698   107.3585     2.5075     0.0028     0.1088
  422.5000   -60.1369     7.3067     6.3027     7.9642   106.8201     2.5085     0.0026     0.1088
  423.0000   -59.8844     7.8296     7.2443     7.9708   106.3639     2.5094     0.0024     0.1088
  423.5000   -59.1252     8.4068     8.2949     7.9774   106.6158     2.5094     0.0022     0.1088
  424.0000   -58.1831     9.0266     9.5044     7.9839   107.9504     2.5081     0.0021     0.1088
  424.5000   -57.2546     9.6921    10.1793     7.9905   109.3521     2.5063     0.0019     0.1126
  425.0000   -56.5531    10.3316    10.3769     7.9971   109.9696     2.5016     0.0017     0.1168
  425.5000   -55.9040    10.8701    10.5791     8.0036   108.2570     2.4969     0.0015     0.1202
  426.0000   -55.2559    10.9710    10.7903     8.0102   107.8642     2.4921     0.0032     0.1210
  426.5000   -54.6049    11.1756    11.0065     8.0168   106.6168     2.4879     0.0051     0.1218
  427.0000   -54.2334    11.3840    11.2269     8.0234    97.8192     2.4887     0.0071     0.1258
  427.5000   -54.0696    11.4897    11.4518     8.0299    88.9464     2.4876     0.0079     0.1347
  428.0000   -53.9114    11.5963    11.7789     8.0365    80.1235     2.4536     0.0083     0.1592
  428.5000   -53.7532    11.7039    12.2902     8.0431    71.8854     2.4161     0.0088     0.1836
  429.0000   -53.5945    12.2168    12.9429     8.0496    70.6243     2.3787     0.0093     0.2077
  429.5000   -53.4358    12.7508    14.1656     8.0562    69.0044     2.3416     0.0082     0.2204
  430.0000   -53.2775    13.3082    15.5037     8.0624    67.2570     2.3209     0.0059     0.2300
  430.5000   -53.1188    13.8899    16.9683     8.0683    66.5972     2.3101     0.0036     0.2400
  431.0000   -52.9680    14.4971    18.5712     8.0741    65.6936     2.2920     0.0013     0.2499
  431.5000   -52.3620    15.1308    20.3255     8.0798    63.5510     2.2744    -0.0010     0.2552
  432.0000   -51.5790    15.7922    21.6357     8.0856    61.4174     2.2643    -0.0033     0.2524
  432.5000   -50.8505    16.4825    22.2981     8.0915    59.3063     2.2712    -0.0057     0.2431
  433.0000   -50.6132    17.2031    22.9808     8.0960    57.6135     2.2824    -0.0031     0.2395
  433.5000   -50.3670    17.9557    23.6844     8.1104    57.2091     2.2868     0.0021     0.2525
  434.0000   -49.6743    18.7363    24.4096     7.9992    57.0619     2.2693     0.0073     0.2615
  434.5000   -48.8660    19.5126    25.1569     7.8926    57.0661     2.2547     0.0092     0.2705
  435.0000   -48.0558    19.9192    26.1217     7.2971    57.6342     2.2401     0.0087     0.2795
  435.5000   -47.2458    20.3452    27.5273     8.0608    59.9703     2.2255     0.0082     0.2884
  436.0000   -46.4362    20.7787    29.0085     8.0645    59.4201     2.2109     0.0076     0.2975
  436.5000   -45.6777    21.2213    30.5694     8.0777    56.1920     2.1962     0.0077     0.2986
  437.0000   -45.3350    21.6735    32.2143     8.0661    52.8495     2.1916     0.0166     0.2856
  437.5000   -45.0114    22.1352    33.9477     8.0535    50.5421     2.2071     0.0252     0.2704
  438.0000   -44.6874    22.6068    36.1244     8.0412    53.1155     2.2327     0.0212     0.2553
  438.5000   -44.3535    23.0890    36.0481     8.0288    55.8354     2.2579     0.0115     0.2463
  439.0000   -44.1608    23.5817    35.9546     8.0164    58.5441     2.2765     0.0100     0.2471
  439.5000   -44.0034    24.0606    35.8613     8.0041    60.3177     2.2756     0.0108     0.2549
  440.0000   -43.8774    23.9594    35.3119     7.9917    60.8647     2.2618     0.0113     0.2628
  440.5000   -43.9150    23.8414    33.5029     7.9807    61.4154     2.2474     0.0080     0.2651
  441.0000   -43.9492    23.7254    32.4774     7.9810    62.6974     2.2462     0.0047     0.2435
  441.5000   -43.9831    23.6158    31.8097     7.9810    65.9225     2.2761     0.0014     0.2238
  442.0000   -44.0170    23.2792    30.0995     7.9810    68.8347     2.3059    -0.0020     0.2041
  442.5000   -44.0509    22.9704    28.3691     7.9810    69.2434     2.3354    -0.0025     0.1966
  443.0000   -44.0848    22.6672    26.6320     7.9810    69.1552     2.3584    -0.0018     0.1994
  443.5000   -44.1187    22.3683    26.2172     7.9808    69.0690     2.3551     0.0048     0.2098
  444.0000   -44.1525    22.0732    25.7797     7.9916    70.2588     2.3411     0.0114     0.2203
  444.5000   -44.1864    21.7821    25.3495     8.0050    71.5682     2.3262     0.0179     0.2231
  445.0000   -44.2203    21.4948    24.9265     8.0184    72.4385     2.3184     0.0218     0.2198
  445.5000   -44.2542    21.2112    24.5073     8.0318    72.6220     2.3226     0.0231     0.2171
  446.0000   -44.2881    20.9315    24.4809     8.0452    73.9951     2.3262     0.0244     0.2238
  446.5000   -44.3219    20.6554    24.4543     8.0587    75.5185     2.3170     0.0256     0.2363
  447.0000   -44.3558    20.3829    24.4277     8.0615    75.5621     2.2956     0.0269     0.2488
  447.5000   -44.3897    20.1140    24.4011     8.0622    74.5674     2.2743     0.0282     0.2506
  448.0000   -44.4236    19.8487    24.3746     8.0629    72.7615     2.2762     0.0294     0.2370
  448.5000   -44.4575    19.5869    24.3476     8.0637    71.5983     2.2966     0.0307     0.2243
  449.0000   -44.4913    19.3286    24.3219     8.0644    72.9646     2.3202     0.0315     0.2117
  449.5000   -44.5252    19.0736    24.2847     8.0651    74.8505     2.3437     0.0294     0.1991
  450.0000   -44.5591    18.8220    24.2947     8.0659    76.3830     2.3672     0.0199     0.1865
  450.5000   -44.5928    18.5737    23.0203     8.0666    76.8141     2.3909     0.0130     0.1732
  451.0000   -44.6265    18.3287    22.2128     8.0673    77.0462     2.4019     0.0120     0.1719
  451.5000   -44.6626    18.0121    21.4335     8.0680    77.2443     2.4031     0.0108     0.1725
  452.0000   -44.7901    17.6549    20.6816     8.0688    77.4677     2.3994     0.0096     0.1772
  452.5000   -45.0282    17.3048    19.9561     8.0695    77.6335     2.3934     0.0085     0.1807
  453.0000   -45.2652    16.9616    19.2556     8.0702    77.3380     2.3873     0.0073     0.1799
  453.5000   -45.5033    16.6252    18.5798     8.0709    76.9466     2.3893     0.0062     0.1777
  454.0000   -45.7403    16.2955    17.9287     8.0717    76.5348     2.3932     0.0051     0.1770
  454.5000   -45.9789    15.9724    17.7240     8.0724    76.5315     2.3963     0.0040     0.1816
  455.0000   -46.0715    15.6556    17.7057     8.0731    78.6864     2.3898     0.0029     0.1863
  455.5000   -46.0539    15.3449    17.6875     8.0738    80.8259     2.3808     0.0018     0.1909
  456.0000   -46.0339    15.0398    17.6693     8.0746    81.6341     2.3717     0.0007     0.1955
  456.5000   -46.0138    14.7439    17.6511     8.0753    81.8533     2.3632    -0.0004     0.1948
  457.0000   -45.9939    14.6075    17.6329     8.0760    81.0555     2.3619    -0.0015     0.1931
  457.5000   -45.9741    14.6233    17.6150     8.0768    80.5833     2.3671    -0.0025     0.1914
