~VERSION INFORMATION
 VERS.                2.0:   CWLS LOG ASCII STANDARD - VERSION 2.0
 WRAP.                 NO:   ONE LINE PER DEPTH STEP
~WELL INFORMATION
#MNEM.UNIT      DATA TYPE    INFORMATION
#----------   ------------   ------------------------------
 STRT.F           10.0000:   START DEPTH
 STOP.F          472.5000:   STOP DEPTH
 STEP.F            0.5000:   STEP LENGTH
 NULL.          -999.2500:   NO VALUE
 COMP. FENIX & SCISSON INC:   COMPANY
 WELL. NAVAL PETROLEUM RESERVE 3 SX-1 #67-10:   WELL
 FLD .             TEAPOT:   FIELD
 LOC .      S10 T38N R78W:   LOCATION
 CNTY.            NATRONA:   COUNTY
 STAT.            WYOMING:   STATE
 CTRY. UNITED STATES OF AMERICA:   COUNTRY
 SRVC.           BIRDWELL:   SERVICE COMPANY
 DATE.        05-DEC-1978:   LOGDATE
 API .       490251075000:   API NUMBER
~CURVE INFORMATION
#MNEM.UNIT       API CODE    CURVE DESCRIPTION
#----------   ------------   ------------------------------
 DEPT.F                  :   
 SPR .MV     05 010 01 00:   SPONTANEOUS POTENTIAL FROM RES.
 SN  .OHMM   05 040 16 00:   SHORT NORMAL 16"
 IL  .OHMM   05 120 00 00:   INDUCTION LOG
 CALD.IN     45 280 60 00:   CALIPER
 GRD .GAPI   45 310 01 00:   GAMMA RAY FROM DENSITY LOG
 RHOB.G/C3   45 350 01 00:   BULK DENSITY
 DPHI.DEC    45 890 12 00:   DENSITY POROSITY SANDSTONE
 CORR.G/C3   45 356 01 00:   DENSITY CORRECTION
~PARAMETER INFORMATION
#MNEM.UNIT          VALUE    DESCRIPTION
#----------   ------------   ------------------------------
 PD  .                 GL:   PERMANENT DATUM
 EPD .F              5189:   ELEVATION PERMANENT DATUM
 LMF .                 KB:   LOG MEASURED FROM
 DAPD.F                 4:   FEET ABOVE PERMANENT DATUM
 DMF .                 KB:   DRILLING MEASURED FROM
 EKB .F              5193:   KELLING BUSHING
 EGL .F              5189:   GROUND LEVEL
 DATE.            12-5-78:   RUN DATE
 RUN .                  1:   RUN NUMBER
 DD  .F               475:   DEPTH DRILLER
 DL  .F               471:   DEPTH LOGGER
 BLI .F               465:   BOTTOM LOG INTERVAL
 TLI .F                40:   TOP LOG INTERVAL
 CS  .IN            8.625:   CASING SIZE
 CBD .F                40:   CASING BOTTOM DRILLER
 CBL .F                40:   CASING BOTTOM LOGGER
 BS  .IN            7.875:   BIT SIZE
 BSD .F               475:   BIT SIZE AT DEPTH
 DFT .                KCL:   DRILLING FLUID TYPE
 DFD .                8.8:   DRILLING FLUID DENSITY
 DFV .                 42:   DRILLING FLUID VISCOSITY
 DFPH.               12.2:   DRILLING FLUID PH
 DFL .               11.6:   DRILLING FLUID LOSS
 MSS .          FLOW LINE:   MUD SAMPLE SOURCE
 RMS .OHMM            .31:   RESISTIVITY MUD SAMPLE
 MST .F                60:   MUD SAMPLE TEMPERATURE
 RMF .OHMM            .29:   RESISTIVITY MUD FILTRATE SAMPLE
 MFST.F                61:   MUD FILTRATE SAMPLE TEMPERATURE
 RMC .OHMM            .42:   RESISTIVITY MUD CAKE
 MCST.F                63:   MUD CAKE SAMPLE TEMPERATURE
 MFSS.           MEASURED:   MUD FILTRATE SAMPLE SOURCE
 MCSS.           MEASURED:   MUD CAKE SAMPLE SOURCE
 RMB .OHMM            .33:   RESISTIVITY MUD AT BHT
 BHT .F                57:   BOTTOM HOLE TEMPERATURE
 TCS .HRS               3:   TIME CURCULATED STOPPED
 MRT .F                57:   MAXIMUM RECORDED TEMPERATURE
 LUN .               2958:   LOGGING UNIT NUMBER
 LUL .                CPR:   LOGGING UNIT LOCATION
 ENGI.            ROLLINS:   RECORDING ENGINEER
 WITN.              AMEND:   WITNESSED BY
 CLNT.            A2DTECH:   CLIENT CODE
 ORIG.       2", 5" PRINT:   ORIGIN OF DATA
 UWI .       490251075000:   UNIQUE WELL ID
 DICO. A2D Technologies, Inc.:   DIGITIZING COMPANY
~OTHER INFORMATION
~A   DEPT      SPR         SN         IL       CALD         GRD      RHOB       DPHI       CORR   
# ...
  293.5000   -49.7790    22.3450    27.1050     8.7840    64.5200     2.2810     0.2430     0.0200
  294.0000   -49.7690    22.3450    27.3490     8.7380    64.7480     2.3050     0.2350     0.0220
  294.5000   -49.7590    22.3450    27.5930     8.6900    65.6720     2.3090     0.2270     0.0220
  295.0000   -49.7500    22.3450    27.8370     8.5430    67.1240     2.3020     0.2320     0.0210
  295.5000   -49.7400    22.3450    28.1500     8.7110    71.5220     2.2920     0.2370     0.0210
  296.0000   -49.7300    22.4920    27.9470     8.4800    73.1320     2.2900     0.2400     0.0200
  296.5000   -49.7210    22.6970    27.6640     8.5280    71.6450     2.3050     0.2300     0.0200
  297.0000   -49.7110    22.9020    27.3800     8.5390    70.3940     2.3220     0.2200     0.0190
  297.5000   -49.7010    23.1070    27.1290     8.5180    69.3390     2.3270     0.2160     0.0180
  298.0000   -49.6910    23.3120    28.3130     8.4970    68.2780     2.3260     0.2180     0.0160
  298.5000   -49.6820    23.6180    29.4810     8.4760    69.3990     2.3220     0.2190     0.0130
  299.0000   -49.6720    23.6100    29.4270     8.5120    70.5450     2.3210     0.2200     0.0070
  299.5000   -49.6620    23.5930    29.3680     8.5940    69.9500     2.3200     0.2210     0.0030
  300.0000   -49.6520    23.5760    29.3090     8.6790    67.3470     2.3130     0.2290     0.0050
  300.5000   -49.6430    23.5590    29.2500     8.7830    67.4680     2.2940     0.2370     0.0070
  301.0000   -49.6330    23.5420    29.2090     8.8110    67.7120     2.2890     0.2430     0.0190
  301.5000   -49.6230    23.5250    29.7640     8.8140    69.7900     2.2880     0.2430     0.0240
  302.0000   -49.6140    23.5080    30.1890     8.8170    71.8790     2.2890     0.2430     0.0290
  302.5000   -49.6040    23.4900    32.0740     8.8190    71.6970     2.2940     0.2360     0.0350
  303.0000   -49.6320    23.4730    32.3930     8.8220    69.3740     2.3260     0.2060     0.0380
  303.5000   -49.6950    23.4570    32.7120     8.8250    66.2570     2.3630     0.1820     0.0370
  304.0000   -49.7580    23.4400    33.0300     8.8270    63.5040     2.3830     0.1830     0.0330
  304.5000   -49.8210    23.4230    33.2420     8.8290    62.7960     2.3840     0.1900     0.0250
  305.0000   -49.8840    23.4050    32.3070     8.7720    65.1400     2.3670     0.1980     0.0190
  305.5000   -49.9460    23.1280    31.6060     8.7080    68.7880     2.3560     0.2020     0.0190
  306.0000   -50.0090    22.7610    30.9060     8.5770    72.5020     2.3500     0.2060     0.0190
  306.5000   -50.0720    22.3930    29.8420     8.6100    75.3360     2.3480     0.2070     0.0200
  307.0000   -50.1350    22.0250    28.4810     8.6670    75.6520     2.3480     0.2080     0.0200
  307.5000   -50.1980    21.1400    27.2920     8.7240    75.8140     2.3490     0.2080     0.0200
  308.0000   -50.2610    20.9580    26.1580     8.7810    76.7160     2.3490     0.2060     0.0190
  308.5000   -50.3230    20.7680    25.6660     8.8110    78.0950     2.3510     0.2040     0.0160
  309.0000   -50.3810    20.5780    25.6660     8.8130    76.1370     2.3530     0.2010     0.0150
  309.5000   -50.6310    20.3880    25.5820     8.8160    75.6690     2.3560     0.1990     0.0160
  310.0000   -50.9230    20.1980    25.1030     8.8180    75.4830     2.3620     0.1950     0.0180
  310.5000   -51.2170    20.0080    24.6240     8.8210    74.6990     2.3700     0.1910     0.0190
  311.0000   -51.5120    19.8160    24.1450     8.8230    73.9080     2.3760     0.1870     0.0210
  311.5000   -51.8060    19.2220    23.6670     8.8250    73.8030     2.3800     0.1850     0.0220
  312.0000   -52.1000    18.8900    23.1860     8.8280    73.7880     2.3820     0.1850     0.0220
  312.5000   -52.3950    18.6290    22.8850     8.8300    71.6060     2.3820     0.1840     0.0210
  313.0000   -52.6920    18.3680    22.5840     8.8330    70.1800     2.3820     0.1850     0.0190
  313.5000   -52.8160    18.1070    22.3410     8.8350    72.4790     2.3790     0.1880     0.0130
  314.0000   -52.8350    17.8920    22.3240     8.8370    75.9290     2.3740     0.1910     0.0080
  314.5000   -52.8540    17.8480    22.3070     8.8400    76.7310     2.3690     0.1940     0.0070
  315.0000   -52.8740    17.8040    22.2900     8.8420    76.6730     2.3690     0.1920     0.0160
  315.5000   -52.8920    17.7600    22.2720     8.8440    75.9490     2.3690     0.1920     0.0190
  316.0000   -52.9110    17.7170    22.2550     8.8470    74.0710     2.3700     0.1920     0.0200
  316.5000   -52.9300    17.6730    22.2380     8.8500    73.8190     2.3700     0.1920     0.0210
  317.0000   -52.9490    17.6290    22.2210     8.8240    75.6670     2.3700     0.1920     0.0220
  317.5000   -52.9680    17.5850    22.2040     8.7870    77.3160     2.3650     0.1960     0.0230
  318.0000   -52.9870    17.5410    22.1870     8.7500    78.0660     2.3590     0.2000     0.0230
  318.5000   -53.0060    17.4970    22.1690     8.7120    78.2810     2.3530     0.2010     0.0240
  319.0000   -53.0250    17.4530    22.1530     8.7150    77.6800     2.3520     0.2030     0.0240
  319.5000   -53.0430    17.4120    22.0940     8.7210    76.9900     2.3530     0.2040     0.0280
  320.0000   -53.0620    17.2610    21.9070     8.7270    76.2900     2.3550     0.1990     0.0330
  320.5000   -53.0810    17.1180    21.7220     8.7320    76.4200     2.3590     0.1990     0.0380
  321.0000   -53.1000    16.9760    21.5370     8.7380    79.3130     2.3610     0.1990     0.0410
  321.5000   -53.1190    16.8330    21.3520     8.7440    82.1430     2.3610     0.1980     0.0440
  322.0000   -53.1380    16.6900    21.1670     8.7500    83.7730     2.3610     0.1980     0.0460
  322.5000   -53.1570    16.5470    20.9820     8.7570    83.1380     2.3610     0.1980     0.0500
  323.0000   -53.1750    16.4040    20.7970     8.7640    81.8170     2.3620     0.1960     0.0600
  323.5000   -53.1940    16.2610    20.6120     8.7710    82.8480     2.3680     0.1920     0.0700
  324.0000   -53.2130    16.1190    20.4270     8.7790    87.3150     2.3740     0.1890     0.0780
  324.5000   -53.2320    15.9760    20.2420     8.7860    89.6680     2.3800     0.1870     0.0760
  325.0000   -53.2510    15.8670    20.1570     8.7900    85.9860     2.3840     0.1830     0.0730
  325.5000   -53.2700    15.8400    20.1150     8.7910    82.7250     2.3860     0.1820     0.0710
  326.0000   -53.2890    15.8130    20.0740     8.7920    82.7000     2.3860     0.1800     0.0600
  326.5000   -53.3070    15.7860    20.0330     8.7930    82.8800     2.3810     0.1850     0.0490
  327.0000   -53.3260    15.7590    19.9910     8.7940    82.0940     2.3720     0.1910     0.0430
  327.5000   -53.3450    15.7320    19.9500     8.7950    80.9500     2.3720     0.1900     0.0400
  328.0000   -53.3640    15.7050    19.9090     8.7960    78.9090     2.3730     0.1890     0.0370
  328.5000   -53.3830    15.6780    19.8670     8.7970    76.9090     2.3710     0.1920     0.0270
  329.0000   -53.4000    15.6510    19.8260     8.7980    74.9010     2.3680     0.1940     0.0190
  329.5000   -53.5000    15.6240    19.7850     8.7990    74.0020     2.3660     0.1950     0.0180
  330.0000   -53.6250    15.5970    19.7430     8.8000    75.6790     2.3660     0.1950     0.0170
  330.5000   -53.7510    15.5700    19.7020     8.8010    77.8850     2.3660     0.1950     0.0170
  331.0000   -53.8760    15.5430    19.6610     8.8020    80.1920     2.3680     0.1920     0.0160
  331.5000   -54.0020    15.5160    19.5640     8.8030    81.5070     2.3710     0.1900     0.0160
  332.0000   -54.1280    15.4890    19.3630     8.8040    82.8350     2.3740     0.1890     0.0150
  332.5000   -54.2540    15.4620    19.2740     8.8050    84.1660     2.3740     0.1930     0.0150
  333.0000   -54.3790    15.4350    19.2740     8.8060    85.3860     2.3730     0.1920     0.0170
  333.5000   -54.5050    15.4080    19.2740     8.8070    86.0620     2.3730     0.1910     0.0200
