~VERSION INFORMATION
 VERS.                2.0:   CWLS LOG ASCII STANDARD - VERSION 2.0
 WRAP.                 NO:   ONE LINE PER DEPTH STEP
~WELL INFORMATION
#MNEM.UNIT      DATA TYPE    INFORMATION
#----------   ------------   ------------------------------
 STRT.F            6.0000:   START DEPTH
 STOP.F          495.0000:   STOP DEPTH
 STEP.F            0.5000:   STEP LENGTH
 NULL.          -999.2500:   NO VALUE
 COMP. FENIX & SCISSON INC:   COMPANY
 WELL. FI NPR-3 #65-25 SX3:   WELL
 FLD .  NAVAL RESERVES #3:   FIELD
 LOC .       S3 T38N R78W:   LOCATION
 CNTY.            NATRONA:   COUNTY
 STAT.            WYOMING:   STATE
 CTRY. UNITED STATES OF AMERICA:   COUNTRY
 SRVC.       Schlumberger:   SERVICE COMPANY
 DATE.        22-MAY-1980:   LOGDATE
 API .       490251080300:   API NUMBER
~CURVE INFORMATION
#MNEM.UNIT       API CODE    CURVE DESCRIPTION
#----------   ------------   ------------------------------
 DEPT.F                  :   
 SPR .MV     07 010 01 00:   SPONTANEOUS POTENTIAL
 SFL .OHMM   07 220 01 00:   SHALLOW FOCUSED LOG RESISTIVITY
 ILD .OHMM   07 120 46 00:   INDUCTION LOG DEEP RESISTIVITY
 ILM .OHMM   07 120 44 00:   INDUCTION LOG MEDIUM
 GRD .GAPI   45 310 01 00:   GAMMA RAY FROM DENSITY LOG
 CALD.IN     45 280 60 00:   CALIPER
 DPHI.DEC    45 890 12 00:   DENSITY POROSITY SANDSTONE
 RHOB.G/C3   45 350 01 00:   BULK DENSITY
 CORR.G/C3   45 356 01 00:   DENSITY CORRECTION
 NPHI.DEC    42 890 03 00:   NEUTRON POROSITY SANDSTONE
~PARAMETER INFORMATION
#MNEM.UNIT          VALUE    DESCRIPTION
#----------   ------------   ------------------------------
 PD  .                 GL:   PERMANENT DATUM
 EPD .F              5162:   ELEVATION PERMANENT DATUM
 LMF .                 KB:   LOG MEASURED FROM
 DAPD.F                 4:   FEET ABOVE PERMANENT DATUM
 DMF .                 KB:   DRILLING MEASURED FROM
 EKB .F              5166:   KELLING BUSHING
 EGL .F              5162:   GROUND LEVEL
 DATE.            5-22-80:   RUN DATE
 RUN .                  1:   RUN NUMBER
 DD  .F               500:   DEPTH DRILLER
 DL  .F               498:   DEPTH LOGGER
 BLI .F               492:   BOTTOM LOG INTERVAL
 TLI .F                10:   TOP LOG INTERVAL
 BS  .IN            9.875:   BIT SIZE
 BSD .F               500:   BIT SIZE AT DEPTH
 DFT .                KCL:   DRILLING FLUID TYPE
 DFD .                9.6:   DRILLING FLUID DENSITY
 DFV .                 45:   DRILLING FLUID VISCOSITY
 DFL .                8.9:   DRILLING FLUID LOSS
 MSS .               PITS:   MUD SAMPLE SOURCE
 RMS .OHMM            .21:   RESISTIVITY MUD SAMPLE
 MST .F                76:   MUD SAMPLE TEMPERATURE
 RMF .OHMM            .19:   RESISTIVITY MUD FILTRATE SAMPLE
 MFST.F                76:   MUD FILTRATE SAMPLE TEMPERATURE
 MFSS.               MEAS:   MUD FILTRATE SAMPLE SOURCE
 TLAB.HRS            0845:   TIME LOGGER AT BOTTOM
 LUN .               8035:   LOGGING UNIT NUMBER
 LUL .               CSPR:   LOGGING UNIT LOCATION
 ENGI.           C. DRAKE:   RECORDING ENGINEER
 WITN.              AMEND:   WITNESSED BY
 CLNT.            A2DTECH:   CLIENT CODE
 ORIG.           5" PRINT:   ORIGIN OF DATA
 UWI .       490251080300:   UNIQUE WELL ID
 DICO. A2D Technologies, Inc.:   DIGITIZING COMPANY
~OTHER INFORMATION
~A    DEPT     SPR        SFL        ILD        ILM         GRD       CALD      DPHI       RHOB       CORR        NPHI  
# ...
  441.5000   -66.7190    11.6868    11.4572     9.6874   104.7639     9.8724     0.1022     2.5040    -0.0002     0.2710
  442.0000   -66.4214    12.0298    11.6996     9.8916   105.0586     9.8710     0.0958     2.5157     0.0000     0.2742
  442.5000   -66.0903    12.3830    11.9471     9.9950   106.3776     9.8696     0.0898     2.5243     0.0001     0.2699
  443.0000   -66.0095    12.7468    12.1999    10.0795   107.6772     9.8682     0.0902     2.5224     0.0002     0.2639
  443.5000   -66.2660    13.1222    12.4580    10.1646   108.0464     9.8668     0.0967     2.5151     0.0003     0.2617
  444.0000   -66.4834    13.3307    12.6355    10.2506   108.2214     9.8654     0.1002     2.5103     0.0004     0.2609
  444.5000   -66.1971    13.2660    12.7240    10.3372   108.5223     9.8640     0.0984     2.5136     0.0019     0.2597
  445.0000   -65.9025    13.2084    12.8132    10.4245   109.0920     9.8635     0.0974     2.5150     0.0034     0.2534
  445.5000   -65.6104    13.2821    12.9031    10.4894   108.7064     9.8632     0.0999     2.5114     0.0001     0.2469
  446.0000   -65.3188    13.3943    12.9935    10.4457   106.6766     9.8629     0.1041     2.5044    -0.0024     0.2410
  446.5000   -65.0266    13.4908    13.0846    10.4112   104.8445     9.8627     0.1015     2.5056     0.0022     0.2365
  447.0000   -64.7375    13.5691    13.1763    10.3767   105.5831     9.8624     0.0978     2.5151     0.0066     0.2380
  447.5000   -64.6261    13.6478    13.2687    10.3420   107.0744     9.8622     0.0966     2.5162     0.0084     0.2409
  448.0000   -64.5438    13.7270    13.3617    10.2987   106.5995     9.8619     0.1014     2.5074     0.0055     0.2453
  448.5000   -64.5633    13.8067    13.4554    10.4007   104.4978     9.8617     0.1089     2.4930     0.0012     0.2477
  449.0000   -64.6949    13.9201    13.5496    10.5567   103.6048     9.8614     0.1129     2.4884     0.0006     0.2449
  449.5000   -64.8257    14.0496    13.5801    10.7134   103.5661     9.8612     0.1145     2.4859     0.0003     0.2441
  450.0000   -64.9583    14.2194    13.4627    10.8742   103.6954     9.8609     0.1146     2.4848    -0.0007     0.2476
  450.5000   -65.0925    14.1090    13.3739    10.9842   104.2036     9.8607     0.1138     2.4890    -0.0031     0.2553
  451.0000   -65.0005    13.8924    13.2854    10.8191   104.9994     9.8604     0.1101     2.4947    -0.0040     0.2626
  451.5000   -64.8881    13.6790    13.1978    10.6943   105.1539     9.8602     0.1090     2.4927    -0.0050     0.2689
  452.0000   -64.7757    13.4513    13.0872    10.5865   104.5544     9.8599     0.1135     2.4836    -0.0063     0.2705
  452.5000   -64.5945    13.4552    13.1556    10.7650   103.5948     9.8596     0.1179     2.4822    -0.0057     0.2692
  453.0000   -64.2567    13.6774    13.2499    10.8523   102.8522     9.8594     0.1130     2.4931    -0.0006     0.2648
  453.5000   -63.9263    13.8774    13.3449    10.9404   103.6135     9.8591     0.1053     2.5036     0.0033     0.2594
  454.0000   -63.7479    14.0889    13.4406    11.0302   105.2071     9.8589     0.1011     2.5086     0.0074     0.2565
  454.5000   -63.9127    13.9111    13.5788    11.0855   106.7561     9.8586     0.1014     2.5047     0.0085     0.2609
  455.0000   -64.0701    13.7278    13.4512    10.9319   108.5446     9.8584     0.1038     2.4993     0.0062     0.2653
  455.5000   -64.2304    13.5469    13.2292    10.8193   111.2238     9.8581     0.1087     2.4885     0.0027     0.2688
  456.0000   -64.2399    13.3684    13.0108    10.7088   113.8936     9.8579     0.1137     2.4812    -0.0008     0.2722
  456.5000   -64.1357    13.1882    12.7961    10.4911   115.0218     9.8576     0.1170     2.4815    -0.0015     0.2745
  457.0000   -64.0299    13.0093    12.5848    10.2622   113.6504     9.8574     0.1155     2.4867    -0.0015     0.2738
  457.5000   -63.9222    12.8329    12.3771    10.0851   111.8472     9.8571     0.1125     2.4925    -0.0015     0.2729
  458.0000   -63.8568    12.6333    12.1728     9.9979   112.9168     9.8569     0.1094     2.4989    -0.0031     0.2741
  458.5000   -63.8000    12.4008    11.9719     9.9670   115.0045     9.8566     0.1064     2.5001    -0.0053     0.2800
  459.0000   -63.7449    12.1727    11.7742     9.9362   116.7163     9.8564     0.1062     2.4919    -0.0076     0.2837
  459.5000   -63.7481    11.9487    11.5798     9.8421   115.5811     9.8561     0.1132     2.4840    -0.0081     0.2811
  460.0000   -64.0406    11.8020    11.3966     9.7124   114.3094     9.8559     0.1166     2.4883    -0.0060     0.2782
  460.5000   -64.3286    11.7500    11.3052     9.5845   113.4318     9.8556     0.1125     2.4966    -0.0040     0.2782
  461.0000   -64.6164    11.6983    11.2181     9.4582   114.3598     9.8553     0.1086     2.4984    -0.0042     0.2845
  461.5000   -64.9007    11.6458    11.1317     9.3335   115.4213     9.8551     0.1079     2.4918    -0.0055     0.2919
  462.0000   -65.1017    11.5557    11.0465     9.2104   115.1896     9.8548     0.1112     2.4855    -0.0055     0.2952
  462.5000   -64.8553    11.3512    10.9831     9.0889   114.9414     9.8546     0.1150     2.4882    -0.0056     0.2912
  463.0000   -64.5517    11.1522    10.8440     9.0403   114.6894     9.8543     0.1130     2.5011     0.0005     0.2862
  463.5000   -64.4241    10.9567    10.7142     9.0255   115.1869     9.8541     0.1037     2.5159     0.0084     0.2891
  464.0000   -64.3351    10.7836    10.5865     9.0106   116.8581     9.8538     0.0915     2.5310     0.0144     0.2945
  464.5000   -64.0847    10.8287    10.4605     8.9957   119.3247     9.8536     0.0873     2.5274     0.0108     0.2986
  465.0000   -63.7528    10.8791    10.3359     8.9808   120.1712     9.8533     0.0906     2.5184     0.0060     0.2990
  465.5000   -63.4137    10.9298    10.2019     8.9659   119.9149     9.8531     0.0959     2.5088     0.0011     0.2938
  466.0000   -63.3345    10.9806    10.2039     8.9511   118.6285     9.8528     0.1018     2.4968    -0.0035     0.2839
  466.5000   -63.3825    11.0317    10.2031     8.9362   118.6331     9.8526     0.1074     2.4906    -0.0064     0.2749
  467.0000   -63.4324    11.0860    10.2033     8.9216   119.6323     9.8523     0.1111     2.4906    -0.0053     0.2713
  467.5000   -63.4876    10.9875    10.2027     8.9057   119.3474     9.8520     0.1114     2.4917    -0.0044     0.2778
  468.0000   -63.2829    10.8566    10.1715     8.8957   118.4597     9.8518     0.1108     2.4948    -0.0035     0.2840
  468.5000   -62.9671    10.7273    10.1376     8.7971   116.6067     9.8516     0.1097     2.4947    -0.0042     0.2902
  469.0000   -62.6467    10.5996    10.0890     8.8039   114.7500     9.8513     0.1090     2.4919    -0.0056     0.2938
  469.5000   -62.3281    10.4733     9.9662     8.7495   114.3484     9.8510     0.1103     2.4898    -0.0054     0.2971
  470.0000   -62.0957    10.3486     9.8451     8.6066   116.7815     9.8508     0.1116     2.4908    -0.0040     0.3004
  470.5000   -62.0993    10.2254     9.7255     8.4659   119.2992     9.8505     0.1106     2.4934    -0.0026     0.3038
  471.0000   -62.0677    10.1036     9.6074     8.3276   120.5733     9.8503     0.1089     2.4940    -0.0012     0.3034
  471.5000   -61.9279     9.9832     9.4907     8.1916   120.8264     9.8500     0.1080     2.4938     0.0002     0.3017
  472.0000   -62.0785     9.8644     9.3754     8.0594   120.5538     9.8498     0.1104     2.4890     0.0004     0.3034
  472.5000   -62.3271     9.7469     9.2615     7.8778   120.2848     9.8495     0.1130     2.4871    -0.0002     0.3050
  473.0000   -62.5803     9.6308     9.1770     7.8850   120.5774     9.8493     0.1126     2.4921    -0.0003     0.3077
  473.5000   -62.6139     9.5601     9.1101     7.8831   122.0949     9.8490     0.1069     2.4985     0.0042     0.3104
  474.0000   -62.4555     9.5367     9.0433     7.8437   123.5826     9.8488     0.1023     2.5049     0.0093     0.3112
  474.5000   -62.2951     9.5135     8.9794     7.6874   123.9010     9.8485     0.1013     2.5046     0.0095     0.3086
