~VERSION INFORMATION
 VERS.                2.0:   CWLS LOG ASCII STANDARD - VERSION 2.0
 WRAP.                 NO:   ONE LINE PER DEPTH STEP
~WELL INFORMATION
#MNEM.UNIT      DATA TYPE    INFORMATION
#----------   ------------   ------------------------------
 STRT.F            0.0000:   START DEPTH
 STOP.F         2758.0000:   STOP DEPTH
 STEP.F            0.5000:   STEP LENGTH
 NULL.          -999.2500:   NO VALUE
 COMP. FENIX & SCISSON INC:   COMPANY
 WELL.       402A #402-20:   WELL
 FLD .             TEAPOT:   FIELD
 LOC .      S20 T39N R78W:   LOCATION
 CNTY.            NATRONA:   COUNTY
 STAT.            WYOMING:   STATE
 CTRY. UNITED STATES OF AMERICA:   COUNTRY
 SRVC.      NL McCullough:   SERVICE COMPANY
 DATE.        15-JUL-1965:   LOGDATE
 API .       490251021100:   API NUMBER
~CURVE INFORMATION
#MNEM.UNIT       API CODE    CURVE DESCRIPTION
#----------   ------------   ------------------------------
 DEPT.F                  :   
 GR  .GAPI   30 310 01 00:   GAMMA RAY
 CALI.IN     70 280 01 00:   CALIPER
~PARAMETER INFORMATION
#MNEM.UNIT          VALUE    DESCRIPTION
#----------   ------------   ------------------------------
 PD  .                 GL:   PERMANENT DATUM
 LMF .                 GL:   LOG MEASURED FROM
 DMF .                 GL:   DRILLING MEASURED FROM
 DATE.            7-15-65:   RUN DATE
 RUN .                  1:   RUN NUMBER
 DL  .F              2759:   DEPTH LOGGER
 BLI .F              2758:   BOTTOM LOG INTERVAL
 TLI .F              2100:   TOP LOG INTERVAL
 CS  .IN                7:   CASING SIZE
 ENGI. FITZSIMMONS/COWLTHORPE:   RECORDING ENGINEER
 WITN.             HUDSON:   WITNESSED BY
 CLNT.            A2DTECH:   CLIENT CODE
 ORIG.           5" PRINT:   ORIGIN OF DATA
 UWI .       490251021100:   UNIQUE WELL ID
 DICO. A2D Technologies, Inc.:   DIGITIZING COMPANY
~OTHER INFORMATION
~A    DEPT      GR         CALI 
    0.0000  -999.2500     5.9525
    0.5000  -999.2500     5.9129
    1.0000  -999.2500     5.9154
    1.5000  -999.2500     5.9174
    2.0000  -999.2500     5.9200
    2.5000  -999.2500     5.9226
    3.0000  -999.2500     5.9251
    3.5000  -999.2500     5.9277
    4.0000  -999.2500     5.9303
    4.5000  -999.2500     5.9323
    5.0000  -999.2500     5.9296
    5.5000  -999.2500     5.9271
    6.0000  -999.2500     5.9245
    6.5000  -999.2500     5.9219
    7.0000  -999.2500     5.9194
    7.5000  -999.2500     5.9168
    8.0000  -999.2500     5.9143
    8.5000  -999.2500     5.9136
    9.0000  -999.2500     5.9177
    9.5000  -999.2500     5.9218
   10.0000  -999.2500     5.9256
   10.5000  -999.2500     5.9301
   11.0000  -999.2500     5.9483
   11.5000  -999.2500     5.9817
   12.0000  -999.2500     6.0116
   12.5000  -999.2500     6.0314
   13.0000  -999.2500     5.9946
   13.5000  -999.2500     5.9594
   14.0000  -999.2500     5.9240
   14.5000  -999.2500     5.9135
   15.0000  -999.2500     5.9146
   15.5000  -999.2500     5.9159
   16.0000  -999.2500     5.9172
   16.5000  -999.2500     5.9185
   17.0000  -999.2500     5.9198
   17.5000  -999.2500     5.9211
   18.0000  -999.2500     5.9224
   18.5000  -999.2500     5.9237
   19.0000  -999.2500     5.9250
   19.5000  -999.2500     5.9263
   20.0000  -999.2500     5.9276
   20.5000  -999.2500     5.9289
   21.0000  -999.2500     5.9302
   21.5000  -999.2500     5.9315
   22.0000  -999.2500     5.9319
   22.5000  -999.2500     5.9282
   23.0000  -999.2500     5.9245
   23.5000  -999.2500     5.9209
   24.0000  -999.2500     5.9173
   24.5000  -999.2500     5.9136
   25.0000  -999.2500     5.9138
   25.5000  -999.2500     5.9156
   26.0000  -999.2500     5.9176
   26.5000  -999.2500     5.9195
   27.0000  -999.2500     5.9214
   27.5000  -999.2500     5.9233
   28.0000  -999.2500     5.9252
   28.5000  -999.2500     5.9271
   29.0000  -999.2500     5.9290
   29.5000  -999.2500     5.9310
   30.0000  -999.2500     5.9321
   30.5000  -999.2500     5.9288
   31.0000  -999.2500     5.9256
   31.5000  -999.2500     5.9224
   32.0000  -999.2500     5.9192
   32.5000  -999.2500     5.9160
   33.0000  -999.2500     5.9127
   33.5000  -999.2500     5.9182
   34.0000  -999.2500     5.9248
   34.5000  -999.2500     5.9315
   35.0000  -999.2500     5.9315
   35.5000  -999.2500     5.9302
   36.0000  -999.2500     5.9289
   36.5000  -999.2500     5.9276
   37.0000  -999.2500     5.9263
   37.5000  -999.2500     5.9251
   38.0000  -999.2500     5.9238
   38.5000  -999.2500     5.9225
   39.0000  -999.2500     5.9212
   39.5000  -999.2500     5.9199
   40.0000  -999.2500     5.9187
   40.5000  -999.2500     5.9174
   41.0000  -999.2500     5.9161
   41.5000  -999.2500     5.9148
   42.0000  -999.2500     5.9135
   42.5000  -999.2500     5.9124
   43.0000  -999.2500     5.9125
   43.5000  -999.2500     5.9125
   44.0000  -999.2500     5.9125
   44.5000  -999.2500     5.9125
   45.0000  -999.2500     5.9125
   45.5000  -999.2500     5.9125
   46.0000  -999.2500     5.9125
   46.5000  -999.2500     5.9125
   47.0000  -999.2500     5.9125
   47.5000  -999.2500     5.9125
   48.0000  -999.2500     5.9125
   48.5000  -999.2500     5.9125
   49.0000  -999.2500     5.9125
   49.5000  -999.2500     5.9125
   50.0000  -999.2500     5.9125
   50.5000  -999.2500     5.9125
   51.0000  -999.2500     5.9125
   51.5000  -999.2500     5.9125
   52.0000  -999.2500     5.9125
   52.5000  -999.2500     5.9125
   53.0000  -999.2500     5.9125
   53.5000  -999.2500     5.9125
   54.0000  -999.2500     5.9125
   54.5000  -999.2500     5.9125
   55.0000  -999.2500     5.9125
   55.5000  -999.2500     5.9125
   56.0000  -999.2500     5.9125
   56.5000  -999.2500     5.9125
   57.0000  -999.2500     5.9125
   57.5000  -999.2500     5.9125
   58.0000  -999.2500     5.9125
   58.5000  -999.2500     5.9125
   59.0000  -999.2500     5.9125
   59.5000  -999.2500     5.9125
   60.0000  -999.2500     5.9125
   60.5000  -999.2500     5.9125
   61.0000  -999.2500     5.9125
   61.5000  -999.2500     5.9125
   62.0000  -999.2500     5.9125
   62.5000  -999.2500     5.9125
   63.0000  -999.2500     5.9125
   63.5000  -999.2500     5.9125
   64.0000  -999.2500     5.9125
   64.5000  -999.2500     5.9125
   65.0000  -999.2500     5.9125
   65.5000  -999.2500     5.9125
   66.0000  -999.2500     5.9125
   66.5000  -999.2500     5.9125
   67.0000  -999.2500     5.9125
   67.5000  -999.2500     5.9125
   68.0000  -999.2500     5.9125
   68.5000  -999.2500     5.9125
   69.0000  -999.2500     5.9125
   69.5000  -999.2500     5.9125
   70.0000  -999.2500     5.9125
   70.5000  -999.2500     5.9125
   71.0000  -999.2500     5.9125
   71.5000  -999.2500     5.9125
   72.0000  -999.2500     5.9125
   72.5000  -999.2500     5.9125
   73.0000  -999.2500     5.9125
   73.5000  -999.2500     5.9125
   74.0000  -999.2500     5.9125
   74.5000  -999.2500     5.9125
   75.0000  -999.2500     5.9125
   75.5000  -999.2500     5.9124
   76.0000  -999.2500     5.9183
   76.5000  -999.2500     5.9261
   77.0000  -999.2500     5.9341
   77.5000  -999.2500     5.9418
   78.0000  -999.2500     5.9502
   78.5000  -999.2500     5.9183
   79.0000  -999.2500     5.9159
   79.5000  -999.2500     5.9198
   80.0000  -999.2500     5.9238
   80.5000  -999.2500     5.9278
   81.0000  -999.2500     5.9318
   81.5000  -999.2500     5.9320
   82.0000  -999.2500     5.9313
   82.5000  -999.2500     5.9306
   83.0000  -999.2500     5.9299
   83.5000  -999.2500     5.9292
   84.0000  -999.2500     5.9285
   84.5000  -999.2500     5.9278
   85.0000  -999.2500     5.9271
   85.5000  -999.2500     5.9264
   86.0000  -999.2500     5.9257
   86.5000  -999.2500     5.9250
   87.0000  -999.2500     5.9243
   87.5000  -999.2500     5.9236
   88.0000  -999.2500     5.9229
   88.5000  -999.2500     5.9222
   89.0000  -999.2500     5.9215
   89.5000  -999.2500     5.9208
   90.0000  -999.2500     5.9201
   90.5000  -999.2500     5.9194
   91.0000  -999.2500     5.9187
   91.5000  -999.2500     5.9180
   92.0000  -999.2500     5.9173
   92.5000  -999.2500     5.9166
   93.0000  -999.2500     5.9159
   93.5000  -999.2500     5.9152
   94.0000  -999.2500     5.9145
   94.5000  -999.2500     5.9138
   95.0000  -999.2500     5.9131
   95.5000  -999.2500     5.9125
   96.0000  -999.2500     5.9126
   96.5000  -999.2500     5.9127
   97.0000  -999.2500     5.9129
   97.5000  -999.2500     5.9130
   98.0000  -999.2500     5.9132
   98.5000  -999.2500     5.9133
   99.0000  -999.2500     5.9134
   99.5000  -999.2500     5.9136
  100.0000  -999.2500     5.9137
  100.5000  -999.2500     5.9139
  101.0000  -999.2500     5.9140
  101.5000  -999.2500     5.9141
  102.0000  -999.2500     5.9143
  102.5000  -999.2500     5.9144
  103.0000  -999.2500     5.9146
  103.5000  -999.2500     5.9147
  104.0000  -999.2500     5.9148
  104.5000  -999.2500     5.9150
  105.0000  -999.2500     5.9151
  105.5000  -999.2500     5.9153
  106.0000  -999.2500     5.9154
  106.5000  -999.2500     5.9155
  107.0000  -999.2500     5.9157
  107.5000  -999.2500     5.9158
  108.0000  -999.2500     5.9160
  108.5000  -999.2500     5.9161
  109.0000  -999.2500     5.9162
  109.5000  -999.2500     5.9164
  110.0000  -999.2500     5.9165
  110.5000  -999.2500     5.9167
  111.0000  -999.2500     5.9168
  111.5000  -999.2500     5.9169
  112.0000  -999.2500     5.9171
  112.5000  -999.2500     5.9172
  113.0000  -999.2500     5.9173
  113.5000  -999.2500     5.9175
  114.0000  -999.2500     5.9176
  114.5000  -999.2500     5.9178
  115.0000  -999.2500     5.9179
  115.5000  -999.2500     5.9180
  116.0000  -999.2500     5.9182
  116.5000  -999.2500     5.9183
  117.0000  -999.2500     5.9185
  117.5000  -999.2500     5.9186
  118.0000  -999.2500     5.9187
  118.5000  -999.2500     5.9189
  119.0000  -999.2500     5.9190
  119.5000  -999.2500     5.9192
  120.0000  -999.2500     5.9193
  120.5000  -999.2500     5.9194
  121.0000  -999.2500     5.9196
