~VERSION INFORMATION
 VERS.                2.0:   CWLS LOG ASCII STANDARD - VERSION 2.0
 WRAP.                 NO:   ONE LINE PER DEPTH STEP
~WELL INFORMATION
#MNEM.UNIT      DATA TYPE    INFORMATION
#----------   ------------   ------------------------------
 STRT.F            0.0000:   START DEPTH
 STOP.F          649.0000:   STOP DEPTH
 STEP.F            0.1000:   STEP LENGTH
 NULL.          -999.2500:   NO VALUE
 COMP.   FLUOR DANIEL INC:   COMPANY
 WELL.     17-1 X 2 #17-2:   WELL
 FLD .             TEAPOT:   FIELD
 LOC .       S2 T38N R78W:   LOCATION
 CNTY.            NATRONA:   COUNTY
 STAT.            WYOMING:   STATE
 CTRY. UNITED STATES OF AMERICA:   COUNTRY
 SRVC.      Western Atlas:   SERVICE COMPANY
 DATE.        20-MAY-1995:   LOGDATE
 API .       490252271000:   API NUMBER
~CURVE INFORMATION
#MNEM.UNIT       API CODE    CURVE DESCRIPTION
#----------   ------------   ------------------------------
 DEPT.F                  :   
 GRR .GAPI   07 310 01 00:   GAMMA RAY
 RILD.OHMM   07 120 46 00:   INDUCTION LOG DEEP RESISTIVITY
 RILM.OHMM   07 120 44 00:   RESITIVITY LOG MEDIUM
~PARAMETER INFORMATION
#MNEM.UNIT          VALUE    DESCRIPTION
#----------   ------------   ------------------------------
 PD  .                 GL:   PERMANENT DATUM
 EPD .F              5145:   ELEVATION PERMANENT DATUM
 LMF .                 KB:   LOG MEASURED FROM
 DAPD.F                10:   FEET ABOVE PERMANENT DATUM
 DMF .                 KB:   DRILLING MEASURED FROM
 EKB .F              5155:   KELLING BUSHING
 EDF .F              5154:   DRILLING FLOOR
 EGL .F              5145:   GROUND LEVEL
 DATE.        20-MAY-1995:   RUN DATE
 RUN .                  1:   RUN NUMBER
 DD  .F               657:   DEPTH DRILLER
 DL  .F               657:   DEPTH LOGGER
 BLI .F               649:   BOTTOM LOG INTERVAL
 CS  .IN            9.625:   CASING SIZE
 CBD .F                82:   CASING BOTTOM DRILLER
 CBL .F                82:   CASING BOTTOM LOGGER
 BS  .IN             8.75:   BIT SIZE
 BSD .F               657:   BIT SIZE AT DEPTH
 DFT .                AIR:   DRILLING FLUID TYPE
 MRT .F                92:   MAXIMUM RECORDED TEMPERATURE
 LUN .            HL 6530:   LOGGING UNIT NUMBER
 LUL .             CASPER:   LOGGING UNIT LOCATION
 ENGI.        VERN RAUTIO:   RECORDING ENGINEER
 WITN.        STEVE HARDY:   WITNESSED BY
 CLNT.            A2DTECH:   CLIENT CODE
 ORIG.           5" PRINT:   ORIGIN OF DATA
 UWI .       490252271000:   UNIQUE WELL ID
 DICO. A2D Technologies, Inc.:   DIGITIZING COMPANY
~OTHER INFORMATION
~A    DEPT      GRR      RILD       RILM   
# ...
  600.6000   126.7115     7.5356     7.5767
  600.7000   127.6178     7.5787     7.6425
  600.8000   128.9554     7.6296     7.7180
  600.9000   130.2079     7.6655     7.7626
  601.0000   131.2657     7.7093     7.8144
  601.1000   132.4759     7.7534     7.8526
  601.2000   133.0611     7.7913     7.8981
  601.3000   133.2673     7.7916     7.9437
  601.4000   133.2167     7.8325     7.9810
  601.5000   132.5848     7.8772     7.9815
  601.6000   131.3059     7.9014     8.0264
  601.7000   129.7546     7.9017     8.0728
  601.8000   129.2839     7.9026     8.1195
  601.9000   128.7908     7.9478     8.1517
  602.0000   128.4264     7.9932     8.1568
  602.1000   128.2558     8.0134     8.2097
  602.2000   128.3002     8.0289     8.2102
  602.3000   128.8643     8.0747     8.2418
  602.4000   129.0812     8.1264     8.2685
  602.5000   129.6533     8.1267     8.2691
  602.6000   130.2919     8.1271     8.2699
  602.7000   130.7896     8.1274     8.3177
  602.8000   131.2893     8.1277     8.3284
  602.9000   132.5266     8.1281     8.3290
  603.0000   133.3817     8.1284     8.3296
  603.1000   134.4057     8.1288     8.3364
  603.2000   135.5617     8.1291     8.3888
  603.3000   136.6814     8.1294     8.3893
  603.4000   138.8455     8.1298     8.3899
  603.5000   139.7484     8.1302     8.3905
  603.6000   140.3992     8.1304     8.3911
  603.7000   140.8972     8.1308     8.3917
  603.8000   141.3317     8.1311     8.3924
  603.9000   141.5723     8.1315     8.4322
  604.0000   141.5751     8.1318     8.4519
  604.1000   141.5771     8.1321     8.4525
  604.2000   141.5795     8.1325     8.4530
  604.3000   141.5819     8.1328     8.4537
  604.4000   141.5843     8.1332     8.4542
  604.5000   141.5869     8.1335     8.4548
  604.6000   141.3535     8.1339     8.4554
  604.7000   141.2899     8.1342     8.4560
  604.8000   141.0366     8.1345     8.4566
  604.9000   140.5434     8.1348     8.4572
  605.0000   140.0903     8.1352     8.4577
  605.1000   140.0932     8.1356     8.4583
  605.2000   139.4532     8.1359     8.4589
  605.3000   138.8724     8.1362     8.4595
  605.4000   138.1671     8.1365     8.4601
  605.5000   137.2310     8.1369     8.4137
  605.6000   136.4851     8.1372     8.4027
  605.7000   135.7491     8.1376     8.3775
  605.8000   135.2005     8.1379     8.3305
  605.9000   134.7073     8.1382     8.2886
  606.0000   134.2986     8.1386     8.2893
  606.1000   134.0836     8.1389     8.2481
  606.2000   134.0865     8.1393     8.2330
  606.3000   134.0887     8.1396     8.2126
  606.4000   134.0911     8.1399     8.1772
  606.5000   134.0935     8.1403     8.1778
  606.6000   134.0959     8.1406     8.1314
  606.7000   134.0983     8.1410     8.0858
  606.8000   134.1012     8.0976     8.0404
  606.9000   134.1032     8.0853     8.0115
  607.0000   134.1056     8.0630     8.0057
  607.1000   134.1080     8.0301     7.9572
  607.2000   134.1515     8.0284     7.9162
  607.3000   134.4146     7.9754     7.8718
  607.4000   134.8867     7.9388     7.8276
  607.5000   135.3846     7.9208     7.7954
  607.6000   135.8825     7.9048     7.7959
  607.7000   136.4537     7.8667     7.7965
  607.8000   137.1803     7.8671     7.7970
  607.9000   137.7476     7.8674     7.7706
  608.0000   138.1760     7.8677     7.7441
  608.1000   138.5146     7.8681     7.7447
  608.2000   138.5541     7.8684     7.7452
  608.3000   138.3087     7.8687     7.7457
  608.4000   138.0610     7.8690     7.7463
  608.5000   137.8181     7.8694     7.7468
  608.6000   137.5727     7.8697     7.7605
  608.7000   137.3273     7.8700     7.8019
  608.8000   137.0820     7.8703     7.8025
  608.9000   136.8661     7.8707     7.8029
  609.0000   136.8690     7.8710     7.8035
  609.1000   136.8712     7.8713     7.8040
  609.2000   136.8736     7.8717     7.8046
  609.3000   136.9918     7.8720     7.8051
  609.4000   137.2420     7.8723     7.8497
  609.5000   137.4922     7.8726     7.8606
  609.6000   137.7887     7.8730     7.8611
  609.7000   137.9926     7.8733     7.8617
  609.8000   138.2428     7.8736     7.8622
  609.9000   138.4929     7.8740     7.8628
  610.0000   138.7431     7.8743     7.8633
  610.1000   139.0071     7.8746     7.8638
  610.2000   139.0094     7.8749     7.8644
  610.3000   139.1919     7.8753     7.8649
  610.4000   139.3158     7.8756     7.8664
  610.5000   139.3182     7.8759     7.9209
  610.6000   139.3207     7.8762     7.9214
  610.7000   139.3234     7.8766     7.9219
  610.8000   139.1131     7.8769     7.9225
  610.9000   138.8677     7.8772     7.9230
  611.0000   138.4133     7.8776     7.9236
  611.1000   137.6727     7.8779     7.9661
  611.2000   136.9219     7.8782     7.8256
  611.3000   136.4352     7.8785     7.7929
  611.4000   136.1328     7.8789     7.8165
  611.5000   135.8874     7.8792     7.8170
  611.6000   135.6420     7.8796     7.8183
  611.7000   135.4254     7.9197     7.8631
  611.8000   135.4283     7.9350     7.8731
  611.9000   135.2075     7.9354     7.8737
  612.0000   135.1312     7.9357     7.8742
  612.1000   135.2486     7.9360     7.8748
  612.2000   135.4377     7.9363     7.8754
  612.3000   135.4473     7.9367     7.8759
  612.4000   135.7446     7.9370     7.9049
  612.5000   135.9477     7.9373     7.9318
  612.6000   136.1979     7.9377     7.9324
  612.7000   136.4481     7.9380     7.9329
  612.8000   136.7378     7.9383     7.9335
  612.9000   137.2647     7.9387     7.9664
  613.0000   137.7334     7.9210     7.9898
  613.1000   138.0520     7.8844     7.9904
  613.2000   138.4277     7.8848     7.9895
  613.3000   138.9256     7.8851     7.9363
  613.4000   139.4235     7.8854     7.9368
  613.5000   139.9943     7.8858     7.9373
  613.6000   140.4196     7.8861     7.9379
  613.7000   140.7598     7.8864     7.9333
  613.8000   140.9062     7.8868     7.8841
  613.9000   140.8089     7.8871     7.8846
  614.0000   140.3077     7.8612     7.8851
  614.1000   139.0918     7.8332     7.8857
  614.2000   137.4754     7.8335     7.8862
  614.3000   136.1512     7.8339     7.8868
  614.4000   135.4088     7.8342     7.8873
  614.5000   135.1913     7.8044     7.8552
  614.6000   135.4959     7.7807     7.8339
  614.7000   135.4980     7.7810     7.8221
  614.8000   135.6685     7.7813     7.7786
  614.9000   135.9187     7.7377     7.7276
  615.0000   136.1086     7.6944     7.6924
  615.1000   136.1110     7.6513     7.6751
  615.2000   136.1139     7.6085     7.6601
  615.3000   136.1158     7.5659     7.6119
  615.4000   136.1182     7.5180     7.5186
  615.5000   136.0281     7.4448     7.4809
  615.6000   135.7828     7.3881     7.4675
  615.7000   135.5223     7.3296     7.4495
  615.8000   135.5246     7.2551     7.3992
  615.9000   135.3485     7.2131     7.3152
  616.0000   135.1031     7.1352     7.2752
  616.1000   134.8577     7.0553     7.2656
  616.2000   134.6291     6.9964     7.2447
  616.3000   134.6320     6.9461     7.2044
  616.4000   134.8449     6.8704     7.1643
  616.5000   135.0951     6.8255     7.1179
  616.6000   135.3453     6.7619     7.0849
  616.7000   135.6445     6.7090     7.0696
  616.8000   136.1521     6.6715     7.0402
  616.9000   136.6403     6.6341     6.9616
  617.0000   137.5162     6.5942     6.8775
  617.1000   138.3745     6.5601     6.8424
  617.2000   139.7699     6.5233     6.7781
  617.3000   142.3617     6.4868     6.7024
  617.4000   144.0099     6.4505     6.6276
  617.5000   145.3394     6.4151     6.5536
  617.6000   147.1628     6.4154     6.5172
  617.7000   148.9204     6.3870     6.4529
  617.8000   150.2309     6.3512     6.4003
  617.9000   150.9765     6.3278     6.3647
  618.0000   151.8677     6.3322     6.3293
  618.1000   152.2687     6.3724     6.2889
  618.2000   152.7666     6.3726     6.2893
  618.3000   153.1729     6.3968     6.2677
  618.4000   153.4231     6.4175     6.2467
  618.5000   153.6894     6.4254     6.2413
  618.6000   153.9233     6.4627     6.2044
  618.7000   154.1735     6.4990     6.2048
