~VERSION INFORMATION
 VERS.                2.0:   CWLS LOG ASCII STANDARD - VERSION 2.0
 WRAP.                 NO:   ONE LINE PER DEPTH STEP
~WELL INFORMATION
#MNEM.UNIT      DATA TYPE    INFORMATION
#----------   ------------   ------------------------------
 STRT.F            7.0000:   START DEPTH
 STOP.F          549.0000:   STOP DEPTH
 STEP.F            0.5000:   STEP LENGTH
 NULL.          -999.2500:   NO VALUE
 COMP. LAWRENCE-ALLISON &AS:   COMPANY
 WELL. NPR 3 #51-62-SX-10-LP3:   WELL
 FLD .             TEAPOT:   FIELD
 LOC .      S10 T38N R78W:   LOCATION
 CNTY.            NATRONA:   COUNTY
 STAT.            WYOMING:   STATE
 CTRY. UNITED STATES OF AMERICA:   COUNTRY
 SRVC.      Dresser Atlas:   SERVICE COMPANY
 DATE.        10-DEC-1984:   LOGDATE
 API .       490251099500:   API NUMBER
~CURVE INFORMATION
#MNEM.UNIT       API CODE    CURVE DESCRIPTION
#----------   ------------   ------------------------------
 DEPT.F                  :   
 SPR .MV     07 010 01 00:   SPONTANEOUS POTENTIAL
 RILD.OHMM   07 120 46 00:   INDUCTION LOG DEEP RESISTIVITY
 RILM.OHMM   07 120 44 00:   INDUCTION LOG MEDIUM RESISTIVITY
 RFOC.OHMM   07 220 04 00:   RESISTIVITY FOCUSED LOG
 DT  .US/F   60 520 00 00:   INTERVAL TRANSIT TIME
 PORD.DEC    45 890 12 00:   POROSITY DENSITY SANDSTONE
 CNCF.DEC    42 890 03 00:   NEUTRON POROSITY SANDSTONE
 CALD.IN     45 280 60 00:   CALIPER FROM DENSITY LOG
 GRD .GAPI   45 310 01 00:   GAMMA RAY FROM DENSITY LOG
 CORR.G/C3   45 356 01 00:   DENSITY CORRECTION
 DEN .G/C3   45 350 01 00:   COMPENSATED BULK DENSTIY
~PARAMETER INFORMATION
#MNEM.UNIT          VALUE    DESCRIPTION
#----------   ------------   ------------------------------
 PD  .                 GL:   PERMANENT DATUM
 EPD .F              5179:   ELEVATION PERMANENT DATUM
 LMF .                 GL:   LOG MEASURED FROM
 DMF .                 GL:   DRILLING MEASURED FROM
 EGL .F              5179:   GROUND LEVEL
 DATE.        10-DEC-1984:   RUN DATE
 RUN .                  1:   RUN NUMBER
 DD  .F               554:   DEPTH DRILLER
 DL  .F               551:   DEPTH LOGGER
 BLI .F               549:   BOTTOM LOG INTERVAL
 TLI .F                20:   TOP LOG INTERVAL
 CS  .IN            8.625:   CASING SIZE
 CBD .F                20:   CASING BOTTOM DRILLER
 CBL .F                20:   CASING BOTTOM LOGGER
 BS  .IN            7.875:   BIT SIZE
 BSD .F               554:   BIT SIZE AT DEPTH
 DFT .         KCL- WATER:   DRILLING FLUID TYPE
 MSS .           MUD TANK:   MUD SAMPLE SOURCE
 RMS .OHMM           .168:   RESISTIVITY MUD SAMPLE
 MST .F                77:   MUD SAMPLE TEMPERATURE
 RMF .OHMM           .126:   RESISTIVITY MUD FILTRATE SAMPLE
 MFST.F                77:   MUD FILTRATE SAMPLE TEMPERATURE
 RMC .OHMM            .21:   RESISTIVITY MUD CAKE
 MCST.F                77:   MUD CAKE SAMPLE TEMPERATURE
 MFSS.               CALC:   MUD FILTRATE SAMPLE SOURCE
 MCSS.               CALC:   MUD CAKE SAMPLE SOURCE
 RMB .OHMM            .15:   RESISTIVITY MUD AT BHT
 BHT .F                85:   BOTTOM HOLE TEMPERATURE
 TCS .HRS             3.5:   TIME CURCULATED STOPPED
 MRT .F               100:   MAXIMUM RECORDED TEMPERATURE
 LUN .               6270:   LOGGING UNIT NUMBER
 LUL .                 FM:   LOGGING UNIT LOCATION
 ENGI.          E. GOVETT:   RECORDING ENGINEER
 WITN.             GROOMS:   WITNESSED BY
 CLNT.            A2DTECH:   CLIENT CODE
 ORIG.           5" PRINT:   ORIGIN OF DATA
 UWI .       490251099500:   UNIQUE WELL ID
 DICO. A2D Technologies, Inc.:   DIGITIZING COMPANY
~OTHER INFORMATION
~A    DEPT     SPR       RILD       RILM       RFOC         DT       PORD         CNCF     CALD        GRD       CORR        DEN   
# ...
  220.5000   -60.1157     5.1827     4.6923     4.6540   113.5659     0.1249     0.3332     7.7400   112.5347    -0.0065     2.4684
  221.0000   -59.9638     5.2931     4.9610     5.0594   114.2346     0.1324     0.3386     7.7386   110.7242     0.0055     2.4570
  221.5000   -59.6642     5.4057     5.2088     5.5776   113.2842     0.1358     0.3240     7.7371   104.2521     0.0190     2.4532
  222.0000   -59.6612     5.5979     5.4313     7.7311   111.4617     0.1349     0.3065     7.7356   104.2461     0.0189     2.4562
  222.5000   -59.8067     5.9186     5.6242     7.9456   110.3784     0.1331     0.3158     7.7341   106.1950     0.0188     2.4561
  223.0000   -59.8038     6.3451     5.8239     8.0041   110.0866     0.1349     0.3193     7.7326   109.6477     0.0219     2.4501
  223.5000   -59.8008     6.9452     6.0726     8.0081   110.0836     0.1370     0.3210     7.7161   112.0477     0.0295     2.4509
  224.0000   -59.6495     7.1920     6.3338     8.0671   109.1784     0.1355     0.3262     7.6997   111.4403     0.0414     2.4557
  224.5000   -59.4982     7.3962     6.5163     7.4785   108.2732     0.1271     0.3286     7.6832   109.1787     0.0504     2.4652
  225.0000   -59.4953     7.2964     6.5588     7.2764   107.5935     0.1262     0.3240     7.6967   109.0223     0.0531     2.4680
  225.5000   -59.4924     7.1456     6.5156     8.0213   106.9890     0.1286     0.3150     7.6952   107.9637     0.0530     2.4646
  226.0000   -59.4894     6.8016     5.8744     8.3073   106.3845     0.1329     0.3092     7.6937   104.9502     0.0469     2.4558
  226.5000   -59.6350     6.0012     5.2597     8.4267   105.7800     0.1359     0.3004     7.6922   101.7864     0.0227     2.4497
  227.0000   -59.7804     5.6526     5.0470     8.4301   105.2507     0.1380     0.2959     7.7058    99.3744     0.0046     2.4489
  227.5000   -60.0742     5.4612     4.9104     8.2602   105.0222     0.1392     0.2907     7.7193    99.3659    -0.0136     2.4459
  228.0000   -60.3679     5.4631     4.8439     7.3969   105.4703     0.1398     0.2953     7.7329   101.1805    -0.0061     2.4428
  228.5000   -60.8101     5.4268     4.8118     5.6877   108.0989     0.1417     0.3506     7.7761   104.1946     0.0240     2.4398
  229.0000   -60.6587     5.2435     5.0525     4.7197   111.9305     0.1483     0.3633     7.8196   108.5492     0.0103     2.4216
  229.5000   -60.5074     5.2083     5.3418     5.2023   113.7321     0.1582     0.3460     7.8335   114.1743    -0.0078     2.3967
  230.0000   -60.2071     5.5840     5.5315     6.9133   114.1809     0.1878     0.3161     7.8471   116.8220     0.0041     2.3530
  230.5000   -59.9075     5.8631     5.8482     7.8343   111.1697     0.1923     0.2982     7.8452   113.8232     0.0327     2.3590
  231.0000   -59.7562     6.2856     6.2692     7.8978   108.2344     0.1842     0.2889     7.8437   109.0135     0.0386     2.4004
  231.5000   -59.7532     6.8326     6.6281     7.8407   105.2239     0.1502     0.2798     7.8423   107.7402     0.0265     2.4365
  232.0000   -59.6019     7.4271     6.9618     8.5236   102.4389     0.1315     0.2828     7.8408   107.1327     0.0099     2.4583
  232.5000   -59.4506     7.8527     7.1131     8.9528   101.6841     0.1255     0.2937     7.8393   106.3749     0.0384     2.4703
  233.0000   -59.1510     8.0756     7.2175     9.1475   101.3052     0.1174     0.2949     7.8378   105.7674     0.0338     2.4763
  233.5000   -58.9997     8.1340     7.3114     9.1461   100.9262     0.1120     0.2897     7.8363   104.7088     0.0338     2.4875
  234.0000   -58.8484     8.3071     7.4154     9.2136   100.7729     0.1023     0.2846     7.8349   104.1013     0.0472     2.5139
  234.5000   -58.6971     8.4840     7.5208     9.2181   100.6947     0.0996     0.2800     7.8333   102.4412     0.0532     2.5146
  235.0000   -58.5458     8.6047     7.4710     9.2219   100.6165     0.0996     0.2842     7.8315   101.3826     0.0396     2.5145
  235.5000   -58.5429     8.6670     7.4730     9.1611   100.4632     0.0997     0.2903     7.8301   102.1285     0.0274     2.5152
  236.0000   -58.3916     8.7297     7.4751     9.1658   100.3098     0.0960     0.2904     7.8286   104.5286     0.0274     2.5205
  236.5000   -58.3886     8.7326     7.5291     9.1696   100.3067     0.0967     0.2758     7.8271   106.4775     0.0288     2.5182
  237.0000   -58.3857     8.7957     7.6361     9.2371   100.3038     0.0997     0.2700     7.8406   107.2249     0.0302     2.5136
  237.5000   -58.5312     8.7981     7.6913     9.3051   100.2256     0.1009     0.2691     7.8692   107.2174     0.0271     2.5090
  238.0000   -58.5361     8.7398     7.8007     9.4388   100.0716     0.1021     0.2728     7.8831   103.4521     0.0271     2.5082
  238.5000   -58.8220     8.5031     7.8028     9.5083    99.9182     0.1021     0.2818     7.8812   100.4386     0.0270     2.5090
  239.0000   -58.9911     8.4461     7.8049     9.4465    99.6897     0.1012     0.2928     7.8798    98.0266     0.0329     2.5097
  239.5000   -59.2606     8.5078     7.8071     9.1922    99.3859     0.1009     0.2947     7.8783    98.0206     0.0511     2.5111
  240.0000   -59.2576     8.6289     7.8092     9.0060    99.3085     0.1010     0.2790     7.8768   103.4282     0.0693     2.5111
  240.5000   -59.2547     8.7517     7.7574     8.8867   100.1319     0.1025     0.2751     7.8603   111.2418     0.0734     2.5088
  241.0000   -59.2518     8.8150     7.8683     8.7073   100.6552     0.1049     0.2754     7.8138   112.8899     0.0628     2.5072
  241.5000   -59.2488     8.8174     7.9802     8.8326   100.8033     0.1121     0.2766     7.8123   110.4779     0.0545     2.5011
  242.0000   -59.2459     8.8198     8.1500     9.2751   100.4988     0.1143     0.2802     7.7952   106.1111     0.0314     2.4898
  242.5000   -59.2430     8.8222     8.4394     9.7398   100.1951     0.1155     0.2941     7.7493   105.8043     0.0113     2.4875
  243.0000   -59.2401     8.2910     8.2681    10.2287    99.4403     0.1167     0.2968     7.7477   105.6480     0.0067     2.4874
  243.5000   -59.3862     7.7380     7.6109    10.4512    98.6102     0.1179     0.2729     7.7460   103.2360     0.0051     2.4821
  244.0000   -59.3826     7.1228     7.0059    10.5969    96.5020     0.1143     0.2575     7.7445    98.4180     0.0065     2.4837
  244.5000   -59.3796     6.2026     5.4238    10.6750    95.4463     0.1116     0.2496     7.7430    94.1981     0.0276     2.4927
  245.0000   -59.5258     5.9516     4.8900     9.6935    94.9178     0.1095     0.2523     7.7719    93.1429     0.0486     2.4963
  245.5000   -59.5221     5.9532     4.9253     7.6102    96.4178     0.1119     0.2644     7.7851    94.9701     0.0561     2.4930
  246.0000   -59.5192     5.9133     5.1357     4.8203   100.6625     0.1231     0.2816     7.7986    97.2612     0.0379     2.4847
  246.5000   -59.3679     5.8339     5.4297     4.4071   106.5181     0.1337     0.3421     7.7971   102.2546     0.0258     2.4707
  247.0000   -59.0664     5.7548     5.7010     5.1702   111.9725     0.1532     0.3460     7.8257   113.2449     0.0182     2.4435
  247.5000   -58.7686     5.9598     6.1136     6.8706   112.9477     0.1773     0.3345     7.8542   121.3436     0.0196     2.3921
  248.0000   -58.6172     6.5234     6.6081    10.1297   108.6262     0.2000     0.3058     7.8678   116.5642     0.0376     2.3431
  248.5000   -58.4659     7.1404     7.2349    11.6392   103.1982     0.1956     0.2988     7.8964   106.6335     0.0541     2.3679
  249.0000   -58.3140     8.3756     7.9032    11.7249    98.1260     0.1533     0.2749     7.9099    95.9508     0.0435     2.4221
  249.5000   -58.1627     9.5958     8.2981    11.5684    95.4163     0.1458     0.2677     7.9384    94.8922     0.0133     2.4627
  250.0000   -57.9624    10.2878     8.6227    11.4555    94.9624     0.1169     0.2667     7.9670    97.4426     0.0144     2.4781
  250.5000   -57.4081    10.8761     8.8969    11.2335    94.8090     0.1145     0.2699     8.0853    98.0397     0.0219     2.4830
