~VERSION INFORMATION
 VERS.                2.0:   CWLS LOG ASCII STANDARD - VERSION 2.0
 WRAP.                 NO:   ONE LINE PER DEPTH STEP
~WELL INFORMATION
#MNEM.UNIT      DATA TYPE    INFORMATION
#----------   ------------   ------------------------------
 STRT.F          248.0000:   START DEPTH
 STOP.F         2495.0000:   STOP DEPTH
 STEP.F            0.5000:   STEP LENGTH
 NULL.          -999.2500:   NO VALUE
 COMP. FENIX & SCISSON INC:   COMPANY
 WELL.      85 SHX #28-28:   WELL
 FLD .             TEAPOT:   FIELD
 LOC .      S28 T39N R78W:   LOCATION
 CNTY.            NATRONA:   COUNTY
 STAT.            WYOMING:   STATE
 CTRY. UNITED STATES OF AMERICA:   COUNTRY
 SRVC.           BIRDWELL:   SERVICE COMPANY
 DATE.        18-AUG-1979:   LOGDATE
 API .       490251079700:   API NUMBER
~CURVE INFORMATION
#MNEM.UNIT       API CODE    CURVE DESCRIPTION
#----------   ------------   ------------------------------
 DEPT.F                  :   
 CALD.IN     45 280 60 00:   CALIPER
 CORR.G/C3   45 356 01 00:   DENSITY CORRECTION
 RHOB.G/C3   45 350 01 00:   BULK DENSITY
 DPHI.DEC    45 890 12 00:   DENSITY POROSITY SANDSTONE
 GRD .GAPI   45 310 01 00:   GAMMA RAY FROM DENSITY LOG
~PARAMETER INFORMATION
#MNEM.UNIT          VALUE    DESCRIPTION
#----------   ------------   ------------------------------
 PD  .                 GL:   PERMANENT DATUM
 EPD .F              5044:   ELEVATION PERMANENT DATUM
 LMF .                 DF:   LOG MEASURED FROM
 DMF .                 KB:   DRILLING MEASURED FROM
 EKB .F              5054:   KELLING BUSHING
 EDF .F              5052:   DRILLING FLOOR
 EGL .F              5044:   GROUND LEVEL
 DATE.            8-18-79:   RUN DATE
 RUN .                  1:   RUN NUMBER
 DD  .F              2500:   DEPTH DRILLER
 DL  .F              2495:   DEPTH LOGGER
 BLI .F              2495:   BOTTOM LOG INTERVAL
 CS  .IN            9.625:   CASING SIZE
 CBD .F               520:   CASING BOTTOM DRILLER
 CBL .F               505:   CASING BOTTOM LOGGER
 BS  .IN             8.75:   BIT SIZE
 BSD .F              2500:   BIT SIZE AT DEPTH
 DFT .                AIR:   DRILLING FLUID TYPE
 TCS .HRS               2:   TIME CURCULATED STOPPED
 ENGI.          B. MILLER:   RECORDING ENGINEER
 WITN.           DINSMORE:   WITNESSED BY
 CLNT.            A2DTECH:   CLIENT CODE
 ORIG.           5" PRINT:   ORIGIN OF DATA
 UWI .       490251079700:   UNIQUE WELL ID
 DICO. A2D Technologies, Inc.:   DIGITIZING COMPANY
~OTHER INFORMATION
~A   DEPT     CALD       CORR       RHOB       DPHI         GRD  
# ...
 1773.0000     9.9157     0.0737     2.4201     0.0617   162.2731
 1773.5000     9.8952     0.0820     2.4477     0.0552   157.6037
 1774.0000     9.8947     0.0655     2.4446     0.0563   152.9056
 1774.5000     9.9026     0.0713     2.4616     0.0446   148.3530
 1775.0000     9.9107     0.0947     2.4868     0.0339   148.0395
 1775.5000     9.9187     0.0840     2.4637     0.0526   158.7314
 1776.0000     9.9267     0.1023     2.4451     0.0552   159.2866
 1776.5000     9.9347     0.1320     2.4535     0.0523   162.9713
 1777.0000     9.9427     0.1615     2.4451     0.0572   166.1788
 1777.5000     9.9507     0.1879     2.4659     0.0419   167.3803
 1778.0000     9.9588     0.1889     2.4825     0.0370   172.5401
 1778.5000     9.9668     0.1493     2.4841     0.0452   180.6032
 1779.0000     9.9748     0.1050     2.4443     0.0642   188.4106
 1779.5000     9.9828     0.0731     2.4179     0.0745   186.9720
 1780.0000     9.9900     0.0599     2.4088     0.0780   184.6005
 1780.5000     9.9983     0.0601     2.4225     0.0708   182.9021
 1781.0000    10.0143     0.0568     2.4410     0.0564   184.6232
 1781.5000    10.0303     0.0357     2.4458     0.0564   187.6893
 1782.0000    10.0464     0.0192     2.4280     0.0640   190.8079
 1782.5000    10.0625     0.0342     2.4258     0.0697   192.5715
 1783.0000    10.0785     0.0523     2.4240     0.0681   192.6538
 1783.5000    10.0872     0.0703     2.4324     0.0630   186.1535
 1784.0000    10.0625     0.0762     2.4414     0.0570   180.5388
 1784.5000    10.0378     0.0542     2.4498     0.0550   174.9812
 1785.0000    10.0131     0.0316     2.4431     0.0588   169.4160
 1785.5000     9.9885     0.0207     2.4313     0.0668   163.7495
 1786.0000     9.9696     0.0471     2.4190     0.0736   162.7771
 1786.5000     9.9691     0.0908     2.4202     0.0704   172.2866
 1787.0000    10.0005     0.1353     2.4296     0.0648   180.4243
 1787.5000    10.0348     0.1930     2.4367     0.0607   180.3890
 1788.0000    10.0691     0.2441     2.4407     0.0587   179.2197
 1788.5000    10.1032     0.3205     2.4512     0.0496   177.7097
 1789.0000    10.1379     0.4098     2.4768     0.0391   175.2444
 1789.5000    10.1538     0.4476     2.4573     0.0507   168.8467
 1790.0000    10.1641     0.4598     2.4321     0.0668   162.3174
 1790.5000    10.1740     0.4963     2.4547     0.0559   160.5352
 1791.0000    10.1840     0.4885     2.4727     0.0417   162.1346
 1791.5000    10.1940     0.4994     2.5044     0.0236   173.0416
 1792.0000    10.2040     0.4985     2.5815    -0.0283   183.7953
 1792.5000    10.2140     0.4981     2.6811    -0.0997   190.3530
 1793.0000    10.2240     0.4961     2.7212    -0.0946   177.7887
 1793.5000    10.2316     0.4339     2.5274    -0.0050   169.4888
 1794.0000    10.2402     0.2893     2.4344     0.0536   169.5769
 1794.5000    10.2488     0.2064     2.4177     0.0719   178.9668
 1795.0000    10.2573     0.1907     2.4018     0.0796   175.2918
 1795.5000    10.2661     0.2111     2.3859     0.0908   172.4173
 1796.0000    10.2682     0.2288     2.3859     0.0840   172.1039
 1796.5000    10.2524     0.2859     2.4173     0.0658   180.7744
 1797.0000    10.2364     0.2962     2.4642     0.0464   190.5784
 1797.5000    10.2292     0.2876     2.4613     0.0493   199.3137
 1798.0000    10.2291     0.2778     2.4569     0.0504   198.8427
 1798.5000    10.2295     0.2735     2.4672     0.0419   195.7347
 1799.0000    10.2243     0.2775     2.4904     0.0293   194.8485
 1799.5000    10.2143     0.2948     2.5140     0.0199   198.6849
 1800.0000    10.2350     0.2780     2.4915     0.0239   199.0890
 1800.5000    10.2557     0.2853     2.4695     0.0424   191.6816
 1801.0000    10.2763     0.3096     2.5077     0.0308   184.9025
 1801.5000    10.2969     0.3024     2.5108     0.0210   184.1226
 1802.0000    10.3175     0.3005     2.5354     0.0091   180.5339
 1802.5000    10.3381     0.2835     2.5160     0.0064   176.2711
 1803.0000    10.3587     0.2524     2.4751     0.0349   175.5315
 1803.5000    10.3792     0.2246     2.4341     0.0632   177.4488
 1804.0000    10.4002     0.2028     2.3912     0.0852   181.4835
 1804.5000    10.3846     0.1840     2.3998     0.0868   187.2560
 1805.0000    10.3448     0.1332     2.4044     0.0796   182.5026
 1805.5000    10.3051     0.1014     2.4270     0.0666   176.4764
 1806.0000    10.2629     0.1074     2.4500     0.0439   170.2193
 1806.5000    10.2751     0.1116     2.4688     0.0509   168.3976
 1807.0000    10.3236     0.1012     2.4529     0.0483   168.3168
 1807.5000    10.3728     0.0978     2.4401     0.0588   169.1416
 1808.0000    10.4218     0.0993     2.4364     0.0685   170.3195
 1808.5000    10.4485     0.0960     2.4007     0.0822   174.8900
 1809.0000    10.4441     0.1387     2.3872     0.0896   177.2799
 1809.5000    10.4063     0.1797     2.4447     0.0556   168.3987
 1810.0000    10.3684     0.1310     2.4486     0.0800   159.0357
 1810.5000    10.3299     0.1167     2.4055     0.0800   158.2149
 1811.0000    10.2935     0.1163     2.4232     0.0692   165.9655
 1811.5000    10.2884     0.1245     2.4120     0.0756   173.9485
 1812.0000    10.2887     0.1523     2.4511     0.0540   177.4626
 1812.5000    10.2888     0.1562     2.4387     0.0649   185.1082
 1813.0000    10.2889     0.1736     2.4225     0.0681   187.3620
 1813.5000    10.2887     0.2288     2.4381     0.0609   188.2582
 1814.0000    10.2893     0.2819     2.4677     0.0444   182.7526
 1814.5000    10.2280     0.3154     2.4975     0.0247   173.7433
 1815.0000    10.1444     0.2779     2.5018     0.0298   164.3186
 1815.5000    10.0593     0.2310     2.4745     0.0439   161.7771
 1816.0000     9.9688     0.1827     2.4480     0.0612   162.2577
 1816.5000     9.9130     0.1520     2.4266     0.0693   165.6253
 1817.0000     9.8881     0.1946     2.4365     0.0608   169.9093
 1817.5000     9.8923     0.2317     2.4493     0.0510   174.1559
 1818.0000     9.9398     0.2889     2.4783     0.0367   172.9609
 1818.5000     9.9860     0.3464     2.5242     0.0085   171.1443
 1819.0000    10.0317     0.3997     2.5691    -0.0183   170.3366
 1819.5000    10.0775     0.4086     2.5995    -0.0309   174.5780
 1820.0000    10.1234     0.3716     2.5602    -0.0046   180.3370
 1820.5000    10.1694     0.3405     2.5180     0.0180   183.2299
 1821.0000    10.2106     0.3119     2.4812     0.0407   188.5660
 1821.5000    10.2012     0.2912     2.4517     0.0582   193.7598
 1822.0000    10.1457     0.2725     2.4361     0.0628   195.7046
 1822.5000    10.0907     0.2885     2.4746     0.0303   189.9745
 1823.0000    10.0489     0.2638     2.4953     0.0346   182.4895
 1823.5000    10.0552     0.2054     2.4702     0.0423   180.1934
 1824.0000    10.0783     0.1751     2.4668     0.0468   188.9451
 1824.5000    10.1003     0.1643     2.4760     0.0424   194.9043
 1825.0000    10.1102     0.1277     2.4515     0.0605   187.7723
 1825.5000    10.0357     0.0909     2.4280     0.0658   184.6020
 1826.0000     9.9176     0.0678     2.4307     0.0661   197.5406
 1826.5000     9.8105     0.0234     2.4331     0.0639  -999.2500
 1827.0000     9.8503     0.0274     2.4356     0.0633  -999.2500
 1827.5000     9.9072     0.0427     2.4335     0.0645  -999.2500
 1828.0000     9.9319     0.0540     2.4220     0.0720  -999.2500
 1828.5000     9.8575     0.0812     2.4242     0.0721  -999.2500
 1829.0000     9.7678     0.0916     2.4286     0.0700  -999.2500
 1829.5000     9.6746     0.0711     2.4086     0.0840  -999.2500
 1830.0000     9.6187     0.0662     2.3993     0.0782  -999.2500
 1830.5000     9.5881     0.0527     2.4129     0.0748  -999.2500
 1831.0000     9.5649     0.0319     2.4028     0.0824  -999.2500
 1831.5000     9.5420     0.0406     2.4013     0.0785  -999.2500
 1832.0000     9.5188     0.0672     2.4164     0.0726  -999.2500
 1832.5000     9.5120     0.0969     2.4211     0.0716  -999.2500
 1833.0000     9.5119     0.1081     2.4196     0.0712  -999.2500
 1833.5000     9.5119     0.1138     2.4131     0.0757  -999.2500
