~VERSION INFORMATION
 VERS.                2.0:   CWLS LOG ASCII STANDARD - VERSION 2.0
 WRAP.                 NO:   ONE LINE PER DEPTH STEP
~WELL INFORMATION
#MNEM.UNIT      DATA TYPE    INFORMATION
#----------   ------------   ------------------------------
 STRT.F           27.0000:   START DEPTH
 STOP.F          713.0000:   STOP DEPTH
 STEP.F            0.5000:   STEP LENGTH
 NULL.          -999.2500:   NO VALUE
 COMP. FENIX & SCISSON INC:   COMPANY
 WELL.       NPR 3 #44-34:   WELL
 FLD .        TEAPOT DOME:   FIELD
 LOC .      S34 T39N R78W:   LOCATION
 CNTY.            NATRONA:   COUNTY
 STAT.            WYOMING:   STATE
 CTRY. UNITED STATES OF AMERICA:   COUNTRY
 SRVC.           BIRDWELL:   SERVICE COMPANY
 DATE.        24-AUG-1978:   LOGDATE
 API .       490251070000:   API NUMBER
~CURVE INFORMATION
#MNEM.UNIT       API CODE    CURVE DESCRIPTION
#----------   ------------   ------------------------------
 DEPT.F                  :   
 SPR .MV     05 010 01 00:   SPONTANEOUS POTENTIAL FROM RES.
 ILD .OHMM   05 120 46 00:   INDUCTION LOG DEEP
 SN  .OHMM   05 040 16 00:   SHORT NORMAL 16"
 CALD.IN     45 280 60 00:   CALIPER
 GRD .GAPI   45 310 01 00:   GAMMA RAY FROM DENSITY LOG
 DEN .G/C3   45 350 01 00:   COMPENSATED BULK DENSTIY
 DPHI.DEC    45 890 12 00:   DENSITY POROSITY SANDSTONE
 CORR.G/C3   45 356 01 00:   DENSITY CORRECTION
~PARAMETER INFORMATION
#MNEM.UNIT          VALUE    DESCRIPTION
#----------   ------------   ------------------------------
 PD  .                 GL:   PERMANENT DATUM
 EPD .F              5124:   ELEVATION PERMANENT DATUM
 LMF .                 KB:   LOG MEASURED FROM
 DAPD.F                 4:   FEET ABOVE PERMANENT DATUM
 DMF .                 KB:   DRILLING MEASURED FROM
 EKB .F              5128:   KELLING BUSHING
 EGL .F              5124:   GROUND LEVEL
 DATE.            8-24-78:   RUN DATE
 RUN .                  1:   RUN NUMBER
 DD  .F               716:   DEPTH DRILLER
 DL  .F               713:   DEPTH LOGGER
 BLI .F               707:   BOTTOM LOG INTERVAL
 TLI .F                50:   TOP LOG INTERVAL
 CS  .IN            8.625:   CASING SIZE
 CBD .F                40:   CASING BOTTOM DRILLER
 BS  .IN            7.875:   BIT SIZE
 BSD .F               716:   BIT SIZE AT DEPTH
 DFT .            MUD KCL:   DRILLING FLUID TYPE
 DFD .                8.6:   DRILLING FLUID DENSITY
 DFV .                 34:   DRILLING FLUID VISCOSITY
 DFL .                7.4:   DRILLING FLUID LOSS
 MSS .          FLOW LINE:   MUD SAMPLE SOURCE
 RMS .OHMM            .18:   RESISTIVITY MUD SAMPLE
 MST .F                76:   MUD SAMPLE TEMPERATURE
 RMF .OHMM            .16:   RESISTIVITY MUD FILTRATE SAMPLE
 MFST.F                92:   MUD FILTRATE SAMPLE TEMPERATURE
 RMC .OHMM             .3:   RESISTIVITY MUD CAKE
 MCST.F                86:   MUD CAKE SAMPLE TEMPERATURE
 MFSS.               MEAS:   MUD FILTRATE SAMPLE SOURCE
 TCS .HRS               3:   TIME CURCULATED STOPPED
 MRT .F                72:   MAXIMUM RECORDED TEMPERATURE
 LUN .               2958:   LOGGING UNIT NUMBER
 LUL .               CASP:   LOGGING UNIT LOCATION
 ENGI.           REYNOLDS:   RECORDING ENGINEER
 WITN.              AMEND:   WITNESSED BY
 CLNT.            A2DTECH:   CLIENT CODE
 ORIG.           5" PRINT:   ORIGIN OF DATA
 UWI .       490251070000:   UNIQUE WELL ID
 DICO. A2D Technologies, Inc.:   DIGITIZING COMPANY
~OTHER INFORMATION
~A   DEPT      SPR        ILD         SN       CALD         GRD       DEN       DPHI       CORR   
# ...
  432.0000   -70.1589     7.2132     8.0423     8.9542    92.7958     2.4812     0.1260     0.0220
  432.5000   -70.1423     7.1326     7.9967     8.9580    96.7824     2.4862     0.1255     0.0217
  433.0000   -70.1258     7.0527     7.9558     8.9579    97.6781     2.4912     0.1249     0.0214
  433.5000   -70.1092     6.9738     7.8898     8.9579    97.7714     2.4918     0.1243     0.0211
  434.0000   -70.0926     6.8598     7.8243     8.9579    97.9360     2.4910     0.1248     0.0208
  434.5000   -70.0760     6.7290     7.7542     8.9579    98.9104     2.4875     0.1274     0.0204
  435.0000   -70.0594     6.6007     7.6429     8.9579   101.7462     2.4835     0.1302     0.0201
  435.5000   -70.0429     6.4749     7.5238     8.9579   103.0710     2.4804     0.1316     0.0198
  436.0000   -70.0261     6.3515     7.4061     8.9579   104.0554     2.4780     0.1316     0.0195
  436.5000   -70.0195     6.2313     7.2904     8.9579   102.8549     2.4773     0.1320     0.0249
  437.0000   -70.0154     6.1147     7.1765     8.9579   101.4299     2.4767     0.1337     0.0309
  437.5000   -70.1685     5.9767     7.0497     8.9579   101.3331     2.4763     0.1366     0.0356
  438.0000   -70.3401     5.8175     6.7882     8.9579    99.0083     2.4678     0.1446     0.0360
  438.5000   -70.5119     5.6626     6.5363     8.9537    97.3880     2.4582     0.1467     0.0363
  439.0000   -70.6833     5.3870     6.2937     8.9404    97.4681     2.4519     0.1479     0.0367
  439.5000   -70.8547     4.7292     6.0514     8.9272    97.7932     2.4480     0.1510     0.0371
  440.0000   -71.0266     4.1943     5.7882     8.9141    98.1155     2.4442     0.1584     0.0376
  440.5000   -71.1962     3.7317     5.5365     8.9005    99.2809     2.4326     0.1682     0.0396
  441.0000   -71.2487     3.3201     5.2784     8.8995   100.2259     2.4181     0.1781     0.0416
  441.5000   -71.2950     2.9977     4.9264     8.9018   100.0431     2.4008     0.1912     0.0433
  442.0000   -71.3416     2.7808     4.5727     8.9041    99.7973     2.3777     0.2162     0.0446
  442.5000   -71.3871     2.7708     4.2445     8.9064    99.5327     2.3372     0.2408     0.0646
  443.0000   -71.3698     2.7608     3.9398     8.9087    95.2724     2.2975     0.2656     0.0649
  443.5000   -71.2664     2.7555     3.6569     8.9110    92.5989     2.2581     0.2903     0.0480
  444.0000   -71.2154     2.7555     3.5934     8.9131    95.7260     2.2161     0.2938     0.0500
  444.5000   -71.2171     2.9953     3.5606     8.9150    96.8139     2.2154     0.2914     0.0526
  445.0000   -71.1287     3.3609     3.5934     8.9232    95.5368     2.2628     0.2598     0.0551
  445.5000   -71.0148     3.7719     3.7389     9.0842    89.1382     2.3213     0.2266     0.0572
  446.0000   -70.9015     4.2491     3.8935     9.1617    87.0269     2.3723     0.1975     0.0523
  446.5000   -70.8095     4.8031     4.1446     8.8233    92.4320     2.4136     0.1690     0.0473
  447.0000   -70.6878     5.4276     4.6863     8.7779    97.3211     2.4510     0.1426     0.0423
  447.5000   -70.5660     5.8939     5.2250     8.7694   102.2700     2.4762     0.1250     0.0397
  448.0000   -70.4450     5.9017     5.6620     8.7619   107.4230     2.5030     0.1188     0.0405
  448.5000   -70.3240     5.9100     6.0472     8.7542   109.4227     2.5044     0.1247     0.0412
  449.0000   -70.2030     5.9172     6.3148     8.7463   111.2160     2.4972     0.1288     0.0419
  449.5000   -70.0828     5.9250     6.5755     8.7381   114.5831     2.4883     0.1276     0.0427
  450.0000   -70.0431     5.9328     6.5755     8.7532   112.4901     2.4868     0.1258     0.0434
  450.5000   -70.0912     5.9406     6.5755     8.7717   110.2983     2.4903     0.1255     0.0412
  451.0000   -70.1390     5.9455     6.5755     8.7903   110.4171     2.4911     0.1252     0.0387
  451.5000   -70.1871     5.8447     6.5755     8.7947   108.9687     2.4910     0.1229     0.0362
  452.0000   -70.2350     5.7723     6.5755     8.7902   107.4809     2.5028     0.1200     0.0337
  452.5000   -70.2830     5.7008     6.5758     8.7855   107.7357     2.4995     0.1180     0.0315
  453.0000   -70.3310     5.6278     6.5755     8.7809   107.5772     2.4921     0.1272     0.0314
  453.5000   -70.3790     5.2005     6.5498     8.7762   105.6001     2.4850     0.1314     0.0312
  454.0000   -70.4269     4.8228     6.4221     8.7716   104.4389     2.4800     0.1359     0.0431
  454.5000   -70.4749     4.4748     6.2970     8.7669   106.1105     2.4736     0.1428     0.0594
  455.0000   -70.5231     4.3155     6.1673     8.7622   108.1241     2.4533     0.1598     0.0517
  455.5000   -70.5726     4.3155     5.8390     8.7579   109.4723     2.4312     0.1767     0.0391
  456.0000   -70.6099     4.3155     5.5098     8.7718   110.2282     2.3989     0.1935     0.0421
  456.5000   -70.4159     4.3155     5.2303     8.7868   111.7785     2.3728     0.2002     0.0468
  457.0000   -70.2160     4.3155     5.1826     8.8020   114.1784     2.3825     0.1844     0.0492
  457.5000   -70.0164     4.3155     5.1826     8.8166   115.1193     2.3989     0.1743     0.0434
  458.0000   -69.8226     4.5395     5.2626     8.7886   115.2578     2.4154     0.1715     0.0376
  458.5000   -69.9497     4.8474     5.3901     8.7580   113.1434     2.4195     0.1687     0.0318
  459.0000   -70.1080     5.1771     5.5750     8.7477   109.6260     2.4226     0.1522     0.0295
  459.5000   -70.1747     5.5287     5.7669     8.7385   104.2043     2.4421     0.1390     0.0294
  460.0000   -70.0225     5.8799     5.9490     8.7450   104.2392     2.4710     0.1336     0.0305
  460.5000   -69.8740     6.1310     6.1120     8.7535   107.9548     2.4783     0.1343     0.0408
  461.0000   -69.7258     6.2771     6.3648     8.7620   108.9301     2.4787     0.1338     0.0453
  461.5000   -69.6234     6.3610     6.6242     8.7705   107.3104     2.4787     0.1279     0.0446
  462.0000   -69.6610     6.4460     6.8930     8.7790   105.7198     2.4876     0.1221     0.0440
  462.5000   -69.6970     6.5156     7.1076     8.7875   104.7131     2.4980     0.1176     0.0456
  463.0000   -69.7329     6.5020     7.2795     8.7962   105.3885     2.5029     0.1178     0.0545
  463.5000   -69.7688     6.4886     7.4747     8.7919   105.5515     2.5023     0.1187     0.0631
  464.0000   -69.8046     6.4751     7.4625     8.7847   105.3481     2.5015     0.1200     0.0717
  464.5000   -69.8405     6.4616     7.4488     8.7774   105.9891     2.5016     0.1195     0.0803
  465.0000   -69.8764     6.4389     7.4351     8.7702   106.5602     2.5030     0.1174     0.0802
  465.5000   -69.9122     6.3573     7.4215     8.7630   103.3160     2.5040     0.1172     0.0772
  466.0000   -69.9482     6.2768     7.4068     8.7574   100.7919     2.5040     0.1172     0.0679
  466.5000   -69.9851     6.1973     7.3337     8.7575   102.9717     2.5041     0.1160     0.0636
  467.0000   -70.0152     6.1189     7.2544     8.7575   106.5031     2.5055     0.1142     0.0593
  467.5000   -69.8782     6.0414     7.1760     8.7575   106.0142     2.5070     0.1130     0.0555
  468.0000   -69.7338     5.9060     7.0985     8.7575   112.4404     2.5062     0.1194     0.0551
  468.5000   -69.5900     5.7078     6.9712     8.7576   115.8135     2.4931     0.1276     0.0547
  469.0000   -69.4464     5.5162     6.8246     8.7576   115.7982     2.4825     0.1358     0.0543
  469.5000   -69.3043     5.3991     6.6812     8.7554   115.0773     2.4718     0.1441     0.0540
  470.0000   -69.2540     5.3269     6.5434     8.7389   114.8369     2.4613     0.1453     0.0536
  470.5000   -69.3265     5.4291     6.4158     8.7224   112.8205     2.4536     0.1455     0.0492
  471.0000   -69.3979     5.5122     6.2908     8.7058   112.0985     2.4528     0.1479     0.0410
  471.5000   -69.4699     5.5967     6.1673     8.6950   111.7150     2.4511     0.1514     0.0395
  472.0000   -69.5420     5.6795     6.1465     8.6900   110.6514     2.4466     0.1543     0.0413
