~VERSION INFORMATION
 VERS.                2.0:   CWLS LOG ASCII STANDARD - VERSION 2.0
 WRAP.                 NO:   ONE LINE PER DEPTH STEP
~WELL INFORMATION
#MNEM.UNIT      DATA TYPE    INFORMATION
#----------   ------------   ------------------------------
 STRT.F          695.0000:   START DEPTH
 STOP.F         1588.0000:   STOP DEPTH
 STEP.F            0.5000:   STEP LENGTH
 NULL.          -999.2500:   NO VALUE
 COMP. FENIX & SCISSON INC:   COMPANY
 WELL. 13 SHX 10 STX #13-10:   WELL
 FLD .             TEAPOT:   FIELD
 LOC .      S10 T38N R78W:   LOCATION
 CNTY.            NATRONA:   COUNTY
 STAT.            WYOMING:   STATE
 CTRY. UNITED STATES OF AMERICA:   COUNTRY
 SRVC.            Unknown:   SERVICE COMPANY
 DATE.        22-JUL-1979:   LOGDATE
 API .       490251078700:   API NUMBER
~CURVE INFORMATION
#MNEM.UNIT       API CODE    CURVE DESCRIPTION
#----------   ------------   ------------------------------
 DEPT.F                  :   
 CORR.G/C3   45 356 01 00:   DENSITY CORRECTION
 RHOB.G/C3   45 350 01 00:   BULK DENSITY
 CALD.IN     45 280 60 00:   CALIPER
 GRD .GAPI   45 310 01 00:   GAMMA RAY FROM DENSITY LOG
 DPHI.DEC    45 890 12 00:   DENSITY POROSITY SANDSTONE
~PARAMETER INFORMATION
#MNEM.UNIT          VALUE    DESCRIPTION
#----------   ------------   ------------------------------
 PD  .                 GL:   PERMANENT DATUM
 EPD .F              5306:   ELEVATION PERMANENT DATUM
 LMF .                 DF:   LOG MEASURED FROM
 DAPD.F                 9:   FEET ABOVE PERMANENT DATUM
 DMF .                 KB:   DRILLING MEASURED FROM
 EKB .F              5316:   KELLING BUSHING
 EDF .F              5315:   DRILLING FLOOR
 EGL .F              5306:   GROUND LEVEL
 DATE.            7-22-79:   RUN DATE
 RUN .                  1:   RUN NUMBER
 DD  .F              1595:   DEPTH DRILLER
 DL  .F              1588:   DEPTH LOGGER
 BLI .F              1588:   BOTTOM LOG INTERVAL
 TLI .F               700:   TOP LOG INTERVAL
 CS  .IN            9.625:   CASING SIZE
 CBD .F               950:   CASING BOTTOM DRILLER
 CBL .F               950:   CASING BOTTOM LOGGER
 BS  .IN             8.75:   BIT SIZE
 BSD .F              1595:   BIT SIZE AT DEPTH
 DFT .                OIL:   DRILLING FLUID TYPE
 TCS .HRS               2:   TIME CURCULATED STOPPED
 LUN .               2959:   LOGGING UNIT NUMBER
 LUL .             CASPER:   LOGGING UNIT LOCATION
 ENGI.            ROLLINS:   RECORDING ENGINEER
 WITN.           DINSMORE:   WITNESSED BY
 CLNT.            A2DTECH:   CLIENT CODE
 ORIG.     1", 2.5" PRINT:   ORIGIN OF DATA
 UWI .       490251078700:   UNIQUE WELL ID
 DICO. A2D Technologies, Inc.:   DIGITIZING COMPANY
~OTHER INFORMATION
~A   DEPT     CORR       RHOB       CALD         GRD      DPHI   
# ...
 1000.0000     0.0516     2.4566     9.5831   111.2924     0.0566
 1000.5000     0.0455     2.4495     9.6000   113.5415     0.0611
 1001.0000     0.0396     2.4381     9.6193   113.5774     0.0683
 1001.5000     0.0404     2.4373     9.6387   111.5178     0.0678
 1002.0000     0.0426     2.4355     9.6579   111.0551     0.0699
 1002.5000     0.0431     2.4293     9.6772   112.3590     0.0737
 1003.0000     0.0416     2.4254     9.6965   110.8923     0.0758
 1003.5000     0.0404     2.4272     9.7158   109.3485     0.0733
 1004.0000     0.0380     2.4243     9.7351   109.2213     0.0773
 1004.5000     0.0327     2.4159     9.7543   110.2159     0.0812
 1005.0000     0.0313     2.4075     9.7737   109.8301     0.0838
 1005.5000     0.0340     2.4085     9.7929   108.5676     0.0838
 1006.0000     0.0610     2.4254     9.8123   107.3188     0.0777
 1006.5000     0.0966     2.4496     9.8316   108.1487     0.0597
 1007.0000     0.1330     2.4596     9.8507   112.1194     0.0543
 1007.5000     0.1615     2.4637     9.8708   111.0645     0.0529
 1008.0000     0.1764     2.4590     9.8890   110.5690     0.0554
 1008.5000     0.1665     2.4465     9.9048   112.4549     0.0618
 1009.0000     0.1539     2.4343     9.8734   112.4906     0.0713
 1009.5000     0.1483     2.4243     9.8437   106.6771     0.0761
 1010.0000     0.1433     2.4200     9.8117   107.5673     0.0773
 1010.5000     0.1385     2.4209     9.7807   109.6413     0.0769
 1011.0000     0.1335     2.4226     9.7495   110.0424     0.0763
 1011.5000     0.1286     2.4211     9.7183   110.9954     0.0756
 1012.0000     0.1238     2.4223     9.6871   108.5187     0.0750
 1012.5000     0.1188     2.4241     9.6558   105.5362     0.0753
 1013.0000     0.1140     2.4262     9.6252   107.3895     0.0760
 1013.5000     0.1042     2.4244     9.5935   110.6896     0.0767
 1014.0000     0.0922     2.4161     9.5838   109.8231     0.0773
 1014.5000     0.0803     2.4081     9.5769   103.5867     0.0847
 1015.0000     0.0687     2.3990     9.5686    99.9753     0.0912
 1015.5000     0.0565     2.3942     9.5603   102.5473     0.0914
 1016.0000     0.0492     2.3952     9.5514    99.1291     0.0897
 1016.5000     0.0491     2.4052     9.5427    95.8733     0.0866
 1017.0000     0.0538     2.4140     9.5152    93.4615     0.0805
 1017.5000     0.0586     2.4187     9.4908    96.5839     0.0807
 1018.0000     0.0557     2.4126     9.4650   102.2053     0.0813
 1018.5000     0.0517     2.4080     9.4397   107.4744     0.0793
 1019.0000     0.0559     2.4239     9.4147   113.0746     0.0726
 1019.5000     0.0593     2.4396     9.3892   114.9434     0.0660
 1020.0000     0.0516     2.4488     9.3776   113.3737     0.0586
 1020.5000     0.0445     2.4530     9.3711   112.1165     0.0591
 1021.0000     0.0371     2.4512     9.3645   107.6641     0.0602
 1021.5000     0.0288     2.4494     9.3576   104.6052     0.0611
 1022.0000     0.0341     2.4577     9.3509   105.4790     0.0525
 1022.5000     0.0594     2.4759     9.3442   106.1658     0.0489
 1023.0000     0.0685     2.4700     9.3374   108.5650     0.0532
 1023.5000     0.0513     2.4413     9.3307   113.4905     0.0657
 1024.0000     0.0424     2.4283     9.3240   113.7318     0.0727
 1024.5000     0.0493     2.4390     9.3170   112.0303     0.0628
 1025.0000     0.0599     2.4600     9.3107   111.1700     0.0471
 1025.5000     0.0704     2.4838     9.3030   110.4713     0.0414
 1026.0000     0.0797     2.4813     9.3072   110.0692     0.0442
 1026.5000     0.0882     2.4769     9.3129   111.5455     0.0470
 1027.0000     0.0921     2.4710     9.3191   112.9752     0.0496
 1027.5000     0.0903     2.4688     9.3251   113.7379     0.0472
 1028.0000     0.0890     2.4729     9.3305   112.4283     0.0449
 1028.5000     0.0877     2.4771     9.3372   110.9702     0.0447
 1029.0000     0.0863     2.4680     9.3442   110.2149     0.0500
 1029.5000     0.0850     2.4599     9.3758   109.1407     0.0538
 1030.0000     0.0822     2.4617     9.4066   106.4787     0.0524
 1030.5000     0.0784     2.4679     9.4389   102.7518     0.0509
 1031.0000     0.0691     2.4645     9.4704   102.8857     0.0497
 1031.5000     0.0544     2.4526     9.5016   103.3982     0.0595
 1032.0000     0.0392     2.4412     9.5343   104.2987     0.0667
 1032.5000     0.0315     2.4351     9.5431   103.3270     0.0659
 1033.0000     0.0348     2.4452     9.5382   102.5500     0.0643
 1033.5000     0.0368     2.4553     9.5344   103.5282     0.0580
 1034.0000     0.0390     2.4665     9.5309   100.5797     0.0527
 1034.5000     0.0364     2.4681     9.5269   101.6312     0.0489
 1035.0000     0.0320     2.4589     9.5232   104.0893     0.0580
 1035.5000     0.0386     2.4578     9.5194   104.9742     0.0561
 1036.0000     0.0474     2.4666     9.5156   102.7362     0.0524
 1036.5000     0.0527     2.4625     9.5118   104.0932     0.0542
 1037.0000     0.0534     2.4536     9.5082   103.1151     0.0574
 1037.5000     0.0545     2.4514     9.5043   101.8014     0.0603
 1038.0000     0.0555     2.4491     9.5041   102.4272     0.0627
 1038.5000     0.0455     2.4462     9.5040   103.4316     0.0607
 1039.0000     0.0398     2.4496     9.5040   102.6886     0.0569
 1039.5000     0.0431     2.4646     9.5040    98.1940     0.0538
 1040.0000     0.0454     2.4598     9.5040    95.7837     0.0573
 1040.5000     0.0475     2.4411     9.5040   101.1324     0.0641
 1041.0000     0.0459     2.4342     9.5040   108.3392     0.0700
 1041.5000     0.0439     2.4324     9.5040   110.0087     0.0700
 1042.0000     0.0502     2.4316     9.5040   107.8022     0.0676
 1042.5000     0.0684     2.4397     9.5040   107.8422     0.0647
 1043.0000     0.0859     2.4483     9.5040   110.8300     0.0619
 1043.5000     0.0962     2.4509     9.5040   111.1026     0.0616
 1044.0000     0.1027     2.4493     9.5040   109.8154     0.0611
 1044.5000     0.1029     2.4481     9.5040   108.3362     0.0617
 1045.0000     0.0996     2.4469     9.5040   106.7387     0.0627
 1045.5000     0.0963     2.4456     9.5040   107.2720     0.0633
 1046.0000     0.0889     2.4445     9.5040   106.8727     0.0629
 1046.5000     0.0805     2.4432     9.5040   105.5359     0.0634
 1047.0000     0.0721     2.4419     9.5041   104.7687     0.0660
 1047.5000     0.0632     2.4432     9.5041   109.8345     0.0640
 1048.0000     0.0644     2.4511     9.5041   113.2100     0.0578
 1048.5000     0.0752     2.4579     9.5041   114.8812     0.0603
 1049.0000     0.0683     2.4456     9.5042   116.2765     0.0674
 1049.5000     0.0605     2.4281     9.5039   119.1752     0.0773
 1050.0000     0.0520     2.4219     9.5038   120.7790     0.0745
 1050.5000     0.0460     2.4315     9.4904   116.7124     0.0698
 1051.0000     0.0434     2.4368     9.4733   114.4672     0.0643
 1051.5000     0.0402     2.4436     9.4556   116.5839     0.0624
 1052.0000     0.0369     2.4493     9.4390   115.4521     0.0601
 1052.5000     0.0358     2.4551     9.4247   114.1268     0.0579
 1053.0000     0.0370     2.4614     9.4363   113.3052     0.0554
 1053.5000     0.0380     2.4590     9.4470   112.6211     0.0564
 1054.0000     0.0389     2.4539     9.4588   110.5804     0.0585
 1054.5000     0.0412     2.4595     9.4701   111.6466     0.0573
 1055.0000     0.0448     2.4582     9.4817   113.5855     0.0582
 1055.5000     0.0482     2.4509     9.4930   114.1573     0.0608
 1056.0000     0.0516     2.4450     9.5034   115.8300     0.0635
 1056.5000     0.0556     2.4378     9.5003   118.1945     0.0661
 1057.0000     0.0640     2.4366     9.4973   120.5948     0.0655
 1057.5000     0.0744     2.4432     9.4936   120.1153     0.0606
 1058.0000     0.0908     2.4550     9.4902   119.7913     0.0556
 1058.5000     0.1193     2.4667     9.4868   118.2758     0.0506
 1059.0000     0.1286     2.4687     9.4833   119.3763     0.0489
 1059.5000     0.1373     2.4599     9.4799   121.2832     0.0543
 1060.0000     0.1445     2.4576     9.4764   119.8676     0.0560
 1060.5000     0.1491     2.4551     9.4730   116.9265     0.0578
