~VERSION INFORMATION
 VERS.                2.0:   CWLS LOG ASCII STANDARD - VERSION 2.0
 WRAP.                 NO:   ONE LINE PER DEPTH STEP
~WELL INFORMATION
#MNEM.UNIT      DATA TYPE    INFORMATION
#----------   ------------   ------------------------------
 STRT.F           20.0000:   START DEPTH
 STOP.F          468.0000:   STOP DEPTH
 STEP.F            0.1000:   STEP LENGTH
 NULL.          -999.2500:   NO VALUE
 COMP. LAWRENCE/ALLISON INC:   COMPANY
 WELL.    63-51 SX #10-10:   WELL
 FLD .             TEAPOT:   FIELD
 LOC .      S10 T38N R78W:   LOCATION
 CNTY.            NATRONA:   COUNTY
 STAT.            WYOMING:   STATE
 CTRY. UNITED STATES OF AMERICA:   COUNTRY
 SRVC.           Gearhart:   SERVICE COMPANY
 DATE.        01-OCT-1988:   LOGDATE
 API .       490251125100:   API NUMBER
~CURVE INFORMATION
#MNEM.UNIT       API CODE    CURVE DESCRIPTION
#----------   ------------   ------------------------------
 DEPT.F                  :   
 GRR .GAPI   07 310 01 00:   GAMMA RAY
 RILD.OHMM   07 120 46 00:   INDUCTION LOG DEEP RESISTIVITY
 RILM.OHMM   07 120 44 00:   INDUCTION LOG MEDIUM RESISTIVITY
~PARAMETER INFORMATION
#MNEM.UNIT          VALUE    DESCRIPTION
#----------   ------------   ------------------------------
 PD  .                 GL:   PERMANENT DATUM
 EPD .F              5157:   ELEVATION PERMANENT DATUM
 LMF .                 KB:   LOG MEASURED FROM
 DAPD.F                 5:   FEET ABOVE PERMANENT DATUM
 DMF .                 KB:   DRILLING MEASURED FROM
 EKB .F              5162:   KELLING BUSHING
 EGL .F              5157:   GROUND LEVEL
 DATE.        01-OCT-1988:   RUN DATE
 RUN .                  1:   RUN NUMBER
 DD  .F               475:   DEPTH DRILLER
 DL  .F               476:   DEPTH LOGGER
 BLI .F               468:   BOTTOM LOG INTERVAL
 TLI .F                20:   TOP LOG INTERVAL
 CS  .IN            9.625:   CASING SIZE
 CBD .F                45:   CASING BOTTOM DRILLER
 CBL .F                46:   CASING BOTTOM LOGGER
 BS  .IN             7.87:   BIT SIZE
 BSD .F               475:   BIT SIZE AT DEPTH
 TLAB.HRS            1630:   TIME LOGGER AT BOTTOM
 MRT .F                75:   MAXIMUM RECORDED TEMPERATURE
 LUN .               7597:   LOGGING UNIT NUMBER
 LUL .           GILLETTE:   LOGGING UNIT LOCATION
 ENGI.              BENCK:   RECORDING ENGINEER
 WITN.             STRONG:   WITNESSED BY
 CLNT.            A2DTECH:   CLIENT CODE
 ORIG.           5" PRINT:   ORIGIN OF DATA
 UWI .       490251125100:   UNIQUE WELL ID
 DICO. A2D Technologies, Inc.:   DIGITIZING COMPANY
~OTHER INFORMATION
~A   DEPT       GRR      RILD       RILM   
# ...
  183.8000   132.2385     6.8084     5.8295
  183.9000   132.7311     6.8859     5.9202
  184.0000   133.2234     6.9642     5.9575
  184.1000   133.7547     7.0436     6.0476
  184.2000   134.4340     7.1239     6.1286
  184.3000   135.0058     7.1836     6.1982
  184.4000   135.3925     7.2357     6.2632
  184.5000   135.6398     7.3180     6.3021
  184.6000   135.9012     7.4014     6.3665
  184.7000   135.6719     7.4196     6.4149
  184.8000   135.2575     7.4648     6.4512
  184.9000   134.7686     7.5373     6.4876
  185.0000   134.2797     7.5801     6.5272
  185.1000   133.7729     7.6232     6.5952
  185.2000   133.3023     7.6320     6.6194
  185.3000   132.8136     7.6558     6.6352
  185.4000   132.3250     7.6992     6.6727
  185.5000   131.8363     7.7429     6.7128
  185.6000   131.3393     7.7953     6.7482
  185.7000   131.1000     7.7953     6.7863
  185.8000   130.8564     7.8201     6.8075
  185.9000   130.6129     7.8505     6.8149
  186.0000   130.4306     7.8505     6.8553
  186.1000   130.4324     7.8505     6.8551
  186.2000   130.4342     7.8505     6.8823
  186.3000   130.4360     7.8505     6.9032
  186.4000   130.5642     7.8505     6.9113
  186.5000   130.8113     7.8505     6.9516
  186.6000   131.0584     7.8505     6.9514
  186.7000   131.3055     7.8505     6.9512
  186.8000   131.5525     7.8505     6.9510
  186.9000   131.7997     7.8505     6.9508
  187.0000   132.1183     7.8505     6.9506
  187.1000   132.5994     7.8505     6.9504
  187.2000   132.8956     7.8505     6.9502
  187.3000   133.0936     7.8505     6.9500
  187.4000   133.4770     7.8505     6.9499
  187.5000   133.8931     7.8505     6.9497
  187.6000   134.1239     7.8505     6.9495
  187.7000   133.8208     7.8887     6.9493
  187.8000   133.4191     7.9061     6.9491
  187.9000   132.9304     7.9061     6.9489
  188.0000   132.3603     7.9061     6.9487
  188.1000   131.6477     7.9061     6.9485
  188.2000   131.0818     7.9061     6.9483
  188.3000   130.4633     7.9061     6.9481
  188.4000   129.8759     7.9061     6.9479
  188.5000   129.3872     7.9061     6.9477
  188.6000   128.8720     7.9061     6.9475
  188.7000   128.0375     7.9061     6.9473
  188.8000   127.8274     7.9061     6.9471
  188.9000   127.2805     7.9061     6.9469
  189.0000   126.7297     7.9061     6.9467
  189.1000   126.4862     7.9061     6.9465
  189.2000   126.2146     7.9061     6.9463
  189.3000   125.9994     7.9061     6.9461
  189.4000   125.9127     7.9061     6.9460
  189.5000   125.9145     7.9061     6.9458
  189.6000   125.9164     7.9061     6.9455
  189.7000   125.9183     7.9061     6.9454
  189.8000   126.1420     7.9061     6.9452
  189.9000   126.3891     7.9061     6.9449
  190.0000   126.5344     7.9061     6.9448
  190.1000   126.5779     7.9061     6.9445
  190.2000   126.8435     7.9061     6.9773
  190.3000   127.0720     7.9061     6.9933
  190.4000   127.3192     7.9061     6.9931
  190.5000   127.5665     7.9061     6.9929
  190.6000   127.7668     7.9061     6.9927
  190.7000   127.7687     7.9061     6.9925
  190.8000   128.0024     7.9061     6.9923
  190.9000   128.0776     7.9061     6.9921
  191.0000   128.0794     7.9061     6.9919
  191.1000   128.0812     7.9061     6.9917
  191.2000   128.0831     7.9061     6.9915
  191.3000   128.0849     7.9061     6.9913
  191.4000   128.0867     7.9061     6.9911
  191.5000   127.9716     7.9061     6.9909
  191.6000   127.7850     7.9061     6.9907
  191.7000   127.7869     7.9061     6.9906
  191.8000   127.5464     7.9380     6.9903
  191.9000   127.3030     7.9621     6.9901
  192.0000   127.0596     7.9621     6.9900
  192.1000   126.7541     7.9621     6.9897
  192.2000   126.2635     7.9621     6.9896
  192.3000   125.5295     7.9621     6.9893
  192.4000   124.9824     7.9621     6.9891
  192.5000   124.4935     7.9621     6.9890
  192.6000   124.0720     7.9621     6.9887
  192.7000   123.8357     7.9621     6.9886
  192.8000   124.0900     7.9621     6.9883
  192.9000   124.3370     7.9621     6.9881
  193.0000   124.9811     7.9621     6.9880
  193.1000   125.9645     7.9621     6.9878
  193.2000   126.9718     7.9621     6.9876
  193.3000   128.7326     7.9621     6.9874
  193.4000   130.1161     7.9621     6.9872
  193.5000   131.8347     7.9621     6.9870
  193.6000   133.3991     7.9621     6.9868
  193.7000   134.5759     7.9621     6.9491
  193.8000   135.1539     7.9621     6.9373
  193.9000   135.3580     7.9609     6.9371
  194.0000   135.4626     7.9586     6.9369
  194.1000   135.3820     7.9563     6.9367
  194.2000   135.1608     7.9539     6.9365
  194.3000   135.1630     7.9516     6.9363
  194.4000   134.9569     7.9493     6.9361
  194.5000   134.5658     7.9470     6.9360
  194.6000   134.1647     7.9446     6.9358
  194.7000   133.9212     7.9423     6.9356
  194.8000   133.6454     7.9400     6.9354
  194.9000   133.4344     7.9377     6.9352
  195.0000   133.0382     7.9354     6.9350
  195.1000   132.7347     7.9330     6.9348
  195.2000   132.7365     7.9307     6.9346
  195.3000   132.7385     7.9284     6.9344
  195.4000   132.9580     7.9261     6.9342
  195.5000   133.3628     7.9237     6.9340
  195.6000   133.8552     7.9214     6.9338
  195.7000   134.3479     7.9191     6.9336
  195.8000   134.8851     7.9168     6.9334
  195.9000   135.3326     7.9144     6.9332
  196.0000   135.9878     7.9121     6.9330
  196.1000   136.6226     7.9098     6.9328
  196.2000   137.1150     7.9075     6.9326
  196.3000   137.6423     7.8880     6.9325
  196.4000   137.6440     7.8434     6.9323
  196.5000   137.4778     7.7953     6.9321
  196.6000   137.0185     7.7552     6.9319
  196.7000   136.3802     7.7114     6.9316
  196.8000   136.1247     7.6679     6.9315
  196.9000   135.6605     7.6246     6.9313
  197.0000   135.1718     7.5783     6.9310
  197.1000   134.6829     7.5388     6.9309
  197.2000   134.2469     7.4962     6.9306
  197.3000   133.9964     7.4539     6.9305
  197.4000   133.7600     7.4196     6.9077
  197.5000   133.3385     7.4196     6.8685
  197.6000   133.0858     7.3803     6.8296
  197.7000   133.1458     7.3387     6.7847
  197.8000   133.3948     7.3156     6.7846
  197.9000   133.6400     7.3075     6.7390
  198.0000   134.0702     7.2641     6.6761
  198.1000   134.6857     7.2641     6.6382
  198.2000   135.4863     7.2353     6.5952
  198.3000   136.4692     7.2130     6.5316
  198.4000   137.4528     7.2045     6.4580
  198.5000   138.4359     7.1623     6.3851
  198.6000   139.2905     7.1623     6.3130
  198.7000   140.0962     7.1334     6.2328
  198.8000   141.0709     7.1119     6.2019
  198.9000   141.8086     7.1030     6.1451
  199.0000   142.5467     7.0619     6.0888
  199.1000   143.2846     7.0619     6.0542
  199.2000   144.0954     7.0329     6.0162
  199.3000   145.0518     7.0123     5.9858
  199.4000   145.6382     7.0123     5.9736
  199.5000   146.0365     7.0123     5.9734
  199.6000   146.6676     6.9732     5.9733
  199.7000   147.3271     6.9338     5.9731
  199.8000   147.7825     6.8947     5.9730
  199.9000   147.4794     6.8558     5.9952
  200.0000   146.2072     6.8171     6.0148
  200.1000   144.6742     6.7488     6.0147
  200.2000   143.1413     6.6805     6.0145
  200.3000   141.6084     6.6122     6.0143
  200.4000   140.0754     6.5439     6.0141
  200.5000   139.0116     6.4756     6.0140
  200.6000   138.5188     6.4073     6.0138
  200.7000   138.0110     6.3390     6.0000
  200.8000   137.5331     6.2707     5.9713
  200.9000   137.0404     6.2025     5.9711
  201.0000   136.5477     6.1342     5.9396
  201.1000   136.1157     6.0659     5.9057
  201.2000   135.8705     5.9976     5.8721
  201.3000   135.8699     5.9163     5.8316
  201.4000   135.8693     5.8889     5.7635
  201.5000   135.8687     5.8551     5.6999
  201.6000   135.9382     5.8216     5.6119
  201.7000   136.1837     5.7882     5.5167
  201.8000   136.4774     5.7504     5.4229
  201.9000   136.6745     5.7502     5.3301
