~VERSION INFORMATION
 VERS.                2.0:   CWLS LOG ASCII STANDARD - VERSION 2.0
 WRAP.                 NO:   ONE LINE PER DEPTH STEP
~WELL INFORMATION
#MNEM.UNIT      DATA TYPE    INFORMATION
#----------   ------------   ------------------------------
 STRT.F           40.0000:   START DEPTH
 STOP.F         3444.0000:   STOP DEPTH
 STEP.F            0.5000:   STEP LENGTH
 NULL.          -999.2500:   NO VALUE
 COMP.    FENIX & SCISSON:   COMPANY
 WELL.     13-A-10 #13-10:   WELL
 FLD .            WILDCAT:   FIELD
 LOC .      S10 T38N R78W:   LOCATION
 CNTY.            NATRONA:   COUNTY
 STAT.            WYOMING:   STATE
 CTRY. UNITED STATES OF AMERICA:   COUNTRY
 SRVC.       Schlumberger:   SERVICE COMPANY
 DATE.        08-JUL-1970:   LOGDATE
 API .       490251090300:   API NUMBER
~CURVE INFORMATION
#MNEM.UNIT       API CODE    CURVE DESCRIPTION
#----------   ------------   ------------------------------
 DEPT.F                  :   
 ASN .OHMM   05 041 16 00:   AMPLIFIED SHORT NORMAL 16"
 CILD.MMHO   05 110 46 00:   CONDUCTIVITY INDUCTION LOG DEEP
 ILD .OHMM   05 120 46 00:   INDUCTION LOG DEEP
 SPR .MV     05 010 01 00:   SPONTANEOUS POTENTIAL FROM RES.
 CALD.IN     45 280 60 00:   CALIPER FROM DENSITY
 CORR.G/C3   45 356 01 00:   DENSITY CORRECTION
 DPHI.DEC    45 890 12 00:   DENSITY POROSITY SANDSTONE
 RHOB.G/C3   45 350 01 00:   BULK DENSITY
~PARAMETER INFORMATION
#MNEM.UNIT          VALUE    DESCRIPTION
#----------   ------------   ------------------------------
 PD  .                 GL:   PERMANENT DATUM
 EPD .F              5295:   ELEVATION PERMANENT DATUM
 LMF .                 KB:   LOG MEASURED FROM
 DAPD.F                10:   FEET ABOVE PERMANENT DATUM
 DMF .                 KB:   DRILLING MEASURED FROM
 EKB .F              5305:   KELLING BUSHING
 EGL .F              5295:   GROUND LEVEL
 DATE.        08-JUL-1970:   RUN DATE
 RUN .                  3:   RUN NUMBER
 DD  .F              3450:   DEPTH DRILLER
 DL  .F              3444:   DEPTH LOGGER
 BLI .F              3443:   BOTTOM LOG INTERVAL
 TLI .F              2950:   TOP LOG INTERVAL
 CS  .IN            10.75:   CASING SIZE
 CBD .F               842:   CASING BOTTOM DRILLER
 BS  .IN                9:   BIT SIZE
 BSD .F              3450:   BIT SIZE AT DEPTH
 DFT .      FRESH GEL MUD:   DRILLING FLUID TYPE
 DFD .               10.4:   DRILLING FLUID DENSITY
 DFV .                 43:   DRILLING FLUID VISCOSITY
 DFPH.                7.6:   DRILLING FLUID PH
 DFL .                  8:   DRILLING FLUID LOSS
 MSS .           FLOWLINE:   MUD SAMPLE SOURCE
 RMS .OHMM              2:   RESISTIVITY MUD SAMPLE
 MST .F                85:   MUD SAMPLE TEMPERATURE
 RMF .OHMM            1.6:   RESISTIVITY MUD FILTRATE SAMPLE
 MFST.F                85:   MUD FILTRATE SAMPLE TEMPERATURE
 MFSS.               MEAS:   MUD FILTRATE SAMPLE SOURCE
 RMB .OHMM           1.49:   RESISTIVITY MUD AT BHT
 BHT .F               114:   BOTTOM HOLE TEMPERATURE
 TCS .HRS               3:   TIME CURCULATED STOPPED
 MRT .F               114:   MAXIMUM RECORDED TEMPERATURE
 LUN .               4507:   LOGGING UNIT NUMBER
 LUL .               CSPR:   LOGGING UNIT LOCATION
 ENGI.             TURNER:   RECORDING ENGINEER
 WITN.                MAY:   WITNESSED BY
 CLNT.            A2DTECH:   CLIENT CODE
 ORIG.     2.5", 5" PRINT:   ORIGIN OF DATA
 UWI .       490251090300:   UNIQUE WELL ID
 DICO. A2D Technologies, Inc.:   DIGITIZING COMPANY
~OTHER INFORMATION
~A   DEPT        ASN      CILD         ILD      SPR       CALD       CORR       DPHI       RHOB   
# ...
 3199.0000     6.4576   217.2180     5.8637   -24.6878    10.0521     0.0135     0.0738     2.5286
 3199.5000     6.8174   184.5019     6.3589   -24.6951    10.0365     0.0375     0.0633     2.5504
 3200.0000     7.0871   163.9720     6.7801   -24.7024    10.0361     0.0120     0.0850     2.5361
 3200.5000     7.2702   155.4876     7.1673   -24.9124    10.0206     0.0130     0.0811     2.5135
 3201.0000     7.4924   145.9178     7.6024   -25.1224    10.0051     0.0000     0.0841     2.5151
 3201.5000     7.9837   135.5401     7.8965   -25.3200     9.9745     0.0068     0.0815     2.5143
 3202.0000     9.0539   122.1862     8.3399   -25.3274     9.9590     0.0090     0.0750     2.5226
 3202.5000    11.2801   107.3442     8.6340   -25.3349     9.9285     0.0135     0.0645     2.5350
 3203.0000    13.5090    95.4784     9.0774   -25.3423     9.8978     0.0053     0.0465     2.5640
 3203.5000    17.2620    88.0769    10.7148   -25.3497     9.8823    -0.0015     0.0474     2.5715
 3204.0000    18.3123    77.6992    13.5462   -25.3571     9.8518    -0.0023     0.0492     2.5692
 3204.5000    18.3116    68.8096    14.8967   -25.3646     9.8212    -0.0008     0.0504     2.5662
 3205.0000    18.1558    61.4081    15.4976   -25.3720     9.7906     0.0030     0.0528     2.5632
 3205.5000    17.8278    63.0415    15.4573   -25.3794     9.7450    -0.0023     0.0564     2.5586
 3206.0000    17.0761    67.7573    14.9772   -25.2381     9.7294    -0.0015     0.0531     2.5565
 3206.5000    16.2917    72.3709    14.3916   -25.0968     9.6989     0.0092     0.0468     2.5708
 3207.0000    15.7012    76.4484    14.0825   -25.1042     9.6683     0.0248     0.0349     2.5903
 3207.5000    15.1539    76.4881    13.7337   -24.8154     9.6528     0.0195     0.0287     2.6009
 3208.0000    15.1151    78.0158    13.1662   -24.8226     9.6373     0.0128     0.0338     2.6017
 3208.5000    15.0023    81.4637    12.6045   -24.5312     9.6218     0.0053     0.0522     2.5764
 3209.0000    14.8514    85.0190    11.8933   -24.2420     9.6063    -0.0060     0.0597     2.5558
 3209.5000    14.6460    89.0920    11.4295   -24.2493     9.6058    -0.0022     0.0606     2.5505
 3210.0000    14.4894    92.1627    10.9653   -24.2566     9.6054     0.0008     0.0540     2.5588
 3210.5000    14.1830    95.2327    10.5030   -23.9658     9.5899     0.0128     0.0492     2.5611
 3211.0000    13.7263    96.1111    10.2000   -24.2711     9.5894     0.0210     0.0474     2.5723
 3211.5000    13.1164    97.6389    10.0463   -23.9808     9.5889     0.0052     0.0600     2.5632
 3212.0000    12.4304    99.1666    10.0410   -23.9881     9.5885     0.0197     0.0504     2.5543
 3212.5000    12.0558   100.0747    10.1865   -23.9956     9.5881     0.0165     0.0374     2.5874
 3213.0000    12.1427   100.7415    10.4800   -24.0030     9.5876     0.0120     0.0368     2.5889
 3213.5000    12.7424    97.8043    10.9233   -24.0104     9.5872     0.0210     0.0444     2.5814
 3214.0000    13.0419    93.3790    11.2174   -24.0179     9.5868     0.0300     0.0401     2.5754
 3214.5000    13.3415    90.4418    11.3623   -24.0253     9.5862     0.0165     0.0468     2.5785
 3215.0000    13.4909    86.0164    11.3579   -24.0327     9.5858     0.0218     0.0377     2.5769
 3215.5000    14.0908    86.0554    11.3535   -24.0402     9.5703     0.0300     0.0299     2.6010
 3216.0000    14.2403    87.5825    11.3491   -23.9484     9.5548     0.0150     0.0311     2.6017
 3216.5000    14.0893    89.1096    11.1955   -23.7561     9.5543     0.0058     0.0414     2.5867
 3217.0000    13.7883    89.1485    11.0377   -23.7649     9.5389     0.0113     0.0414     2.5784
 3217.5000    13.3371    90.6756    10.7389   -23.7724     9.5384     0.0105     0.0511     2.5800
 3218.0000    13.0360    90.7145    10.7344   -23.7798     9.5379     0.0098     0.0603     2.5511
 3218.5000    13.0353    90.7880    10.7299   -23.7872     9.5374     0.0105     0.0543     2.5604
 3219.0000    13.1938    92.2818    10.7532   -23.7947     9.5370     0.0150     0.0486     2.5672
 3219.5000    13.6344    92.3215    10.9040   -24.1011     9.5517     0.0218     0.0398     2.5815
 3220.0000    13.6336    90.8704    11.0548   -24.1084     9.5512     0.0165     0.0552     2.5762
 3220.5000    13.4572    89.1726    11.3096   -23.8180     9.5508     0.0045     0.0591     2.5544
 3221.0000    13.3318    87.6685    11.5055   -23.8253     9.5503     0.0030     0.0600     2.5514
 3221.5000    13.3677    85.0350    11.6564   -23.8326     9.5498     0.0218     0.0564     2.5612
 3222.0000    14.0149    83.5858    11.9562   -23.8399     9.5343     0.0286     0.0438     2.5755
 3222.5000    14.6260    83.1591    12.1866   -23.8472     9.5188     0.0338     0.0359     2.5861
 3223.0000    15.1837    82.1757    12.4069   -23.5569     9.5033     0.0375     0.0281     2.5951
 3223.5000    15.6389    81.6409    12.7070   -23.5641     9.5028     0.0353     0.0288     2.6019
 3224.0000    15.9439    79.2857    12.8577   -23.2738     9.5024     0.0158     0.0462     2.5920
 3224.5000    16.1794    77.1473    13.0642   -22.9835     9.5170     0.0195     0.0480     2.5695
 3225.0000    16.0285    75.6449    12.9097   -22.9911     9.5165     0.0158     0.0423     2.5771
 3225.5000    15.7970    74.9405    12.1591   -22.9985     9.5161     0.0083     0.0353     2.5891
 3226.0000    15.5545    85.4146     9.7666   -23.0059     9.5156     0.0023     0.0311     2.5966
 3226.5000    14.6748   103.3012     9.0160   -23.0134     9.5304     0.0060     0.0287     2.6012
 3227.0000    12.7221   113.7569     8.4145   -23.0208     9.5298     0.0045     0.0376     2.5982
 3227.5000    10.7694   119.7482     7.8131   -23.0283     9.5444     0.0120     0.0582     2.5720
 3228.0000    10.0182   127.2277     7.2117   -23.0357     9.5439     0.0120     0.0675     2.5425
 3228.5000     9.4168   134.7071     6.9088   -23.0432     9.5586     0.0128     0.0666     2.5403
 3229.0000     8.8941   145.1628     6.6059   -23.0506     9.5732     0.0240     0.0642     2.5425
 3229.5000     8.7496   151.1541     6.4482   -23.0581     9.5727     0.0315     0.0600     2.5478
 3230.0000     8.6817   155.6573     6.2886   -23.3631     9.5723     0.0113     0.0612     2.5501
 3230.5000     8.5444   157.1844     6.1448   -23.3706     9.5718     0.0030     0.0588     2.5493
 3231.0000     8.2990   160.1996     6.1403   -23.3780     9.5714    -0.0075     0.0696     2.5388
 3231.5000     7.9056   160.2386     6.1636   -23.3868     9.5709    -0.0120     0.0811     2.5178
 3232.0000     7.5483   160.2775     6.2811   -23.3941     9.5704    -0.0090     0.0792     2.5185
 3232.5000     7.4887   158.8284     6.2761   -23.4014     9.5700    -0.0038     0.0762     2.5230
 3233.0000     7.5733   158.7389     6.2716   -23.4086     9.5695     0.0025     0.0792     2.5200
 3233.5000     7.7686   157.4182     6.2671   -23.1183     9.5691     0.0098     0.0753     2.5262
 3234.0000     7.9814   157.4603     6.2626   -23.1256     9.5687     0.0045     0.0708     2.5321
 3234.5000     8.0704   157.5000     6.2582   -23.1329     9.5682     0.0030     0.0654     2.5396
 3235.0000     7.8974   157.1920     6.2538   -23.1402     9.5677    -0.0045     0.0636     2.5434
 3235.5000     7.4841   156.0860     6.1000   -23.1475     9.5823    -0.0014     0.0792     2.5208
 3236.0000     7.2131   157.6191     6.0955   -23.1548     9.5819     0.0128     0.0712     2.5238
 3236.5000     7.1223   158.6794     6.0035   -23.1623     9.5814     0.0120     0.0648     2.5396
 3237.0000     7.0615   162.7283     5.7872   -23.1696     9.5810     0.0023     0.0651     2.5427
 3237.5000     7.0607   165.7984     5.7829   -22.8790     9.5956     0.0045     0.0679     2.5359
 3238.0000     7.0600   170.3571     5.6292   -22.8869     9.5952     0.0120     0.0708     2.5329
 3238.5000     6.9992   173.4276     5.4756   -22.8944     9.5947     0.0120     0.0654     2.5412
 3239.0000     6.9084   176.4983     5.3219   -22.9018     9.5942     0.0165     0.0597     2.5487
