~VERSION INFORMATION
 VERS.                2.0:   CWLS LOG ASCII STANDARD - VERSION 2.0
 WRAP.                 NO:   ONE LINE PER DEPTH STEP
~WELL INFORMATION
#MNEM.UNIT      DATA TYPE    INFORMATION
#----------   ------------   ------------------------------
 STRT.F            0.0000:   START DEPTH
 STOP.F          562.0000:   STOP DEPTH
 STEP.F            0.1000:   STEP LENGTH
 NULL.          -999.2500:   NO VALUE
 COMP. BROWN JOHN E&C INC:   COMPANY
 WELL.    73-1 SX-3 #73-3:   WELL
 FLD .             TEAPOT:   FIELD
 LOC .       S3 T38N R78W:   LOCATION
 CNTY.            NATRONA:   COUNTY
 STAT.            WYOMING:   STATE
 CTRY. UNITED STATES OF AMERICA:   COUNTRY
 SRVC.      Western Atlas:   SERVICE COMPANY
 DATE.        23-APR-1992:   LOGDATE
 API .       490252251200:   API NUMBER
~CURVE INFORMATION
#MNEM.UNIT       API CODE    CURVE DESCRIPTION
#----------   ------------   ------------------------------
 DEPT.F                  :   
 GRR .GAPI   07 310 01 00:   GAMMA RAY
 RILD.OHMM   07 120 46 00:   INDUCTION LOG DEEP RESISTIVITY
 RILM.OHMM   07 120 44 00:   INDUCTION LOG MEDIUM RESISTIVITY
 CILD.MMHO   07 110 46 00:   CONDUCTIVITY INDUCTION LOG DEEP
~PARAMETER INFORMATION
#MNEM.UNIT          VALUE    DESCRIPTION
#----------   ------------   ------------------------------
 PD  .                 GL:   PERMANENT DATUM
 EPD .F              5164:   ELEVATION PERMANENT DATUM
 LMF .                 KB:   LOG MEASURED FROM
 DAPD.F                 5:   FEET ABOVE PERMANENT DATUM
 DMF .                 KB:   DRILLING MEASURED FROM
 EKB .F              5169:   KELLING BUSHING
 EDF .F              5168:   DRILLING FLOOR
 EGL .F              5164:   GROUND LEVEL
 DATE.        23-APR-1992:   RUN DATE
 RUN .                  1:   RUN NUMBER
 DD  .F               561:   DEPTH DRILLER
 DL  .F               564:   DEPTH LOGGER
 BLI .F               562:   BOTTOM LOG INTERVAL
 CS  .IN            8.625:   CASING SIZE
 CBD .F                48:   CASING BOTTOM DRILLER
 CBL .F                49:   CASING BOTTOM LOGGER
 BS  .IN            7.875:   BIT SIZE
 BSD .F               561:   BIT SIZE AT DEPTH
 DFT .                AIR:   DRILLING FLUID TYPE
 TCS .HRS               2:   TIME CURCULATED STOPPED
 LUN .           HL- 6272:   LOGGING UNIT NUMBER
 LUL .             CASPER:   LOGGING UNIT LOCATION
 ENGI.            LEBSOCK:   RECORDING ENGINEER
 WITN.        GARY STRONG:   WITNESSED BY
 CLNT.            A2DTECH:   CLIENT CODE
 ORIG.       2", 5" PRINT:   ORIGIN OF DATA
 UWI .       490252251200:   UNIQUE WELL ID
 DICO. A2D Technologies, Inc.:   DIGITIZING COMPANY
~OTHER INFORMATION
~A    DEPT      GRR      RILD       RILM       CILD   
# ...
  146.0000   140.4859     7.0322     7.3945   139.7285
  146.1000   140.8175     7.0754     7.4363   139.7295
  146.2000   141.1574     7.0753     7.4815   139.7305
  146.3000   141.6437     7.1285     7.5204   139.2477
  146.4000   142.1687     7.1917     7.5629   138.7590
  146.5000   142.6165     7.2247     7.6056   138.2253
  146.6000   143.1027     7.2246     7.6485   137.7816
  146.7000   143.5891     7.2628     7.6927   137.2928
  146.8000   144.0258     7.2749     7.7351   136.7201
  146.9000   144.2771     7.3125     7.7788   136.5183
  147.0000   144.2771     7.3859     7.8450   136.2745
  147.1000   144.2771     7.4285     7.9219   136.0308
  147.2000   144.2771     7.4284     7.9666   135.7869
  147.3000   144.1554     7.4590     8.0116   135.5431
  147.4000   143.6718     7.4802     8.1296   135.2992
  147.5000   143.4287     7.4906     8.1904   134.8921
  147.6000   143.1856     7.5327     8.2051   134.4034
  147.7000   143.0723     7.5750     8.2475   133.9146
  147.8000   142.9284     7.6176     8.2473   133.5697
  147.9000   142.4699     7.6379     8.2867   133.3259
  148.0000   142.4699     7.6499     8.3049   133.0820
  148.1000   142.2709     7.6929     8.3223   132.7140
  148.2000   142.0277     7.7362     8.3693   132.2253
  148.3000   141.7846     7.7797     8.4212   131.7366
  148.4000   141.5415     7.8234     8.4211   131.2479
  148.5000   141.2651     7.8534     8.4527   130.7592
  148.6000   141.0551     7.8565     8.4798   130.2705
  148.7000   140.6600     7.9082     8.4980   129.8668
  148.8000   140.0797     7.9825     8.5988   129.6229
  148.9000   139.3138     8.0458     8.6451   129.3790
  149.0000   138.2530     8.0910     8.6939   129.0698
  149.1000   137.3684     8.1364     8.7192   128.5811
  149.2000   136.3958     8.1884     8.7432   128.0924
  149.3000   135.2133     8.2282     8.8418   127.6495
  149.4000   133.7545     8.2745     8.8919   127.4057
  149.5000   132.2289     8.3210     8.9032   127.1618
  149.6000   130.6038     8.3677     8.9300   126.8918
  149.7000   129.0761     8.4196     8.9804   126.4031
  149.8000   125.6441     8.5050     9.0310   125.9144
  149.9000   120.7464     8.5692     9.0910   125.4124
  150.0000   118.0723     8.5973     9.1333   124.4341
  150.1000   118.3137     8.6139     9.1849   123.4557
  150.2000   118.5550     8.7179     9.2367   122.4254
  150.3000   118.7964     8.7635     9.2888   121.4992
  150.4000   119.0377     8.8128     9.3476   120.5211
  150.5000   119.2791     8.8623     9.3939   119.4119
  150.6000   119.5205     8.9121     9.4128   118.7766
  150.7000   119.7618     8.9640     9.4343   118.0430
  150.8000   120.0032     9.0126     9.4785   117.3094
  150.9000   121.4397     9.0265     9.4783   116.3834
  151.0000   125.3533     9.0264     9.5282   115.4051
  151.1000   126.4926     9.0263     9.5820   114.4267
  151.2000   127.4920     9.0262     9.6361   114.1398
  151.3000   128.4205     9.0260     9.6783   114.1408
  151.4000   129.1469     9.0259     9.6782   114.1418
  151.5000   129.8252     8.9998     9.6780   114.1428
  151.6000   130.1010     8.9492     9.6779   114.1438
  151.7000   129.8919     8.9004     9.6778   114.1448
  151.8000   129.6482     9.0359     9.6777   114.1458
  151.9000   129.3137     8.9501     9.6775   114.1468
  152.0000   128.6353     8.9026     9.6773   114.1478
  152.1000   126.4806     8.9026     9.7212   114.1488
  152.2000   120.8618     8.8627     9.7138   114.1498
  152.3000   116.4436     8.8407     9.6237   114.1508
  152.4000   113.5398     8.8255     9.4618   114.2463
  152.5000   111.1935     8.7792     9.2799   114.4922
  152.6000   107.7999     8.7792     9.1908   114.7381
  152.7000   105.5579     8.7792     9.1193   114.9090
  152.8000   102.9662     8.7513     9.0484   114.9100
  152.9000   100.7236     8.7024     8.9539   114.9110
  153.0000    99.1202     8.6539     8.8988   114.9674
  153.1000    97.8542     8.5973     8.8532   115.2132
  153.2000    97.6210     8.5973     8.7701   115.4590
  153.3000    97.3771     8.5694     8.6928   115.7406
  153.4000    97.3632     8.5375     8.6437   116.2314
  153.5000    97.7170     8.5334     8.5931   116.7221
  153.6000    98.4506     8.4782     8.5930   117.1805
  153.7000    99.4097     8.4782     8.5229   117.1815
  153.8000   100.5607     8.4501     8.4737   117.1825
  153.9000   102.1414     8.4029     8.4736   117.1835
  154.0000   104.0162     8.3607     8.4735   117.4259
  154.1000   105.7181     8.3607     8.4733   117.6718
  154.2000   107.6586     8.3210     8.4360   117.9408
  154.3000   109.2187     8.3026     8.4142   118.3853
  154.4000   110.8035     8.2860     8.4141   118.8758
  154.5000   112.6444     8.2448     8.4140   119.4522
  154.6000   114.8530     8.2448     8.4138   119.8570
  154.7000   118.0154     8.1656     8.4137   120.3477
  154.8000   119.9910     8.1306     8.4136   120.8385
  154.9000   122.2759     8.1137     8.4306   121.1468
  155.0000   124.2968     8.0740     8.4723   121.3926
  155.1000   125.9935     8.0740     8.4721   121.6384
  155.2000   127.9492     8.0740     8.4720   122.0471
  155.3000   129.1821     8.0740     8.5031   122.5378
  155.4000   130.3421     8.0567     8.5511   123.0286
  155.5000   131.3110     8.0179     8.5907   123.3760
  155.6000   132.2207     8.0179     8.5906   123.6219
  155.7000   132.7625     8.0179     8.6362   123.8677
  155.8000   133.6160     8.0179     8.6505   123.8663
  155.9000   134.4300     8.0179     8.6733   123.6224
  156.0000   135.2530     8.0246     8.7109   123.3786
  156.1000   136.2225     8.0740     8.7107   123.0307
  156.2000   137.2746     8.0740     8.7106   122.5420
  156.3000   137.9385     8.0740     8.7105   122.0533
  156.4000   138.6648     8.0926     8.6575   121.5646
  156.5000   139.2870     8.1306     8.6575   121.0759
  156.6000   139.7711     8.1306     8.6953   120.5872
  156.7000   140.2807     8.1723     8.7438   120.2283
  156.8000   140.2796     8.2182     8.7926   120.2293
  156.9000   140.1072     8.2448     8.8417   120.2303
  157.0000   139.8634     8.2529     8.8910   120.1407
  157.1000   139.5659     8.3026     8.9026   119.6520
  157.2000   139.0699     8.3026     8.9026   119.1633
  157.3000   138.5933     8.3343     8.9026   118.7259
  157.4000   137.9277     8.3607     8.9027   118.7270
  157.5000   137.0781     8.3783     8.9524   118.7280
  157.6000   135.9831     8.4782     8.9649   118.7290
  157.7000   134.5237     8.5229     8.9649   118.7300
  157.8000   132.8235     8.5375     8.9649   118.7310
  157.9000   131.1244     8.5589     8.9649   118.7321
  158.0000   129.8112     8.5973     8.9649   118.9644
  158.1000   128.9097     8.5973     8.9649   119.2103
  158.2000   128.2033     8.5973     8.9649   119.4893
  158.3000   127.9118     8.5973     8.9649   119.4902
  158.4000   127.7156     8.5973     8.9649   119.4912
  158.5000   127.7450     8.5871     8.9649   119.4922
  158.6000   127.9863     8.5375     8.9649   119.6852
  158.7000   128.2468     8.5375     8.9649   119.9310
  158.8000   128.8094     8.5375     8.9649   120.1769
  158.9000   129.4182     8.5151     8.9649   120.2504
  159.0000   130.2890     8.4676     8.9649   120.2514
  159.1000   131.2581     8.4192     8.9649   120.2524
  159.2000   132.2550     8.3733     8.9428   120.4062
  159.3000   133.6227     8.3607     8.9026   120.6520
  159.4000   134.4666     8.3607     8.9026   120.8979
  159.5000   135.2833     8.3497     8.9026   121.0106
  159.6000   135.8218     8.3026     8.9026   121.0116
  159.7000   136.0279     8.3026     8.9026   121.0126
  159.8000   136.0264     8.3026     8.8940   121.0136
  159.9000   136.0253     8.3026     8.8407   121.0146
  160.0000   136.0241     8.3026     8.7956   121.0156
  160.1000   135.9210     8.3026     8.7468   121.0166
  160.2000   135.5903     8.3026     8.7181   121.0176
  160.3000   134.8156     8.3026     8.7181   121.0186
  160.4000   134.1328     8.3026     8.7181   121.0196
  160.5000   133.4036     8.3026     8.6745   121.0206
