~VERSION INFORMATION
 VERS.                2.0:   CWLS LOG ASCII STANDARD - VERSION 2.0
 WRAP.                 NO:   ONE LINE PER DEPTH STEP
~WELL INFORMATION
#MNEM.UNIT      DATA TYPE    INFORMATION
#----------   ------------   ------------------------------
 STRT.F          502.0000:   START DEPTH
 STOP.F         5661.0000:   STOP DEPTH
 STEP.F            0.5000:   STEP LENGTH
 NULL.          -999.2500:   NO VALUE
 COMP. FENIX & SCISSON INC:   COMPANY
 WELL.   NPR 3 #32DX22-22:   WELL
 FLD .             TEAPOT:   FIELD
 LOC .      S22 T38N R78W:   LOCATION
 CNTY.            NATRONA:   COUNTY
 STAT.            WYOMING:   STATE
 CTRY. UNITED STATES OF AMERICA:   COUNTRY
 SRVC.       Schlumberger:   SERVICE COMPANY
 DATE.        29-NOV-1978:   LOGDATE
 API .       490251073100:   API NUMBER
~CURVE INFORMATION
#MNEM.UNIT       API CODE    CURVE DESCRIPTION
#----------   ------------   ------------------------------
 DEPT.F                  :   
 SPR .MV     07 010 01 00:   SPONTANEOUS POTENTIAL
 GRR .GAPI   07 310 01 00:   GAMMA RAY FROM RES. LOG.
 SFL .OHMM   07 220 01 00:   SHALLOW FOCUSED LOG RESISTIVITY
 ILD .OHMM   07 120 46 00:   INDUCTION LOG DEEP
 ILM .OHMM   07 120 44 00:   INDUCTION LOG MEDIUM
 NPHI.DEC    42 890 03 00:   NEUTRON POROSITY SANDSTONE
 DPHI.DEC    45 890 12 00:   DENSITY POROSITY SANDSTONE
 RHOB.G/C3   45 350 01 00:   BULK DENSITY
 CORR.G/C3   45 356 01 00:   DENSITY CORRECTION
 CALD.IN     45 280 60 00:   CALIPER
~PARAMETER INFORMATION
#MNEM.UNIT          VALUE    DESCRIPTION
#----------   ------------   ------------------------------
 PD  .                 GL:   PERMANENT DATUM
 EPD .F              5514:   ELEVATION PERMANENT DATUM
 LMF .                 KB:   LOG MEASURED FROM
 DAPD.F                10:   FEET ABOVE PERMANENT DATUM
 DMF .                 KB:   DRILLING MEASURED FROM
 EKB .F              5524:   KELLING BUSHING
 EGL .F              5514:   GROUND LEVEL
 DATE.           11-29-78:   RUN DATE
 RUN .                  1:   RUN NUMBER
 DD  .F              5680:   DEPTH DRILLER
 DL  .F              5667:   DEPTH LOGGER
 BLI .F              5661:   BOTTOM LOG INTERVAL
 TLI .F               530:   TOP LOG INTERVAL
 CS  .IN            8.625:   CASING SIZE
 CBD .F               513:   CASING BOTTOM DRILLER
 CBL .F               530:   CASING BOTTOM LOGGER
 BS  .IN            7.875:   BIT SIZE
 BSD .F              5680:   BIT SIZE AT DEPTH
 DFT .                FGM:   DRILLING FLUID TYPE
 DFD .                9.2:   DRILLING FLUID DENSITY
 DFV .                 50:   DRILLING FLUID VISCOSITY
 DFPH.               11.5:   DRILLING FLUID PH
 DFL .                6.8:   DRILLING FLUID LOSS
 MSS .               TANK:   MUD SAMPLE SOURCE
 RMS .OHMM           1.45:   RESISTIVITY MUD SAMPLE
 MST .F                56:   MUD SAMPLE TEMPERATURE
 RMF .OHMM           1.16:   RESISTIVITY MUD FILTRATE SAMPLE
 MFST.F                56:   MUD FILTRATE SAMPLE TEMPERATURE
 MFSS.               MEAS:   MUD FILTRATE SAMPLE SOURCE
 RMB .OHMM            .62:   RESISTIVITY MUD AT BHT
 BHT .F               132:   BOTTOM HOLE TEMPERATURE
 TCS .HRS            0700:   TIME CURCULATED STOPPED
 TLAB.HRS            1200:   TIME LOGGER AT BOTTOM
 MRT .F               132:   MAXIMUM RECORDED TEMPERATURE
 LUN .               8039:   LOGGING UNIT NUMBER
 LUL .               CSPR:   LOGGING UNIT LOCATION
 ENGI.           STADULIS:   RECORDING ENGINEER
 WITN.           DINSMORE:   WITNESSED BY
 CLNT.            A2DTECH:   CLIENT CODE
 ORIG.       2", 5" PRINT:   ORIGIN OF DATA
 UWI .       490251073100:   UNIQUE WELL ID
 DICO. A2D Technologies, Inc.:   DIGITIZING COMPANY
~OTHER INFORMATION
~A   DEPT      SPR         GRR       SFL        ILD        ILM       NPHI       DPHI       RHOB       CORR       CALD   
# ...
 5627.5000   -37.3999    61.7896    17.4329    11.1520    11.9705     0.1140     0.0262     2.6293     0.0359     7.9859
 5628.0000   -37.6391    60.7135    18.0785     9.9836    10.5959     0.1106     0.0088     2.6459     0.0556     7.9876
 5628.5000   -37.8775    74.2809    13.5481     9.0106     9.4476     0.1353     0.0014     2.6300     0.0662     7.9893
 5629.0000   -38.1162    94.2261    10.6084     8.3630     8.5927     0.1603     0.0125     2.6090     0.0624     7.9910
 5629.5000   -38.3550   114.1487     9.3048     7.7620     7.9335     0.1852     0.0220     2.5942     0.0537     7.9927
 5630.0000   -38.5941   128.0901     9.0794     7.2041     7.3662     0.2030     0.0315     2.5808     0.0431     7.9940
 5630.5000   -38.8446   137.7559     8.9964     6.8206     6.8955     0.2046     0.0409     2.5673     0.0355     7.9939
 5631.0000   -38.6631   136.7363     8.4368     6.6462     6.8000     0.2074     0.0485     2.5684     0.0337     7.9939
 5631.5000   -38.3671   133.8983     7.9841     6.4640     6.7365     0.2113     0.0515     2.5823     0.0370     7.9939
 5632.0000   -38.0686   132.8490     8.4255     6.2612     6.4832     0.2139     0.0410     2.5999     0.0397     7.9939
 5632.5000   -37.7702   133.7444     8.5927     6.1739     6.2892     0.2143     0.0297     2.5990     0.0344     7.9939
 5633.0000   -37.4810   135.6323     8.3779     6.1739     6.3498     0.2169     0.0288     2.5864     0.0250     7.9939
 5633.5000   -37.4048   137.4006     8.0933     6.1739     6.4006     0.2196     0.0351     2.5775     0.0208     7.9939
 5634.0000   -37.3377   137.6016     7.7179     6.1272     6.4640     0.2220     0.0411     2.5875     0.0214     7.9939
 5634.5000   -37.2695   137.7625     7.5561     5.9946     6.3785     0.2188     0.0431     2.6034     0.0270     7.9939
 5635.0000   -37.2005   137.9087     7.9457     5.8530     6.2698     0.2130     0.0299     2.6195     0.0294     7.9939
 5635.5000   -37.1295   137.3745     8.2377     5.6796     6.1170     0.2072     0.0205     2.6271     0.0313     7.9978
 5636.0000   -37.0865   133.7787     8.4363     5.3290     5.5916     0.2014     0.0126     2.6219     0.0358     8.0244
 5636.5000   -37.4065   130.1185     7.7173     4.9328     5.1112     0.1994     0.0153     2.6035     0.0441     8.0516
 5637.0000   -37.7191   128.7206     6.4238     4.6664     4.7192     0.2048     0.0233     2.5853     0.0507     8.0901
 5637.5000   -38.0277   129.4028     5.3472     4.4360     4.4975     0.2263     0.0336     2.5764     0.0474     8.0957
 5638.0000   -38.3378   130.9858     4.7090     4.2169     4.2862     0.2544     0.0432     2.5679     0.0342     8.0993
 5638.5000   -38.4450   132.6781     4.6447     4.0237     4.0983     0.2812     0.0486     2.5592     0.0201     8.1228
 5639.0000   -38.3778   134.3722     4.5599     3.9023     3.9747     0.2990     0.0537     2.5608     0.0178     8.1258
 5639.5000   -38.3053   134.4064     4.6606     3.7949     3.8652     0.3062     0.0553     2.5754     0.0224     8.1046
 5640.0000   -38.3433   131.5069     4.8174     3.8448     3.9104     0.3005     0.0460     2.5905     0.0309     8.0833
 5640.5000   -38.4283   129.4978     4.9810     3.8914     3.9525     0.2978     0.0339     2.5909     0.0293     8.0782
 5641.0000   -38.4197   129.7299     5.1061     3.9419     3.9949     0.2950     0.0358     2.5867     0.0273     8.0833
 5641.5000   -38.2446   131.0912     5.1825     3.9940     4.0770     0.2905     0.0375     2.5843     0.0254     8.0886
 5642.0000   -38.0551   132.5014     5.2574     4.0956     4.1822     0.2857     0.0392     2.5824     0.0235     8.0940
 5642.5000   -37.5036   132.0346     5.3333     4.2215     4.2896     0.2809     0.0407     2.5803     0.0248     8.1000
 5643.0000   -36.9683   131.4212     5.4334     4.3514     4.4289     0.2773     0.0424     2.5845     0.0267     8.1062
 5643.5000   -36.5371   131.4612     5.5613     4.4852     4.6135     0.2724     0.0350     2.6019     0.0338     8.1124
 5644.0000   -36.1341   132.4236     5.9075     4.6226     4.8061     0.2664     0.0241     2.6201     0.0412     8.1187
 5644.5000   -35.8545   133.8728     6.2980     4.8287     5.0068     0.2603     0.0124     2.6367     0.0487     8.1250
 5645.0000   -35.8591   135.7942     6.7059     5.0983     5.2547     0.2535     0.0056     2.6458     0.0560     8.1316
 5645.5000   -35.8588   136.9259     6.8214     5.3838     5.5433     0.2460    -0.0018     2.6504     0.0630     8.1332
 5646.0000   -35.8208   136.2247     6.8931     5.6835     5.8614     0.2386     0.0010     2.6436     0.0619     8.0787
 5646.5000   -35.7652   135.6257     7.7488     5.9538     6.1999     0.2253     0.0098     2.6246     0.0418     8.0247
 5647.0000   -35.7065   135.6241     8.8040     5.9697     6.4543     0.2095     0.0206     2.6067     0.0232     7.9770
 5647.5000   -35.6719   135.5119    10.0039     5.9857     6.7059     0.1934     0.0315     2.5932     0.0093     7.9930
 5648.0000   -36.0457   133.1224    10.5164     6.0062     6.4127     0.1856     0.0386     2.5814     0.0044     7.9939
 5648.5000   -36.4236   130.6492     9.5176     5.9146     6.0327     0.1823     0.0444     2.5773     0.0081     7.9940
 5649.0000   -36.8041  -999.2500     7.8857     5.7899     5.9020     0.1801     0.0441     2.5767     0.0141     7.9939
 5649.5000   -36.8524  -999.2500     6.7374     5.6679     5.8174     0.1786     0.0408     2.5824     0.0213     7.9939
 5650.0000   -36.8119  -999.2500     6.0616     5.5484     5.6936     0.1825     0.0355     2.5885     0.0255     7.9939
 5650.5000   -36.7703  -999.2500     5.8430     5.4315     5.5518     0.1871     0.0331     2.5942     0.0291     7.9939
 5651.0000   -36.7294  -999.2500     6.2417     5.3303     5.4301     0.1869     0.0319     2.5963     0.0287     7.9939
 5651.5000   -36.6930  -999.2500     6.7524     5.3591     5.4604     0.1832     0.0333     2.5948     0.0284     7.9939
 5652.0000   -36.8451  -999.2500     7.3591     5.4291     5.4792     0.1797     0.0356     2.5907     0.0217     7.9939
 5652.5000   -37.2660  -999.2500     8.0578     5.2292     5.4180     0.1785     0.0375     2.5868     0.0174     7.9939
 5653.0000   -37.4344  -999.2500     8.1321     5.2171     5.3707     0.1785     0.0319     2.5935     0.0179     7.9939
 5653.5000   -37.3553  -999.2500     7.6962     5.2050     5.3153     0.1798     0.0242     2.6070     0.0192     7.9939
 5654.0000   -37.2692  -999.2500     6.8067     5.1929     5.2800     0.1811     0.0165     2.6207     0.0228     7.9939
 5654.5000   -37.0280  -999.2500     5.9924     5.1855     5.3878     0.1807     0.0136     2.6263     0.0216     7.9939
 5655.0000   -36.7792  -999.2500     5.6842     5.2816     5.7185     0.1786     0.0115     2.6309     0.0184     7.9939
 5655.5000   -36.5311  -999.2500     5.9904     5.8599     5.9622     0.1765     0.0017     2.6438     0.0152     7.9907
 5656.0000   -36.2832  -999.2500     7.3847     6.5078     6.7802     0.1748    -0.0124     2.6654     0.0121     7.9843
 5656.5000   -36.0351  -999.2500    11.1893     7.2272     7.8868     0.1744    -0.0181     2.6785     0.0093     7.9778
 5657.0000   -35.7871  -999.2500    16.9959     7.8388     9.1741     0.1745    -0.0151     2.6757     0.0122     7.9714
 5657.5000   -35.5374  -999.2500    23.7925     7.9296    10.6134     0.1780    -0.0099     2.6676     0.0153     7.9650
 5658.0000   -35.3849  -999.2500    28.3515     8.0406    11.4450     0.1813    -0.0070     2.6616     0.0166     7.9586
 5658.5000   -35.2669  -999.2500    26.1549     8.0578    11.8478     0.1832    -0.0029     2.6543     0.0166     7.9517
 5659.0000   -35.7236  -999.2500    18.9983     8.0581    12.0695     0.1832     0.0024     2.6437     0.0153     7.9427
 5659.5000   -36.3647  -999.2500    14.9047     8.0552    11.7353     0.1825     0.0050     2.6405     0.0257     7.9336
 5660.0000   -36.8810  -999.2500    13.8519     8.0513    11.2513     0.2155    -0.0066     2.6494     0.0397     7.9245
 5660.5000   -36.8697  -999.2500    13.8519     8.0647    11.0105     0.2581    -0.0062     2.6500     0.0441     7.9154
