~VERSION INFORMATION
 VERS.                2.0:   CWLS LOG ASCII STANDARD - VERSION 2.0
 WRAP.                 NO:   ONE LINE PER DEPTH STEP
~WELL INFORMATION
#MNEM.UNIT      DATA TYPE    INFORMATION
#----------   ------------   ------------------------------
 STRT.F           31.0000:   START DEPTH
 STOP.F          600.0000:   STOP DEPTH
 STEP.F            0.5000:   STEP LENGTH
 NULL.          -999.2500:   NO VALUE
 COMP. FENIX & SCISSON INC:   COMPANY
 WELL.      NPR 3 #84 S-3:   WELL
 FLD .             TEAPOT:   FIELD
 LOC .       S3 T38N R78W:   LOCATION
 CNTY.            NATRONA:   COUNTY
 STAT.            WYOMING:   STATE
 CTRY. UNITED STATES OF AMERICA:   COUNTRY
 SRVC.              Welex:   SERVICE COMPANY
 DATE.        29-MAR-1977:   LOGDATE
 API .       490251032000:   API NUMBER
~CURVE INFORMATION
#MNEM.UNIT       API CODE    CURVE DESCRIPTION
#----------   ------------   ------------------------------
 DEPT.F                  :   
 CALD.IN     45 280 60 00:   CALIPER FROM DENSITY LOG
 GRD .GAPI   45 310 01 00:   GAMMA RAY FROM DENSITY LOG
 CORR.G/C3   45 356 01 00:   DENSITY CORRECTION
 DPHI.DEC    45 890 12 00:   DENSITY POROSITY SANDSTONE
 RHOB.G/C3   45 350 01 00:   BULK DENSITY
 SPR .MV     07 010 01 00:   SPONTANEOUS POTENTIAL
 ILD .OHMM   07 120 46 00:   INDUCTION LOG DEEP
 ILM .OHMM   07 120 44 00:   INDUCTION LOG MEDIUM
 SGRD.OHMM   07 221 05 00:   SHALLOW SHORT GUARD RESISTIVITY
~PARAMETER INFORMATION
#MNEM.UNIT          VALUE    DESCRIPTION
#----------   ------------   ------------------------------
 PD  .                 GL:   PERMANENT DATUM
 EPD .F              5146:   ELEVATION PERMANENT DATUM
 LMF .                 GL:   LOG MEASURED FROM
 DMF .                 GL:   DRILLING MEASURED FROM
 EGL .F              5146:   GROUND LEVEL
 DATE.        29-MAR-1977:   RUN DATE
 RUN .                  1:   RUN NUMBER
 DD  .F               610:   DEPTH DRILLER
 DL  .F               602:   DEPTH LOGGER
 BLI .F               600:   BOTTOM LOG INTERVAL
 TLI .F                30:   TOP LOG INTERVAL
 CS  .IN            8.625:   CASING SIZE
 BSD .F               610:   BIT SIZE AT DEPTH
 DFT .                KCL:   DRILLING FLUID TYPE
 DFD .                8.8:   DRILLING FLUID DENSITY
 BHT .F                63:   BOTTOM HOLE TEMPERATURE
 TCS .HRS            0500:   TIME CURCULATED STOPPED
 MRT .F                63:   MAXIMUM RECORDED TEMPERATURE
 ENGI.            C. DOAK:   RECORDING ENGINEER
 WITN.            R. LYON:   WITNESSED BY
 CLNT.            A2DTECH:   CLIENT CODE
 ORIG.           5" PRINT:   ORIGIN OF DATA
 UWI .       490251032000:   UNIQUE WELL ID
 DICO. A2D Technologies, Inc.:   DIGITIZING COMPANY
~OTHER INFORMATION
~A   DEPT     CALD        GRD       CORR       DPHI       RHOB        SPR        ILD        ILM       SGRD   
# ...
  542.0000     7.9115    87.0687    -0.0055     0.1223     2.4398   -29.3360     5.6426     7.7711    10.4454
  542.5000     7.9131    86.9287    -0.0023     0.1151     2.4534   -29.7717     6.0480     8.2174    12.1686
  543.0000     7.9148    85.4533    -0.0007     0.1106     2.4609   -30.4980     6.4543     8.8105    12.5148
  543.5000     7.9164    83.8259    -0.0006     0.1112     2.4580   -31.5247     7.0840     9.6445    12.6061
  544.0000     7.9177    85.4772    -0.0005     0.1115     2.4581   -33.5916     7.7138     9.8516    12.6105
  544.5000     7.9194    86.8304    -0.0004     0.1112     2.4626   -35.3613     8.3526    10.1330    12.7025
  545.0000     7.9210    86.0972    -0.0003     0.1107     2.4672   -36.2428     8.8959    10.5677    12.9736
  545.5000     7.9227    84.3207    -0.0002     0.1065     2.4687   -35.4832     9.2798    11.0210    13.0683
  546.0000     7.9245    83.7366    -0.0001     0.1109     2.4583   -35.3212     9.5471    11.4145    12.9826
  546.5000     7.9262    83.5965     0.0015     0.1188     2.4524   -36.1994     9.8220    11.1854    12.8974
  547.0000     7.9278    84.0585     0.0032     0.1120     2.4614   -38.2663     9.8972    10.8840    12.8129
  547.5000     7.9295    85.1107     0.0048     0.1064     2.4675   -37.6586     9.9729    10.7396    13.0864
  548.0000     7.9308    83.3372     0.0033     0.1029     2.4713   -37.9424    10.1190    10.8208    13.3657
  548.5000     7.9325    82.7531     0.0004     0.1038     2.4676   -38.6753    10.1964    11.2071    13.6510
  549.0000     7.9343    82.4669    -0.0025     0.1078     2.4595   -37.4699    10.2732    11.5273    14.0152
  549.5000     7.9358    82.0318    -0.0039     0.1196     2.4476   -36.1192    10.4249    11.2959    14.3738
  550.0000     7.9375    81.7427    -0.0057     0.1229     2.4416   -36.9113    10.5046    11.2221    14.1467
  550.5000     7.9392    82.2007    -0.0052     0.1218     2.4439   -37.4274    10.5850    11.3849    13.7689
  551.0000     7.9410    81.3065    -0.0035     0.1178     2.4507   -38.0050    10.7401    11.7918    14.3664
  551.5000     7.9273    78.9344    -0.0004     0.1150     2.4590   -38.2857    10.8974    12.1291    14.8843
  552.0000     7.9292    80.0248     0.0027     0.1084     2.4673   -37.9713    10.9808    12.0516    15.3143
  552.5000     7.9307    81.3587     0.0074     0.1057     2.4667   -36.6171    11.1417    12.0337    15.4328
  553.0000     7.9174    81.9672     0.0105     0.1072     2.4675   -34.9658    11.3835    12.4030    15.1270
  553.5000     7.9191    81.2966     0.0151     0.1033     2.4743   -33.9089    11.4705    12.2386    15.2444
  554.0000     7.9059    78.6339     0.0137     0.1051     2.4698   -34.4864    11.5583    12.9423    15.5766
  554.5000     7.9075    77.8089     0.0078     0.1083     2.4639   -34.7709    11.6467    12.6831    16.0267
  555.0000     7.8942    79.6821     0.0019     0.1068     2.4647   -34.0069    11.6548    12.8665    16.1507
  555.5000     7.8809    80.6880    -0.0010     0.1032     2.4723   -32.3556    11.7423    13.3265    15.7217
  556.0000     7.8826    80.9707    -0.0009     0.0963     2.4813   -30.8529    11.7504    13.4243    15.3012
  556.5000     7.8694    80.9806     0.0052     0.0978     2.4859   -30.2417    11.6770    12.9762    15.5298
  557.0000     7.8710    80.9905     0.0099     0.1004     2.4785   -29.3333    11.6045    12.7146    16.2013
  557.5000     7.8727    81.0004     0.0130     0.1013     2.4778   -29.0193    11.5324    13.2623    16.4402
  558.0000     7.8743    81.1593     0.0146     0.1025     2.4749   -29.3039    11.5407    13.1777    16.2267
  558.5000     7.8607    81.4672     0.0147     0.1046     2.4689   -28.8371    11.5487    13.0017    16.1242
  559.0000     7.8629    81.9242     0.0149     0.1072     2.4630   -28.3787    11.5567    13.7507    16.2522
  559.5000     7.8642    81.3380     0.0134     0.1105     2.4661   -29.8435    11.5647    14.5410    16.8379
  560.0000     7.8507    79.7085     0.0120     0.1120     2.4759   -29.2323    11.5727    14.5486    16.6194
  560.5000     7.8526    78.6752     0.0107     0.1131     2.4849   -28.6211    11.5806    14.3561    15.8453
  561.0000     7.8543    79.7283     0.0077     0.1146     2.4797   -27.1184    11.5087    14.2627    15.9680
  561.5000     7.8559    82.2718     0.0049     0.1167     2.4731   -26.3628    11.4372    14.1718    16.5435
  562.0000     7.8577    84.6662     0.0020     0.1203     2.4686   -27.0847    11.3662    14.3787    16.2160
  562.5000     7.8744    85.7193    -0.0100     0.1002     2.4769   -27.8108    11.2956    14.5867    15.8920
  563.0000     7.8757    86.4743    -0.0310     0.0999     2.4793   -28.3883    11.2254    14.9004    15.9075
  563.5000     7.8775    87.3784    -0.0369     0.0995     2.4786   -28.6729    11.1557    14.5012    15.5926
  564.0000     7.8792    88.4315    -0.0383     0.0962     2.4854   -28.5067    11.0864    13.9169    14.9698
  564.5000     7.8957    89.3356    -0.0382     0.0833     2.5086   -28.1934    10.9415    13.8282    15.1904
  565.0000     7.8974    89.6436    -0.0381     0.0734     2.5199   -28.7710    10.6500    14.1257    15.0945
  565.5000     7.8988    89.5019    -0.0365     0.0755     2.5125   -29.2137    10.5108    13.7383    14.6965
  566.0000     7.9156    89.5143    -0.0363     0.0794     2.5087   -29.3316    10.3018    13.1830    14.3061
  566.5000     7.9172    89.8223    -0.0362     0.0830     2.5058   -29.0119    10.1672    12.4909    13.9262
  567.0000     7.9189    90.7264    -0.0361     0.0853     2.5030   -28.8522     9.9651    12.7596    13.9371
  567.5000     7.9205    91.6304    -0.0360     0.0808     2.5094   -30.3212     9.7670    12.7663    14.2408
  568.0000     7.9068    90.5971    -0.0344     0.0772     2.5169   -31.0473     9.5726    12.6849    14.1536
  568.5000     7.9089    88.8186    -0.0328     0.0739     2.5211   -31.9224     9.3825    11.8430    13.9672
  569.0000     7.9105    87.0402    -0.0326     0.0724     2.5202   -32.2024     9.2596    11.7673    14.1731
  569.5000     7.9122    85.7088    -0.0341     0.0776     2.5149   -31.4426     9.1386    11.4522    13.9715
  570.0000     7.9138    84.6754    -0.0384     0.0810     2.5092   -33.8032     9.0191    11.2228    13.6023
  570.5000     7.9371    83.9402    -0.0399     0.0813     2.5079   -33.3406     8.9015    11.1509    13.2559
  571.0000     7.9337    84.6952    -0.0413     0.0813     2.5095   -34.5124     8.8459    11.4702    12.9826
  571.5000     7.9304    86.3445    -0.0427     0.0812     2.5103   -34.3470     8.7898    11.5544    12.8248
  572.0000     7.9271    88.5898    -0.0441     0.0815     2.5104   -33.5872     8.7352    11.1673    12.7391
  572.5000     7.9094    90.9842    -0.0454     0.0827     2.5087   -32.8274     8.7428    11.5680    12.6682
  573.0000     7.8950    94.2963    -0.0468     0.0836     2.5057   -32.0677     8.7488    11.9815    12.8588
  573.5000     7.8658    94.4696    -0.0512     0.0850     2.5008   -32.7938     8.7549    11.9877    13.0464
  574.0000     7.8514    94.5926    -0.0527     0.0865     2.4986   -34.1142     8.7610    11.7476    13.2368
  574.5000     7.8222    93.8519    -0.0556     0.0895     2.4947   -33.8002     8.7066    11.4328    13.3392
  575.0000     7.8078    93.2593    -0.0584     0.0958     2.4858   -34.2291     8.6510    11.0498    13.0751
  575.5000     7.7935    92.2222    -0.0583     0.1005     2.4791   -33.7665     8.5973    10.6796    12.6401
  576.0000     7.7940    93.7037    -0.0597     0.0969     2.4812   -34.0469     8.5439    10.4643    12.3044
  576.5000     7.7945    94.2963    -0.0581     0.0945     2.4863   -34.7772     8.4322    10.3976    12.0606
  577.0000     7.7950    92.9630    -0.0550     0.0936     2.4871   -33.5674     8.3798    10.3313    11.8221
  577.5000     7.7955    76.3205    -0.0503     0.0908     2.4904   -32.9562     8.2718    10.1256    11.9964
  578.0000     7.7908    53.8647    -0.0427     0.0860     2.5001   -34.2809     8.1637     9.9904    12.0058
