~VERSION INFORMATION
 VERS.                2.0:   CWLS LOG ASCII STANDARD - VERSION 2.0
 WRAP.                 NO:   ONE LINE PER DEPTH STEP
~WELL INFORMATION
#MNEM.UNIT      DATA TYPE    INFORMATION
#----------   ------------   ------------------------------
 STRT.F            4.0000:   START DEPTH
 STOP.F          572.0000:   STOP DEPTH
 STEP.F            0.5000:   STEP LENGTH
 NULL.          -999.2500:   NO VALUE
 COMP. FENIX & SCISSON INC:   COMPANY
 WELL.       NPR#3 #33-10:   WELL
 FLD .             TEAPOT:   FIELD
 LOC .      S10 T38N R78W:   LOCATION
 CNTY.            NATRONA:   COUNTY
 STAT.            WYOMING:   STATE
 CTRY. UNITED STATES OF AMERICA:   COUNTRY
 SRVC.              Welex:   SERVICE COMPANY
 DATE.        05-MAY-1980:   LOGDATE
 API .       490251080800:   API NUMBER
~CURVE INFORMATION
#MNEM.UNIT       API CODE    CURVE DESCRIPTION
#----------   ------------   ------------------------------
 DEPT.F                  :   
 SGRD.OHMM   07 220 05 00:   SHALLOW GUARD RESISTIVITY
 ILD .OHMM   07 120 46 00:   INDUCTION LOG DEEP RESISTIVITY
 ILM .OHMM   07 120 44 00:   INDUCTION LOG MEDIUM
 SPR .MV     07 010 01 00:   SPONTANEOUS POTENTIAL
 CALD.IN     45 280 60 00:   CALIPER
 GRD .GAPI   45 310 01 00:   GAMMA RAY FROM DENSITY LOG
 RHOB.G/C3   45 350 01 00:   BULK DENSITY
 CORR.G/C3   45 356 01 00:   DENSITY CORRECTION
 DPHI.DEC    45 890 12 00:   DENSITY POROSITY SANDSTONE
~PARAMETER INFORMATION
#MNEM.UNIT          VALUE    DESCRIPTION
#----------   ------------   ------------------------------
 PD  .                 GL:   PERMANENT DATUM
 EPD .F              5228:   ELEVATION PERMANENT DATUM
 LMF .                 KB:   LOG MEASURED FROM
 DAPD.F                 5:   FEET ABOVE PERMANENT DATUM
 DMF .                 KB:   DRILLING MEASURED FROM
 EKB .F              5233:   KELLING BUSHING
 EGL .F              5228:   GROUND LEVEL
 DATE.             5-5-80:   RUN DATE
 RUN .                  1:   RUN NUMBER
 DD  .F               572:   DEPTH DRILLER
 DL  .F               572:   DEPTH LOGGER
 BLI .F               570:   BOTTOM LOG INTERVAL
 TLI .F                30:   TOP LOG INTERVAL
 BS  .IN            7.875:   BIT SIZE
 BSD .F               572:   BIT SIZE AT DEPTH
 DFT .            KCL MUD:   DRILLING FLUID TYPE
 DFD .                8.9:   DRILLING FLUID DENSITY
 DFV .                 36:   DRILLING FLUID VISCOSITY
 DFL .               12.6:   DRILLING FLUID LOSS
 MSS .           FLOWLINE:   MUD SAMPLE SOURCE
 RMS .OHMM           1.08:   RESISTIVITY MUD SAMPLE
 MST .F                60:   MUD SAMPLE TEMPERATURE
 RMF .OHMM            .86:   RESISTIVITY MUD FILTRATE SAMPLE
 MFST.F                60:   MUD FILTRATE SAMPLE TEMPERATURE
 RMC .OHMM           1.29:   RESISTIVITY MUD CAKE
 MCST.F                60:   MUD CAKE SAMPLE TEMPERATURE
 MFSS.           MEASURED:   MUD FILTRATE SAMPLE SOURCE
 MCSS.           MEASURED:   MUD CAKE SAMPLE SOURCE
 TCS .HRS               2:   TIME CURCULATED STOPPED
 MRT .F               100:   MAXIMUM RECORDED TEMPERATURE
 LUN .               1892:   LOGGING UNIT NUMBER
 LUL .             CASPER:   LOGGING UNIT LOCATION
 ENGI.               REIN:   RECORDING ENGINEER
 WITN.              AMEND:   WITNESSED BY
 CLNT.            A2DTECH:   CLIENT CODE
 ORIG.           5" PRINT:   ORIGIN OF DATA
 UWI .       490251080800:   UNIQUE WELL ID
 DICO. A2D Technologies, Inc.:   DIGITIZING COMPANY
~OTHER INFORMATION
~A    DEPT    SGRD        ILD        ILM        SPR       CALD         GRD        RHOB       CORR     DPHI   
# ...
  405.5000    17.9053    14.7174    15.1008   -34.0257     7.8478    79.6524     2.4485    -0.0088     0.1461
  406.0000    18.0634    14.1993    15.3022   -34.2861     7.8478    79.2465     2.4248    -0.0183     0.1568
  406.5000    18.3448    13.9921    15.5063   -34.6073     7.8478    79.4666     2.4079    -0.0279     0.1623
  407.0000    18.4075    13.8679    15.7131   -34.9300     7.8478    79.7787     2.4150    -0.0334     0.1623
  407.5000    17.8115    13.7447    15.8829   -35.2529     7.8508    80.0948     2.4369    -0.0191     0.1494
  408.0000    17.4169    13.6226    15.8829   -35.5784     7.8566    80.4307     2.4504    -0.0072     0.1436
  408.5000    17.4169    13.5019    15.7316   -35.6507     7.8623    80.0401     2.4426    -0.0209     0.1481
  409.0000    17.9266    13.4162    15.6238   -35.7014     7.8682    79.4694     2.4352    -0.0261     0.1486
  409.5000    18.0712    13.3545    15.5169   -35.7511     7.8740    78.8803     2.4356    -0.0145     0.1473
  410.0000    17.4077    13.2927    15.4106   -35.8034     7.8798    79.0349     2.4425    -0.0033     0.1461
  410.5000    16.9524    13.2312    15.3078   -35.9496     7.8858    79.2457     2.4437    -0.0078     0.1530
  411.0000    16.7863    13.1700    15.3078   -36.2131     7.8871    79.4483     2.4299    -0.0130     0.1540
  411.5000    17.3253    13.0872    15.3078   -36.4752     7.8863    79.6892     2.4189    -0.0180     0.1575
  412.0000    17.9953    13.1281    15.2756   -36.7407     7.8854    80.7270     2.4191    -0.0222     0.1590
  412.5000    18.2385    13.1924    15.1432   -37.0131     7.8846    81.6093     2.4266    -0.0176     0.1565
  413.0000    17.6561    13.2569    15.0123   -36.9826     7.8837    81.3896     2.4340    -0.0130     0.1532
  413.5000    17.2570    13.3305    14.8823   -36.5697     7.8829    80.4793     2.4400    -0.0181     0.1499
  414.0000    17.0986    13.2926    14.7534   -36.1534     7.8821    79.5921     2.4362    -0.0235     0.1483
  414.5000    17.2139    13.2489    14.6257   -35.7275     7.8812    78.6951     2.4318    -0.0288     0.1509
  415.0000    17.2570    13.2049    14.4991   -35.4848     7.8804    78.0311     2.4272    -0.0338     0.1534
  415.5000    16.7514    13.1612    14.3735   -34.9610     7.8796    78.6251     2.4304    -0.0357     0.1560
  416.0000    16.3236    13.1176    14.2490   -34.3351     7.8787    79.7689     2.4364    -0.0400     0.1520
  416.5000    16.3217    13.0871    14.1255   -33.7046     7.8779    80.9330     2.4427    -0.0444     0.1471
  417.0000    16.6386    13.0871    14.0653   -33.2003     7.8770    81.6048     2.4404    -0.0487     0.1488
  417.5000    16.4208    13.0872    14.0320   -32.7762     7.8762    80.3942     2.4395    -0.0474     0.1452
  418.0000    16.2315    13.0872    13.9987   -32.1923     7.8754    79.2406     2.4567    -0.0362     0.1373
  418.5000    16.1785    13.0873    13.9655   -30.7903     7.8745    78.4870     2.4735    -0.0255     0.1249
  419.0000    16.6473    13.0876    13.9323   -29.9450     7.8737    79.7337     2.4847    -0.0257     0.1218
  419.5000    17.0115    13.0873    13.8992   -29.5423     7.8729    79.2362     2.4937    -0.0283     0.1192
  420.0000    17.2570    12.9573    13.8662   -29.3096     7.8720    78.5637     2.4852    -0.0248     0.1211
  420.5000    16.8564    12.8192    13.8317   -29.0752     7.8712    78.8042     2.4741    -0.0213     0.1251
  421.0000    16.1423    12.6825    13.7217   -28.8404     7.8703    79.5368     2.4625    -0.0249     0.1290
  421.5000    15.1674    12.5477    13.6064   -28.6057     7.8695    80.2386     2.4560    -0.0312     0.1329
  422.0000    15.2332    12.3829    13.4921   -28.3722     7.8687    80.9487     2.4496    -0.0375     0.1369
  422.5000    15.3078    12.4088    13.3789   -28.2712     7.8678    81.6538     2.4430    -0.0439     0.1408
  423.0000    15.0282    12.4427    13.3307   -28.3357     7.8688    81.8369     2.4365    -0.0502     0.1444
  423.5000    15.4496    12.4767    13.3306   -28.3989     7.8705    81.1471     2.4299    -0.0568     0.1525
  424.0000    14.8903    12.4976    13.3306   -28.4363     7.8722    80.7038     2.4232    -0.0583     0.1603
  424.5000    15.5927    12.2529    13.3301   -28.2769     7.8740    81.0646     2.4217    -0.0490     0.1524
  425.0000    15.2726    12.0793    13.3307   -28.1208     7.8757    81.4241     2.4411    -0.0385     0.1437
  425.5000    15.1674    11.9082    13.1737   -27.9659     7.8774    81.7676     2.4596    -0.0279     0.1349
  426.0000    15.3078    11.7395    13.0764   -27.8106     7.8791    81.8601     2.4746    -0.0184     0.1288
  426.5000    14.9798    11.6090    12.9797   -27.6502     7.8808    81.2333     2.4666    -0.0255     0.1341
  427.0000    14.6626    11.6090    12.8837   -27.4895     7.8825    80.6322     2.4558    -0.0355     0.1384
  427.5000    14.4023    11.6090    12.7448   -27.3212     7.8843    80.0318     2.4680    -0.0425     0.1379
  428.0000    14.2194    11.6090    12.5816   -27.2939     7.8860    79.4104     2.4849    -0.0229     0.1241
  428.5000    13.8315    11.6090    12.4203   -27.3785     7.8877    79.2441     2.4955    -0.0004     0.1142
  429.0000    14.0833    11.5138    12.2692   -27.4646     7.8894    79.5825     2.4884     0.0015     0.1151
  429.5000    14.3880    11.4020    12.2522   -27.5511     7.8911    80.0582     2.4957    -0.0019     0.1173
  430.0000    14.6182    11.2912    12.2360   -27.6373     7.8928    80.5363     2.5082     0.0050     0.1148
  430.5000    14.1471    11.1815    12.2198   -27.7233     7.8946    81.0144     2.4983    -0.0054     0.1088
  431.0000    13.8315    11.0728    12.2036   -27.8090     7.8963    81.4951     2.4769    -0.0155     0.1202
  431.5000    14.0889    10.9652    12.1875   -27.8333     7.8980    81.9970     2.4680    -0.0254     0.1316
  432.0000    13.7046    10.8585    12.1713   -28.2495     7.8997    82.5229     2.4728    -0.0309     0.1271
  432.5000    14.0889    10.7836    12.1558   -28.7514     7.9014    82.5715     2.4796    -0.0241     0.1220
  433.0000    13.5179    10.7836    12.1083   -29.2614     7.9032    82.1129     2.4808    -0.0177     0.1247
  433.5000    13.3307    10.8242    12.0640   -29.4303     7.9049    81.6545     2.4688    -0.0168     0.1300
  434.0000    14.2194    10.8615    12.0199   -29.2168     7.9067    81.1920     2.4577    -0.0214     0.1353
  434.5000    14.1235    10.8988    11.9760   -28.9968     7.9071    80.7314     2.4523    -0.0243     0.1359
  435.0000    13.9596    10.9363    11.9322   -28.7772     7.9071    80.2725     2.4693    -0.0176     0.1294
  435.5000    14.4347    10.9740    11.8886   -28.5548     7.9071    80.0430     2.4825    -0.0112     0.1244
  436.0000    15.0282    10.9931    11.8457   -28.2066     7.9071    80.2515     2.4958    -0.0049     0.1176
  436.5000    14.6182    11.0094    11.8244   -27.7488     7.9071    80.6684     2.5091    -0.0005     0.1067
  437.0000    15.0282    11.0259    11.8249   -27.3848     7.9052    81.0869     2.5206    -0.0021     0.0952
  437.5000    14.0844    11.0424    11.8102   -27.0239     7.9030    81.5070     2.5148    -0.0037     0.0984
  438.0000    14.6004    11.0590    11.7110   -26.9762     7.9009    81.9276     2.5090    -0.0052     0.1030
  438.5000    15.5842    11.0757    11.6127   -27.2245     7.8987    82.3477     2.5044    -0.0064     0.1075
  439.0000    15.7371    11.0860    11.5152   -27.4755     7.8966    82.7811     2.5134     0.0001     0.1048
  439.5000    14.3108    10.9853    11.3969   -27.7279     7.8944    82.2380     2.5221     0.0075     0.1008
  440.0000    13.7046    10.8557    11.4127   -27.9878     7.8923    81.2318     2.5308     0.0148     0.0963
  440.5000    13.8315    10.7277    11.4330   -28.0436     7.8901    81.2630     2.5396     0.0217     0.0912
  441.0000    13.3144    10.6012    11.4534   -28.0446     7.8880    81.3486     2.5480     0.0277     0.0861
  441.5000    13.2084    10.4761    11.4739   -28.0440     7.8858    81.4346     2.5416     0.0336     0.0889
