~VERSION INFORMATION
 VERS.                2.0:   CWLS LOG ASCII STANDARD - VERSION 2.0
 WRAP.                 NO:   ONE LINE PER DEPTH STEP
~WELL INFORMATION
#MNEM.UNIT      DATA TYPE    INFORMATION
#----------   ------------   ------------------------------
 STRT.F           34.0000:   START DEPTH
 STOP.F          460.0000:   STOP DEPTH
 STEP.F            0.5000:   STEP LENGTH
 NULL.          -999.2500:   NO VALUE
 COMP. FENIX & SCISSON INC:   COMPANY
 WELL.     SX 3 FO #46--3:   WELL
 FLD .              NPR 3:   FIELD
 LOC .       S3 T38N R78W:   LOCATION
 CNTY.            NATRONA:   COUNTY
 STAT.            WYOMING:   STATE
 CTRY. UNITED STATES OF AMERICA:   COUNTRY
 SRVC.              Welex:   SERVICE COMPANY
 DATE.        10-JUL-1981:   LOGDATE
 API .       490251086000:   API NUMBER
~CURVE INFORMATION
#MNEM.UNIT       API CODE    CURVE DESCRIPTION
#----------   ------------   ------------------------------
 DEPT.F                  :   
 GRD .GAPI   45 310 01 00:   GAMMA RAY FROM DENSITY LOG
 CALD.IN     45 280 60 00:   CALIPER
 RHOB.G/C3   45 350 01 00:   BULK DENSITY
 DPHI.DEC    45 890 12 00:   DENSITY POROSITY SANDSTONE
 CORR.G/C3   45 356 01 00:   DENSITY CORRECTION
~PARAMETER INFORMATION
#MNEM.UNIT          VALUE    DESCRIPTION
#----------   ------------   ------------------------------
 PD  .                 GL:   PERMANENT DATUM
 EPD .F              5168:   ELEVATION PERMANENT DATUM
 LMF .                 KB:   LOG MEASURED FROM
 DAPD.F                 5:   FEET ABOVE PERMANENT DATUM
 DMF .                 KB:   DRILLING MEASURED FROM
 EKB .F              5173:   KELLING BUSHING
 EGL .F              5168:   GROUND LEVEL
 DATE.            7-10-80:   RUN DATE
 RUN .                  1:   RUN NUMBER
 DD  .F               470:   DEPTH DRILLER
 DL  .F               468:   DEPTH LOGGER
 BLI .F               460:   BOTTOM LOG INTERVAL
 TLI .F                46:   TOP LOG INTERVAL
 CS  .IN                7:   CASING SIZE
 CBD .F                46:   CASING BOTTOM DRILLER
 BS  .IN             6.25:   BIT SIZE
 BSD .F               470:   BIT SIZE AT DEPTH
 DFT .        AIR DRILLED:   DRILLING FLUID TYPE
 BHT .F                75:   BOTTOM HOLE TEMPERATURE
 TCS .HRS               2:   TIME CURCULATED STOPPED
 MRT .F                75:   MAXIMUM RECORDED TEMPERATURE
 ENGI.    JOYNER/PFRIMMER:   RECORDING ENGINEER
 WITN.              AMEND:   WITNESSED BY
 CLNT.            A2DTECH:   CLIENT CODE
 ORIG.           5" PRINT:   ORIGIN OF DATA
 UWI .       490251086000:   UNIQUE WELL ID
 DICO. A2D Technologies, Inc.:   DIGITIZING COMPANY
~OTHER INFORMATION
~A   DEPT       GRD      CALD       RHOB       DPHI       CORR   
   34.0000    81.0891  -999.2500  -999.2500  -999.2500  -999.2500
   34.5000    83.1153  -999.2500  -999.2500  -999.2500  -999.2500
   35.0000    83.2782  -999.2500  -999.2500  -999.2500  -999.2500
   35.5000    82.8569  -999.2500  -999.2500  -999.2500  -999.2500
   36.0000    83.1081  -999.2500  -999.2500  -999.2500  -999.2500
   36.5000    84.3964  -999.2500  -999.2500  -999.2500  -999.2500
   37.0000    87.2042  -999.2500  -999.2500  -999.2500  -999.2500
   37.5000    89.1567  -999.2500  -999.2500  -999.2500  -999.2500
   38.0000    87.4196  -999.2500  -999.2500  -999.2500  -999.2500
   38.5000    87.7291  -999.2500  -999.2500  -999.2500  -999.2500
   39.0000    88.1455  -999.2500  -999.2500  -999.2500  -999.2500
   39.5000    86.0330  -999.2500  -999.2500  -999.2500  -999.2500
   40.0000    83.9154  -999.2500  -999.2500  -999.2500  -999.2500
   40.5000    82.7712  -999.2500  -999.2500  -999.2500  -999.2500
   41.0000    83.1895  -999.2500  -999.2500  -999.2500  -999.2500
   41.5000    81.3981  -999.2500  -999.2500  -999.2500  -999.2500
   42.0000    79.8530  -999.2500  -999.2500  -999.2500  -999.2500
   42.5000    80.3497  -999.2500  -999.2500  -999.2500  -999.2500
   43.0000    81.7397  -999.2500  -999.2500  -999.2500  -999.2500
   43.5000    83.1257  -999.2500  -999.2500  -999.2500  -999.2500
   44.0000    84.5022  -999.2500  -999.2500  -999.2500  -999.2500
   44.5000    85.6774  -999.2500  -999.2500  -999.2500  -999.2500
   45.0000    85.2613  -999.2500  -999.2500  -999.2500  -999.2500
   45.5000    84.8773     6.4629  -999.2500  -999.2500  -999.2500
   46.0000    87.3777     6.4546     2.2785     0.1570    -0.1717
   46.5000    94.8146     6.4464     2.3555     0.1412    -0.0698
   47.0000   102.0305     6.4399     2.4325     0.1236     0.0035
   47.5000   107.8232     6.4321     2.4600     0.1078     0.0298
   48.0000   111.1015     6.4075     2.4841     0.1054     0.0334
   48.5000   110.3069     6.3477     2.4718     0.1254     0.0273
   49.0000   108.9163     6.3489     2.4702     0.1227     0.0247
   49.5000   106.5823     6.3515     2.4838     0.1195     0.0262
   50.0000   104.8805     6.3544     2.4953     0.1090     0.0355
   50.5000   106.6788     6.3571     2.4991     0.1074     0.0456
   51.0000   106.7479     6.3599     2.5134     0.1042     0.0580
   51.5000   106.9297     6.3625     2.5278     0.0925     0.0838
   52.0000   109.2617     6.3585     2.5422     0.0817     0.1071
   52.5000   109.9774     6.3374     2.5549     0.0746     0.0946
   53.0000   107.4467     6.3165     2.5515     0.0764     0.0926
   53.5000   105.3320     6.2958     2.5587     0.0735     0.0995
   54.0000   103.1782     6.2749     2.5460     0.0694     0.1059
   54.5000   103.4059     6.2766     2.5241     0.0891     0.0864
   55.0000   106.9771     6.2986     2.5128     0.1038     0.0647
   55.5000   107.6097     6.3209     2.5053     0.1046     0.0606
   56.0000   108.6651     6.3435     2.5074     0.1023     0.0614
   56.5000   109.3890     6.3448     2.5120     0.0999     0.0624
   57.0000   108.1528     6.3430     2.5161     0.0990     0.0644
   57.5000   107.0105     6.3399     2.5092     0.1041     0.0567
   58.0000   107.5260     6.3367     2.5019     0.1103     0.0488
   58.5000   109.0755     6.3336     2.4946     0.1127     0.0453
   59.0000   110.2556     6.3305     2.4973     0.0966     0.0661
   59.5000   108.9101     6.3274     2.5159     0.0874     0.0870
   60.0000   107.7773     6.3246     2.5338     0.0821     0.1033
   60.5000   108.6237     6.3259     2.5484     0.0767     0.1119
   61.0000   109.7040     6.3297     2.5624     0.0714     0.1208
   61.5000   110.7904     6.3334     2.5714     0.0682     0.1297
   62.0000   111.8632     6.3371     2.5702     0.0669     0.1329
   62.5000   112.5690     6.3408     2.5582     0.0702     0.1320
   63.0000   111.4877     6.3445     2.5466     0.0781     0.1187
   63.5000   108.2408     6.3446     2.5270     0.0860     0.1058
   64.0000   106.9025     6.3446     2.5034     0.0931     0.0938
   64.5000   107.2226     6.3446     2.5019     0.0930     0.0898
   65.0000   107.4998     6.3446     2.5063     0.0997     0.0799
   65.5000   107.9705     6.3446     2.5038     0.1078     0.0501
   66.0000   106.1859     6.3446     2.5015     0.1064     0.0444
   66.5000   104.6414     6.3446     2.5045     0.1049     0.0447
   67.0000   103.5724     6.3422     2.5099     0.1019     0.0524
   67.5000   103.0806     6.3380     2.5152     0.0979     0.0607
   68.0000   104.3898     6.3337     2.5246     0.0966     0.0689
   68.5000   103.4684     6.3295     2.5350     0.0881     0.0772
   69.0000   100.7023     6.3252     2.5455     0.0795     0.0856
   69.5000    97.9766     6.3210     2.5499     0.0778     0.0874
   70.0000    95.6671     6.3167     2.5323     0.0913     0.0549
   70.5000    95.8065     6.3125     2.5141     0.1025     0.0234
   71.0000    98.4840     6.3082     2.4958     0.1096     0.0183
   71.5000   101.3224     6.3049     2.4900     0.1143     0.0139
   72.0000   102.8074     6.3137     2.4961     0.1146     0.0171
   72.5000   102.5492     6.3228     2.5017     0.1078     0.0270
   73.0000   102.2146     6.3319     2.5018     0.1091     0.0325
   73.5000   102.0477     6.3410     2.4987     0.1102     0.0359
   74.0000   104.1982     6.3446     2.4964     0.1045     0.0405
   74.5000   107.4429     6.3446     2.5114     0.0980     0.0492
   75.0000   107.5524     6.3446     2.5294     0.0915     0.0568
   75.5000   106.8039     6.3448     2.5428     0.0850     0.0646
   76.0000   105.6401     6.3443     2.5375     0.0835     0.0707
   76.5000   104.3959     6.3661     2.5313     0.0857     0.0706
   77.0000   103.4503     6.3562     2.5360     0.0814     0.0706
   77.5000   105.7273     6.3455     2.5444     0.0810     0.0733
   78.0000   107.1627     6.3350     2.5457     0.0788     0.0783
   78.5000   105.0526     6.3248     2.5524     0.0720     0.0834
   79.0000   103.3868     6.3402     2.5638     0.0649     0.0890
   79.5000   102.0759     6.3650     2.5753     0.0706     0.0840
   80.0000   102.9456     6.3847     2.5602     0.0793     0.0719
   80.5000   103.2845     6.3777     2.5404     0.0879     0.0597
   81.0000   102.3902     6.3706     2.5207     0.0965     0.0474
   81.5000   101.3236     6.3697     2.5068     0.1051     0.0391
   82.0000   100.2518     6.3838     2.4976     0.1106     0.0358
   82.5000    99.1836     6.3846     2.4966     0.1093     0.0368
   83.0000    98.1025     6.3845     2.5001     0.1080     0.0403
   83.5000    97.7295     6.3845     2.5078     0.1036     0.0439
   84.0000    97.9479     6.3844     2.5153     0.0985     0.0485
   84.5000    99.0631     6.3819     2.5229     0.0934     0.0548
   85.0000   100.0661     6.3691     2.5293     0.0901     0.0599
   85.5000    99.4228     6.3565     2.5273     0.0911     0.0649
   86.0000    97.8508     6.3441     2.5294     0.0922     0.0700
   86.5000    96.2855     6.3320     2.5322     0.0897     0.0676
   87.0000    96.1399     6.3432     2.5264     0.0917     0.0643
   87.5000    97.0263     6.3855     2.5231     0.0958     0.0641
   88.0000    97.2408     6.4215     2.5358     0.0900     0.0650
   88.5000    97.4896     6.3727     2.5258     0.0934     0.0663
   89.0000    98.1619     6.3535     2.5160     0.0991     0.0665
   89.5000    98.5058     6.3647     2.5062     0.1049     0.0604
   90.0000    97.4691     6.3645     2.5002     0.1106     0.0536
   90.5000    96.4845     6.3646     2.4905     0.1164     0.0469
   91.0000    96.2195     6.3645     2.4806     0.1195     0.0399
   91.5000    96.5118     6.3645     2.4776     0.1217     0.0411
   92.0000    95.5708     6.3646     2.4818     0.1210     0.0577
   92.5000    93.4926     6.3647     2.5022     0.1101     0.0755
   93.0000    91.7146     6.3637     2.5222     0.0988     0.0888
   93.5000    92.0649     6.3458     2.5200     0.0941     0.0868
   94.0000    93.5304     6.3281     2.5153     0.0985     0.0820
   94.5000    93.0057     6.3103     2.5139     0.1002     0.0774
