~VERSION INFORMATION
 VERS.                2.0:   CWLS LOG ASCII STANDARD - VERSION 2.0
 WRAP.                 NO:   ONE LINE PER DEPTH STEP
~WELL INFORMATION
#MNEM.UNIT      DATA TYPE    INFORMATION
#----------   ------------   ------------------------------
 STRT.F            2.0000:   START DEPTH
 STOP.F          548.0000:   STOP DEPTH
 STEP.F            0.1000:   STEP LENGTH
 NULL.          -999.2500:   NO VALUE
 COMP.       F D SERV INC:   COMPANY
 WELL. NAVAL PETROLEUM RESERVE 3 SX-3 #88-10-3:   WELL
 FLD .             TEAPOT:   FIELD
 LOC .       S3 T38N R78W:   LOCATION
 CNTY.            NATRONA:   COUNTY
 STAT.            WYOMING:   STATE
 CTRY. UNITED STATES OF AMERICA:   COUNTRY
 SRVC.     Atlas Wireline:   SERVICE COMPANY
 DATE.        19-OCT-1992:   LOGDATE
 API .       490252254600:   API NUMBER
~CURVE INFORMATION
#MNEM.UNIT       API CODE    CURVE DESCRIPTION
#----------   ------------   ------------------------------
 DEPT.F                  :   
 GRR .GAPI   07 310 01 00:   GAMMA RAY
 ILD .OHMM   07 120 46 00:   INDUCTION LOG DEEP
 ILM .OHMM   07 120 44 00:   INDUCTION LOG MEDIUM
~PARAMETER INFORMATION
#MNEM.UNIT          VALUE    DESCRIPTION
#----------   ------------   ------------------------------
 PD  .                 GL:   PERMANENT DATUM
 EPD .F              5126:   ELEVATION PERMANENT DATUM
 LMF .                 KB:   LOG MEASURED FROM
 DAPD.F                10:   FEET ABOVE PERMANENT DATUM
 DMF .                 KB:   DRILLING MEASURED FROM
 EKB .F              5136:   KELLING BUSHING
 EDF .F              5135:   DRILLING FLOOR
 EGL .F              5126:   GROUND LEVEL
 DATE.        19-OCT-1992:   RUN DATE
 RUN .                  1:   RUN NUMBER
 DD  .F               566:   DEPTH DRILLER
 DL  .F               558:   DEPTH LOGGER
 BLI .F               550:   BOTTOM LOG INTERVAL
 TLI .F                98:   TOP LOG INTERVAL
 CS  .IN            8.625:   CASING SIZE
 CBD .F                85:   CASING BOTTOM DRILLER
 CBL .F                98:   CASING BOTTOM LOGGER
 BS  .IN            7.875:   BIT SIZE
 BSD .F               566:   BIT SIZE AT DEPTH
 DFT .           AIR FOAM:   DRILLING FLUID TYPE
 TCS .HRS               2:   TIME CURCULATED STOPPED
 MRT .F                73:   MAXIMUM RECORDED TEMPERATURE
 LUN .            HL-6274:   LOGGING UNIT NUMBER
 LUL .             CASPER:   LOGGING UNIT LOCATION
 ENGI.             RAUTIO:   RECORDING ENGINEER
 WITN.        GARY STRONG:   WITNESSED BY
 CLNT.            A2DTECH:   CLIENT CODE
 ORIG.           5" PRINT:   ORIGIN OF DATA
 UWI .       490252254600:   UNIQUE WELL ID
 DICO. A2D Technologies, Inc.:   DIGITIZING COMPANY
~OTHER INFORMATION
~A    DEPT     GRR        ILD        ILM   
# ...
  329.6000   108.4015    14.3174    13.6968
  329.7000   106.0775    14.6280    13.9307
  329.8000   102.8851    14.9626    14.2161
  329.9000    99.9648    15.2622    14.4123
  330.0000    94.1013    15.5446    14.7075
  330.1000    90.4007    15.8989    15.0440
  330.2000    89.5770    16.2628    15.3877
  330.3000    88.2868    16.6349    15.7815
  330.4000    86.9012    17.0150    16.1829
  330.5000    85.6067    17.3720    16.7744
  330.6000    84.4982    17.6761    17.4097
  330.7000    83.4640    18.1428    17.9899
  330.8000    82.2293    18.3167    18.5259
  330.9000    80.5353    18.7865    19.2493
  331.0000    79.3746    19.6962    19.9456
  331.1000    78.6468    20.9444    20.5162
  331.2000    78.1571    21.5973    20.9855
  331.3000    77.6674    22.1629    21.4601
  331.4000    77.1776    22.7101    21.8984
  331.5000    76.6879    23.2288    22.2019
  331.6000    75.9254    23.7298    22.5074
  331.7000    75.1032    24.1435    22.8541
  331.8000    74.6332    24.5470    23.3449
  331.9000    74.3490    24.8608    23.6402
  332.0000    74.5537    25.2159    23.8785
  332.1000    74.6493    25.6459    24.2405
  332.2000    74.7373    26.0830    24.5355
  332.3000    74.9804    26.6138    24.6923
  332.4000    75.2507    26.9821    24.9276
  332.5000    75.2496    27.5336    25.1628
  332.6000    75.4070    28.1621    25.3980
  332.7000    75.6500    28.7860    25.6333
  332.8000    75.8513    29.3389    25.8685
  332.9000    75.8498    29.7780    26.1037
  333.0000    76.0767    30.0660    26.3389
  333.1000    76.3197    30.2350    26.5742
  333.2000    76.4514    30.4049    26.8094
  333.3000    76.4502    30.5858    27.0446
  333.4000    76.4490    30.5842    27.2799
  333.5000    76.4478    30.7054    27.5411
  333.6000    76.4466    30.7951    27.6792
  333.7000    76.4454    30.7102    27.9399
  333.8000    76.3800    30.3635    28.1196
  333.9000    76.1346    30.1905    28.1180
  334.0000    75.8890    30.0185    28.1164
  334.1000    75.6436    29.7569    28.1149
  334.2000    75.1311    29.4707    27.8799
  334.3000    74.4722    29.3026    27.6425
  334.4000    73.9486    29.1087    27.4845
  334.5000    72.8046    28.8328    27.3135
  334.6000    70.9776    28.6040    26.7659
  334.7000    68.9223    28.3816    26.6414
  334.8000    67.0530    28.0602    26.3154
  334.9000    65.5102    27.7124    25.9725
  335.0000    65.2343    27.7110    25.8062
  335.1000    65.4473    27.6046    25.4820
  335.2000    66.1576    27.3798    25.2245
  335.3000    67.1334    27.1320    24.9385
  335.4000    68.1876    27.1304    24.7157
  335.5000    69.7669    26.9805    24.5744
  335.6000    71.1163    26.9387    24.4298
  335.7000    72.2474    26.9372    24.1613
  335.8000    73.3318    26.9357    23.9875
  335.9000    74.6521    26.9342    23.8505
  336.0000    76.4175    26.9324    23.7141
  336.1000    79.2509    26.9312    23.5785
  336.2000    80.5797    27.0167    23.4193
  336.3000    81.0721    27.1168    23.4183
  336.4000    81.4378    27.1310    23.4953
  336.5000    82.1604    27.3036    23.6276
  336.6000    82.1592    27.4370    23.7607
  336.7000    82.3470    27.4921    23.9085
  336.8000    82.3286    27.4283    24.0293
  336.9000    82.1555    27.2977    24.1647
  337.0000    82.1543    27.2961    24.3009
  337.1000    82.1529    27.1508    24.4378
  337.2000    82.1519    27.1032    24.5790
  337.3000    82.0089    27.0303    24.5776
  337.4000    81.8469    26.9116    24.6803
  337.5000    81.8204    26.9101    24.8921
  337.6000    81.5417    26.7568    25.1341
  337.7000    81.3295    26.6043    25.2682
  337.8000    80.9311    26.5325    25.2665
  337.9000    80.4413    26.5310    25.3835
  338.0000    79.9879    26.5394    25.6127
  338.1000    79.7203    26.7137    25.8502
  338.2000    78.8300    26.7124    25.9958
  338.3000    78.0156    26.8017    26.1570
  338.4000    77.5988    26.9524    26.2896
  338.5000    77.5976    27.1242    26.5388
  338.6000    77.5963    27.4627    26.7731
  338.7000    77.8285    27.6015    26.9559
  338.8000    78.0716    27.9676    27.2687
  338.9000    78.1979    28.3052    27.4189
  339.0000    78.3136    28.4642    27.5735
  339.1000    78.8006    28.6299    27.8107
  339.2000    78.7994    28.9429    28.0805
  339.3000    78.7982    29.1498    28.2386
  339.4000    78.9249    29.3136    28.4257
  339.5000    79.0983    29.5226    28.6922
  339.6000    79.0971    29.8516    28.9200
  339.7000    79.0957    30.0195    29.1434
  339.8000    79.0947    30.3251    29.4741
  339.9000    79.0935    30.6688    29.8414
  340.0000    79.0923    30.9002    29.8399
  340.1000    79.0911    30.9152    30.1831
  340.2000    79.0897    31.1130    30.5448
  340.3000    79.0887    31.4172    30.7169
  340.4000    79.0874    31.6599    30.8932
  340.5000    79.0862    31.7666    31.2376
  340.6000    79.0850    31.7938    31.4580
  340.7000    79.0837    31.9854    31.6353
  340.8000    78.8631    32.1523    31.7612
  340.9000    78.7788    32.3331    31.7490
  341.0000    78.7776    32.4300    31.5364
  341.1000    78.7764    32.4700    31.2407
  341.2000    78.7751    32.6536    30.8865
  341.3000    78.5434    32.6517    30.4735
  341.4000    78.1257    32.6499    30.0024
  341.5000    77.6359    32.6481    29.8148
  341.6000    77.1462    32.6463    29.8133
  341.7000    76.6511    32.6445    29.6978
  341.8000    75.9250    32.6423    29.6025
  341.9000    75.1909    32.6408    29.6009
  342.0000    74.4568    32.6390    29.5992
  342.1000    73.9231    32.6372    29.5976
  342.2000    73.9304    32.6353    29.5959
  342.3000    74.1735    32.6333    29.5943
  342.4000    74.4165    32.6317    29.5926
  342.5000    74.6596    32.6299    29.5910
  342.6000    74.9027    32.6280    29.5890
  342.7000    75.1457    32.6262    29.5876
  342.8000    75.4273    32.6243    29.5860
  342.9000    75.8375    32.6226    29.5843
  343.0000    76.1775    32.4876    29.5827
  343.1000    76.3316    32.3920    29.5809
  343.2000    76.3611    32.3901    29.5794
  343.3000    76.6316    32.3883    29.5777
  343.4000    77.0638    32.3865    29.5761
  343.5000    77.3928    32.3847    29.5744
  343.6000    77.6359    32.3829    29.5728
  343.7000    77.9208    32.3811    29.7373
  343.8000    78.4411    32.3793    29.7767
  343.9000    78.8954    32.3772    29.7750
  344.0000    79.5522    32.3757    29.7236
  344.1000    79.9504    32.3739    29.5645
  344.2000    79.9492    32.3721    29.5626
  344.3000    79.9479    32.3987    29.5612
  344.4000    79.9467    32.5951    29.5596
  344.5000    79.9455    32.5934    29.5579
  344.6000    80.0666    32.5916    29.5088
  344.7000    80.3096    32.6738    29.1446
  344.8000    80.5527    32.8574    29.1431
  344.9000    80.7958    33.0444    29.0292
  345.0000    81.0389    33.2278    28.9371
  345.1000    81.2819    33.4146    28.9718
  345.2000    81.6000    33.5035    29.1366
  345.3000    82.0706    33.5561    29.4647
  345.4000    82.3550    33.7547    29.6709
  345.5000    82.7594    34.2067    29.9283
  345.6000    83.2468    34.3643    30.3201
  345.7000    83.9926    34.4429    30.8380
  345.8000    85.1570    34.5792    31.4520
  345.9000    85.9799    34.9706    32.0569
  346.0000    85.9788    35.4123    32.7914
  346.1000    85.9776    35.5886    33.3968
  346.2000    85.9764    35.7887    33.7757
  346.3000    85.9752    36.0756    34.1916
  346.4000    85.9739    36.4079    34.9103
  346.5000    85.2981    36.4054    35.7105
  346.6000    84.7306    36.6000    36.4327
  346.7000    84.1324    36.8058    36.9604
  346.8000    83.4485    37.0126    37.1699
  346.9000    82.9422    37.2206    37.1678
  347.0000    82.4690    37.4262    37.0054
  347.1000    82.1570    37.4241    36.6836
  347.2000    81.6727    37.4220    36.3291
  347.3000    80.9752    37.4199    36.0926
  347.4000    80.3874    37.4178    35.3846
  347.5000    79.7996    37.4157    35.0476
  347.6000    79.1843    37.4133    34.5315
  347.7000    78.4078    37.4116    33.9464
