~VERSION INFORMATION
 VERS.                2.0:   CWLS LOG ASCII STANDARD - VERSION 2.0
 WRAP.                 NO:   ONE LINE PER DEPTH STEP
~WELL INFORMATION
#MNEM.UNIT      DATA TYPE    INFORMATION
#----------   ------------   ------------------------------
 STRT.F          390.0000:   START DEPTH
 STOP.F         2628.0000:   STOP DEPTH
 STEP.F            0.5000:   STEP LENGTH
 NULL.          -999.2500:   NO VALUE
 COMP. FENIX & SCISSON INC:   COMPANY
 WELL.    25 SHX 11 #3-11:   WELL
 FLD .             TEAPOT:   FIELD
 LOC .      S11 T38N R78W:   LOCATION
 CNTY.            NATRONA:   COUNTY
 STAT.            WYOMING:   STATE
 CTRY. UNITED STATES OF AMERICA:   COUNTRY
 SRVC.              Welex:   SERVICE COMPANY
 DATE.        15-MAY-1980:   LOGDATE
 API .       490251081900:   API NUMBER
~CURVE INFORMATION
#MNEM.UNIT       API CODE    CURVE DESCRIPTION
#----------   ------------   ------------------------------
 DEPT.F                  :   
 CALD.IN     45 280 60 00:   CALIPER
 GRD .GAPI   45 310 01 00:   GAMMA RAY FROM DENSITY LOG
 RHOB.G/C3   45 350 01 00:   BULK DENSITY
 DPHI.DEC    45 890 12 00:   DENSITY POROSITY SANDSTONE
 CORR.G/C3   45 356 01 00:   DENSITY CORRECTION
~PARAMETER INFORMATION
#MNEM.UNIT          VALUE    DESCRIPTION
#----------   ------------   ------------------------------
 PD  .                 GL:   PERMANENT DATUM
 EPD .F              5163:   ELEVATION PERMANENT DATUM
 LMF .                 KB:   LOG MEASURED FROM
 DAPD.F                10:   FEET ABOVE PERMANENT DATUM
 DMF .                 KB:   DRILLING MEASURED FROM
 EKB .F              5173:   KELLING BUSHING
 EGL .F              5163:   GROUND LEVEL
 DATE.            5-15-80:   RUN DATE
 RUN .                  1:   RUN NUMBER
 DD  .F              2625:   DEPTH DRILLER
 DL  .F              2630:   DEPTH LOGGER
 BLI .F              2628:   BOTTOM LOG INTERVAL
 TLI .F               400:   TOP LOG INTERVAL
 CS  .IN            9.625:   CASING SIZE
 CBD .F               645:   CASING BOTTOM DRILLER
 BS  .IN             8.75:   BIT SIZE
 BSD .F              2625:   BIT SIZE AT DEPTH
 DFT .        AIR DRILLED:   DRILLING FLUID TYPE
 TCS .HRS               2:   TIME CURCULATED STOPPED
 MRT .F               116:   MAXIMUM RECORDED TEMPERATURE
 ENGI.            BENTSEN:   RECORDING ENGINEER
 WITN.           DINSMORE:   WITNESSED BY
 CLNT.            A2DTECH:   CLIENT CODE
 ORIG.           5" PRINT:   ORIGIN OF DATA
 UWI .       490251081900:   UNIQUE WELL ID
 DICO. A2D Technologies, Inc.:   DIGITIZING COMPANY
~OTHER INFORMATION
~A   DEPT     CALD         GRD      RHOB       DPHI       CORR   
# ...
 1793.0000     8.8782   100.1842     2.4823     0.0405     0.0351
 1793.5000     8.8366    99.2444     2.4684     0.0476     0.0262
 1794.0000     8.7949    99.6080     2.4700     0.0503     0.0339
 1794.5000     8.7600    99.7239     2.5012     0.0297     0.0534
 1795.0000     8.7601    99.8071     2.5173     0.0193     0.0588
 1795.5000     8.7924    99.4194     2.5320     0.0127     0.0694
 1796.0000     8.8313    98.3462     2.5382     0.0069     0.0712
 1796.5000     8.8626    97.7256     2.5425     0.0039     0.0733
 1797.0000     8.8438    97.7485     2.5358     0.0083     0.0714
 1797.5000     8.8224    96.8458     2.5305     0.0109     0.0671
 1798.0000     8.8009    96.2283     2.5259     0.0103     0.0630
 1798.5000     8.7816    96.7987     2.5180     0.0169     0.0586
 1799.0000     8.7921    96.8204     2.5195     0.0185     0.0570
 1799.5000     8.8159    96.8264     2.5184     0.0203     0.0552
 1800.0000     8.8399    97.2336     2.5162     0.0261     0.0478
 1800.5000     8.8413    98.0775     2.5042     0.0308     0.0405
 1801.0000     8.8214    98.9119     2.4905     0.0362     0.0332
 1801.5000     8.8020    99.7583     2.4935     0.0361     0.0326
 1802.0000     8.7710    99.7403     2.4877     0.0354     0.0331
 1802.5000     8.7762    98.9837     2.4720     0.0428     0.0188
 1803.0000     8.7831    98.1990     2.4632     0.0536     0.0074
 1803.5000     8.7859    98.1625     2.4620     0.0548     0.0144
 1804.0000     8.7889    98.5479     2.4718     0.0500     0.0222
 1804.5000     8.7920    98.9280     2.4805     0.0449     0.0322
 1805.0000     8.7950    98.8454     2.4746     0.0434     0.0358
 1805.5000     8.7980    98.7069     2.4648     0.0495     0.0264
 1806.0000     8.8019    98.4049     2.4674     0.0532     0.0309
 1806.5000     8.8298    98.2333     2.4668     0.0505     0.0284
 1807.0000     8.8595    98.1404     2.4768     0.0437     0.0407
 1807.5000     8.8972    98.0502     2.4942     0.0314     0.0561
 1808.0000     8.9021    97.7092     2.4984     0.0380     0.0538
 1808.5000     8.9017    97.2037     2.4742     0.0493     0.0401
 1809.0000     8.9016    96.6926     2.4589     0.0604     0.0270
 1809.5000     8.9016    96.2223     2.4636     0.0540     0.0293
 1810.0000     8.9016    96.1186     2.4577     0.0593     0.0282
 1810.5000     8.9015    95.9753     2.4605     0.0608     0.0223
 1811.0000     8.9024    95.6988     2.4584     0.0584     0.0170
 1811.5000     8.8490    95.3835     2.4630     0.0544     0.0227
 1812.0000     8.7814    94.4630     2.4705     0.0508     0.0287
 1812.5000     8.7795    93.4082     2.4674     0.0528     0.0291
 1813.0000     8.8003    92.3108     2.4517     0.0524     0.0215
 1813.5000     8.8003    91.1439     2.4473     0.0637     0.0150
 1814.0000     8.7799    89.8938     2.4554     0.0592     0.0219
 1814.5000     8.7924    89.8399     2.4589     0.0560     0.0290
 1815.0000     8.8055    89.2688     2.4584     0.0564     0.0360
 1815.5000     8.8181    89.5133     2.4658     0.0537     0.0430
 1816.0000     8.8308    91.4969     2.4739     0.0490     0.0516
 1816.5000     8.8434    93.4772     2.4746     0.0471     0.0597
 1817.0000     8.8561    95.4512     2.4710     0.0487     0.0554
 1817.5000     8.8689    97.4153     2.4738     0.0473     0.0516
 1818.0000     8.8815    99.0698     2.4776     0.0455     0.0526
 1818.5000     8.8764   100.1740     2.4560     0.0604     0.0376
 1819.0000     8.8467   101.3648     2.4529     0.0613     0.0265
 1819.5000     8.8066   102.5302     2.4646     0.0536     0.0387
 1820.0000     8.7673   103.6156     2.4404     0.0669     0.0188
 1820.5000     8.7635   103.7880     2.4489     0.0636     0.0206
 1821.0000     8.7665   103.6487     2.4595     0.0582     0.0278
 1821.5000     8.7697   102.7596     2.4633     0.0568     0.0331
 1822.0000     8.7727   101.0946     2.4694     0.0516     0.0425
 1822.5000     8.7757    99.5515     2.4657     0.0507     0.0527
 1823.0000     8.7795    99.0994     2.4728     0.0479     0.0569
 1823.5000     8.7963    98.7005     2.4766     0.0472     0.0557
 1824.0000     8.8016    98.1343     2.4528     0.0550     0.0465
 1824.5000     8.8013    97.5619     2.4526     0.0596     0.0497
 1825.0000     8.8012    96.9506     2.4606     0.0546     0.0575
 1825.5000     8.8012    97.5794     2.4686     0.0473     0.0654
 1826.0000     8.8011    98.3283     2.4869     0.0363     0.0807
 1826.5000     8.8128    97.4661     2.5048     0.0278     0.0738
 1827.0000     8.8368    97.7434     2.5035     0.0310     0.0672
 1827.5000     8.8566    98.0233     2.5134     0.0221     0.0605
 1828.0000     8.8606    98.0655     2.4883     0.0366     0.0398
 1828.5000     8.8829    98.3212     2.5052     0.0249     0.0423
 1829.0000     8.8813    98.5736     2.5156     0.0209     0.0532
 1829.5000     8.8815    99.0755     2.5133     0.0225     0.0507
 1830.0000     8.8816    99.6480     2.5302     0.0125     0.0647
 1830.5000     8.8867   100.2316     2.5159     0.0181     0.0578
 1831.0000     8.8921   100.4173     2.5047     0.0269     0.0489
 1831.5000     8.8974    99.2674     2.4860     0.0375     0.0418
 1832.0000     8.9019    98.0613     2.4704     0.0479     0.0243
 1832.5000     8.8890    96.8591     2.4583     0.0569     0.0264
 1833.0000     8.8689    95.6561     2.4438     0.0653     0.0175
 1833.5000     8.8487    94.4502     2.4391     0.0685     0.0088
 1834.0000     8.8284    93.4369     2.4366     0.0709     0.0118
 1834.5000     8.8082    94.3443     2.4625     0.0560     0.0299
 1835.0000     8.7881    95.2845     2.4593     0.0560     0.0245
 1835.5000     8.8020    95.2584     2.4584     0.0592     0.0146
 1836.0000     8.8476    95.0198     2.4711     0.0518     0.0197
 1836.5000     8.8612    95.4558     2.4745     0.0471     0.0330
 1837.0000     8.8615    96.1094     2.4498     0.0600     0.0205
 1837.5000     8.8615    96.7721     2.4570     0.0576     0.0184
 1838.0000     8.8615    97.4352     2.4476     0.0660     0.0135
 1838.5000     8.8615    98.0964     2.4330     0.0748     0.0007
 1839.0000     8.8615    98.7618     2.4175     0.0838    -0.0122
 1839.5000     8.8615    98.8790     2.4117     0.0835    -0.0151
 1840.0000     8.8615    98.7121     2.4285     0.0761    -0.0084
 1840.5000     8.8614    98.7943     2.4377     0.0690    -0.0016
 1841.0000     8.8537    99.2503     2.4521     0.0621     0.0065
 1841.5000     8.8310    99.4081     2.4652     0.0552     0.0166
 1842.0000     8.8085    98.4621     2.4678     0.0512     0.0251
 1842.5000     8.7856    97.5311     2.4703     0.0519     0.0298
 1843.0000     8.7870    96.5731     2.4801     0.0443     0.0355
 1843.5000     8.8027    96.7416     2.4684     0.0503     0.0270
 1844.0000     8.8185    97.1069     2.4620     0.0556     0.0267
 1844.5000     8.8213    96.4091     2.4716     0.0524     0.0328
 1845.0000     8.8225    95.6905     2.4836     0.0442     0.0390
 1845.5000     8.8253    95.0122     2.4921     0.0378     0.0453
 1846.0000     8.8281    95.2896     2.4953     0.0354     0.0470
 1846.5000     8.8309    95.7227     2.4917     0.0375     0.0412
 1847.0000     8.8337    96.2878     2.4736     0.0391     0.0282
 1847.5000     8.8364    97.1682     2.4532     0.0555     0.0095
 1848.0000     8.8394    97.3457     2.4306     0.0711    -0.0073
 1848.5000     8.8478    97.1315     2.4369     0.0721    -0.0036
 1849.0000     8.8758    97.1144     2.4488     0.0604     0.0044
 1849.5000     8.9027    97.0872     2.4630     0.0510     0.0203
 1850.0000     8.9220    98.2717     2.4800     0.0417     0.0398
 1850.5000     8.9199    99.5469     2.4970     0.0350     0.0606
 1851.0000     8.9133   100.4676     2.4794     0.0443     0.0563
 1851.5000     8.9069   100.0443     2.4537     0.0574     0.0400
 1852.0000     8.9005    99.5996     2.4395     0.0677     0.0237
 1852.5000     8.8941    99.1468     2.4281     0.0751     0.0073
 1853.0000     8.8877    99.2404     2.4168     0.0842     0.0017
 1853.5000     8.8813    99.7842     2.4048     0.0912    -0.0058
