~VERSION INFORMATION
 VERS.                2.0:   CWLS LOG ASCII STANDARD - VERSION 2.0
 WRAP.                 NO:   ONE LINE PER DEPTH STEP
~WELL INFORMATION
#MNEM.UNIT      DATA TYPE    INFORMATION
#----------   ------------   ------------------------------
 STRT.F          630.0000:   START DEPTH
 STOP.F         1708.0000:   STOP DEPTH
 STEP.F            0.5000:   STEP LENGTH
 NULL.          -999.2500:   NO VALUE
 COMP. FENIX & SCISSON INC:   COMPANY
 WELL.      SHX 34 #58-34:   WELL
 FLD .             TEAPOT:   FIELD
 LOC .      S34 T39N R78W:   LOCATION
 CNTY.            NATRONA:   COUNTY
 STAT.            WYOMING:   STATE
 CTRY. UNITED STATES OF AMERICA:   COUNTRY
 SRVC.           BIRDWELL:   SERVICE COMPANY
 DATE.        28-MAR-1979:   LOGDATE
 API .       490251077400:   API NUMBER
~CURVE INFORMATION
#MNEM.UNIT       API CODE    CURVE DESCRIPTION
#----------   ------------   ------------------------------
 DEPT.F                  :   
 CORR.G/C3   45 356 01 00:   DENSITY CORRECTION
 DPHI.DEC    45 890 12 00:   DENSITY POROSITY SANDSTONE
 RHOB.G/C3   45 350 01 00:   BULK DENSITY
 CALD.IN     45 280 60 00:   CALIPER
 GRD .GAPI   45 310 01 00:   GAMMA RAY FROM DENSITY LOG
~PARAMETER INFORMATION
#MNEM.UNIT          VALUE    DESCRIPTION
#----------   ------------   ------------------------------
 PD  .                 GL:   PERMANENT DATUM
 EPD .F              5120:   ELEVATION PERMANENT DATUM
 LMF .                 KB:   LOG MEASURED FROM
 DAPD.F                10:   FEET ABOVE PERMANENT DATUM
 DMF .                 KB:   DRILLING MEASURED FROM
 EKB .F              5130:   KELLING BUSHING
 EGL .F              5120:   GROUND LEVEL
 DATE.            3-28-79:   RUN DATE
 RUN .                  2:   RUN NUMBER
 DD  .F              1720:   DEPTH DRILLER
 DL  .F              1708:   DEPTH LOGGER
 BLI .F              1708:   BOTTOM LOG INTERVAL
 TLI .F               649:   TOP LOG INTERVAL
 CS  .IN            9.625:   CASING SIZE
 CBD .F               639:   CASING BOTTOM DRILLER
 CBL .F               646:   CASING BOTTOM LOGGER
 BS  .IN             8.75:   BIT SIZE
 BSD .F              1720:   BIT SIZE AT DEPTH
 DFT .                OIL:   DRILLING FLUID TYPE
 TCS .HRS               3:   TIME CURCULATED STOPPED
 MRT .F               150:   MAXIMUM RECORDED TEMPERATURE
 LUN .               2959:   LOGGING UNIT NUMBER
 LUL .             CASPER:   LOGGING UNIT LOCATION
 ENGI.         B. ROLLINS:   RECORDING ENGINEER
 WITN.              AMEND:   WITNESSED BY
 CLNT.            A2DTECH:   CLIENT CODE
 ORIG.           5" PRINT:   ORIGIN OF DATA
 UWI .       490251077400:   UNIQUE WELL ID
 DICO. A2D Technologies, Inc.:   DIGITIZING COMPANY
~OTHER INFORMATION
~A   DEPT     CORR       DPHI       RHOB       CALD         GRD  
# ...
 1118.0000     0.0394     0.0432     2.4793     9.3247   118.5661
 1118.5000     0.0415     0.0408     2.4829     9.3032   110.7544
 1119.0000     0.0439     0.0390     2.4868     9.2813   107.1629
 1119.5000     0.0405     0.0394     2.4850     9.2615   108.4413
 1120.0000     0.0333     0.0406     2.4828     9.2635   112.4063
 1120.5000     0.0275     0.0485     2.4738     9.3078   116.3173
 1121.0000     0.0184     0.0542     2.4643     9.3454   118.5164
 1121.5000     0.0180     0.0588     2.4540     9.3859   119.3647
 1122.0000     0.0227     0.0613     2.4496     9.4247   120.4133
 1122.5000     0.0229     0.0576     2.4519     9.4593   118.7996
 1123.0000     0.0207     0.0539     2.4572     9.4524   116.8109
 1123.5000     0.0190     0.0503     2.4659     9.4287   114.8798
 1124.0000     0.0170     0.0486     2.4724     9.4047   113.3087
 1124.5000     0.0155     0.0510     2.4669     9.3803   112.6850
 1125.0000     0.0200     0.0510     2.4639     9.3565   114.4936
 1125.5000     0.0281     0.0493     2.4675     9.3329   113.9828
 1126.0000     0.0362     0.0479     2.4721     9.3064   113.2162
 1126.5000     0.0382     0.0471     2.4682     9.3156   122.9652
 1127.0000     0.0321     0.0512     2.4620     9.3457   125.2489
 1127.5000     0.0382     0.0494     2.4695     9.3738   125.9861
 1128.0000     0.0378     0.0456     2.4769     9.4031   122.0756
 1128.5000     0.0350     0.0448     2.4712     9.4214   118.5898
 1129.0000     0.0245     0.0554     2.4571     9.4101   120.0222
 1129.5000     0.0246     0.0606     2.4533     9.4003   121.8125
 1130.0000     0.0517     0.0498     2.4535     9.3903   122.8997
 1130.5000     0.0859     0.0370     2.4828     9.3798   119.5917
 1131.0000     0.1149     0.0241     2.5122     9.3697   116.8285
 1131.5000     0.1159     0.0122     2.5433     9.3595   115.1993
 1132.0000     0.1073    -0.0040     2.5602     9.3492   116.1051
 1132.5000     0.0862    -0.0001     2.5442     9.3390   117.3639
 1133.0000     0.0637     0.0111     2.5321     9.3288   118.5212
 1133.5000     0.0416     0.0222     2.5182     9.3186   119.6526
 1134.0000     0.0462     0.0334     2.5066     9.3083   120.8494
 1134.5000     0.0512     0.0445     2.4961     9.2981   122.0278
 1135.0000  -999.2500     0.0613     2.4719     9.2880   122.5023
 1135.5000  -999.2500     0.0585     2.4419     9.2776   119.4312
 1136.0000  -999.2500     0.0527     2.4338     9.2675   115.8513
 1136.5000  -999.2500     0.0469     2.4402     9.2603   113.3685
 1137.0000  -999.2500     0.0411     2.4487     9.2719   112.9874
 1137.5000  -999.2500     0.0353     2.4572     9.2857   114.1759
 1138.0000  -999.2500     0.0295     2.4637     9.2998   117.1535
 1138.5000  -999.2500     0.0237     2.4705     9.3136   118.9713
 1139.0000  -999.2500     0.0179     2.4773     9.3275   118.2428
 1139.5000  -999.2500     0.0121     2.4839     9.3415   119.8031
 1140.0000  -999.2500     0.0063     2.4908     9.3553   119.6036
 1140.5000  -999.2500     0.0048     2.4974     9.3691   118.2156
 1141.0000  -999.2500     0.0048     2.5027     9.3864   117.8879
 1141.5000  -999.2500     0.0048     2.5015     9.4133   118.5210
 1142.0000  -999.2500     0.0075     2.4991     9.4400   117.5937
 1142.5000  -999.2500     0.0102     2.4923     9.4669   112.7200
 1143.0000  -999.2500     0.0129     2.4874     9.4938   113.5600
 1143.5000  -999.2500     0.0157     2.4826     9.5210   116.1865
 1144.0000  -999.2500     0.0184     2.4965     9.5471   114.5753
 1144.5000  -999.2500     0.0208     2.5186     9.5739   111.4792
 1145.0000  -999.2500     0.0250     2.5377     9.5653   108.4871
 1145.5000  -999.2500     0.0287     2.5303     9.5451   111.4833
 1146.0000     0.0577     0.0324     2.5090     9.5251   114.4810
 1146.5000     0.0513     0.0362     2.4892     9.5055   118.0644
 1147.0000     0.0453     0.0382     2.4853     9.4857   122.5981
 1147.5000     0.0404     0.0354     2.4876     9.4658   124.3216
 1148.0000     0.0355     0.0327     2.4919     9.4460   124.1734
 1148.5000     0.0299     0.0311     2.4981     9.4263   124.0695
 1149.0000     0.0270     0.0491     2.4818     9.4064   122.5073
 1149.5000     0.0182     0.0613     2.4472     9.3867   119.5284
 1150.0000     0.0121     0.0508     2.4568     9.3671   119.4784
 1150.5000     0.0134     0.0400     2.4732     9.3467   120.6416
 1151.0000     0.0174     0.0359     2.4933     9.3424   118.8235
 1151.5000     0.0212     0.0369     2.4934     9.3558   116.5146
 1152.0000     0.0253     0.0398     2.4848     9.3684   117.4837
 1152.5000     0.0290     0.0429     2.4788     9.3812   125.9742
 1153.0000     0.0312     0.0496     2.4709     9.3941   131.5451
 1153.5000     0.0275     0.0563     2.4559     9.4068   129.5155
 1154.0000     0.0278     0.0637     2.4405     9.4198   124.8370
 1154.5000     0.0310     0.0565     2.4498     9.4324   120.3881
 1155.0000     0.0380     0.0487     2.4757     9.4445   115.8656
 1155.5000     0.0437     0.0422     2.4820     9.4606   115.3078
 1156.0000     0.0402     0.0494     2.4673     9.4347   116.5788
 1156.5000     0.0451     0.0494     2.4759     9.3683   118.0614
 1157.0000     0.0555     0.0372     2.4930     9.3016   116.3378
 1157.5000     0.0628     0.0319     2.5079     9.2859   114.4532
 1158.0000     0.0537     0.0215     2.5010     9.3696   112.8257
 1158.5000     0.0482     0.0265     2.4975     9.4542   115.7882
 1159.0000     0.0475     0.0316     2.5058     9.4552   118.4246
 1159.5000     0.0479     0.0375     2.4953     9.4540   121.2568
 1160.0000     0.0490     0.0466     2.4733     9.4483   124.0815
 1160.5000     0.0627     0.0550     2.4610     9.4453   126.7984
 1161.0000     0.0943     0.0371     2.4806     9.4417   129.5242
 1161.5000     0.1500     0.0162     2.5122     9.4377   133.2061
 1162.0000     0.1763    -0.0047     2.5577     9.4340   131.5198
 1162.5000     0.1561    -0.0097     2.5747     9.4300   126.3439
 1163.0000     0.1168     0.0004     2.5451     9.4263   121.2190
 1163.5000     0.0792     0.0154     2.5119     9.4231   122.0274
 1164.0000     0.0480     0.0304     2.4906     9.4070   124.0147
 1164.5000     0.0288     0.0378     2.4813     9.3678   120.7593
 1165.0000     0.0282     0.0434     2.4776     9.3296   118.3039
 1165.5000     0.0269     0.0470     2.4742     9.3003   117.1297
 1166.0000     0.0341     0.0437     2.4801     9.3002   116.9912
 1166.5000     0.0467     0.0393     2.4896     9.2998   117.6414
 1167.0000     0.0531     0.0359     2.4967     9.2996   118.3171
 1167.5000     0.0419     0.0404     2.4847     9.3001   119.0664
 1168.0000     0.0313     0.0446     2.4693     9.3009   122.3704
 1168.5000     0.0195     0.0448     2.4592     9.3174   126.0505
 1169.0000     0.0176     0.0450     2.4668     9.3321   129.2664
 1169.5000     0.0214     0.0453     2.4729     9.3477   128.2541
 1170.0000     0.0250     0.0479     2.4711     9.3630   126.3025
 1170.5000     0.0283     0.0526     2.4653     9.3782   124.5272
 1171.0000     0.0368     0.0505     2.4634     9.3936   127.3357
 1171.5000     0.0449     0.0434     2.4784     9.4089   133.1255
 1172.0000     0.0527     0.0359     2.4955     9.4242   138.6777
 1172.5000     0.0589     0.0295     2.5029     9.4396   143.9509
 1173.0000     0.0489     0.0316     2.4912     9.4548   142.8636
 1173.5000     0.0402     0.0376     2.4815     9.4702   140.8139
 1174.0000     0.0308     0.0422     2.4768     9.4856   139.0123
 1174.5000     0.0211     0.0420     2.4741     9.5002   140.3711
 1175.0000     0.0146     0.0402     2.4706     9.5168   142.7672
 1175.5000     0.0244     0.0384     2.4798     9.5313   143.6081
 1176.0000     0.0408     0.0366     2.4964     9.5368   139.2684
 1176.5000     0.0562     0.0303     2.4988     9.5046   134.7318
 1177.0000     0.0716     0.0241     2.5054     9.5269   132.2477
 1177.5000     0.0871     0.0180     2.5120     9.5459   133.0844
 1178.0000     0.1024     0.0118     2.5129     9.5662   135.9280
 1178.5000     0.1117     0.0056     2.5263     9.5869   138.7309
