~VERSION INFORMATION
 VERS.                2.0:   CWLS LOG ASCII STANDARD - VERSION 2.0
 WRAP.                 NO:   ONE LINE PER DEPTH STEP
~WELL INFORMATION
#MNEM.UNIT      DATA TYPE    INFORMATION
#----------   ------------   ------------------------------
 STRT.F            0.0000:   START DEPTH
 STOP.F          774.0000:   STOP DEPTH
 STEP.F            0.5000:   STEP LENGTH
 NULL.          -999.2500:   NO VALUE
 COMP. LAWRENCE/ALLISON INC:   COMPANY
 WELL. SX 11 WP #37-53-11:   WELL
 FLD .             TEAPOT:   FIELD
 LOC .      S11 T38N R78W:   LOCATION
 CNTY.            NATRONA:   COUNTY
 STAT.            WYOMING:   STATE
 CTRY. UNITED STATES OF AMERICA:   COUNTRY
 SRVC.            Unknown:   SERVICE COMPANY
 DATE.        19-SEP-1984:   LOGDATE
 API .       490251098900:   API NUMBER
~CURVE INFORMATION
#MNEM.UNIT       API CODE    CURVE DESCRIPTION
#----------   ------------   ------------------------------
 DEPT.F                  :   
 GRR .GAPI   07 310 01 00:   GAMMA RAY FROM RES. LOG.
 SPR .MV     07 010 01 00:   SPONTANEOUS POTENTIAL
 RFOC.OHMM   07 220 04 00:   RESISTIVITY FOCUSED LOG
 ILD .OHMM   07 120 46 00:   INDUCTION LOG DEEP RESISTIVITY
 RILM.OHMM   07 120 44 00:   INDUCTION LOG MEDIUM RESISTIVITY
 CALD.IN     45 280 60 00:   CALIPER
 DEN .G/C3   45 350 01 00:   COMPENSATED BULK DENSTIY
 CORR.G/C3   45 356 01 00:   DENSITY CORRECTION
 PORD.DEC    45 890 12 00:   POROSITY DENSITY SANDSTONE
 AC  .US/F   60 520 00 00:   ACOUSTIC SONIC
 CNC .DEC    42 890 03 00:   NEUTRON POROSITY SANDSTONE
~PARAMETER INFORMATION
#MNEM.UNIT          VALUE    DESCRIPTION
#----------   ------------   ------------------------------
 PD  .                 GL:   PERMANENT DATUM
 EPD .F              5153:   ELEVATION PERMANENT DATUM
 LMF .                 GL:   LOG MEASURED FROM
 DMF .                 GL:   DRILLING MEASURED FROM
 EGL .F              5153:   GROUND LEVEL
 DATE.       19-SEPT-1984:   RUN DATE
 RUN .                  1:   RUN NUMBER
 DD  .F               785:   DEPTH DRILLER
 DL  .F               774:   DEPTH LOGGER
 BLI .F               772:   BOTTOM LOG INTERVAL
 CS  .IN            8.625:   CASING SIZE
 CBD .F                42:   CASING BOTTOM DRILLER
 CBL .F                41:   CASING BOTTOM LOGGER
 BS  .IN            7.875:   BIT SIZE
 BSD .F               785:   BIT SIZE AT DEPTH
 DFT .          KCL WATER:   DRILLING FLUID TYPE
 MSS .           FLOWLINE:   MUD SAMPLE SOURCE
 RMS .OHMM            .27:   RESISTIVITY MUD SAMPLE
 MST .F                82:   MUD SAMPLE TEMPERATURE
 TCS .HRS               2:   TIME CURCULATED STOPPED
 MRT .F               100:   MAXIMUM RECORDED TEMPERATURE
 LUN .               6274:   LOGGING UNIT NUMBER
 LUL .               GLTE:   LOGGING UNIT LOCATION
 ENGI.         HINDS/MACK:   RECORDING ENGINEER
 WITN.             STRONG:   WITNESSED BY
 CLNT.            A2DTECH:   CLIENT CODE
 ORIG.   1", 2", 5" PRINT:   ORIGIN OF DATA
 UWI .       490251098900:   UNIQUE WELL ID
 DICO. A2D Technologies, Inc.:   DIGITIZING COMPANY
~OTHER INFORMATION
~A    DEPT      GRR       SPR       RFOC        ILD       RILM       CALD        DEN       CORR       PORD         AC        CNC   
# ...
  183.0000   103.4443   -41.4071     8.0916     7.0117     7.2280     8.1752     2.4727     0.0131     0.1227   107.2739     0.2919
  183.5000   103.9621   -41.2936     7.9072     6.9314     7.1205     8.1752     2.4750     0.0347     0.1216   107.8976     0.2903
  184.0000   104.7592   -41.3729     7.7271     6.8520     7.0146     8.1752     2.4769     0.0588     0.1195   108.5214     0.2867
  184.5000   105.5561   -41.4701     7.5510     6.7735     6.9102     8.1752     2.4703     0.0404     0.1230   109.0358     0.2965
  185.0000   106.1962   -41.5669     7.3654     6.6959     6.8072     8.1752     2.4567     0.0106     0.1318   108.9009     0.3066
  185.5000   106.7032   -41.6633     7.4224     6.6357     6.7063     8.1752     2.4422    -0.0063     0.1414   108.5444     0.3167
  186.0000   107.0327   -41.7597     7.4869     6.5911     6.6510     8.1752     2.4383    -0.0120     0.1431   108.1880     0.3269
  186.5000   104.0450   -41.8561     7.5514     6.5468     6.6357     8.1752     2.4452    -0.0016     0.1407   108.1398     0.3074
  187.0000   100.4296   -41.9525     7.6164     6.5027     6.6204     8.1752     2.4522     0.0084     0.1367   108.4483     0.3078
  187.5000    98.0353   -42.0489     7.7105     6.4590     6.6052     8.1752     2.4586     0.0184     0.1327   108.9750     0.3068
  188.0000   101.9940   -42.1453     7.6964     6.4156     6.5900     8.1752     2.4546     0.0285     0.1311   109.5018     0.3002
  188.5000   107.8074   -42.2418     7.6685     6.3725     6.5749     8.1752     2.4451     0.0334     0.1367   110.0323     0.2942
  189.0000   110.2562   -42.3377     7.6405     6.3296     6.5599     8.1752     2.4377     0.0229     0.1437   110.1291     0.2983
  189.5000   109.9011   -42.4362     7.4957     6.3029     6.5448     8.1752     2.4339     0.0074     0.1469   110.1064     0.3049
  190.0000   107.4892   -42.3480     7.3495     6.3268     6.5382     8.1752     2.4348    -0.0080     0.1465   109.9776     0.3115
  190.5000   103.8091   -42.1319     7.2304     6.3905     6.6347     8.1752     2.4385    -0.0052     0.1443   109.3101     0.3197
  191.0000   103.2758   -41.9141     7.2302     6.4548     6.7057     8.1752     2.4383     0.0004     0.1444   108.3121     0.3106
  191.5000   103.9598   -41.6959     7.2317     6.5198     6.7774     8.1752     2.4325     0.0062     0.1475   107.3471     0.3041
  192.0000   104.6766   -41.4773     7.4181     6.5855     6.8499     8.1752     2.4261     0.0064     0.1510   106.4916     0.3002
  192.5000   103.5078   -41.2603     7.9035     6.6829     6.9522     8.1752     2.4245     0.0042     0.1512   106.3519     0.2948
  193.0000   100.5589   -41.1039     8.0136     6.8949     7.1692     8.1752     2.4316     0.0066     0.1478   106.3519     0.2860
  193.5000    97.5430   -41.2095     8.0340     7.1136     7.3930     8.1752     2.4388     0.0096     0.1435   105.9066     0.2848
  194.0000    96.9295   -41.3106     8.0586     7.3392     7.6089     8.1752     2.4409     0.0071     0.1431   103.1677     0.2897
  194.5000    98.8692   -41.4089     8.0575     7.5720     7.8278     8.1752     2.4409     0.0037     0.1427   100.2817     0.2942
  195.0000    96.7564   -41.4246     8.6447     7.8122     7.9987     8.1752     2.4422     0.0024     0.1423    99.0714     0.2900
  195.5000    93.9687   -41.1157     9.2370     7.9987     8.0723     8.1752     2.4523     0.0033     0.1359    98.8098     0.2837
  196.0000    90.7983   -40.8158     9.9665     7.9551     8.1702     8.1752     2.4620     0.0026     0.1283   100.0194     0.2773
  196.5000    91.1883   -40.5179     9.6192     7.9203     8.2217     8.1752     2.4717    -0.0030     0.1227   102.7363     0.2752
  197.0000    94.9461   -40.2809     9.1114     7.8856     8.1270     8.1752     2.4689    -0.0011     0.1253   104.7328     0.2775
  197.5000    99.4388   -40.2336     8.6304     7.8534     8.0149     8.1752     2.4644     0.0088     0.1282   105.7025     0.2817
  198.0000   103.5440   -40.1834     8.2700     7.6074     7.8046     8.1752     2.4566     0.0120     0.1317   106.4023     0.2855
  198.5000   101.9031   -40.1353     8.1712     7.3843     7.5998     8.1752     2.4489     0.0080     0.1368   107.0516     0.2828
  199.0000    99.5068   -40.1619     8.0735     7.1678     7.4003     8.1752     2.4413     0.0040     0.1419   107.4095     0.2857
  199.5000    98.0638   -40.4336     7.9769     6.9576     7.2061     8.1752     2.4351     0.0000     0.1458   107.6575     0.2944
  200.0000    98.6136   -40.6943     7.8815     6.7536     7.0356     8.1752     2.4320    -0.0040     0.1466   107.7029     0.3030
  200.5000   104.4476   -40.9552     7.8382     6.5358     7.0148     8.1752     2.4335     0.0004     0.1458   107.7580     0.3126
  201.0000   105.3146   -41.2287     7.8079     6.6695     6.9714     8.1752     2.4354     0.0128     0.1449   107.8916     0.2998
  201.5000   103.3119   -41.1229     7.7778     6.8731     7.0470     8.1752     2.4382     0.0251     0.1438   108.0264     0.2909
  202.0000   102.2009   -40.8993     7.7479     6.9700     7.1935     8.1752     2.4444     0.0308     0.1405   108.1487     0.2875
  202.5000   101.8127   -40.6725     7.7108     7.0650     7.3390     8.1752     2.4509     0.0226     0.1351   107.1589     0.2978
  203.0000   100.9809   -40.4465     7.8423     7.1657     7.4860     8.1752     2.4495     0.0145     0.1364   105.7115     0.2986
  203.5000    99.2389   -40.2208     8.0206     7.2963     7.6360     8.1752     2.4481     0.0063     0.1374   104.2642     0.2865
  204.0000    97.8378   -39.9945     8.2029     7.4348     7.7889     8.1752     2.4536     0.0082     0.1359   102.8052     0.2750
  204.5000    96.4727   -39.8043     8.3895     7.5759     7.9451     8.1752     2.4613     0.0113     0.1287   101.9101     0.2724
  205.0000    96.2078   -39.6365     8.5803     7.7196     8.1042     8.1752     2.4692     0.0139     0.1243   102.0674     0.2775
  205.5000    96.0837   -39.4683     8.7752     7.8662     8.2665     8.1752     2.4707     0.0091     0.1239   102.2368     0.2808
  206.0000    96.3601   -39.3161     8.9747     8.0154     8.2974     8.1752     2.4656     0.0041     0.1273   101.9894     0.2919
  206.5000    97.4817   -39.4554     9.0108     8.0723     8.2702     8.1752     2.4583     0.0001     0.1320   101.7139     0.2994
  207.0000    98.7545   -39.6046     9.0108     8.0723     8.2066     8.1752     2.4509     0.0016     0.1367   101.9013     0.2993
  207.5000    99.8540   -39.7525     8.8629     7.9164     8.1467     8.1752     2.4478     0.0030     0.1388   102.5679     0.2992
  208.0000   100.8554   -39.9000     8.6379     7.6799     7.9127     8.1752     2.4474     0.0043     0.1385   103.4642     0.2991
  208.5000   101.6518   -40.0476     8.4187     7.4505     7.6961     8.1752     2.4471     0.0058     0.1379   104.5678     0.2990
  209.0000   102.9341   -40.1951     8.2050     7.2280     7.4851     8.1752     2.4418     0.0045     0.1417   105.0886     0.2994
  209.5000   104.9104   -40.3426     7.9966     7.0121     7.2799     8.1752     2.4355     0.0027     0.1453   105.6095     0.2994
  210.0000   105.0316   -40.4902     7.7937     6.7798     7.0817     8.1752     2.4323    -0.0069     0.1454   106.1303     0.2994
  210.5000   102.6029   -40.6377     7.5959     6.7836     6.9090     8.1752     2.4408    -0.0159     0.1407   106.6511     0.2994
  211.0000   103.9295   -40.7856     7.4762     6.7816     6.9626     8.1752     2.4457    -0.0043     0.1392   106.9483     0.2994
  211.5000   106.9335   -40.9350     7.4269     6.7823     7.0123     8.1752     2.4486     0.0068     0.1369   106.7495     0.2970
  212.0000   109.1612   -41.0798     7.3654     6.8117     7.1055     8.1752     2.4547     0.0181     0.1335   105.6205     0.2950
  212.5000   107.6721   -40.9147     7.4931     6.8999     7.2383     8.1752     2.4586     0.0241     0.1315   104.3932     0.3225
  213.0000   103.5095   -40.7258     7.6682     6.9891     7.3735     8.1752     2.4572     0.0177     0.1317   102.2064     0.3221
