~VERSION INFORMATION
 VERS.                2.0:   CWLS LOG ASCII STANDARD - VERSION 2.0
 WRAP.                 NO:   ONE LINE PER DEPTH STEP
~WELL INFORMATION
#MNEM.UNIT      DATA TYPE    INFORMATION
#----------   ------------   ------------------------------
 STRT.F          630.0000:   START DEPTH
 STOP.F         1708.0000:   STOP DEPTH
 STEP.F            0.5000:   STEP LENGTH
 NULL.          -999.2500:   NO VALUE
 COMP. FENIX & SCISSON INC:   COMPANY
 WELL.      SHX 34 #58-34:   WELL
 FLD .             TEAPOT:   FIELD
 LOC .      S34 T39N R78W:   LOCATION
 CNTY.            NATRONA:   COUNTY
 STAT.            WYOMING:   STATE
 CTRY. UNITED STATES OF AMERICA:   COUNTRY
 SRVC.           BIRDWELL:   SERVICE COMPANY
 DATE.        28-MAR-1979:   LOGDATE
 API .       490251077400:   API NUMBER
~CURVE INFORMATION
#MNEM.UNIT       API CODE    CURVE DESCRIPTION
#----------   ------------   ------------------------------
 DEPT.F                  :   
 CORR.G/C3   45 356 01 00:   DENSITY CORRECTION
 DPHI.DEC    45 890 12 00:   DENSITY POROSITY SANDSTONE
 RHOB.G/C3   45 350 01 00:   BULK DENSITY
 CALD.IN     45 280 60 00:   CALIPER
 GRD .GAPI   45 310 01 00:   GAMMA RAY FROM DENSITY LOG
~PARAMETER INFORMATION
#MNEM.UNIT          VALUE    DESCRIPTION
#----------   ------------   ------------------------------
 PD  .                 GL:   PERMANENT DATUM
 EPD .F              5120:   ELEVATION PERMANENT DATUM
 LMF .                 KB:   LOG MEASURED FROM
 DAPD.F                10:   FEET ABOVE PERMANENT DATUM
 DMF .                 KB:   DRILLING MEASURED FROM
 EKB .F              5130:   KELLING BUSHING
 EGL .F              5120:   GROUND LEVEL
 DATE.            3-28-79:   RUN DATE
 RUN .                  2:   RUN NUMBER
 DD  .F              1720:   DEPTH DRILLER
 DL  .F              1708:   DEPTH LOGGER
 BLI .F              1708:   BOTTOM LOG INTERVAL
 TLI .F               649:   TOP LOG INTERVAL
 CS  .IN            9.625:   CASING SIZE
 CBD .F               639:   CASING BOTTOM DRILLER
 CBL .F               646:   CASING BOTTOM LOGGER
 BS  .IN             8.75:   BIT SIZE
 BSD .F              1720:   BIT SIZE AT DEPTH
 DFT .                OIL:   DRILLING FLUID TYPE
 TCS .HRS               3:   TIME CURCULATED STOPPED
 MRT .F               150:   MAXIMUM RECORDED TEMPERATURE
 LUN .               2959:   LOGGING UNIT NUMBER
 LUL .             CASPER:   LOGGING UNIT LOCATION
 ENGI.         B. ROLLINS:   RECORDING ENGINEER
 WITN.              AMEND:   WITNESSED BY
 CLNT.            A2DTECH:   CLIENT CODE
 ORIG.           5" PRINT:   ORIGIN OF DATA
 UWI .       490251077400:   UNIQUE WELL ID
 DICO. A2D Technologies, Inc.:   DIGITIZING COMPANY
~OTHER INFORMATION
~A   DEPT     CORR       DPHI       RHOB       CALD         GRD  
# ...
 1179.0000     0.1184     0.0000     2.5473     9.6093   138.0881
 1179.5000     0.1246     0.0000     2.5596     9.6117   136.9253
 1180.0000     0.1268     0.0000     2.5447     9.5821   138.7683
 1180.5000     0.1097     0.0002     2.5299     9.5557   143.3491
 1181.0000     0.1033     0.0082     2.5187     9.5287   141.3149
 1181.5000     0.1031     0.0224     2.5049     9.4996   136.2350
 1182.0000     0.1025     0.0365     2.4888     9.4766   130.8652
 1182.5000     0.1020     0.0507     2.4598     9.4262   128.5996
 1183.0000     0.1015     0.0621     2.4468     9.4211   130.1807
 1183.5000     0.1010     0.0570     2.4549     9.4377   131.1399
 1184.0000     0.1005     0.0505     2.4560     9.4595   128.0095
 1184.5000     0.1000     0.0440     2.4544     9.4796   125.9328
 1185.0000     0.1002     0.0390     2.4759     9.5002   126.0734
 1185.5000     0.1042     0.0454     2.4901     9.5205   125.6210
 1186.0000     0.0963     0.0437     2.4730     9.5397   123.5478
 1186.5000     0.0832     0.0410     2.4621     9.5309   121.1519
 1187.0000     0.0924     0.0390     2.4693     9.4973   121.0332
 1187.5000     0.1003     0.0399     2.5009     9.4604   121.0936
 1188.0000     0.1014     0.0406     2.5268     9.3932   126.7306
 1188.5000     0.1027     0.0401     2.5508     9.3231   130.5728
 1189.0000     0.1046     0.0395     2.5463     9.2615   130.2834
 1189.5000     0.1059     0.0391     2.5159     9.3489   130.7916
 1190.0000     0.1071     0.0506     2.4819     9.4772   132.2943
 1190.5000     0.0972     0.0659     2.4496     9.5279   138.6047
 1191.0000     0.0915     0.0811     2.4181     9.4769   139.3200
 1191.5000     0.0943     0.0705     2.4421     9.4440   136.9037
 1192.0000     0.0965     0.0520     2.4562     9.4235   132.6983
 1192.5000     0.1002     0.0529     2.4591     9.4728   128.2720
 1193.0000     0.0903     0.0543     2.4755     9.5356   125.0018
 1193.5000     0.0659     0.0558     2.4983     9.5360   125.4324
 1194.0000     0.0424     0.0572     2.5460     9.5333   130.8885
 1194.5000     0.0193     0.0586     2.5659     9.5282   136.0638
 1195.0000    -0.0048     0.0601     2.5538     9.5248   139.0074
 1195.5000  -999.2500     0.0616     2.5455     9.5210   137.0898
 1196.0000  -999.2500     0.0631     2.5492     9.5169   133.4916
 1196.5000  -999.2500     0.0646     2.5294     9.5130   133.7853
 1197.0000  -999.2500     0.0660     2.5006     9.5092   132.1692
 1197.5000  -999.2500     0.0675     2.4801     9.5047   129.6456
 1198.0000  -999.2500     0.0690     2.4629     9.5009   126.9504
 1198.5000  -999.2500     0.0705     2.4452     9.4637   128.3208
 1199.0000  -999.2500     0.0717     2.4318     9.4122   131.4436
 1199.5000  -999.2500     0.0692     2.4322     9.3595   134.6494
 1200.0000  -999.2500     0.0671     2.4508     9.3386   136.4473
 1200.5000  -999.2500     0.0650     2.4702     9.3579   137.5353
 1201.0000  -999.2500     0.0629     2.4823     9.3801   131.4921
 1201.5000  -999.2500     0.0608     2.4774     9.4039   125.8942
 1202.0000  -999.2500     0.0586     2.4679     9.4216   123.0174
 1202.5000  -999.2500     0.0565     2.4667     9.4679   123.6850
 1203.0000  -999.2500     0.0544     2.4661     9.5254   126.3545
 1203.5000  -999.2500     0.0523     2.4576     9.5850   130.0288
 1204.0000  -999.2500     0.0510     2.4429     9.6217   133.6464
 1204.5000  -999.2500     0.0521     2.4251     9.5566   134.4029
 1205.0000  -999.2500     0.0533     2.4331     9.5583   133.2636
 1205.5000  -999.2500     0.0544     2.4520     9.5842   131.4406
 1206.0000  -999.2500     0.0556     2.4687     9.6107   135.4910
 1206.5000  -999.2500     0.0567     2.4735     9.6209   138.8987
 1207.0000  -999.2500     0.0578     2.4795     9.6183   142.4913
 1207.5000  -999.2500     0.0590     2.4845     9.6138   142.2317
 1208.0000  -999.2500     0.0601     2.4730     9.6096   140.8374
 1208.5000  -999.2500     0.0613     2.4486     9.6053   139.8472
 1209.0000  -999.2500     0.0622     2.4456     9.6010   140.2450
 1209.5000  -999.2500     0.0622     2.4412     9.5966   139.2195
 1210.0000  -999.2500     0.0591     2.4687     9.5923   135.4073
 1210.5000  -999.2500     0.0566     2.5107     9.5879   133.6604
 1211.0000  -999.2500     0.0548     2.5149     9.5836   135.3629
 1211.5000  -999.2500     0.0534     2.5239     9.5793   136.6150
 1212.0000  -999.2500     0.0520     2.5160     9.5750   137.7099
 1212.5000  -999.2500     0.0506     2.4943     9.5707   134.4103
 1213.0000  -999.2500     0.0492     2.4598     9.5663   131.3334
 1213.5000  -999.2500     0.0478     2.4570     9.5621   129.2291
 1214.0000  -999.2500     0.0465     2.4671     9.5577   124.2095
 1214.5000  -999.2500     0.0451     2.4804     9.5534   120.7309
 1215.0000  -999.2500     0.0438     2.4782     9.5493   121.9721
 1215.5000  -999.2500     0.0437     2.4874     9.5445   127.1371
 1216.0000  -999.2500     0.0434     2.5028     9.5396   129.5625
 1216.5000  -999.2500     0.0432     2.5275     9.5140   131.1043
 1217.0000  -999.2500     0.0430     2.5325     9.4843   131.2428
 1217.5000  -999.2500     0.0427     2.5319     9.4595   129.4537
 1218.0000  -999.2500     0.0425     2.5294     9.4575   123.6657
 1218.5000  -999.2500     0.0424     2.5486     9.4254   119.6993
 1219.0000  -999.2500     0.0423     2.5570     9.4120   115.3884
 1219.5000     0.0358     0.0419     2.5381     9.3359   116.8736
 1220.0000     0.0505     0.0416     2.5208     8.8970   119.1309
 1220.5000     0.0610     0.0414     2.4912     9.0616   118.3253
 1221.0000     0.0727     0.0709     2.4593     9.4499   118.0967
 1221.5000     0.0857     0.0959     2.3852     9.4475   123.1327
 1222.0000     0.0984     0.1195     2.3448     9.4205   127.8762
 1222.5000     0.1102     0.0961     2.3806     9.4000   129.3677
 1223.0000     0.1254     0.0462     2.4676     9.3806   124.7429
 1223.5000     0.1015     0.0366     2.4883     9.3803   120.3687
 1224.0000     0.1281     0.0453     2.4752     9.3802   120.0539
 1224.5000     0.1900     0.0403     2.5334     9.3803   121.9949
 1225.0000     0.2456     0.0321     2.6026     9.3799   121.0185
 1225.5000     0.2948     0.0239     2.6280     9.3799   118.5744
 1226.0000     0.1870     0.0169     2.6542     9.3800   118.8758
 1226.5000     0.1227     0.0162     2.5607     9.3800   122.0478
 1227.0000     0.1013     0.0269     2.5292     9.3800   124.5482
 1227.5000     0.0781     0.0359     2.5027     9.3800   126.7077
 1228.0000     0.0533     0.0500     2.4795     9.3800   130.1611
 1228.5000     0.0431     0.0606     2.4581     9.3800   127.7789
 1229.0000     0.0432     0.0775     2.4372     9.3799   121.0850
 1229.5000     0.0492     0.0750     2.4206     9.3800   116.9240
 1230.0000     0.0599     0.0490     2.4567     9.3800   120.3687
 1230.5000     0.0705     0.0408     2.4871     9.3794   119.4797
 1231.0000     0.0808     0.0412     2.4811     9.3869   117.0699
 1231.5000     0.0916     0.0419     2.4763     9.4065   114.8042
 1232.0000  -999.2500     0.0422     2.4896     9.4254   112.6972
 1232.5000  -999.2500  -999.2500     2.5158     9.4444   115.4923
 1233.0000  -999.2500  -999.2500     2.5416     9.4638   118.0469
 1233.5000  -999.2500  -999.2500     2.5328     9.4826   112.5653
 1234.0000  -999.2500  -999.2500     2.5088     9.4994   108.0675
 1234.5000  -999.2500  -999.2500     2.5001     9.4999   108.6870
 1235.0000  -999.2500  -999.2500     2.4911     9.5003   109.3795
 1235.5000  -999.2500  -999.2500     2.4845     9.5001   110.1660
 1236.0000  -999.2500  -999.2500     2.4872     9.5004   110.7110
 1236.5000  -999.2500  -999.2500     2.4936     9.4999   107.2697
 1237.0000  -999.2500  -999.2500     2.4934     9.5007   104.0095
 1237.5000  -999.2500  -999.2500     2.4892     9.5009   101.0671
 1238.0000  -999.2500  -999.2500     2.4909     9.4874    98.9502
 1238.5000  -999.2500  -999.2500     2.4867     9.4407   100.2181
 1239.0000  -999.2500  -999.2500     2.4744     9.3822   103.4295
 1239.5000  -999.2500  -999.2500     2.4580     9.3771   107.1233
