~VERSION INFORMATION
 VERS.                2.0:   CWLS LOG ASCII STANDARD - VERSION 2.0
 WRAP.                 NO:   ONE LINE PER DEPTH STEP
~WELL INFORMATION
#MNEM.UNIT      DATA TYPE    INFORMATION
#----------   ------------   ------------------------------
 STRT.F           10.0000:   START DEPTH
 STOP.F          472.5000:   STOP DEPTH
 STEP.F            0.5000:   STEP LENGTH
 NULL.          -999.2500:   NO VALUE
 COMP. FENIX & SCISSON INC:   COMPANY
 WELL. NAVAL PETROLEUM RESERVE 3 SX-1 #67-10:   WELL
 FLD .             TEAPOT:   FIELD
 LOC .      S10 T38N R78W:   LOCATION
 CNTY.            NATRONA:   COUNTY
 STAT.            WYOMING:   STATE
 CTRY. UNITED STATES OF AMERICA:   COUNTRY
 SRVC.           BIRDWELL:   SERVICE COMPANY
 DATE.        05-DEC-1978:   LOGDATE
 API .       490251075000:   API NUMBER
~CURVE INFORMATION
#MNEM.UNIT       API CODE    CURVE DESCRIPTION
#----------   ------------   ------------------------------
 DEPT.F                  :   
 SPR .MV     05 010 01 00:   SPONTANEOUS POTENTIAL FROM RES.
 SN  .OHMM   05 040 16 00:   SHORT NORMAL 16"
 IL  .OHMM   05 120 00 00:   INDUCTION LOG
 CALD.IN     45 280 60 00:   CALIPER
 GRD .GAPI   45 310 01 00:   GAMMA RAY FROM DENSITY LOG
 RHOB.G/C3   45 350 01 00:   BULK DENSITY
 DPHI.DEC    45 890 12 00:   DENSITY POROSITY SANDSTONE
 CORR.G/C3   45 356 01 00:   DENSITY CORRECTION
~PARAMETER INFORMATION
#MNEM.UNIT          VALUE    DESCRIPTION
#----------   ------------   ------------------------------
 PD  .                 GL:   PERMANENT DATUM
 EPD .F              5189:   ELEVATION PERMANENT DATUM
 LMF .                 KB:   LOG MEASURED FROM
 DAPD.F                 4:   FEET ABOVE PERMANENT DATUM
 DMF .                 KB:   DRILLING MEASURED FROM
 EKB .F              5193:   KELLING BUSHING
 EGL .F              5189:   GROUND LEVEL
 DATE.            12-5-78:   RUN DATE
 RUN .                  1:   RUN NUMBER
 DD  .F               475:   DEPTH DRILLER
 DL  .F               471:   DEPTH LOGGER
 BLI .F               465:   BOTTOM LOG INTERVAL
 TLI .F                40:   TOP LOG INTERVAL
 CS  .IN            8.625:   CASING SIZE
 CBD .F                40:   CASING BOTTOM DRILLER
 CBL .F                40:   CASING BOTTOM LOGGER
 BS  .IN            7.875:   BIT SIZE
 BSD .F               475:   BIT SIZE AT DEPTH
 DFT .                KCL:   DRILLING FLUID TYPE
 DFD .                8.8:   DRILLING FLUID DENSITY
 DFV .                 42:   DRILLING FLUID VISCOSITY
 DFPH.               12.2:   DRILLING FLUID PH
 DFL .               11.6:   DRILLING FLUID LOSS
 MSS .          FLOW LINE:   MUD SAMPLE SOURCE
 RMS .OHMM            .31:   RESISTIVITY MUD SAMPLE
 MST .F                60:   MUD SAMPLE TEMPERATURE
 RMF .OHMM            .29:   RESISTIVITY MUD FILTRATE SAMPLE
 MFST.F                61:   MUD FILTRATE SAMPLE TEMPERATURE
 RMC .OHMM            .42:   RESISTIVITY MUD CAKE
 MCST.F                63:   MUD CAKE SAMPLE TEMPERATURE
 MFSS.           MEASURED:   MUD FILTRATE SAMPLE SOURCE
 MCSS.           MEASURED:   MUD CAKE SAMPLE SOURCE
 RMB .OHMM            .33:   RESISTIVITY MUD AT BHT
 BHT .F                57:   BOTTOM HOLE TEMPERATURE
 TCS .HRS               3:   TIME CURCULATED STOPPED
 MRT .F                57:   MAXIMUM RECORDED TEMPERATURE
 LUN .               2958:   LOGGING UNIT NUMBER
 LUL .                CPR:   LOGGING UNIT LOCATION
 ENGI.            ROLLINS:   RECORDING ENGINEER
 WITN.              AMEND:   WITNESSED BY
 CLNT.            A2DTECH:   CLIENT CODE
 ORIG.       2", 5" PRINT:   ORIGIN OF DATA
 UWI .       490251075000:   UNIQUE WELL ID
 DICO. A2D Technologies, Inc.:   DIGITIZING COMPANY
~OTHER INFORMATION
~A   DEPT      SPR         SN         IL       CALD         GRD      RHOB       DPHI       CORR   
# ...
  374.5000   -52.6960    21.3190    26.1980     8.8100    74.7300     2.4350     0.1430     0.0480
  375.0000   -52.7810    21.3880    26.3350     8.8100    75.0960     2.4740     0.1170     0.0450
  375.5000   -52.8650    21.4580    26.4720     8.8100    75.4880     2.5000     0.1060     0.0390
  376.0000   -52.9520    21.5270    26.6090     8.8100    76.2480     2.5040     0.1010     0.0280
  376.5000   -53.0790    21.5970    26.7460     8.8100    75.5290     2.4890     0.1190     0.0210
  377.0000   -53.3380    21.6660    26.8790     8.8100    73.7720     2.4670     0.1390     0.0180
  377.5000   -53.5890    21.7340    26.6860     8.8100    70.6020     2.4350     0.1580     0.0170
  378.0000   -53.8110    21.4940    26.4530     8.8100    68.0610     2.3960     0.1760     0.0180
  378.5000   -53.7760    21.2600    26.2190     8.8070    66.3690     2.3640     0.1950     0.0190
  379.0000   -53.7460    21.0270    25.9860     8.7550    66.1870     2.3480     0.2050     0.0210
  379.5000   -53.7170    20.5380    25.4370     8.7040    68.0900     2.3460     0.2070     0.0290
  380.0000   -53.6880    19.9100    24.7180     8.6870    71.8040     2.3460     0.2060     0.0370
  380.5000   -53.6590    19.2830    24.0000     8.6820    75.1210     2.3460     0.2060     0.0430
  381.0000   -53.6300    18.6550    23.6060     8.6780    76.4140     2.3460     0.2060     0.0450
  381.5000   -53.6010    18.4090    23.5810     8.6730    77.5180     2.3460     0.2070     0.0470
  382.0000   -53.5730    18.2190    23.5550     8.6690    78.2290     2.3460     0.2080     0.0500
  382.5000   -53.5440    18.0290    23.5300     8.6640    80.5680     2.3460     0.2090     0.0540
  383.0000   -53.5150    17.8390    23.5050     8.6600    80.8760     2.3470     0.2090     0.0590
  383.5000   -53.4860    17.6490    23.4790     8.6550    80.1140     2.3490     0.2080     0.0670
  384.0000   -53.4580    17.4580    23.4540     8.6510    79.3600     2.3580     0.1950     0.0760
  384.5000   -53.4310    17.2520    23.4280     8.7100    78.8870     2.3840     0.1800     0.0840
  385.0000   -53.4680    17.2520    23.4010     8.7690    78.4150     2.4090     0.1610     0.0830
  385.5000   -53.7340    17.2520    23.1530     8.7720    77.9290     2.4350     0.1510     0.0740
  386.0000   -53.9950    17.1590    22.6800     8.7740    78.0190     2.4430     0.1420     0.0630
  386.5000   -54.2560    16.9850    21.7940     8.7760    78.1460     2.4450     0.1410     0.0510
  387.0000   -54.5160    16.8100    20.9080     8.7780    78.2940     2.4400     0.1510     0.0450
  387.5000   -54.7760    16.6260    20.0220     8.7800    79.0940     2.4240     0.1600     0.0390
  388.0000   -55.0080    16.3150    19.1360     8.7820    82.8210     2.4090     0.1700     0.0330
  388.5000   -55.0250    15.9880    18.6500     8.7840    86.0820     2.3970     0.1790     0.0300
  389.0000   -55.0380    15.6600    18.2920     8.7860    86.0030     2.3880     0.1790     0.0300
  389.5000   -55.0510    15.3330    18.0620     8.7880    84.9960     2.3860     0.1790     0.0290
  390.0000   -55.0640    15.0060    18.0470     8.7900    84.5000     2.3840     0.1790     0.0290
  390.5000   -55.0770    14.6790    18.0330     8.7920    84.5050     2.3790     0.1820     0.0280
  391.0000   -55.0900    14.5760    18.0180     8.7940    84.4250     2.3740     0.1840     0.0280
  391.5000   -55.1030    14.5350    18.0030     8.7960    83.0220     2.3730     0.1870     0.0270
  392.0000   -55.1160    14.4930    17.9890     8.7980    81.6710     2.3720     0.1890     0.0270
  392.5000   -55.1290    14.4510    17.9740     8.8000    80.8270     2.3710     0.1900     0.0260
  393.0000   -55.1430    14.4100    17.9590     8.8020    81.4730     2.3700     0.1900     0.0260
  393.5000   -55.1560    14.3680    17.9450     8.8040    82.7690     2.3710     0.1910     0.0250
  394.0000   -55.1690    14.3260    17.9300     8.8060    82.8490     2.3710     0.1910     0.0250
  394.5000   -55.1820    14.2850    17.9150     8.8080    82.9550     2.3720     0.1910     0.0240
  395.0000   -55.1940    14.2430    17.9010     8.8100    83.0810     2.3720     0.1900     0.0240
  395.5000   -55.2030    14.2010    17.5900     8.8060    82.5100     2.3720     0.1900     0.0260
  396.0000   -55.3600    14.1600    17.2910     8.8030    80.6860     2.3740     0.1890     0.0300
  396.5000   -55.5370    14.1180    16.9910     8.7990    78.6440     2.3760     0.1880     0.0340
  397.0000   -55.7140    14.0790    16.6920     8.7960    77.5280     2.3780     0.1860     0.0380
  397.5000   -55.8920    13.9640    16.4730     8.7920    77.3190     2.3820     0.1830     0.0400
  398.0000   -56.0710    13.8550    16.5620     8.7890    78.0140     2.3870     0.1790     0.0390
  398.5000   -56.2490    13.7470    16.6260     8.7850    80.1900     2.3990     0.1720     0.0380
  399.0000   -56.4270    13.6390    16.0840     8.7820    82.0980     2.4120     0.1650     0.0310
  399.5000   -56.6050    13.5300    15.6830     8.7780    82.6260     2.4170     0.1630     0.0250
  400.0000   -56.7830    13.4220    15.5240     8.7750    80.9510     2.4180     0.1630     0.0210
  400.5000   -56.9600    13.3130    15.3650     8.7710    78.5160     2.4190     0.1630     0.0170
  401.0000   -57.2710    13.2050    15.2060     8.7960    76.2900     2.4200     0.1630     0.0160
  401.5000   -57.6360    13.0970    15.1070     8.8470    75.7580     2.4220     0.1610     0.0160
  402.0000   -57.8920    12.9880    15.0340     8.8420    76.6570     2.4230     0.1590     0.0160
  402.5000   -58.0420    12.8800    14.9610     8.8330    77.3160     2.4260     0.1560     0.0150
  403.0000   -58.1940    12.7710    14.8880     8.8240    77.7040     2.4290     0.1540     0.0140
  403.5000   -58.3440    12.7190    14.8150     8.8140    78.0930     2.4310     0.1520     0.0130
  404.0000   -58.6380    12.7190    14.7420     8.7660    79.1080     2.4290     0.1530     0.0130
  404.5000   -59.0220    12.7190    14.6680     8.6350    82.5160     2.4260     0.1570     0.0130
  405.0000   -59.0820    12.7190    14.5950     8.6130    86.0210     2.4240     0.1560     0.0130
  405.5000   -59.1360    12.7190    14.5220     8.7810    88.7400     2.4230     0.1570     0.0130
  406.0000   -59.1920    12.7190    14.4490     8.7900    89.9710     2.4190     0.1600     0.0130
  406.5000   -59.2480    12.7190    14.3760     8.7900    90.3090     2.4180     0.1640     0.0140
  407.0000   -59.3030    12.7180    14.3030     8.7900    88.2330     2.4180     0.1620     0.0140
  407.5000   -59.3590    12.7180    14.2100     8.7900    83.8370     2.4230     0.1580     0.0140
  408.0000   -59.4150    12.7030    14.2420     8.7900    79.9220     2.4290     0.1540     0.0140
  408.5000   -59.4710    12.6580    14.2860     8.8050    76.6860     2.4330     0.1520     0.0160
  409.0000   -59.5270    12.6120    14.3420     8.8300    79.5900     2.4370     0.1490     0.0190
  409.5000   -59.5830    12.5660    14.2870     8.8290    79.8600     2.4410     0.1460     0.0230
  410.0000   -59.6470    12.5200    14.2120     8.8280    79.4190     2.4490     0.1450     0.0290
  410.5000   -59.7390    12.4740    14.1380     8.8270    79.6910     2.4570     0.1400     0.0360
  411.0000   -59.8290    12.4280    14.0630     8.8260    80.4310     2.4660     0.1330     0.0440
  411.5000   -59.9190    12.3820    13.9890     8.8250    82.5370     2.4680     0.1330     0.0440
  412.0000   -60.0080    12.3370    13.9140     8.8240    84.6730     2.4690     0.1310     0.0440
  412.5000   -60.0980    12.2910    13.8400     8.8240    86.8090     2.4700     0.1270     0.0430
  413.0000   -60.1880    12.2450    13.7430     8.8230    87.0910     2.4700     0.1270     0.0430
  413.5000   -60.2770    12.1990    13.6390     8.8220    86.7940     2.4710     0.1270     0.0430
  414.0000   -60.3670    12.1530    13.5350     8.8210    86.4410     2.4710     0.1280     0.0390
  414.5000   -60.4570    12.1070    13.4310     8.8200    88.0040     2.4700     0.1280     0.0340
