~VERSION INFORMATION
 VERS.                2.0:   CWLS LOG ASCII STANDARD - VERSION 2.0
 WRAP.                 NO:   ONE LINE PER DEPTH STEP
~WELL INFORMATION
#MNEM.UNIT      DATA TYPE    INFORMATION
#----------   ------------   ------------------------------
 STRT.M            0.0000:   START DEPTH
 STOP.M          642.0000:   STOP DEPTH
 STEP.M            0.1000:   STEP LENGTH
 NULL.          -999.2500:   NO VALUE
 COMP.   FLUOR DANIEL INC:   COMPANY
 WELL.     71-1 X 3 #71-3:   WELL
 FLD .             TEAPOT:   FIELD
 LOC .       S3 T38N R78W:   LOCATION
 CNTY.            NATRONA:   COUNTY
 STAT.            WYOMING:   STATE
 CTRY. UNITED STATES OF AMERICA:   COUNTRY
 SRVC.      Western Atlas:   SERVICE COMPANY
 DATE.        04-JAN-1995:   LOGDATE
 API .       490252267900:   API NUMBER
~CURVE INFORMATION
#MNEM.UNIT       API CODE    CURVE DESCRIPTION
#----------   ------------   ------------------------------
 DEPT.M                  :   
 RILD.OHMM   07 120 46 00:   INDUCTION LOG DEEP RESISTIVITY
 RILM.OHMM   07 120 44 00:   INDUCTION LOG MEDIUM RESISTIVITY
 GRR .GAPI   07 310 01 00:   GAMMA RAY
~PARAMETER INFORMATION
#MNEM.UNIT          VALUE    DESCRIPTION
#----------   ------------   ------------------------------
 PD  .                 GL:   PERMANENT DATUM
 EPD .F              5123:   ELEVATION PERMANENT DATUM
 LMF .                 KB:   LOG MEASURED FROM
 DAPD.F                10:   FEET ABOVE PERMANENT DATUM
 DMF .                 KB:   DRILLING MEASURED FROM
 EKB .F              5133:   KELLING BUSHING
 EDF .F              5132:   DRILLING FLOOR
 EGL .F              5123:   GROUND LEVEL
 DATE.        04-JAN-1995:   RUN DATE
 RUN .                  1:   RUN NUMBER
 DD  .F               647:   DEPTH DRILLER
 DL  .F               650:   DEPTH LOGGER
 BLI .F               642:   BOTTOM LOG INTERVAL
 TLI .F                96:   TOP LOG INTERVAL
 CS  .IN            9.625:   CASING SIZE
 CBD .F                96:   CASING BOTTOM DRILLER
 CBL .F                96:   CASING BOTTOM LOGGER
 BS  .IN             8.75:   BIT SIZE
 BSD .F               647:   BIT SIZE AT DEPTH
 DFT .                AIR:   DRILLING FLUID TYPE
 MRT .F                91:   MAXIMUM RECORDED TEMPERATURE
 LUN .            HL 6530:   LOGGING UNIT NUMBER
 LUL .             CASPER:   LOGGING UNIT LOCATION
 ENGI.        VERN RAUTIO:   RECORDING ENGINEER
 WITN.        GARY STRONG:   WITNESSED BY
 CLNT.            A2DTECH:   CLIENT CODE
 ORIG.           5" PRINT:   ORIGIN OF DATA
 UWI .       490252267900:   UNIQUE WELL ID
 DICO. A2D Technologies, Inc.:   DIGITIZING COMPANY
~OTHER INFORMATION
~A    DEPT    RILD       RILM        GRR   
# ...
  436.8000     7.9732     7.8596   136.6985
  436.9000     8.0120     7.8851   136.6997
  437.0000     8.0574     7.8943   136.7009
  437.1000     8.0847     7.9401   136.7021
  437.2000     8.0926     7.9843   136.4568
  437.3000     8.1410     8.0298   136.4024
  437.4000     8.1846     8.0511   136.1385
  437.5000     8.1977     8.0511   135.7251
  437.6000     8.1977     8.0549   135.4626
  437.7000     8.1977     8.1072   134.8969
  437.8000     8.1962     8.1072   134.2779
  437.9000     8.1410     8.1364   133.3943
  438.0000     8.0676     8.1638   132.2298
  438.1000     7.9770     8.1553   130.7957
  438.2000     7.8873     8.1072   129.4648
  438.3000     7.7936     8.0633   128.3471
  438.4000     7.6480     8.0177   125.9551
  438.5000     7.5717     7.9495   123.6735
  438.6000     7.4590     7.8472   122.3625
  438.7000     7.3336     7.7172   121.6157
  438.8000     7.2022     7.6159   121.1352
  438.9000     7.0368     7.5442   120.8300
  439.0000     6.8840     7.4334   120.7130
  439.1000     6.7303     7.2454   120.7142
  439.2000     6.5799     6.9442   120.7154
  439.3000     6.4327     6.5367   120.7168
  439.4000     6.2887     6.0723   120.9188
  439.5000     6.1248     5.7440   121.4532
  439.6000     6.0112     5.5188   122.1028
  439.7000     5.8769     5.3416   122.7439
  439.8000     5.7695     5.1941   124.6503
  439.9000     5.7047     5.0905   127.0508
  440.0000     5.6353     4.9975   129.7481
  440.1000     5.6062     4.9017   132.6540
  440.2000     5.5963     4.8189   135.4648
  440.3000     5.5818     4.7451   136.7408
  440.4000     5.5576     4.7161   137.9183
  440.5000     5.5576     4.7407   139.1450
  440.6000     5.5576     4.7677   140.3717
  440.7000     5.5820     4.7948   141.5342
  440.8000     5.5963     4.8288   142.5159
  440.9000     5.6064     4.8838   143.4977
  441.0000     5.6353     4.9396   144.4794
  441.1000     5.6353     4.9735   145.4610
  441.2000     5.6628     5.0017   146.6055
  441.3000     5.6949     5.0302   148.0776
  441.4000     5.7141     5.0588   149.7452
  441.5000     5.7141     5.0905   150.5960
  441.6000     5.7141     5.1427   151.5777
  441.7000     5.7448     5.2014   152.5595
  441.8000     5.7773     5.2608   153.3752
  441.9000     5.7939     5.3416   153.3765
  442.0000     5.8026     5.4947   152.6887
  442.1000     5.8354     5.6857   151.2641
  442.2000     5.8749     5.8830   148.5087
  442.3000     5.9017     6.0481   144.3531
  442.4000     5.9352     6.1751   139.4662
  442.5000     5.9688     6.2772   136.5261
  442.6000     6.0026     6.3576   133.5856
  442.7000     6.0403     6.4213   130.3797
  442.8000     6.0708     6.4705   127.1767
  442.9000     6.1282     6.5073   124.5753
  443.0000     6.1979     6.5674   122.8763
  443.1000     6.2683     6.7209   121.8429
  443.2000     6.3410     6.8341   120.6188
  443.3000     6.4115     6.9957   119.6730
  443.4000     6.5121     7.1722   119.1839
  443.5000     6.6432     7.3488   118.6527
  443.6000     6.7722     7.5250   118.4298
  443.7000     6.8540     7.7225   118.0189
  443.8000     7.0368     7.8748   117.9698
  443.9000     7.1714     8.0264   118.4612
  444.0000     7.3867     8.1642   118.9607
  444.1000     7.6078     8.3129   119.4442
  444.2000     7.7813     8.5112   119.9355
  444.3000     7.9732     8.6045   120.4269
  444.4000     8.1842     8.7393   120.9184
  444.5000     8.3857     8.8633   121.4099
  444.6000     8.5545     8.9791   121.9893
  444.7000     8.7006     9.1297   122.3928
  444.8000     8.8490     9.2510   123.0285
  444.9000     9.0006     9.3394   123.6778
  445.0000     9.1142     9.4460   124.1390
  445.1000     9.1890     9.5326   124.4122
  445.2000     9.2411     9.5868   124.6316
  445.3000     9.2983     9.6447   124.8779
  445.4000     9.4184     9.7481   124.8113
  445.5000     9.4645     9.7796   124.2275
  445.6000     9.4840     9.8069   123.2097
  445.7000     9.5059     9.8478   122.5046
  445.8000     9.5500     9.8466   121.4134
  445.9000     9.5500     9.8189   120.4320
  446.0000     9.6015     9.7912   119.7624
  446.1000     9.6166     9.7634   119.2808
  446.2000     9.6166     9.7357   119.0369
  446.3000     9.6166     9.7041   118.7930
  446.4000     9.6146     9.6447   118.8262
  446.5000     9.5500     9.6447   118.9909
  446.6000     9.5500     9.6447   119.0413
  446.7000     9.5500     9.6191   119.5977
  446.8000     9.5500     9.5779   119.8115
  446.9000     9.5500     9.5779   120.0578
  447.0000     9.5500     9.5779   120.4028
  447.1000     9.5500     9.5779   120.8942
  447.2000     9.5500     9.5779   121.4164
  447.3000     9.5500     9.5968   121.8772
  447.4000     9.5500     9.6514   122.5414
  447.5000     9.5500     9.7119   123.1622
  447.6000     9.6565     9.8115   123.6537
  447.7000     9.7248     9.9618   124.1451
  447.8000     9.7799    10.1328   124.6364
  447.9000     9.8517    10.3065   124.9379
  448.0000     9.9636    10.4830   125.3172
  448.1000    10.0953    10.7243   125.7327
  448.2000    10.2400    10.9707   125.9790
  448.3000    10.4152    11.1518   126.2636
  448.4000    10.5701    11.2790   126.2646
  448.5000    10.7087    11.4143   126.1158
  448.6000    10.9721    11.6342   125.7788
  448.7000    11.2043    11.8097   125.2537
  448.8000    11.4606    12.0576   124.4569
  448.9000    11.6912    12.3342   124.0097
  449.0000    11.9071    12.6020   123.0191
  449.1000    12.1791    12.8224   121.9050
  449.2000    12.5292    13.1114   120.8725
  449.3000    12.8315    13.4709   119.6290
  449.4000    13.1666    13.8161   118.6649
  449.5000    13.5180    14.1329   116.7642
  449.6000    13.8340    14.4566   113.7957
  449.7000    14.2835    14.8360   110.0614
  449.8000    14.7119    15.1286   106.1804
  449.9000    15.1086    15.4199   102.2993
  450.0000    15.4720    15.6877    98.4183
  450.1000    15.8671    15.9633    94.5373
  450.2000    16.2623    16.2389    90.6562
  450.3000    16.6575    16.5145    86.7752
  450.4000    17.0527    16.7901    82.8941
  450.5000    17.4479    17.0657    79.0131
  450.6000    17.8430    17.3413    75.1320
  450.7000    18.2382    17.6168    71.2510
  450.8000    18.6334    17.8924    67.3700
  450.9000    18.9978    18.1680    63.4889
  451.0000    19.3238    18.4436    59.6079
  451.1000    19.6590    18.7192    55.7268
  451.2000    19.8813    18.9948    54.1003
  451.3000    20.2852    19.2704    54.1903
  451.4000    20.6226    19.5460    54.4721
  451.5000    20.8963    19.8216    55.0122
  451.6000    21.2546    20.0972    55.4635
  451.7000    21.6670    20.3728    55.7895
  451.8000    21.8829    20.6484    56.2671
  451.9000    22.1329    20.9240    56.8913
  452.0000    22.3857    21.1996    57.1479
  452.1000    22.6413    21.4874    57.8906
  452.2000    22.9056    21.8900    59.0247
  452.3000    23.1616    22.2299    60.1206
  452.4000    23.3261    22.5235    61.1102
  452.5000    23.4591    22.7215    62.0695
  452.6000    23.5929    22.8795    62.8872
  452.7000    23.7273    23.1408    63.5548
  452.8000    23.8817    23.1408    64.1306
  452.9000    23.8820    23.1408    64.7378
  453.0000    23.9688    23.1408    65.4239
  453.1000    24.0490    23.1000    65.9196
  453.2000    24.0493    22.9696    66.4153
  453.3000    24.0496    22.8216    66.7180
  453.4000    24.0500    22.7112    66.9668
  453.5000    23.9494    22.5830    67.2981
  453.6000    23.8843    22.5067    67.7390
  453.7000    23.8846    22.4624    67.7410
  453.8000    23.8752    22.1962    68.1808
  453.9000    23.7201    22.1962    68.5126
  454.0000    23.7204    22.1962    68.8701
  454.1000    23.6370    22.1346    69.3657
  454.2000    23.5570    22.0426    69.8647
  454.3000    23.5573    22.0379    70.3571
  454.4000    23.5577    21.8900    71.0429
  454.5000    23.4309    21.8900    71.6506
  454.6000    23.3953    21.8900    72.3058
  454.7000    23.3957    21.8900    73.2461
  454.8000    23.3960    21.8900    73.8032
  454.9000    23.3963    21.8900    74.2374
