~VERSION INFORMATION
 VERS.                2.0:   CWLS LOG ASCII STANDARD - VERSION 2.0
 WRAP.                 NO:   ONE LINE PER DEPTH STEP
~WELL INFORMATION
#MNEM.UNIT      DATA TYPE    INFORMATION
#----------   ------------   ------------------------------
 STRT.F           40.0000:   START DEPTH
 STOP.F          821.0000:   STOP DEPTH
 STEP.F            0.5000:   STEP LENGTH
 NULL.          -999.2500:   NO VALUE
 COMP. FENIX & SCISSON INC:   COMPANY
 WELL. NPR 3 -68 SX #68-27:   WELL
 FLD .             TEAPOT:   FIELD
 LOC .      S27 T39N R78W:   LOCATION
 CNTY.            NATRONA:   COUNTY
 STAT.            WYOMING:   STATE
 CTRY. UNITED STATES OF AMERICA:   COUNTRY
 SRVC.           BIRDWELL:   SERVICE COMPANY
 DATE.        11-SEP-1978:   LOGDATE
 API .       490251069500:   API NUMBER
~CURVE INFORMATION
#MNEM.UNIT       API CODE    CURVE DESCRIPTION
#----------   ------------   ------------------------------
 DEPT.F                  :   
 SPR .MV     05 010 01 00:   SPONTANEOUS POTENTIAL FROM RES.
 SN  .OHMM   05 040 16 00:   SHORT NORMAL 16"
 ILD .OHMM   05 120 46 00:   INDUCTION LOG DEEP
 GRD .GAPI   45 310 01 00:   GAMMA RAY FROM DENSITY LOG
 CALD.IN     45 280 60 00:   CALIPER
 RHOB.G/C3   45 350 01 00:   BULK DENSITY
 CORR.G/C3   45 356 01 00:   DENSITY CORRECTION
 DPHI.DEC    45 890 12 00:   DENSITY POROSITY SANDSTONE
~PARAMETER INFORMATION
#MNEM.UNIT          VALUE    DESCRIPTION
#----------   ------------   ------------------------------
 PD  .                 GL:   PERMANENT DATUM
 EPD .F              5032:   ELEVATION PERMANENT DATUM
 LMF .                 GL:   LOG MEASURED FROM
 DAPD.F                 4:   FEET ABOVE PERMANENT DATUM
 DMF .                 GL:   DRILLING MEASURED FROM
 EKB .F              5036:   KELLING BUSHING
 EGL .F              5032:   GROUND LEVEL
 DATE.            9-11-78:   RUN DATE
 RUN .                  1:   RUN NUMBER
 DD  .F               820:   DEPTH DRILLER
 DL  .F               822:   DEPTH LOGGER
 BLI .F               818:   BOTTOM LOG INTERVAL
 TLI .F                40:   TOP LOG INTERVAL
 CS  .IN            8.625:   CASING SIZE
 CBD .F                40:   CASING BOTTOM DRILLER
 CBL .F                40:   CASING BOTTOM LOGGER
 BS  .IN            7.875:   BIT SIZE
 BSD .F               820:   BIT SIZE AT DEPTH
 DFT .                KCL:   DRILLING FLUID TYPE
 DFD .                8.6:   DRILLING FLUID DENSITY
 DFV .                 34:   DRILLING FLUID VISCOSITY
 DFPH.                  9:   DRILLING FLUID PH
 DFL .                  8:   DRILLING FLUID LOSS
 MSS .           FLOWLINE:   MUD SAMPLE SOURCE
 RMS .OHMM            .24:   RESISTIVITY MUD SAMPLE
 MST .F                62:   MUD SAMPLE TEMPERATURE
 RMF .OHMM            .18:   RESISTIVITY MUD FILTRATE SAMPLE
 MFST.F                64:   MUD FILTRATE SAMPLE TEMPERATURE
 RMC .OHMM             .3:   RESISTIVITY MUD CAKE
 MCST.F                66:   MUD CAKE SAMPLE TEMPERATURE
 MFSS.               MEAS:   MUD FILTRATE SAMPLE SOURCE
 MCSS.               MEAS:   MUD CAKE SAMPLE SOURCE
 RMB .OHMM            .22:   RESISTIVITY MUD AT BHT
 BHT .F                68:   BOTTOM HOLE TEMPERATURE
 TCS .HRS               1:   TIME CURCULATED STOPPED
 MRT .F                68:   MAXIMUM RECORDED TEMPERATURE
 LUN .               3006:   LOGGING UNIT NUMBER
 LUL .               CASP:   LOGGING UNIT LOCATION
 ENGI.            POINTER:   RECORDING ENGINEER
 WITN.              AMEND:   WITNESSED BY
 CLNT.            A2DTECH:   CLIENT CODE
 ORIG.           5" PRINT:   ORIGIN OF DATA
 UWI .       490251069500:   UNIQUE WELL ID
 DICO. A2D Technologies, Inc.:   DIGITIZING COMPANY
~OTHER INFORMATION
~A   DEPT       SPR        SN        ILD         GRD        CALD     RHOB       CORR       DPHI   
# ...
  323.5000   -39.7771     8.9339     8.2875   101.4202     8.1100     2.5090     0.0118     0.1130
  324.0000   -39.8102     8.9511     8.3721   103.1455     8.1002     2.5124     0.0093     0.1108
  324.5000   -39.8394     8.9683     8.4578   102.0905     8.0859     2.5158     0.0068     0.1087
  325.0000   -39.8704     8.9855     8.5406    99.4373     8.0714     2.5192     0.0059     0.1072
  325.5000   -39.9018     9.0028     8.6575    96.0721     8.0570     2.5226     0.0068     0.1045
  326.0000   -39.9330     9.0201     8.6575    91.0760     8.0426     2.5258     0.0076     0.1020
  326.5000   -39.9644     9.0371     8.5351    87.3351     8.0282     2.5230     0.0084     0.1019
  327.0000   -39.9058     9.0635     8.4149    87.7852     8.0138     2.5189     0.0093     0.1078
  327.5000   -39.7573     9.0122     8.2964    88.2426     7.9994     2.5142     0.0101     0.1139
  328.0000   -39.6089     8.8842     8.1795    86.8684     7.9849     2.5009     0.0110     0.1228
  328.5000   -39.4601     8.7580     8.0643    94.5151     7.9706     2.4962     0.0153     0.1230
  329.0000   -39.3115     8.6336     7.9506   106.5648     7.9721     2.4959     0.0176     0.1228
  329.5000   -39.1790     8.5110     7.8389   104.1565     7.9760     2.4994     0.0179     0.1194
  330.0000   -39.1781     8.3901     7.7525    99.4954     7.9799     2.5038     0.0180     0.1123
  330.5000   -39.1782     8.3447     7.7525    97.1841     7.9838     2.5082     0.0182     0.1076
  331.0000   -39.1783     8.4218     7.7525    98.7898     7.9874     2.5085     0.0184     0.1088
  331.5000   -38.8588     8.4576     7.8244   101.9333     7.9758     2.5060     0.0186     0.1103
  332.0000   -38.2237     8.5423     7.8953   105.0605     7.9396     2.5035     0.0188     0.1117
  332.5000   -37.7672     8.6279     7.9668   108.2029     7.9033     2.5039     0.0190     0.1132
  333.0000   -37.7750     8.7143     8.0390   109.7756     7.8869     2.5087     0.0192     0.1121
  333.5000   -37.7753     8.8016     8.1118   109.2815     7.8694     2.5134     0.0194     0.1096
  334.0000   -37.7756     8.8897     8.1854   108.5664     7.8518     2.5172     0.0192     0.1071
  334.5000   -37.7756     8.9788     8.2595   109.4663     7.8151     2.5196     0.0187     0.1048
  335.0000   -37.7756     9.0651     8.3343   110.8499     7.7362     2.5198     0.0182     0.1035
  335.5000   -37.7756     9.0824     8.4098   111.3639     7.6576     2.5196     0.0176     0.1032
  336.0000   -37.7756     9.1030     8.4286   107.0279     7.5787     2.5194     0.0186     0.1034
  336.5000   -37.7756     9.1237     8.4564   102.7112     7.5751     2.5193     0.0204     0.1036
  337.0000   -37.7765     9.1444     8.4843    98.4256     7.6842     2.5191     0.0223     0.1039
  337.5000   -37.7250     9.1651     8.4997    94.5733     7.7915     2.5190     0.0242     0.1040
  338.0000   -37.6529     9.1860     8.7079    99.6588     7.8969     2.5194     0.0262     0.1039
  338.5000   -37.5693     9.2068     8.9109   102.8062     7.9704     2.5199     0.0288     0.1030
  339.0000   -38.1685     9.2277     8.9821   101.5332     7.9576     2.5174     0.0337     0.1036
  339.5000   -38.9533     9.2486     8.9821    99.5267     7.9343     2.5103     0.0395     0.1074
  340.0000   -39.1807     9.2696     8.9821    97.5004     7.9107     2.4954     0.0454     0.1120
  340.5000   -39.2319     9.2907     8.9821    95.3872     7.8872     2.4959     0.0511     0.1256
  341.0000   -39.2792     9.3117     8.8600    94.7889     7.8637     2.5102     0.0442     0.1207
  341.5000   -39.3264     9.3196     8.7062    94.8102     7.8415     2.5216     0.0364     0.1140
  342.0000   -39.3796     9.2606     8.4752    95.2097     7.7956     2.5134     0.0320     0.1155
  342.5000   -39.0738     9.1945     8.2481    98.1864     7.7118     2.5030     0.0338     0.1176
  343.0000   -38.2167     9.1284     8.0431   101.2906     7.6257     2.5010     0.0354     0.1163
  343.5000   -37.7385     9.0629     8.0587   104.0008     7.6193     2.5052     0.0371     0.1142
  344.0000   -37.6629     8.9979     8.0820   103.9264     7.6734     2.5117     0.0388     0.1120
  344.5000   -37.5872     8.9333     8.1053   101.9174     7.7271     2.5084     0.0405     0.1129
  345.0000   -37.5125     8.8998     8.1287    99.4638     7.7805     2.5048     0.0411     0.1144
  345.5000   -37.4374     8.9163     8.1522    96.9599     7.8339     2.5011     0.0401     0.1160
  346.0000   -37.3621     8.9291     8.1757    94.4638     7.8872     2.5029     0.0392     0.1172
  346.5000   -37.2871     8.9420     8.2179    91.9822     7.9405     2.5049     0.0382     0.1167
  347.0000   -37.2119     8.9548     8.3078    90.5939     7.9708     2.5084     0.0373     0.1148
  347.5000   -37.2021     8.9677     8.3983    94.5241     7.9493     2.5138     0.0363     0.1129
  348.0000   -37.2579     8.9816     8.4900    99.0095     7.9250     2.5192     0.0355     0.1109
  348.5000   -37.3135     8.9251     8.4997    97.9720     7.9006     2.5246     0.0371     0.1090
  349.0000   -37.3693     8.8623     8.4997    96.3019     7.8762     2.5300     0.0387     0.1072
  349.5000   -37.4251     8.8180     8.4997    94.7182     7.8518     2.5352     0.0434     0.1060
  350.0000   -37.4809     8.8179     8.4997    93.5718     7.8294     2.5429     0.0515     0.1036
  350.5000   -37.5354     8.8626     8.4997    96.6731     7.8661     2.5506     0.0596     0.0969
  351.0000   -37.5502     9.0128     8.4997   105.3049     7.9174     2.5583     0.0677     0.0908
  351.5000   -37.4596     9.1651     8.4997   109.5956     7.9689     2.5661     0.0736     0.0892
  352.0000   -37.3712     9.3201     8.4997    98.9671     8.0204     2.5682     0.0734     0.0907
  352.5000   -37.2825     9.4776     8.4997    90.1350     8.0719     2.5479     0.0732     0.0929
  353.0000   -37.1939     9.6378     8.4997    90.7162     8.1233     2.5350     0.0594     0.0950
  353.5000   -37.1055     9.8008     8.4997    97.8166     8.1748     2.5316     0.0422     0.0972
  354.0000   -37.0164     9.8478     8.4997   103.7619     8.2258     2.5299     0.0247     0.0993
  354.5000   -36.9748     9.4959     8.4997   104.7915     8.2301     2.5299     0.0176     0.1015
  355.0000   -36.9732     9.2369     8.4967   105.6941     8.2098     2.5300     0.0174     0.1037
  355.5000   -37.1897     9.0621     8.4722   113.9685     8.1873     2.5299     0.0175     0.1052
  356.0000   -37.6029     9.0651     8.4469   124.7757     8.1650     2.5301     0.0175     0.1050
  356.5000   -38.0131     9.3379     8.4218   130.0143     8.1428     2.5326     0.0175     0.1042
  357.0000   -38.4367     9.6682     8.5708   116.5938     8.1205     2.5352     0.0175     0.1035
  357.5000   -38.5854     9.8559     8.7358   105.9264     8.0982     2.5360     0.0172     0.1027
  358.0000   -38.6083     9.8807     8.9028    99.2041     8.0751     2.5335     0.0167     0.1020
  358.5000   -38.6247     9.9059     8.9925    95.8993     8.0702     2.5306     0.0162     0.1030
  359.0000   -38.6417     9.9305     9.0239    94.9633     8.0788     2.5278     0.0157     0.1040
  359.5000   -38.6590     9.9556     9.0553    95.2821     8.0884     2.5250     0.0151     0.1049
  360.0000   -38.6763     9.9806     9.0869   102.1530     8.0980     2.5265     0.0146     0.1059
  360.5000   -38.6936    10.0057     9.1185   107.0454     8.1075     2.5332     0.0141     0.1060
  361.0000   -38.7109    10.0309     9.1503   105.4458     8.1171     2.5398     0.0136     0.1064
  361.5000   -38.7282    10.0562     9.1822   103.0031     8.1266     2.5395     0.0135     0.1054
  362.0000   -38.7456    10.0815     9.2142   100.5289     8.1362     2.5281     0.0135     0.1041
  362.5000   -38.7629    10.1069     9.2463    98.0705     8.1458     2.5212     0.0135     0.1029
  363.0000   -38.7802    10.1717     9.2785    98.0144     8.1489     2.5234     0.0131     0.1017
  363.5000   -38.7975    10.3106     9.3109   100.7840     8.1419     2.5269     0.0127     0.1005
