~VERSION INFORMATION
 VERS.                2.0:   CWLS LOG ASCII STANDARD - VERSION 2.0
 WRAP.                 NO:   ONE LINE PER DEPTH STEP
~WELL INFORMATION
#MNEM.UNIT      DATA TYPE    INFORMATION
#----------   ------------   ------------------------------
 STRT.F           20.0000:   START DEPTH
 STOP.F         2420.0000:   STOP DEPTH
 STEP.F            0.5000:   STEP LENGTH
 NULL.          -999.2500:   NO VALUE
 COMP. FENIX & SCISSON INC:   COMPANY
 WELL.    SHX 15 #71-1-15:   WELL
 FLD .             TEAPOT:   FIELD
 LOC .      S15 T38N R78W:   LOCATION
 CNTY.            NATRONA:   COUNTY
 STAT.            WYOMING:   STATE
 CTRY. UNITED STATES OF AMERICA:   COUNTRY
 SRVC.           BIRDWELL:   SERVICE COMPANY
 DATE.        03-SEP-1978:   LOGDATE
 API .       490251081800:   API NUMBER
~CURVE INFORMATION
#MNEM.UNIT       API CODE    CURVE DESCRIPTION
#----------   ------------   ------------------------------
 DEPT.F                  :   
 CALD.IN     45 280 60 00:   CALIPER
 GRD .GAPI   45 310 01 00:   GAMMA RAY FROM DENSITY LOG
 RHOB.G/C3   45 350 01 00:   BULK DENSITY
 DPHI.DEC    45 890 12 00:   DENSITY POROSITY SANDSTONE
 CORR.G/C3   45 356 01 00:   DENSITY CORRECTION
 NPHI.DEC    42 890 03 00:   NEUTRON POROSITY
~PARAMETER INFORMATION
#MNEM.UNIT          VALUE    DESCRIPTION
#----------   ------------   ------------------------------
 PD  .                 GL:   PERMANENT DATUM
 EPD .F              5249:   ELEVATION PERMANENT DATUM
 LMF .                 KB:   LOG MEASURED FROM
 DAPD.F                10:   FEET ABOVE PERMANENT DATUM
 DMF .                 KB:   DRILLING MEASURED FROM
 EKB .F              5259:   KELLING BUSHING
 EGL .F              5249:   GROUND LEVEL
 DATE.             9-3-78:   RUN DATE
 RUN .                  1:   RUN NUMBER
 DD  .F              2450:   DEPTH DRILLER
 DL  .F              2422:   DEPTH LOGGER
 BLI .F              2420:   BOTTOM LOG INTERVAL
 TLI .F                50:   TOP LOG INTERVAL
 CS  .IN            9.625:   CASING SIZE
 CBD .F               650:   CASING BOTTOM DRILLER
 CBL .F               676:   CASING BOTTOM LOGGER
 BS  .IN             8.75:   BIT SIZE
 BSD .F              2450:   BIT SIZE AT DEPTH
 DFT .           AIR MIST:   DRILLING FLUID TYPE
 LUN .               2958:   LOGGING UNIT NUMBER
 LUL .               CASP:   LOGGING UNIT LOCATION
 ENGI.             MILLER:   RECORDING ENGINEER
 WITN.           MCGINLEY:   WITNESSED BY
 CLNT.            A2DTECH:   CLIENT CODE
 ORIG.         2.5" PRINT:   ORIGIN OF DATA
 UWI .       490251081800:   UNIQUE WELL ID
 DICO. A2D Technologies, Inc.:   DIGITIZING COMPANY
~OTHER INFORMATION
~A   DEPT     CALD        GRD       RHOB       DPHI       CORR         NPHI 
# ...
 2048.0000    11.6004   156.2516     2.4283     0.1402     0.0137  -999.2500
 2048.5000    11.5800   155.6837     2.4418     0.1377     0.0208  -999.2500
 2049.0000    11.5603   154.3521     2.4493     0.1346     0.0256  -999.2500
 2049.5000    11.5410   154.6233     2.4431     0.1315     0.0228  -999.2500
 2050.0000    11.5402   155.8650     2.4375     0.1332     0.0210  -999.2500
 2050.5000    11.5397   158.1892     2.4382     0.1361     0.0114  -999.2500
 2051.0000    11.5401   158.2648     2.4281     0.1390     0.0029  -999.2500
 2051.5000    11.5399   157.4321     2.4203     0.1418     0.0022  -999.2500
 2052.0000    11.5400   155.7219     2.4261     0.1398     0.0053  -999.2500
 2052.5000    11.5400   154.0881     2.4328     0.1379     0.0087  -999.2500
 2053.0000    11.5400   155.3563     2.4324     0.1351     0.0119  -999.2500
 2053.5000    11.5400   156.7250     2.4249     0.1320     0.0155  -999.2500
 2054.0000    11.5400   157.9963     2.4336     0.1283     0.0181  -999.2500
 2054.5000    11.5400   157.9019     2.4525     0.1296     0.0203  -999.2500
 2055.0000    11.5400   156.7476     2.4318     0.1315     0.0233  -999.2500
 2055.5000    11.5400   155.6836     2.4372     0.1289     0.0263  -999.2500
 2056.0000    11.5400   154.5966     2.4461     0.1258     0.0343  -999.2500
 2056.5000    11.5400   153.5040     2.4551     0.1226     0.0384  -999.2500
 2057.0000    11.5400   152.4089     2.4548     0.1203     0.0365  -999.2500
 2057.5000    11.5400   151.3563     2.4574     0.1203     0.0338  -999.2500
 2058.0000    11.5400   150.2169     2.4610     0.1203     0.0313  -999.2500
 2058.5000    11.5378   149.1365     2.4538     0.1203     0.0289  -999.2500
 2059.0000    11.5349   148.9616     2.4518     0.1226     0.0262  -999.2500
 2059.5000    11.5320   151.5137     2.4543     0.1214     0.0268  -999.2500
 2060.0000    11.5292   153.8947     2.4562     0.1200     0.0275  -999.2500
 2060.5000    11.5263   152.7812     2.4577     0.1187     0.0284  -999.2500
 2061.0000    11.5234   150.5463     2.4594     0.1197     0.0292  -999.2500
 2061.5000    11.5206   149.9968     2.4609     0.1207     0.0299  -999.2500
 2062.0000    11.5177   149.5278     2.4622     0.1218     0.0267  -999.2500
 2062.5000    11.5148   148.3403     2.4654     0.1174     0.0286  -999.2500
 2063.0000    11.5120   146.8493     2.4705     0.1152     0.0331  -999.2500
 2063.5000    11.5092   145.2711     2.4742     0.1195     0.0369  -999.2500
 2064.0000    11.5062   143.9369     2.4630     0.1237     0.0189  -999.2500
 2064.5000    11.5035   137.4375     2.4520     0.1275     0.0185  -999.2500
 2065.0000    11.5002   135.9655     2.4455     0.1282     0.0268  -999.2500
 2065.5000    11.5000   136.9551     2.4490     0.1289     0.0406  -999.2500
 2066.0000    11.5000   137.8213     2.4475     0.1267     0.0534  -999.2500
 2066.5000    11.5000   138.6689     2.4603     0.1233     0.0667  -999.2500
 2067.0000    11.5000   139.5479     2.4674     0.1211     0.0684  -999.2500
 2067.5000    11.5000   140.3619     2.4589     0.1211     0.0633  -999.2500
 2068.0000    11.5000   141.4365     2.4506     0.1283     0.0462  -999.2500
 2068.5000    11.5000   142.5986     2.4433     0.1302     0.0231  -999.2500
 2069.0000    11.5000   144.2173     2.4418     0.1322     0.0055  -999.2500
 2069.5000    11.5000   146.2179     2.4404     0.1342     0.0076  -999.2500
 2070.0000    11.5000   148.1152     2.4358     0.1362     0.0083  -999.2500
 2070.5000    11.5000   150.0726     2.4255     0.1379     0.0096  -999.2500
 2071.0000    11.5000   151.9563     2.4239     0.1387     0.0086  -999.2500
 2071.5000    11.5000   153.8777     2.4258     0.1368     0.0067  -999.2500
 2072.0000    11.5000   155.5674     2.4347     0.1339     0.0050  -999.2500
 2072.5000    11.5000   160.4167     2.4358     0.1342     0.0028  -999.2500
 2073.0000    11.5000   165.4422     2.4324     0.1345     0.0046  -999.2500
 2073.5000    11.5000   165.7231     2.4322     0.1358     0.0125  -999.2500
 2074.0000    11.5000   164.5998     2.4343     0.1378     0.0132  -999.2500
 2074.5000    11.5000   159.7608     2.4387     0.1389     0.0105  -999.2500
 2075.0000    11.5000   157.5138     2.4356     0.1393     0.0080  -999.2500
 2075.5000    11.5000   159.3962     2.4243     0.1397     0.0055  -999.2500
 2076.0000    11.5000   157.8045     2.4284     0.1401     0.0029  -999.2500
 2076.5000    11.5000   183.9443     2.4287     0.1430     0.0005  -999.2500
 2077.0000    11.5000   191.7792     2.4176     0.1476    -0.0019  -999.2500
 2077.5000    11.5000   196.4978     2.4175     0.1530    -0.0020  -999.2500
 2078.0000    11.5000   200.3324     2.4072     0.1514    -0.0019  -999.2500
 2078.5000    11.5000   211.6038     2.4051     0.1494    -0.0024  -999.2500
 2079.0000    11.5000   210.4388     2.4089     0.1482     0.0014  -999.2500
 2079.5000    11.5000   202.1380     2.4094     0.1539     0.0041  -999.2500
 2080.0000    11.5000   182.1070     2.4017     0.1570     0.0061  -999.2500
 2080.5000    11.5000   178.6932     2.4014     0.1541     0.0081  -999.2500
 2081.0000    11.5000   162.5766     2.4042     0.1514     0.0101  -999.2500
 2081.5000    11.5000   153.5211     2.4132     0.1482     0.0119  -999.2500
 2082.0000    11.5000   154.5662     2.4137     0.1459     0.0144  -999.2500
 2082.5000    11.4999   150.2203     2.4258     0.1433     0.0088  -999.2500
 2083.0000    11.5000   142.1999     2.4202     0.1406    -0.0003  -999.2500
 2083.5000    11.5000   137.5831     2.4067     0.1387    -0.0093  -999.2500
 2084.0000    11.4995   139.6462     2.4106     0.1390    -0.0092  -999.2500
 2084.5000    11.5056   144.5927     2.4167     0.1393     0.0007  -999.2500
 2085.0000    11.5211   146.1552     2.4230     0.1396     0.0106  -999.2500
 2085.5000    11.5360   147.6237     2.4291     0.1399     0.0165  -999.2500
 2086.0000    11.5509   143.3148     2.4361     0.1401     0.0201  -999.2500
 2086.5000    11.5661   140.3736     2.4398     0.1422     0.0238  -999.2500
 2087.0000    11.5809   137.2983     2.4346     0.1451     0.0276  -999.2500
 2087.5000    11.5959   136.3154     2.4292     0.1480     0.0290  -999.2500
 2088.0000    11.6120   136.9752     2.4100     0.1508     0.0256  -999.2500
 2088.5000    11.6201   141.6158     2.3937     0.1537     0.0224  -999.2500
 2089.0000    11.6171   147.2425     2.3914     0.1566     0.0190  -999.2500
 2089.5000    11.6154   152.9154     2.3927     0.1576     0.0197  -999.2500
 2090.0000    11.6136   155.5788     2.3937     0.1546     0.0223  -999.2500
 2090.5000    11.6115   153.6499     2.4007     0.1514     0.0249  -999.2500
 2091.0000    11.6096   151.4517     2.4043     0.1510     0.0272  -999.2500
 2091.5000    11.6077   149.1736     2.4068     0.1502     0.0296  -999.2500
 2092.0000    11.6058   148.2672     2.4113     0.1469     0.0253  -999.2500
 2092.5000    11.6039   147.9360     2.4157     0.1410     0.0204  -999.2500
 2093.0000    11.6019   144.8223     2.4186     0.1430     0.0153  -999.2500
 2093.5000    11.6000   139.7520     2.4134     0.1467     0.0142  -999.2500
 2094.0000    11.5981   138.4858     2.4124     0.1498     0.0188  -999.2500
 2094.5000    11.5962   142.3892     2.4257     0.1397     0.0237  -999.2500
 2095.0000    11.5942   147.8620     2.4384     0.1315     0.0290  -999.2500
 2095.5000    11.5923   150.7951     2.4390     0.1346     0.0275  -999.2500
 2096.0000    11.5904   148.9355     2.4360     0.1431     0.0196  -999.2500
 2096.5000    11.5885   144.9148     2.4167     0.1440     0.0123  -999.2500
 2097.0000    11.5865   144.6089     2.4237     0.1412     0.0062  -999.2500
 2097.5000    11.5846   141.9612     2.4327     0.1385     0.0111  -999.2500
 2098.0000    11.5827   134.0684     2.4377     0.1363     0.0182  -999.2500
 2098.5000    11.5807   131.0840     2.4305     0.1363     0.0224  -999.2500
 2099.0000    11.5799   129.0611     2.4276     0.1363     0.0213  -999.2500
 2099.5000    11.5800   129.8639     2.4294     0.1363     0.0208  -999.2500
