~VERSION INFORMATION
 VERS.                2.0:   CWLS LOG ASCII STANDARD - VERSION 2.0
 WRAP.                 NO:   ONE LINE PER DEPTH STEP
~WELL INFORMATION
#MNEM.UNIT      DATA TYPE    INFORMATION
#----------   ------------   ------------------------------
 STRT.F           19.0000:   START DEPTH
 STOP.F         1200.0000:   STOP DEPTH
 STEP.F            0.5000:   STEP LENGTH
 NULL.          -999.2500:   NO VALUE
 COMP.       INTEX OIL CO:   COMPANY
 WELL.     NPR 3 #73 S-14:   WELL
 FLD .             TEAPOT:   FIELD
 LOC .      S14 T38N R78W:   LOCATION
 CNTY.            NATRONA:   COUNTY
 STAT.            WYOMING:   STATE
 CTRY. UNITED STATES OF AMERICA:   COUNTRY
 SRVC.       Schlumberger:   SERVICE COMPANY
 DATE.        24-AUG-1966:   LOGDATE
 API .       490250970900:   API NUMBER
~CURVE INFORMATION
#MNEM.UNIT       API CODE    CURVE DESCRIPTION
#----------   ------------   ------------------------------
 DEPT.F                  :   
 SPR .MV     05 010 01 00:   SPONTANEOUS POTENTIAL FROM RES.
 ILD .OHMM   05 120 46 00:   INDUCTION LOG DEEP
 ASN .OHMM   05 041 16 00:   AMPLIFIED SHORT NORMAL 16"
 CILD.MMHO   05 110 46 00:   CONDUCTIVITY INDUCTION LOG DEEP
 CALD.IN     45 280 60 00:   CALIPER
 GRD .GAPI   45 310 01 00:   GAMMA RAY FROM DENSITY LOG
 CORR.G/C3   45 356 01 00:   DENSITY CORRECTION
 RHOB.G/C3   45 350 01 00:   BULK DENSITY
 DPHI.DEC    45 890 12 00:   DENSITY POROSITY SANDSTONE
~PARAMETER INFORMATION
#MNEM.UNIT          VALUE    DESCRIPTION
#----------   ------------   ------------------------------
 PD  .                 GL:   PERMANENT DATUM
 EPD .F              5274:   ELEVATION PERMANENT DATUM
 LMF .                 KB:   LOG MEASURED FROM
 DAPD.F                 5:   FEET ABOVE PERMANENT DATUM
 DMF .                 KB:   DRILLING MEASURED FROM
 EKB .F              5279:   KELLING BUSHING
 EGL .F              5274:   GROUND LEVEL
 DATE.            8-24-66:   RUN DATE
 RUN .                  1:   RUN NUMBER
 DD  .F              1200:   DEPTH DRILLER
 DL  .F              1200:   DEPTH LOGGER
 BLI .F              1199:   BOTTOM LOG INTERVAL
 TLI .F                86:   TOP LOG INTERVAL
 CS  .IN            8.625:   CASING SIZE
 CBD .F                10:   CASING BOTTOM DRILLER
 BS  .IN             6.75:   BIT SIZE
 BSD .F              1200:   BIT SIZE AT DEPTH
 DFT .                GEL:   DRILLING FLUID TYPE
 DFD .               10.1:   DRILLING FLUID DENSITY
 DFV .                 60:   DRILLING FLUID VISCOSITY
 MSS .          FLOW LINE:   MUD SAMPLE SOURCE
 RMS .OHMM            1.8:   RESISTIVITY MUD SAMPLE
 MST .F                67:   MUD SAMPLE TEMPERATURE
 RMF .OHMM            1.4:   RESISTIVITY MUD FILTRATE SAMPLE
 MFST.F                77:   MUD FILTRATE SAMPLE TEMPERATURE
 MFSS.                  M:   MUD FILTRATE SAMPLE SOURCE
 RMB .OHMM            1.1:   RESISTIVITY MUD AT BHT
 BHT .F               112:   BOTTOM HOLE TEMPERATURE
 TCS .HRS               1:   TIME CURCULATED STOPPED
 MRT .F               112:   MAXIMUM RECORDED TEMPERATURE
 LUN .               4507:   LOGGING UNIT NUMBER
 LUL .               CSPR:   LOGGING UNIT LOCATION
 ENGI.            MANGOLD:   RECORDING ENGINEER
 WITN.                MAY:   WITNESSED BY
 CLNT.            A2DTECH:   CLIENT CODE
 ORIG.           5" PRINT:   ORIGIN OF DATA
 UWI .       490250970900:   UNIQUE WELL ID
 DICO. A2D Technologies, Inc.:   DIGITIZING COMPANY
~OTHER INFORMATION
~A   DEPT      SPR        ILD        ASN       CILD       CALD         GRD        CORR     RHOB       DPHI   
# ...
 1150.5000   -35.9950    10.5730    12.2440    91.3570     7.2230    84.6920     0.0310     2.4950     0.0990
 1151.0000   -36.2250    10.5850    12.1770    91.9100     7.2290    85.0750     0.0300     2.4920     0.0970
 1151.5000   -36.6330    10.6000    12.0850    92.4640     7.2340    86.4320     0.0390     2.4670     0.1010
 1152.0000   -36.9760    10.6120    12.0480    93.0180     7.2390    88.3840     0.0360     2.4580     0.1120
 1152.5000   -37.1750    10.6270    12.1360    93.4070     7.2440    88.9990     0.0240     2.4710     0.1080
 1153.0000   -37.1860    10.6390    12.2440    92.5060     7.2490    87.4320     0.0170     2.4800     0.1020
 1153.5000   -37.1570    10.6410    12.3150    91.8120     7.2550    87.4270     0.0260     2.4900     0.0980
 1154.0000   -37.0510    10.6390    12.4090    91.1180     7.2540    89.2350     0.0320     2.4990     0.0950
 1154.5000   -36.6240    10.6400    12.5000    90.4240     7.2180    89.2910     0.0240     2.5090     0.0850
 1155.0000   -36.2010    10.6410    12.5700    89.7300     7.1930    87.2810     0.0380     2.5180     0.0790
 1155.5000   -36.1510    10.6130    12.6860    89.6800     7.1650    85.4890     0.0490     2.5210     0.0780
 1156.0000   -36.1870    10.5420    12.7190    90.1790     7.1410    83.5430     0.0460     2.5280     0.0700
 1156.5000   -36.1700    10.4650    12.5500    90.6780     7.1090    81.9450     0.0460     2.5370     0.0680
 1157.0000   -36.1710    10.3920    12.3420    91.1770     7.1140    82.2560     0.0520     2.5420     0.0650
 1157.5000   -36.0960    10.3170    12.2490    91.6760     7.1600    82.7750     0.0540     2.5390     0.0700
 1158.0000   -36.0110    10.2430    12.2890    92.1750     7.1990    83.3830     0.0610     2.5300     0.0730
 1158.5000   -35.9560    10.1680    12.3390    92.6740     7.2370    85.5020     0.0450     2.5380     0.0620
 1159.0000   -35.8770    10.0950    12.2560    93.1730     7.2380    87.6300     0.0330     2.5690     0.0510
 1159.5000   -35.8110    10.0180    12.1100    93.6720     7.2360    90.0280     0.0500     2.5650     0.0520
 1160.0000   -35.7420     9.9450    11.9730    94.1720     7.2330    90.1970     0.0650     2.5500     0.0630
 1160.5000   -35.6690     9.8960    11.8310    94.6710     7.2310    88.5780     0.0710     2.5360     0.0730
 1161.0000   -35.6050     9.8450    11.6940    95.1700     7.2290    87.3370     0.0570     2.5290     0.0710
 1161.5000   -35.5170     9.7820    11.5550    95.6690     7.2270    85.8830     0.0520     2.5220     0.0770
 1162.0000   -35.4210     9.7270    11.4140    96.1680     7.2250    85.4610     0.0450     2.5240     0.0750
 1162.5000   -35.2070     9.6680    11.2770    97.3390     7.2220    86.5890     0.0390     2.5410     0.0670
 1163.0000   -34.8140     9.5450    11.1360    99.1110     7.2200    88.4670     0.0490     2.5570     0.0600
 1163.5000   -34.4860     9.3500    10.9550   100.8830     7.2180    88.6230     0.0570     2.5590     0.0540
 1164.0000   -34.1440     9.1620    10.7670   102.6540     7.2180    88.5450     0.0670     2.5430     0.0700
 1164.5000   -33.5960     8.9730    10.5880   104.4260     7.2170    90.2790     0.0690     2.5330     0.0670
 1165.0000   -33.1150     8.8250    10.3960   106.1980     7.2170    91.8470     0.0640     2.5440     0.0600
 1165.5000   -32.7430     8.6740    10.2250   107.9700     7.2160    91.0500     0.0570     2.5630     0.0510
 1166.0000   -32.3130     8.4160     9.9720   109.7420     7.2150    91.3750     0.0600     2.5560     0.0590
 1166.5000   -31.9120     8.3030     9.6370   111.5140     7.2150    92.4620     0.0660     2.5260     0.0690
 1167.0000   -31.5530     8.0740     9.3370   117.6620     7.2140    94.2610     0.0730     2.5290     0.0730
 1167.5000   -31.2110     7.3170     9.0540   129.7260     7.2130    93.6970     0.0590     2.5340     0.0680
 1168.0000   -30.8890     6.5450     8.7680   144.7920     7.2120    95.9390     0.0360     2.5340     0.0750
 1168.5000   -30.5400     5.9420     8.3820   159.8590     7.2120    99.1290     0.0430     2.5160     0.0700
 1169.0000   -30.1680     5.4300     7.7840   179.3210     7.2110   100.0250     0.0480     2.4890     0.0910
 1169.5000   -29.7900     5.2880     7.2050   189.3110     7.2100   107.1470     0.0570     2.4600     0.1040
 1170.0000   -29.3930     5.2460     6.5030   190.3100     7.2100   111.9660     0.0580     2.4530     0.1150
 1170.5000   -28.9370     5.1510     6.1540   186.8020     7.2090   113.9520     0.0390     2.4670     0.1080
 1171.0000   -28.5350     5.2460     5.8240   183.6210     7.2080   104.3610     0.0420     2.5000     0.0930
 1171.5000   -28.4580     5.3820     5.9410   180.4400     7.2080    95.7070     0.0480     2.5320     0.0780
 1172.0000   -28.6480     5.6680     6.3640   178.3220     7.2070    93.2540     0.0450     2.5570     0.0600
 1172.5000   -28.8430     6.3520     7.2450   157.0930     7.2060    91.7460     0.0390     2.5680     0.0510
 1173.0000   -29.0150     7.1840     8.4070   138.5040     7.2060    94.9960     0.0360     2.5670     0.0500
 1173.5000   -29.2190     7.9340     9.1510   122.6890     7.2050    99.5430     0.0530     2.5670     0.0480
 1174.0000   -29.3540     8.4210     9.3210   113.2330     7.2040   100.1110     0.0600     2.5840     0.0410
 1174.5000   -29.3580     8.5930     9.5710   105.3950     7.2040    99.5940     0.0640     2.5720     0.0500
 1175.0000   -29.3660     8.7410     9.7620   105.0140     7.2030    99.5040     0.0680     2.5640     0.0520
 1175.5000   -29.3500     8.9250     9.9490   104.5180     7.2020    97.8910     0.0730     2.5630     0.0550
 1176.0000   -29.1510     9.0750    10.2760   104.0230     7.2010    95.6210     0.0690     2.5400     0.0670
 1176.5000   -28.8440     9.2500    10.6430   103.3970     7.2010    93.3030     0.0560     2.5260     0.0750
 1177.0000   -28.5560     9.4090    11.0430   102.0020     7.2000    92.3480     0.0540     2.5380     0.0680
 1177.5000   -28.2750     9.5440    11.3320   100.1090     7.1990    94.5750     0.0450     2.5470     0.0650
 1178.0000   -27.9410     9.6870    11.4410    98.2160     7.1990    94.8460     0.0250     2.5410     0.0640
 1178.5000   -27.7760     9.8120    11.7320    96.3240     7.2010    93.3780     0.0290     2.5260     0.0750
 1179.0000   -28.0520     9.9310    11.9380    95.4050     7.2030    94.5130     0.0360     2.5130     0.0830
 1179.5000   -28.4110    10.0540    12.0460    95.4050     7.2050    95.6440     0.0300     2.5040     0.0870
 1180.0000   -28.3820    10.1740    12.2030    95.4050     7.2060    96.0030     0.0240     2.5080     0.0880
 1180.5000   -28.0650    10.3150    12.3510    93.4350     7.2080    93.6290     0.0170     2.5250     0.0800
 1181.0000   -27.7100    10.4750    12.5060    91.8080     7.2100    89.3290     0.0120     2.5490     0.0620
 1181.5000   -27.3720    10.6400    12.6570    90.1820     7.2120    82.3570     0.0180     2.5470     0.0640
 1182.0000   -27.0360    10.8010    12.8080    88.5550     7.2140    65.4420     0.0230     2.5360     0.0700
 1182.5000   -26.6830    10.9630    12.9610    86.9290     7.2160    16.2380     0.0270     2.5500     0.0620
 1183.0000   -26.3530    11.1310    13.1100    85.4150     7.2180     0.3680     0.0200     2.5400     0.0690
 1183.5000   -26.0130    11.2350    13.2710    84.7470     7.2190  -999.2500     0.0240     2.5300     0.0720
 1184.0000   -25.6480    11.2540    13.3110    84.1220     7.2170  -999.2500     0.0320     2.5480     0.0620
 1184.5000   -25.3860    11.2620    13.2710    83.4980     7.2160  -999.2500     0.0270     2.5570     0.0530
 1185.0000   -25.2900    11.2870    13.1990    82.8730     7.2150  -999.2500     0.0250     2.5490     0.0620
 1185.5000   -25.4190    11.3100    13.1460    82.4180     7.2140  -999.2500     0.0390     2.5360     0.0670
 1186.0000   -25.4860    11.3160    13.3070    82.4180     7.2130  -999.2500     0.0360     2.5880     0.0390
 1186.5000   -25.2120    11.3530    13.4780    82.4180     7.2120  -999.2500     0.0200     2.5850     0.0460
