~VERSION INFORMATION
 VERS.                2.0:   CWLS LOG ASCII STANDARD - VERSION 2.0
 WRAP.                 NO:   ONE LINE PER DEPTH STEP
~WELL INFORMATION
#MNEM.UNIT      DATA TYPE    INFORMATION
#----------   ------------   ------------------------------
 STRT.F           12.5000:   START DEPTH
 STOP.F          604.0000:   STOP DEPTH
 STEP.F            0.5000:   STEP LENGTH
 NULL.          -999.2500:   NO VALUE
 COMP. FENIX & SCISSON INC:   COMPANY
 WELL.   SX-3 NPR 3 #61-3:   WELL
 FLD .             TEAPOT:   FIELD
 LOC .       S3 T38N R78W:   LOCATION
 CNTY.            NATRONA:   COUNTY
 STAT.            WYOMING:   STATE
 CTRY. UNITED STATES OF AMERICA:   COUNTRY
 SRVC.           BIRDWELL:   SERVICE COMPANY
 DATE.        03-DEC-1978:   LOGDATE
 API .       490251074100:   API NUMBER
~CURVE INFORMATION
#MNEM.UNIT       API CODE    CURVE DESCRIPTION
#----------   ------------   ------------------------------
 DEPT.F                  :   
 SPR .MV     05 010 01 00:   SPONTANEOUS POTENTIAL FROM RES.
 SN  .OHMM   05 040 16 00:   SHORT NORMAL 16"
 IL  .OHMM   05 120 00 00:   INDUCTION LOG
 CALD.IN     45 280 60 00:   CALIPER
 GRD .GAPI   45 310 01 00:   GAMMA RAY FROM DENSITY LOG
 DEN .G/C3   45 350 01 00:   COMPENSATED BULK DENSTIY
 CORR.G/C3   45 356 01 00:   DENSITY CORRECTION
 DPHI.DEC    45 890 12 00:   DENSITY POROSITY SANDSTONE
~PARAMETER INFORMATION
#MNEM.UNIT          VALUE    DESCRIPTION
#----------   ------------   ------------------------------
 PD  .                 GL:   PERMANENT DATUM
 EPD .F              5099:   ELEVATION PERMANENT DATUM
 LMF .                 KB:   LOG MEASURED FROM
 DAPD.F                 4:   FEET ABOVE PERMANENT DATUM
 DMF .                 KB:   DRILLING MEASURED FROM
 EKB .F              5103:   KELLING BUSHING
 EGL .F              5099:   GROUND LEVEL
 DATE.            12-3-78:   RUN DATE
 RUN .                  1:   RUN NUMBER
 DD  .F               615:   DEPTH DRILLER
 DL  .F               604:   DEPTH LOGGER
 BLI .F               598:   BOTTOM LOG INTERVAL
 TLI .F                40:   TOP LOG INTERVAL
 CS  .IN            8.625:   CASING SIZE
 CBL .F                35:   CASING BOTTOM LOGGER
 BS  .IN            7.875:   BIT SIZE
 BSD .F               615:   BIT SIZE AT DEPTH
 DFT .                KCL:   DRILLING FLUID TYPE
 DFD .                8.8:   DRILLING FLUID DENSITY
 DFV .                 42:   DRILLING FLUID VISCOSITY
 DFPH.               12.2:   DRILLING FLUID PH
 DFL .                 10:   DRILLING FLUID LOSS
 MSS .           FLOWLINE:   MUD SAMPLE SOURCE
 RMS .OHMM            .24:   RESISTIVITY MUD SAMPLE
 MST .F                58:   MUD SAMPLE TEMPERATURE
 RMF .OHMM             .3:   RESISTIVITY MUD FILTRATE SAMPLE
 MFST.F                54:   MUD FILTRATE SAMPLE TEMPERATURE
 RMC .OHMM            .34:   RESISTIVITY MUD CAKE
 MCST.F                56:   MUD CAKE SAMPLE TEMPERATURE
 MFSS.           MEASURED:   MUD FILTRATE SAMPLE SOURCE
 MCSS.           MEASURED:   MUD CAKE SAMPLE SOURCE
 RMB .OHMM            .27:   RESISTIVITY MUD AT BHT
 BHT .F                56:   BOTTOM HOLE TEMPERATURE
 TCS .HRS               3:   TIME CURCULATED STOPPED
 MRT .F                52:   MAXIMUM RECORDED TEMPERATURE
 LUN .               2958:   LOGGING UNIT NUMBER
 LUL .                CPR:   LOGGING UNIT LOCATION
 ENGI.            ROLLINS:   RECORDING ENGINEER
 WITN.              AMEND:   WITNESSED BY
 CLNT.            A2DTECH:   CLIENT CODE
 ORIG.       2", 5" PRINT:   ORIGIN OF DATA
 UWI .       490251074100:   UNIQUE WELL ID
 DICO. A2D Technologies, Inc.:   DIGITIZING COMPANY
~OTHER INFORMATION
~A   DEPT      SPR         SN         IL       CALD         GRD       DEN       CORR       DPHI   
# ...
  174.5000   -50.9180    10.4928    10.0052     8.0459   109.0390     2.4715     0.0201     0.1260
  175.0000   -51.3718    10.4005     9.7958     8.0547   109.4530     2.4801     0.0135     0.1306
  175.5000   -51.8269    10.3090     9.5907     8.0568   110.1612     2.4773     0.0069     0.1340
  176.0000   -52.2821    10.2183     9.3900     8.0430   109.9452     2.4717     0.0068     0.1340
  176.5000   -52.7094    10.1285     9.1934     8.0295   110.0148     2.4698     0.0085     0.1360
  177.0000   -52.8468    10.0394     9.0010     8.0161   113.7000     2.4674     0.0103     0.1380
  177.5000   -52.9734     9.9510     8.8126     8.0026   115.1887     2.4648     0.0120     0.1382
  178.0000   -53.1009     9.8635     8.6282     7.9891   116.0036     2.4630     0.0133     0.1384
  178.5000   -53.2287     9.7765     8.4476     7.9756   117.5067     2.4635     0.0117     0.1387
  179.0000   -53.3567     9.7294     8.3155     7.9621   119.0068     2.4641     0.0102     0.1401
  179.5000   -53.4900     9.7295     8.3155     7.9486   120.5030     2.4617     0.0086     0.1423
  180.0000   -53.4257     9.6791     8.3155     7.9367   121.3799     2.4580     0.0073     0.1445
  180.5000   -53.3103     9.6400     8.4750     7.9269   120.5457     2.4539     0.0114     0.1439
  181.0000   -53.1940     9.6999     8.7063     7.9170   116.0843     2.4539     0.0271     0.1406
  181.5000   -53.0783     9.7457     8.9438     7.9072   111.7922     2.4596     0.0428     0.1374
  182.0000   -52.9626     9.7917     9.1879     7.8974   108.7807     2.4650     0.0583     0.1313
  182.5000   -52.8469     9.8380     9.4386     7.8875   108.4779     2.4757     0.0677     0.1208
  183.0000   -52.7312     9.8844     9.6400     7.8777   108.2664     2.4869     0.0594     0.1220
  183.5000   -52.6156     9.9235     9.6400     7.8678   108.0626     2.4951     0.0516     0.1234
  184.0000   -52.5002     9.9528     9.5908     7.8580   108.9580     2.4888     0.0483     0.1248
  184.5000   -52.3836     9.9822     9.5326     7.8481   110.1923     2.4822     0.0457     0.1303
  185.0000   -52.1869    10.0116     9.4749     7.8382   108.9260     2.4756     0.0488     0.1356
  185.5000   -51.8323    10.0411     9.4174     7.8284   107.7371     2.4689     0.0547     0.1384
  186.0000   -51.4799    10.0707     9.3604     7.8213   109.1611     2.4660     0.0653     0.1361
  186.5000   -51.1270    10.1004     9.3031     7.8343   110.5335     2.4662     0.0757     0.1330
  187.0000   -50.7748    10.1302     9.2899     7.8775   107.0667     2.4722     0.0789     0.1300
  187.5000   -50.4184    10.1601     9.3066     7.9204   103.2455     2.4785     0.0740     0.1314
  188.0000   -50.2994    10.1901     9.3205     7.9593   102.3996     2.4764     0.0676     0.1376
  188.5000   -50.3167    10.2201     9.3343     7.9348   103.8394     2.4649     0.0749     0.1412
  189.0000   -50.6675    10.2503     9.3482     7.9074   107.0927     2.4568     0.0966     0.1334
  189.5000   -51.0115    10.2835     9.3622     7.9167   110.3273     2.4693     0.1182     0.1236
  190.0000   -51.3529    10.2587     9.3761     7.9462   111.9589     2.4882     0.1299     0.1138
  190.5000   -51.6903    10.2305     9.3900     7.9762   111.9889     2.5073     0.1067     0.1016
  191.0000   -51.9102    10.2024     9.4040     7.9798   109.8893     2.5215     0.0749     0.1132
  191.5000   -51.9076    10.1893     9.4180     7.9735   103.8711     2.5094     0.0427     0.1287
  192.0000   -51.8793    10.2514     9.4321     7.9674   100.9672     2.4883     0.0320     0.1401
  192.5000   -51.8322    10.2977     9.4461     7.9613   106.5759     2.4663     0.0380     0.1388
  193.0000   -51.7850    10.3439     9.4602     7.9611   110.0243     2.4612     0.0523     0.1386
  193.5000   -51.7378    10.3795     9.4742     7.9648   110.3537     2.4622     0.0587     0.1407
  194.0000   -51.6906    10.3592     9.4884     7.9739   111.3718     2.4568     0.0661     0.1393
  194.5000   -51.6434    10.3428     9.5025     7.9830   115.0482     2.4562     0.0936     0.1303
  195.0000   -51.5962    10.3265     9.5166     7.9921   116.6743     2.4754     0.1152     0.1213
  195.5000   -51.5491    10.3102     9.5309     8.0011   115.1326     2.4972     0.1102     0.1132
  196.0000   -51.5019    10.2938     9.5501     8.0102   112.6031     2.5039     0.0931     0.1193
  196.5000   -51.4547    10.2776     9.5119     8.0193   110.9510     2.4923     0.0762     0.1288
  197.0000   -51.4075    10.2613     9.4405     8.0283   111.5915     2.4806     0.0711     0.1239
  197.5000   -51.3602    10.2451     9.3696     8.0374   112.7902     2.4831     0.0683     0.1180
  198.0000   -51.3123    10.2289     9.2993     8.0465   112.1871     2.4960     0.0588     0.1144
  198.5000   -51.3050    10.2127     9.2294     8.0555   112.4331     2.5043     0.0392     0.1140
  199.0000   -51.3209    10.1966     9.1941     8.0594   113.1277     2.4972     0.0137     0.1220
  199.5000   -51.3937    10.1805     9.1774     8.0556   113.3782     2.4887     0.0074     0.1301
  200.0000   -51.4640    10.1644     9.1608     8.0520   113.0301     2.4800     0.0093     0.1348
  200.5000   -51.5343    10.1483     9.1441     8.0483   112.6610     2.4714     0.0131     0.1323
  201.0000   -51.6046    10.1323     9.1275     8.0446   112.3780     2.4735     0.0155     0.1267
  201.5000   -51.6749    10.1162     9.1110     8.0405   112.5816     2.4829     0.0148     0.1211
  202.0000   -51.7453    10.1003     9.0944     8.0243   112.7081     2.4922     0.0113     0.1176
  202.5000   -51.8154    10.0843     9.0779     8.0077   111.7939     2.4948     0.0077     0.1227
  203.0000   -51.8875    10.0683     9.0615     7.9917   112.6795     2.4852     0.0089     0.1287
  203.5000   -51.8584    10.0524     9.0450     7.9889   116.2782     2.4762     0.0105     0.1348
  204.0000   -51.7896    10.0365     9.0286     8.0115   119.6948     2.4709     0.0121     0.1360
  204.5000   -51.7192    10.0207     9.0122     8.0337   120.1687     2.4689     0.0134     0.1346
  205.0000   -51.6490    10.0048     8.9959     8.0342   120.1425     2.4714     0.0108     0.1296
  205.5000   -51.5789     9.9890     8.9795     8.0205   119.9765     2.4799     0.0081     0.1241
  206.0000   -51.5088     9.9732     8.9633     8.0065   119.6734     2.4881     0.0056     0.1192
  206.5000   -51.4386     9.9574     8.9470     8.0059   119.2548     2.4941     0.0055     0.1199
  207.0000   -51.3685     9.9417     8.9307     8.0137   116.4033     2.4941     0.0055     0.1212
  207.5000   -51.2984     9.9258     8.9145     8.0217   113.5247     2.4917     0.0055     0.1224
  208.0000   -51.2281     9.9119     8.8984     8.0297   111.5304     2.4883     0.0062     0.1247
  208.5000   -51.1580     9.9170     8.8822     8.0377   112.8765     2.4849     0.0069     0.1272
  209.0000   -51.1029     9.9230     8.8710     8.0457   116.0827     2.4815     0.0075     0.1297
  209.5000   -51.1057     9.9290     8.8707     8.0536   114.6954     2.4781     0.0082     0.1316
  210.0000   -51.1825     9.9349     8.9030     8.0613   112.3348     2.4753     0.0088     0.1308
  210.5000   -51.3437     9.9408     8.9456     8.0712   111.4638     2.4772     0.0094     0.1256
  211.0000   -51.5041     9.9468     8.9884     8.0807   111.0550     2.4809     0.0063     0.1198
  211.5000   -51.6651     9.9527     9.0315     8.0901   109.9468     2.4922     0.0028     0.1140
  212.0000   -51.8260     9.9586     9.0747     8.0998   108.6694     2.5033    -0.0007     0.1082
  212.5000   -51.9868     9.9646     9.1181     8.0925   107.3835     2.5127    -0.0025     0.1050
  213.0000   -52.1477     9.9705     9.1618     8.0827   106.6479     2.5134    -0.0014     0.1092
  213.5000   -52.3087     9.9765     9.2049     8.0729   106.3863     2.5068    -0.0004     0.1155
  214.0000   -52.4748     9.9825     9.1700     8.0632   106.1374     2.5000     0.0006     0.1217
  214.5000   -52.5102     9.9884     9.1359     8.0535   105.8891     2.4933     0.0016     0.1259
