~VERSION INFORMATION
 VERS.                2.0:   CWLS LOG ASCII STANDARD - VERSION 2.0
 WRAP.                 NO:   ONE LINE PER DEPTH STEP
~WELL INFORMATION
#MNEM.UNIT      DATA TYPE    INFORMATION
#----------   ------------   ------------------------------
 STRT.F          390.0000:   START DEPTH
 STOP.F         2628.0000:   STOP DEPTH
 STEP.F            0.5000:   STEP LENGTH
 NULL.          -999.2500:   NO VALUE
 COMP. FENIX & SCISSON INC:   COMPANY
 WELL.    25 SHX 11 #3-11:   WELL
 FLD .             TEAPOT:   FIELD
 LOC .      S11 T38N R78W:   LOCATION
 CNTY.            NATRONA:   COUNTY
 STAT.            WYOMING:   STATE
 CTRY. UNITED STATES OF AMERICA:   COUNTRY
 SRVC.              Welex:   SERVICE COMPANY
 DATE.        15-MAY-1980:   LOGDATE
 API .       490251081900:   API NUMBER
~CURVE INFORMATION
#MNEM.UNIT       API CODE    CURVE DESCRIPTION
#----------   ------------   ------------------------------
 DEPT.F                  :   
 CALD.IN     45 280 60 00:   CALIPER
 GRD .GAPI   45 310 01 00:   GAMMA RAY FROM DENSITY LOG
 RHOB.G/C3   45 350 01 00:   BULK DENSITY
 DPHI.DEC    45 890 12 00:   DENSITY POROSITY SANDSTONE
 CORR.G/C3   45 356 01 00:   DENSITY CORRECTION
~PARAMETER INFORMATION
#MNEM.UNIT          VALUE    DESCRIPTION
#----------   ------------   ------------------------------
 PD  .                 GL:   PERMANENT DATUM
 EPD .F              5163:   ELEVATION PERMANENT DATUM
 LMF .                 KB:   LOG MEASURED FROM
 DAPD.F                10:   FEET ABOVE PERMANENT DATUM
 DMF .                 KB:   DRILLING MEASURED FROM
 EKB .F              5173:   KELLING BUSHING
 EGL .F              5163:   GROUND LEVEL
 DATE.            5-15-80:   RUN DATE
 RUN .                  1:   RUN NUMBER
 DD  .F              2625:   DEPTH DRILLER
 DL  .F              2630:   DEPTH LOGGER
 BLI .F              2628:   BOTTOM LOG INTERVAL
 TLI .F               400:   TOP LOG INTERVAL
 CS  .IN            9.625:   CASING SIZE
 CBD .F               645:   CASING BOTTOM DRILLER
 BS  .IN             8.75:   BIT SIZE
 BSD .F              2625:   BIT SIZE AT DEPTH
 DFT .        AIR DRILLED:   DRILLING FLUID TYPE
 TCS .HRS               2:   TIME CURCULATED STOPPED
 MRT .F               116:   MAXIMUM RECORDED TEMPERATURE
 ENGI.            BENTSEN:   RECORDING ENGINEER
 WITN.           DINSMORE:   WITNESSED BY
 CLNT.            A2DTECH:   CLIENT CODE
 ORIG.           5" PRINT:   ORIGIN OF DATA
 UWI .       490251081900:   UNIQUE WELL ID
 DICO. A2D Technologies, Inc.:   DIGITIZING COMPANY
~OTHER INFORMATION
~A   DEPT     CALD         GRD      RHOB       DPHI       CORR   
# ...
 1915.0000     8.7656   105.2869     2.4451     0.0656     0.0384
 1915.5000     8.7384   104.8973     2.4375     0.0692     0.0334
 1916.0000     8.7118   105.2777     2.4300     0.0796     0.0093
 1916.5000     8.7207   105.1578     2.4257     0.0763     0.0152
 1917.0000     8.7720   104.3933     2.4404     0.0700     0.0285
 1917.5000     8.8177   103.6066     2.4470     0.0647     0.0434
 1918.0000     8.8153   104.1560     2.4406     0.0661     0.0440
 1918.5000     8.8019   105.2389     2.4474     0.0631     0.0509
 1919.0000     8.7891   106.3542     2.4359     0.0700     0.0344
 1919.5000     8.7764   107.1385     2.4248     0.0820     0.0192
 1920.0000     8.7636   107.9567     2.4176     0.0815     0.0257
 1920.5000     8.7647   107.9386     2.4268     0.0800     0.0338
 1921.0000     8.7782   108.8096     2.4190     0.0816     0.0309
 1921.5000     8.7917   110.4462     2.4239     0.0764     0.0311
 1922.0000     8.8053   112.1276     2.4388     0.0687     0.0345
 1922.5000     8.8190   112.4746     2.4481     0.0639     0.0377
 1923.0000     8.8311   113.0295     2.4497     0.0639     0.0367
 1923.5000     8.8599   114.6337     2.4504     0.0639     0.0356
 1924.0000     8.8502   116.2334     2.4513     0.0611     0.0434
 1924.5000     8.8359   117.8284     2.4567     0.0568     0.0544
 1925.0000     8.8213   119.4123     2.4641     0.0525     0.0596
 1925.5000     8.8069   120.3246     2.4731     0.0494     0.0588
 1926.0000     8.7973   119.5009     2.4638     0.0538     0.0570
 1926.5000     8.8184   117.7240     2.4725     0.0490     0.0616
 1927.0000     8.8441   115.9536     2.4492     0.0636     0.0428
 1927.5000     8.8803   114.1867     2.4623     0.0580     0.0567
 1928.0000     8.8749   112.7774     2.4650     0.0551     0.0644
 1928.5000     8.8523   112.2216     2.4385     0.0709     0.0510
 1929.0000     8.8309   111.3225     2.4254     0.0777     0.0376
 1929.5000     8.8400   110.0544     2.4291     0.0784     0.0345
 1930.0000     8.8913   108.6097     2.4367     0.0702     0.0426
 1930.5000     8.9420   107.1585     2.4423     0.0671     0.0422
 1931.0000     8.9814   105.6906     2.4364     0.0695     0.0371
 1931.5000     8.9541   105.2191     2.4397     0.0740     0.0336
 1932.0000     8.9239   105.2151     2.4545     0.0614     0.0559
 1932.5000     8.8937   105.2087     2.4663     0.0518     0.0784
 1933.0000     8.8636   104.8451     2.4650     0.0498     0.0776
 1933.5000     8.8330   103.2558     2.4667     0.0525     0.0706
 1934.0000     8.8037   101.7217     2.4799     0.0390     0.0720
 1934.5000     8.7803   100.2067     2.4829     0.0463     0.0716
 1935.0000     8.8117    98.7952     2.4797     0.0386     0.0601
 1935.5000     8.8384    98.8517     2.4852     0.0510     0.0428
 1936.0000     8.7269    99.3528     2.4390     0.0691     0.0256
 1936.5000     8.7323    98.7731     2.4516     0.0612     0.0349
 1937.0000     8.8342    97.4576     2.4439     0.0673     0.0228
 1937.5000     8.8606    96.1795     2.4414     0.0696     0.0308
 1938.0000     8.8498    97.2807     2.4292     0.0746     0.0255
 1938.5000     8.8323    98.5972     2.4113     0.0862     0.0161
 1939.0000     8.8179    98.8274     2.4186     0.0857     0.0239
 1939.5000     8.8287    97.9654     2.4039     0.0986     0.0226
 1940.0000     8.8590    96.8240     2.3930     0.0990     0.0240
 1940.5000     8.8890    95.6591     2.4138     0.0877     0.0508
 1941.0000     8.9185    95.7682     2.3889     0.1046     0.0481
 1941.5000     8.9206    96.7368     2.3849     0.0978     0.0600
 1942.0000     8.9006    98.3039     2.4131     0.0869     0.0816
 1942.5000     8.9296   100.8450     2.4321     0.0732     0.1079
 1943.0000     8.9584   103.3704     2.4437     0.0639     0.0873
 1943.5000     8.9381   105.8987     2.4261     0.0748     0.0515
 1944.0000     8.8846   108.4188     2.4156     0.0825     0.0162
 1944.5000     8.8315   110.7210     2.4297     0.0772     0.0212
 1945.0000     8.7781   112.6852     2.4335     0.0763     0.0216
 1945.5000     8.7233   114.6409     2.4497     0.0642     0.0333
 1946.0000     8.7867   116.5983     2.4663     0.0522     0.0402
 1946.5000     8.7610   118.2889     2.4720     0.0478     0.0276
 1947.0000     8.7069   119.6824     2.4523     0.0626     0.0130
 1947.5000     8.6922   121.2237     2.4402     0.0700    -0.0018
 1948.0000     8.7626   123.4663     2.4325     0.0776    -0.0056
 1948.5000     8.8303   125.8463     2.4268     0.0752     0.0057
 1949.0000     8.8980   132.7899     2.3944     0.0902    -0.0119
 1949.5000     8.8770   139.7825     2.3900     0.0990    -0.0210
 1950.0000     8.8224   150.4519     2.4107     0.0895    -0.0034
 1950.5000     8.9136   154.0143     2.4274     0.0807     0.0217
 1951.0000     8.8584   158.4219     2.4121     0.0861     0.0257
 1951.5000     8.8036   165.6261     2.4121     0.0894     0.0237
 1952.0000     8.7836   170.8807     2.4267     0.0789     0.0423
 1952.5000     8.8256   169.1788     2.4373     0.0710     0.0609
 1953.0000     8.8697   166.0444     2.4465     0.0643     0.0795
 1953.5000     8.8786   163.4214     2.4313     0.0643     0.0617
 1954.0000     8.8621   160.8822     2.3741     0.0888     0.0291
 1954.5000     8.9210   158.8524     2.3795     0.1034     0.0206
 1955.0000     8.8938   157.7981     2.3941     0.0954     0.0333
 1955.5000     8.8589   156.7177     2.4033     0.0921     0.0484
 1956.0000     8.9017   155.6229     2.4286     0.0792     0.0708
 1956.5000     8.9122   154.1255     2.4425     0.0704     0.0826
 1957.0000     8.8756   154.5820     2.4093     0.0909     0.0518
 1957.5000     8.8394   157.3129     2.3874     0.1016     0.0239
 1958.0000     8.8241   159.9819     2.3874     0.1026     0.0164
 1958.5000     8.8391   162.6463     2.3959     0.0981     0.0112
 1959.0000     8.8523   165.3173     2.3990     0.0950     0.0225
 1959.5000     8.8802   167.2344     2.3925     0.0997     0.0160
 1960.0000     8.8785   168.0829     2.4066     0.0897     0.0254
 1960.5000     8.8666   168.0774     2.3883     0.0964     0.0213
 1961.0000     8.8113   167.0899     2.3887     0.1014     0.0173
 1961.5000     8.7578   164.0514     2.4013     0.0951     0.0287
 1962.0000     8.7043   160.2780     2.4099     0.0905     0.0448
 1962.5000     8.6569   153.3043     2.3740     0.1123     0.0270
 1963.0000     8.6767   147.4076     2.3505     0.1260     0.0030
 1963.5000     8.6995   145.0871     2.3465     0.1285     0.0134
 1964.0000     8.7219   141.7531     2.3423     0.1300     0.0207
 1964.5000     8.7377   136.2574     2.3672     0.1146     0.0397
 1965.0000     8.7247   130.8040     2.3981     0.0948     0.0702
 1965.5000     8.7006   126.0243     2.4140     0.0885     0.0990
 1966.0000     8.6788   126.5351     2.3895     0.0873     0.0987
 1966.5000     8.7043   126.7511     2.3709     0.1155     0.0468
 1967.0000     8.7594   125.7533     2.4083     0.0944     0.0632
 1967.5000     8.8137   123.7529     2.4338     0.0748     0.0907
 1968.0000     8.8687   121.2847     2.4195     0.0748     0.0994
 1968.5000     8.8789   116.7876     2.3921     0.0985     0.0587
 1969.0000     8.8707   114.1795     2.3916     0.0950     0.0483
 1969.5000     8.8571   111.5368     2.4025     0.0939     0.0505
 1970.0000     8.8433   109.4152     2.3787     0.1071     0.0254
 1970.5000     8.8515   109.6030     2.3900     0.1006     0.0030
 1971.0000     8.8715   109.9490     2.3967     0.1014     0.0073
 1971.5000     8.8655   109.8494     2.4196     0.0853     0.0227
 1972.0000     8.8032   108.8107     2.4413     0.0700     0.0410
 1972.5000     8.7670   108.5496     2.4601     0.0601     0.0588
 1973.0000     8.8158   109.9569     2.4813     0.0496     0.0756
 1973.5000     8.8579   110.6788     2.4710     0.0409     0.0833
 1974.0000     8.8466   110.6641     2.4654     0.0542     0.0646
 1974.5000     8.8208   111.2139     2.4750     0.0466     0.0735
 1975.0000     8.7957   111.2801     2.4613     0.0548     0.0730
 1975.5000     8.7807   111.4677     2.4465     0.0664     0.0464
