~VERSION INFORMATION
 VERS.                2.0:   CWLS LOG ASCII STANDARD - VERSION 2.0
 WRAP.                 NO:   ONE LINE PER DEPTH STEP
~WELL INFORMATION
#MNEM.UNIT      DATA TYPE    INFORMATION
#----------   ------------   ------------------------------
 STRT.F           29.0000:   START DEPTH
 STOP.F          539.0000:   STOP DEPTH
 STEP.F            0.1000:   STEP LENGTH
 NULL.          -999.2500:   NO VALUE
 COMP. LAWRENCE/ALLISON INC:   COMPANY
 WELL. NPR 3 81-11 STX #10-10:   WELL
 FLD .             TEAPOT:   FIELD
 LOC .      S10 T38N R78W:   LOCATION
 CNTY.            NATRONA:   COUNTY
 STAT.            WYOMING:   STATE
 CTRY. UNITED STATES OF AMERICA:   COUNTRY
 SRVC.           Gearhart:   SERVICE COMPANY
 DATE.        01-JUN-1987:   LOGDATE
 API .       490251113000:   API NUMBER
~CURVE INFORMATION
#MNEM.UNIT       API CODE    CURVE DESCRIPTION
#----------   ------------   ------------------------------
 DEPT.F                  :   
 GRR .GAPI   07 310 01 00:   GAMMA RAY FROM RES. LOG.
 ILD .OHMM   07 120 46 00:   INDUCTION LOG DEEP RESISTIVITY
 RILM.OHMM   07 120 44 00:   INDUCTION LOG MEDIUM RESISTIVITY
~PARAMETER INFORMATION
#MNEM.UNIT          VALUE    DESCRIPTION
#----------   ------------   ------------------------------
 PD  .                 GL:   PERMANENT DATUM
 EPD .F              5156:   ELEVATION PERMANENT DATUM
 LMF .                 KB:   LOG MEASURED FROM
 DAPD.F                 8:   FEET ABOVE PERMANENT DATUM
 DMF .                 KB:   DRILLING MEASURED FROM
 EKB .F              5164:   KELLING BUSHING
 EDF .F              5162:   DRILLING FLOOR
 EGL .F              5156:   GROUND LEVEL
 DATE.             6-1-87:   RUN DATE
 RUN .                  1:   RUN NUMBER
 DD  .F               550:   DEPTH DRILLER
 DL  .F               546:   DEPTH LOGGER
 BLI .F               540:   BOTTOM LOG INTERVAL
 TLI .F                30:   TOP LOG INTERVAL
 CS  .IN            8.625:   CASING SIZE
 CBD .F                50:   CASING BOTTOM DRILLER
 CBL .F                49:   CASING BOTTOM LOGGER
 BS  .IN            7.875:   BIT SIZE
 BSD .F               550:   BIT SIZE AT DEPTH
 DFT .                AIR:   DRILLING FLUID TYPE
 TLAB.HRS            0634:   TIME LOGGER AT BOTTOM
 MRT .F                80:   MAXIMUM RECORDED TEMPERATURE
 LUN .               7597:   LOGGING UNIT NUMBER
 LUL .           GILLETTE:   LOGGING UNIT LOCATION
 ENGI. WEATHERMON/JOHNSTON:   RECORDING ENGINEER
 WITN.             STRONG:   WITNESSED BY
 CLNT.            A2DTECH:   CLIENT CODE
 ORIG.       2", 5" PRINT:   ORIGIN OF DATA
 UWI .       490251113000:   UNIQUE WELL ID
 DICO. A2D Technologies, Inc.:   DIGITIZING COMPANY
~OTHER INFORMATION
~A   DEPT       GRR       ILD       RILM   
# ...
  302.0000   120.3375     9.1836     8.9204
  302.1000   120.1960     9.1857     8.9203
  302.2000   120.0545     9.1878     8.9203
  302.3000   119.9131     9.1900     8.9202
  302.4000   119.7716     9.1921     8.9201
  302.5000   119.6302     9.1942     8.9200
  302.6000   119.9670     9.1964     8.9200
  302.7000   120.3039     9.1986     8.9201
  302.8000   120.6408     9.2008     8.9201
  302.9000   120.9777     9.2030     8.9201
  303.0000   121.3146     9.2051     8.9201
  303.1000   121.6541     9.2073     8.9201
  303.2000   121.9936     9.2095     8.9201
  303.3000   122.3331     9.2117     8.9201
  303.4000   122.6726     9.2139     8.9201
  303.5000   123.0122     9.2160     8.9201
  303.6000   123.3491     9.2182     8.9264
  303.7000   123.6860     9.2204     8.9327
  303.8000   124.0230     9.2226     8.9390
  303.9000   124.3599     9.2247     8.9453
  304.0000   124.6969     9.2269     8.9516
  304.1000   124.9958     9.2292     8.9586
  304.2000   125.2948     9.2314     8.9655
  304.3000   125.5937     9.2337     8.9724
  304.4000   125.8926     9.2359     8.9794
  304.5000   126.1916     9.2382     8.9863
  304.6000   126.4956     9.2403     8.9933
  304.7000   126.7996     9.2424     9.0002
  304.8000   127.1035     9.2445     9.0072
  304.9000   127.4075     9.2466     9.0142
  305.0000   127.7115     9.2487     9.0211
  305.1000   128.0105     9.2509     9.0281
  305.2000   128.3096     9.2531     9.0351
  305.3000   128.6086     9.2552     9.0421
  305.4000   128.9077     9.2574     9.0491
  305.5000   129.2067     9.2596     9.0561
  305.6000   128.9349     9.3175     9.0627
  305.7000   128.6632     9.3754     9.0693
  305.8000   128.3914     9.4333     9.0759
  305.9000   128.1197     9.4912     9.0825
  306.0000   127.8479     9.5491     9.0891
  306.1000   127.0435     9.6134     9.1522
  306.2000   126.2390     9.6778     9.2153
  306.3000   125.4346     9.7421     9.2784
  306.4000   124.6301     9.8065     9.3414
  306.5000   123.8257     9.8708     9.4045
  306.6000   123.0222     9.9376     9.4468
  306.7000   122.2187    10.0043     9.4891
  306.8000   121.4152    10.0710     9.5313
  306.9000   120.6118    10.1377     9.5736
  307.0000   119.8083    10.2045     9.6158
  307.1000   118.9982    10.2769     9.4252
  307.2000   118.1882    10.3493     9.2346
  307.3000   117.3782    10.4217     9.0440
  307.4000   116.5681    10.4941     8.8534
  307.5000   115.7581    10.5665     8.6627
  307.6000   114.9844    10.4066     8.5301
  307.7000   114.2107    10.2467     8.3975
  307.8000   113.4370    10.0869     8.2649
  307.9000   112.6633     9.9270     8.1322
  308.0000   111.8896     9.7672     7.9996
  308.1000   111.8880     9.5744     7.8783
  308.2000   111.8865     9.3815     7.7569
  308.3000   111.8849     9.1887     7.6356
  308.4000   111.8834     8.9959     7.5143
  308.5000   111.8818     8.8031     7.3930
  308.6000   112.4083     8.6286     7.2953
  308.7000   112.9348     8.4542     7.1976
  308.8000   113.4613     8.2797     7.0999
  308.9000   113.9878     8.1052     7.0022
  309.0000   114.5143     7.9308     6.9045
  309.1000   115.9270     7.7549     6.8141
  309.2000   117.3397     7.5789     6.7238
  309.3000   118.7525     7.4030     6.6334
  309.4000   120.1652     7.2271     6.5430
  309.5000   121.5779     7.0512     6.4526
  309.6000   123.0720     7.0516     6.3681
  309.7000   124.5661     7.0520     6.2837
  309.8000   126.0602     7.0525     6.1992
  309.9000   127.5543     7.0529     6.1147
  310.0000   129.0484     7.0533     6.0303
  310.1000   130.5466     7.0533     5.9610
  310.2000   132.0447     7.0532     5.8917
  310.3000   133.5429     7.0531     5.8225
  310.4000   135.0411     7.0531     5.7532
  310.5000   136.5393     7.0530     5.6839
  310.6000   137.5270     7.0532     5.7546
  310.7000   138.5148     7.0534     5.8254
  310.8000   139.5026     7.0535     5.8961
  310.9000   140.4903     7.0537     5.9668
  311.0000   141.4781     7.0539     6.0375
  311.1000   141.6106     7.0672     6.1405
  311.2000   141.7432     7.0805     6.2434
  311.3000   141.8757     7.0938     6.3463
  311.4000   142.0083     7.1072     6.4493
  311.5000   142.1408     7.1205     6.5522
  311.6000   139.4352     7.2534     6.6682
  311.7000   136.7296     7.3863     6.7842
  311.8000   134.0240     7.5192     6.9001
  311.9000   131.3184     7.6521     7.0161
  312.0000   128.6127     7.7851     7.1321
  312.1000   126.7345     7.9319     7.2774
  312.2000   124.8562     8.0787     7.4228
  312.3000   122.9779     8.2255     7.5682
  312.4000   121.0996     8.3723     7.7136
  312.5000   119.2213     8.5192     7.8589
  312.6000   118.6246     8.6798     8.0188
  312.7000   118.0279     8.8405     8.1787
  312.8000   117.4312     9.0012     8.3386
  312.9000   116.8345     9.1618     8.4985
  313.0000   116.2378     9.3225     8.6584
  313.1000   116.5229     9.4983     8.8326
  313.2000   116.8080     9.6741     9.0068
  313.3000   117.0930     9.8499     9.1810
  313.4000   117.3781    10.0257     9.3552
  313.5000   117.6632    10.2015     9.5294
  313.6000   118.1560    10.3012     9.6568
  313.7000   118.6488    10.4009     9.7841
  313.8000   119.1416    10.5006     9.9115
  313.9000   119.6344    10.6003    10.0389
  314.0000   120.1272    10.7000    10.1663
  314.1000   120.4117    10.7675    10.2377
  314.2000   120.6963    10.8351    10.3092
  314.3000   120.9808    10.9027    10.3806
  314.4000   121.2654    10.9702    10.4521
  314.5000   121.5499    11.0378    10.5235
  314.6000   121.2596    11.1075    10.5975
  314.7000   120.9693    11.1772    10.6714
  314.8000   120.6790    11.2469    10.7454
  314.9000   120.3887    11.3166    10.8193
  315.0000   120.0984    11.3863    10.8933
  315.1000   119.8064    11.4182    10.9186
  315.2000   119.5144    11.4501    10.9439
  315.3000   119.2224    11.4820    10.9692
  315.4000   118.9304    11.5139    10.9945
  315.5000   118.6384    11.5458    11.0198
  315.6000   118.1997    11.5861    11.0333
  315.7000   117.7609    11.6263    11.0468
  315.8000   117.3222    11.6665    11.0603
  315.9000   116.8835    11.7067    11.0738
  316.0000   116.4448    11.7469    11.0873
  316.1000   116.0816    11.7843    11.1039
  316.2000   115.7184    11.8216    11.1204
  316.3000   115.3552    11.8589    11.1370
  316.4000   114.9920    11.8962    11.1536
  316.5000   114.6288    11.9335    11.1702
  316.6000   114.8903    12.0735    11.1699
  316.7000   115.1518    12.2134    11.1696
  316.8000   115.4133    12.3534    11.1692
  316.9000   115.6748    12.4934    11.1689
  317.0000   115.9363    12.6333    11.1686
  317.1000   116.6352    12.8320    11.3000
  317.2000   117.3341    13.0306    11.4313
  317.3000   118.0330    13.2293    11.5627
  317.4000   118.7320    13.4279    11.6941
  317.5000   119.4309    13.6265    11.8255
  317.6000   120.0213    13.8408    12.0088
  317.7000   120.6118    14.0551    12.1921
  317.8000   121.2023    14.2693    12.3753
  317.9000   121.7928    14.4836    12.5586
  318.0000   122.3832    14.6978    12.7419
  318.1000   120.0769    14.9289    13.0092
  318.2000   117.7706    15.1600    13.2764
  318.3000   115.4643    15.3912    13.5437
  318.4000   113.1580    15.6223    13.8109
  318.5000   110.8516    15.8534    14.0781
  318.6000   108.2307    16.0935    14.3734
  318.7000   105.6097    16.3336    14.6687
  318.8000   102.9887    16.5737    14.9640
  318.9000   100.3678    16.8138    15.2592
  319.0000    97.7468    17.0539    15.5545
  319.1000    95.1527    17.3194    15.8886
  319.2000    92.5586    17.5848    16.2228
  319.3000    89.9644    17.8503    16.5569
  319.4000    87.3703    18.1157    16.8911
  319.5000    84.7762    18.3812    17.2252
  319.6000    82.9143    18.6591    17.6057
  319.7000    81.0523    18.9371    17.9862
  319.8000    79.1904    19.2150    18.3667
  319.9000    77.3284    19.4930    18.7472
  320.0000    75.4665    19.7710    19.1277
  320.1000    74.6541    20.0866    19.5502
