~VERSION INFORMATION
 VERS.                2.0:   CWLS LOG ASCII STANDARD - VERSION 2.0
 WRAP.                 NO:   ONE LINE PER DEPTH STEP
~WELL INFORMATION
#MNEM.UNIT      DATA TYPE    INFORMATION
#----------   ------------   ------------------------------
 STRT.F          432.0000:   START DEPTH
 STOP.F         1258.0000:   STOP DEPTH
 STEP.F            0.5000:   STEP LENGTH
 NULL.          -999.2500:   NO VALUE
 COMP. FENIX & SCISSON INC:   COMPANY
 WELL.   12 SHX 34 #12-34:   WELL
 FLD .            WILDCAT:   FIELD
 LOC .      S34 T39N R78W:   LOCATION
 CNTY.            NATRONA:   COUNTY
 STAT.            WYOMING:   STATE
 CTRY. UNITED STATES OF AMERICA:   COUNTRY
 SRVC.              Welex:   SERVICE COMPANY
 DATE.        23-APR-1979:   LOGDATE
 API .       490251078200:   API NUMBER
~CURVE INFORMATION
#MNEM.UNIT       API CODE    CURVE DESCRIPTION
#----------   ------------   ------------------------------
 DEPT.F                  :   
 CALD.IN     45 280 60 00:   CALIPER
 GRD .GAPI   45 310 01 00:   GAMMA RAY FROM DENSITY LOG
 RHOB.G/C3   45 350 01 00:   BULK DENSITY
 DPHI.DEC    45 890 12 00:   DENSITY POROSITY SANDSTONE
 CORR.G/C3   45 356 01 00:   DENSITY CORRECTION
~PARAMETER INFORMATION
#MNEM.UNIT          VALUE    DESCRIPTION
#----------   ------------   ------------------------------
 PD  .                 GL:   PERMANENT DATUM
 EPD .F              5092:   ELEVATION PERMANENT DATUM
 LMF .                 KB:   LOG MEASURED FROM
 DAPD.F                10:   FEET ABOVE PERMANENT DATUM
 DMF .                 KB:   DRILLING MEASURED FROM
 EKB .F              5102:   KELLING BUSHING
 EGL .F              5092:   GROUND LEVEL
 DATE.            4-23-79:   RUN DATE
 RUN .                  1:   RUN NUMBER
 DD  .F              1260:   DEPTH DRILLER
 DL  .F              1260:   DEPTH LOGGER
 BLI .F              1258:   BOTTOM LOG INTERVAL
 TLI .F               446:   TOP LOG INTERVAL
 CS  .IN            9.625:   CASING SIZE
 CBD .F               440:   CASING BOTTOM DRILLER
 BS  .IN            8.375:   BIT SIZE
 BSD .F              1260:   BIT SIZE AT DEPTH
 DFT .                OIL:   DRILLING FLUID TYPE
 DFD .                8.7:   DRILLING FLUID DENSITY
 TCS .HRS               1:   TIME CURCULATED STOPPED
 ENGI.               REIN:   RECORDING ENGINEER
 WITN.              AMEND:   WITNESSED BY
 CLNT.            A2DTECH:   CLIENT CODE
 ORIG.           5" PRINT:   ORIGIN OF DATA
 UWI .       490251078200:   UNIQUE WELL ID
 DICO. A2D Technologies, Inc.:   DIGITIZING COMPANY
~OTHER INFORMATION
~A   DEPT     CALD         GRD      RHOB       DPHI       CORR   
# ...
  615.0000     8.5897    97.0402     2.4962     0.0291     0.0191
  615.5000     8.5873    98.6421     2.4727     0.0399     0.0170
  616.0000     8.5850    98.0903     2.4482     0.0576     0.0123
  616.5000     8.5827    96.8613     2.4416     0.0693     0.0076
  617.0000     8.5803    96.3076     2.4419     0.0683     0.0029
  617.5000     8.5780    98.1180     2.4512     0.0661     0.0037
  618.0000     8.5757   100.3645     2.4609     0.0598     0.0051
  618.5000     8.5733   102.6811     2.4706     0.0512     0.0982
  619.0000     8.5710   102.7630     2.4791     0.0467     0.1146
  619.5000     8.5686   100.5834     2.4810     0.0477     0.1137
  620.0000     8.5663    98.2386     2.4791     0.0469     0.1020
  620.5000     8.5640    96.6987     2.4695     0.0431     0.0897
  621.0000     8.5616    96.6248     2.4602     0.0497     0.0907
  621.5000     8.5593    96.6538     2.4536     0.0550     0.1017
  622.0000     8.5570    97.8758     2.4576     0.0604     0.0504
  622.5000     8.5546    98.6947     2.4629     0.0566     0.0080
  623.0000     8.5523    97.9816     2.4681     0.0527     0.0061
  623.5000     8.5499    94.5661     2.4733     0.0487     0.0030
  624.0000     8.5476    91.5466     2.4769     0.0471    -0.0038
  624.5000     8.5454    93.1226     2.4770     0.0494    -0.0020
  625.0000     8.5502    95.1165     2.4753     0.0488     0.0020
  625.5000     8.5672    97.1401     2.4717     0.0483     0.0066
  626.0000     8.5841    97.7509     2.4683     0.0499     0.0040
  626.5000     8.6009    96.6308     2.4648     0.0524    -0.0028
  627.0000     8.6178    95.4211     2.4613     0.0549    -0.0098
  627.5000     8.6347    95.2257     2.4586     0.0568    -0.0093
  628.0000     8.6515    98.6597     2.4568     0.0572     0.0225
  628.5000     8.6684   103.8846     2.4567     0.0572     0.0571
  629.0000     8.6853   103.4070     2.4606     0.0571     0.0822
  629.5000     8.7021    99.0171     2.4650     0.0556     0.0686
  630.0000     8.7191    94.1871     2.4672     0.0540     0.0722
  630.5000     8.7361    92.9157     2.4628     0.0534     0.0746
  631.0000     8.7342    94.4910     2.4587     0.0530     0.0566
  631.5000     8.7118    96.1074     2.4678     0.0524     0.0390
  632.0000     8.6901    97.7334     2.4811     0.0496     0.0211
  632.5000     8.6684    97.8949     2.4945     0.0375     0.0132
  633.0000     8.6467    98.0768     2.5079     0.0280     0.0171
  633.5000     8.6248    96.9615     2.5184     0.0217     0.0347
  634.0000     8.6241    94.2845     2.4955     0.0255     0.0696
  634.5000     8.6268    91.8640     2.4976     0.0286     0.1034
  635.0000     8.6296    93.2683     2.5215     0.0236     0.1265
  635.5000     8.6324    95.0628     2.5246     0.0179     0.1182
  636.0000     8.6351    95.0691     2.5126     0.0177     0.1085
  636.5000     8.6378    93.4273     2.4969     0.0334     0.0986
  637.0000     8.6407    91.7447     2.4808     0.0455     0.0897
  637.5000     8.6390    92.6824     2.4736     0.0467     0.0855
  638.0000     8.6358    94.6081     2.4711     0.0475     0.0855
  638.5000     8.6325    95.7669     2.4722     0.0462     0.0918
  639.0000     8.6293    95.7469     2.4793     0.0447     0.0995
  639.5000     8.6261    95.7780     2.4863     0.0429     0.1075
  640.0000     8.6229    98.3894     2.4936     0.0408     0.0823
  640.5000     8.6196   101.3180     2.4883     0.0390     0.0329
  641.0000     8.6164   102.3851     2.4794     0.0387     0.0086
  641.5000     8.6132    97.7662     2.4707     0.0500     0.0088
  642.0000     8.6099    97.7394     2.4669     0.0401     0.0174
  642.5000     8.6067    98.8461     2.4986     0.0231     0.0254
  643.0000     8.6035    99.5243     2.5205     0.0213     0.0211
  643.5000     8.6003    97.4884     2.5204     0.0217     0.0136
  644.0000     8.5970    95.3193     2.4925     0.0272     0.0304
  644.5000     8.5938    95.0226     2.4851     0.0390     0.1035
  645.0000     8.5905    95.3646     2.4942     0.0344     0.1066
  645.5000     8.5875    94.4732     2.5033     0.0273     0.1094
  646.0000     8.5838    94.8857     2.5069     0.0283     0.1045
  646.5000     8.6040    95.8875     2.5042     0.0293     0.1017
  647.0000     8.6046    96.6525     2.5020     0.0303     0.1049
  647.5000     8.6066    96.6212     2.5052     0.0303     0.1080
  648.0000     8.6085    96.7222     2.5090     0.0294     0.1022
  648.5000     8.6104    95.2739     2.4998     0.0333     0.0954
  649.0000     8.6123    93.8195     2.4915     0.0378     0.0908
  649.5000     8.6143    92.3655     2.4968     0.0335     0.0992
  650.0000     8.6162    90.8412     2.5058     0.0267     0.1112
  650.5000     8.6181    90.5619     2.5153     0.0221     0.1132
  651.0000     8.6200    91.0968     2.5124     0.0241     0.0770
  651.5000     8.6219    93.0518     2.5062     0.0276     0.0259
  652.0000     8.6188    94.9725     2.5000     0.0312     0.0186
  652.5000     8.6151    96.8660     2.4938     0.0347     0.0105
  653.0000     8.6115    97.7874     2.4875     0.0383     0.0069
  653.5000     8.6078    95.6349     2.4809     0.0419     0.0058
  654.0000     8.6042    93.5162     2.4804     0.0431     0.0050
  654.5000     8.6046    91.3973     2.4832     0.0415     0.0095
  655.0000     8.6093    89.5762     2.4859     0.0399     0.0152
  655.5000     8.6139    90.1997     2.4845     0.0399     0.0096
  656.0000     8.6185    91.7388     2.4806     0.0422     0.0003
  656.5000     8.6219    93.3130     2.4777     0.0445    -0.0011
  657.0000     8.6218    93.9953     2.4881     0.0439    -0.0001
  657.5000     8.6212    94.0030     2.5069     0.0331     0.0085
  658.0000     8.6206    93.9910     2.5183     0.0229     0.0281
  658.5000     8.6200    94.4877     2.5104     0.0270     0.0952
  659.0000     8.6194    95.9909     2.4990     0.0309     0.1075
  659.5000     8.6189    97.3931     2.4871     0.0349     0.0989
  660.0000     8.6183    98.8538     2.4829     0.0388     0.0896
  660.5000     8.6177   100.3037     2.4866     0.0403     0.0884
  661.0000     8.6172   101.7052     2.4902     0.0398     0.0901
  661.5000     8.6166   102.4323     2.4924     0.0391     0.0919
  662.0000     8.6160   101.2136     2.4880     0.0389     0.0936
  662.5000     8.6154    99.5408     2.4836     0.0404     0.0953
  663.0000     8.6148    97.8670     2.4794     0.0419     0.0970
  663.5000     8.6143    96.1971     2.4808     0.0421     0.0980
  664.0000     8.6137    94.5289     2.4875     0.0423     0.1000
  664.5000     8.6131    92.8726     2.4942     0.0381     0.1020
  665.0000     8.6125    91.8848     2.5009     0.0339     0.1038
  665.5000     8.6120    91.6677     2.5078     0.0297     0.1040
  666.0000     8.6114    91.9007     2.5008     0.0273     0.0960
  666.5000     8.6108    92.2287     2.4877     0.0316     0.0856
  667.0000     8.6102    92.5561     2.4801     0.0439     0.0839
  667.5000     8.6097    92.6901     2.4885     0.0439     0.1031
  668.0000     8.6091    91.2402     2.4986     0.0366     0.1108
  668.5000     8.6085    89.7844     2.5086     0.0264     0.0603
  669.0000     8.6079    88.3333     2.5186     0.0213     0.0222
  669.5000     8.6074    86.8832     2.5220     0.0201     0.0285
  670.0000     8.6068    85.4331     2.5203     0.0201     0.0362
  670.5000     8.6062    83.9829     2.5122     0.0232     0.0359
  671.0000     8.6056    82.5328     2.5047     0.0282     0.0285
  671.5000     8.6051    81.0826     2.4970     0.0331     0.0209
  672.0000     8.6045    79.6310     2.4894     0.0381     0.0133
  672.5000     8.6039    78.1724     2.4882     0.0423     0.0054
  673.0000     8.6033    76.7782     2.4921     0.0419     0.0008
  673.5000     8.6027    76.7569     2.4946     0.0411     0.0033
  674.0000     8.6023    77.4882     2.4862     0.0386     0.0061
  674.5000     8.6055    79.1581     2.4949     0.0368     0.0088
  675.0000     8.6100    81.4538     2.5050     0.0348     0.0124
  675.5000     8.6144    82.2856     2.5029     0.0328     0.0197
