~VERSION INFORMATION
 VERS.                2.0:   CWLS LOG ASCII STANDARD - VERSION 2.0
 WRAP.                 NO:   ONE LINE PER DEPTH STEP
~WELL INFORMATION
#MNEM.UNIT      DATA TYPE    INFORMATION
#----------   ------------   ------------------------------
 STRT.F           30.0000:   START DEPTH
 STOP.F          510.0000:   STOP DEPTH
 STEP.F            0.5000:   STEP LENGTH
 NULL.          -999.2500:   NO VALUE
 COMP. FENIX & SCISSON INC:   COMPANY
 WELL.    66-SX 3FP #54-3:   WELL
 FLD .             TEAPOT:   FIELD
 LOC .       S3 T38N R78W:   LOCATION
 CNTY.            NATRONA:   COUNTY
 STAT.            WYOMING:   STATE
 CTRY. UNITED STATES OF AMERICA:   COUNTRY
 SRVC.              Welex:   SERVICE COMPANY
 DATE.        25-JUN-1980:   LOGDATE
 API .       490251081400:   API NUMBER
~CURVE INFORMATION
#MNEM.UNIT       API CODE    CURVE DESCRIPTION
#----------   ------------   ------------------------------
 DEPT.F                  :   
 SGRD.OHMM   07 220 05 00:   SHALLOW GUARD RESISTIVITY
 ILD .OHMM   07 120 46 00:   INDUCTION LOG DEEP RESISTIVITY
 ILM .OHMM   07 120 44 00:   INDUCTION LOG MEDIUM
 CALD.IN     45 280 60 00:   CALIPER
 GRD .GAPI   45 310 01 00:   GAMMA RAY FROM DENSITY LOG
 CORR.G/C3   45 356 01 00:   DENSITY CORRECTION
 NPHI.DEC    42 890 03 00:   NEUTRON POROSITY SANDSTONE
 DPHI.DEC    45 890 12 00:   DENSITY POROSITY SANDSTONE
 SPR .MV     07 010 01 00:   SPONTANEOUS POTENTIAL
 RHOB.G/C3   45 350 01 00:   BULK DENSITY
~PARAMETER INFORMATION
#MNEM.UNIT          VALUE    DESCRIPTION
#----------   ------------   ------------------------------
 PD  .                 GL:   PERMANENT DATUM
 EPD .F              5158:   ELEVATION PERMANENT DATUM
 LMF .                 KB:   LOG MEASURED FROM
 DAPD.F                 5:   FEET ABOVE PERMANENT DATUM
 DMF .                 KB:   DRILLING MEASURED FROM
 EKB .F              5163:   KELLING BUSHING
 EGL .F              5158:   GROUND LEVEL
 DATE.            6-25-80:   RUN DATE
 RUN .                  1:   RUN NUMBER
 DD  .F               516:   DEPTH DRILLER
 DL  .F               512:   DEPTH LOGGER
 BLI .F               510:   BOTTOM LOG INTERVAL
 TLI .F                30:   TOP LOG INTERVAL
 BS  .IN            9.875:   BIT SIZE
 BSD .F               516:   BIT SIZE AT DEPTH
 DFT .            KCL MUD:   DRILLING FLUID TYPE
 DFD .                9.2:   DRILLING FLUID DENSITY
 DFV .                 52:   DRILLING FLUID VISCOSITY
 DFPH.                 12:   DRILLING FLUID PH
 DFL .                  6:   DRILLING FLUID LOSS
 MSS .           FLOWLINE:   MUD SAMPLE SOURCE
 RMB .OHMM            .35:   RESISTIVITY MUD AT BHT
 BHT .F                75:   BOTTOM HOLE TEMPERATURE
 TCS .HRS               1:   TIME CURCULATED STOPPED
 MRT .F                75:   MAXIMUM RECORDED TEMPERATURE
 LUN .               1892:   LOGGING UNIT NUMBER
 LUL .             CASPER:   LOGGING UNIT LOCATION
 ENGI.            TOTHILL:   RECORDING ENGINEER
 WITN.              AMEND:   WITNESSED BY
 CLNT.            A2DTECH:   CLIENT CODE
 ORIG.           5" PRINT:   ORIGIN OF DATA
 UWI .       490251081400:   UNIQUE WELL ID
 DICO. A2D Technologies, Inc.:   DIGITIZING COMPANY
~OTHER INFORMATION
~A   DEPT       SGRD        ILD        ILM     CALD        GRD       CORR       NPHI       DPHI        SPR       RHOB   
# ...
  331.5000    18.4976    13.8125    10.8533     9.9809    82.4172     0.0885     0.2374     0.1499   -40.4818     2.4288
  332.0000    18.4119    13.7833    10.9979     9.9687    83.0455     0.0803     0.2378     0.1554   -40.1701     2.4181
  332.5000    18.3266    13.9452    11.1375     9.9566    83.7218     0.0719     0.2325     0.1585   -40.1779     2.4122
  333.0000    18.2417    14.0583    11.2792     9.9445    82.9089     0.0716     0.2356     0.1615   -40.1009     2.4112
  333.5000    18.1599    14.1687    11.4225     9.9323    81.5798     0.0752     0.2388     0.1630   -40.0144     2.4114
  334.0000    17.9685    14.0354    11.5677     9.9205    80.2479     0.0805     0.2409     0.1594   -40.0985     2.4195
  334.5000    17.7839    13.9106    11.7216     9.9148    79.7596     0.0896     0.2434     0.1518   -40.5784     2.4304
  335.0000    17.6015    13.7715    11.9018     9.8950    80.1337     0.0984     0.2414     0.1461   -40.5712     2.4413
  335.5000    17.4212    13.6371    12.0848     9.9017    80.8471     0.1073     0.2403     0.1412   -40.6517     2.4505
  336.0000    17.2427    13.5040    12.2706     9.9254    81.2815     0.1159     0.2452     0.1392   -41.0864     2.4463
  336.5000    17.0659    13.3722    12.4578     9.9492    81.4957     0.1118     0.2486     0.1434   -41.1590     2.4415
  337.0000    16.8911    13.2417    12.4619     9.9716    81.7035     0.1051     0.2508     0.1439   -41.1585     2.4378
  337.5000    16.7181    13.1642    11.9007     9.9920    81.9139     0.0983     0.2530     0.1446   -41.1672     2.4417
  338.0000    16.6486    13.2026    11.3654     9.9909    82.1178     0.0915     0.2512     0.1454   -41.4248     2.4328
  338.5000    16.5794    13.2300    10.8505     9.9792    81.8346     0.0889     0.2494     0.1480   -41.6974     2.4369
  339.0000    16.5106    13.2577    10.3675     9.9645    81.5139     0.0866     0.2525     0.1518   -41.7916     2.4236
  339.5000    16.4421    13.2853    10.5827     9.9496    81.1981     0.0844     0.2569     0.1519   -41.8473     2.4210
  340.0000    16.3738    13.3130    10.8131     9.9350    80.8763     0.0880     0.2590     0.1494   -41.9007     2.4364
  340.5000    16.3058    13.3407    11.0454     9.9199    80.6099     0.0953     0.2512     0.1474   -41.8910     2.4324
  341.0000    16.0939    13.3685    11.2826     9.9342    81.1743     0.0959     0.2462     0.1514   -41.5457     2.4272
  341.5000    15.9749    13.4084    11.5250     9.9363    81.7944     0.0903     0.2483     0.1554   -41.2042     2.4225
  342.0000    15.8567    13.3588    11.6815     9.9450    82.5465     0.0864     0.2510     0.1574   -40.8645     2.4198
  342.5000    15.7395    13.2718    11.5552     9.9567    81.6522     0.0821     0.2470     0.1597   -40.5224     2.4170
  343.0000    15.6230    13.1646    11.4635     9.9707    80.1366     0.0789     0.2503     0.1588   -40.3391     2.4152
  343.5000    15.5074    13.1949    11.3726     9.9713    78.6354     0.0783     0.2544     0.1525   -40.2717     2.4193
  344.0000    15.3930    13.2348    11.2598     9.9711    79.1663     0.0835     0.2550     0.1462   -40.2053     2.4331
  344.5000    15.2487    13.2857    11.5829     9.9785    80.3001     0.0958     0.2518     0.1399   -40.2436     2.4470
  345.0000    15.2503    13.1453    12.0295     9.9898    81.4493     0.1080     0.2554     0.1337   -40.3729     2.4560
  345.5000    15.2495    12.9586    12.4944    10.0013    82.5812     0.1203     0.2546     0.1270   -40.7016     2.4637
  346.0000    15.2497    12.7745    12.9777    10.0127    83.6635     0.1326     0.2530     0.1202   -41.0511     2.4734
  346.5000    15.3266    12.6275    13.4781    10.0241    82.4715     0.1423     0.2572     0.1160   -41.3868     2.4832
  347.0000    15.4093    12.5124    14.0390    10.0357    81.4872     0.1444     0.2606     0.1130   -41.5578     2.4928
  347.5000    15.5301    12.2548    13.7091    10.0475    83.1955     0.1479     0.2549     0.1165   -41.7407     2.4931
  348.0000    15.5259    11.8751    13.3606    10.0486    85.1634     0.1442     0.2506     0.1205   -41.8778     2.4788
  348.5000    15.9571    11.5072    13.0210    10.0490    85.4205     0.1320     0.2450     0.1214   -42.0513     2.4810
  349.0000    16.1098    11.2598    12.9244    10.0494    84.9706     0.1200     0.2347     0.1197   -42.2617     2.4862
  349.5000    16.6628    11.3244    13.1838    10.0499    84.8774     0.1081     0.2244     0.1226   -42.4697     2.4797
  350.0000    17.1143    11.3740    13.4016    10.0503    86.1012     0.0961     0.2157     0.1158   -43.1576     2.4733
  350.5000    18.0095    11.4238    14.0779    10.0508    87.1558     0.0951     0.2050     0.1044   -44.0609     2.4961
  351.0000    19.4148    11.5086    15.4685    10.0512    87.1806     0.1043     0.1937     0.0918   -44.3114     2.5219
  351.5000    20.9298    11.9006    17.2989    10.0517    84.8018     0.1080     0.1816     0.0791   -44.4922     2.5476
  352.0000    22.5630    12.3438    19.5456    10.0521    81.7956     0.1042     0.1714     0.0670   -44.3638     2.5734
  352.5000    23.2755    12.9541    22.6828    10.0526    78.7765     0.1055     0.1694     0.0526   -44.1258     2.6001
  353.0000    22.0162    13.6610    21.6682    10.0531    75.7399     0.1075     0.1747     0.0522   -43.7819     2.5913
  353.5000    19.7456    14.1943    18.4617    10.0535    72.6857     0.1039     0.1833     0.0639   -43.4384     2.5777
  354.0000    17.4333    14.2995    13.3638    10.0540    72.0477     0.0953     0.1976     0.0759   -43.0922     2.5641
  354.5000    14.8762    13.9116    10.1640    10.0544    74.9807     0.0888     0.2119     0.0870   -42.7483     2.5504
  355.0000    13.6848    13.3879     9.2047    10.0549    78.6389     0.0938     0.2231     0.0981   -42.8694     2.5354
  355.5000    13.4971    12.9715     8.4679    10.0554    82.3116     0.0984     0.2279     0.1086   -43.0240     2.5131
  356.0000    13.3119    12.7494     8.7253    10.0558    85.9509     0.0993     0.2289     0.1178   -43.2497     2.4912
  356.5000    13.1292    12.4578     9.0946    10.0563    86.1374     0.0857     0.2272     0.1266   -43.6226     2.4783
  357.0000    12.9491    11.8886     9.3047    10.0567    84.0878     0.0894     0.2266     0.1316   -43.9921     2.4672
  357.5000    12.7714    11.2779     9.3709    10.0572    82.0230     0.1004     0.2295     0.1358   -44.3114     2.4560
  358.0000    12.6006    10.7027     9.4375    10.0576    80.1537     0.0822     0.2351     0.1413   -44.3039     2.4484
  358.5000    12.4359    10.1504     9.5046    10.0581    80.2747     0.0628     0.2393     0.1465   -44.2820     2.4402
  359.0000    12.2733     9.7175     9.5722    10.0586    83.0567     0.0538     0.2439     0.1460   -44.1480     2.4324
  359.5000    12.1129     9.7185     9.6388    10.0590    84.7663     0.0501     0.2482     0.1458   -44.0172     2.4323
  360.0000    11.9546     9.4917     9.6969    10.0595    81.4100     0.0582     0.2470     0.1400   -43.9885     2.4425
  360.5000    11.7983     9.4234     9.7554    10.0599    80.3020     0.0673     0.2458     0.1347   -44.4895     2.4522
  361.0000    11.6441     9.3644     9.8143    10.0604    82.1220     0.0765     0.2489     0.1306   -44.9359     2.4619
  361.5000    11.4919     9.3057     9.9001    10.0609    84.0058     0.0758     0.2518     0.1367   -45.1277     2.4660
  362.0000    11.3417     9.2475     9.8835    10.0613    84.2046     0.0681     0.2488     0.1388   -45.3235     2.4457
  362.5000    11.1934     9.1896     9.8532    10.0618    81.2151     0.0609     0.2474     0.1402   -45.4697     2.4520
  363.0000    11.1353     9.1321     9.8230    10.0622    80.2342     0.0514     0.2471     0.1414   -45.3763     2.4438
  363.5000    11.1069     9.0749     9.7163    10.0627    83.7688     0.0409     0.2470     0.1427   -45.2765     2.4379
  364.0000    11.0785     9.0181     9.5500    10.0631    85.4831     0.0414     0.2513     0.1419   -44.9356     2.4434
  364.5000    11.0403     8.9616     9.3865    10.0636    84.5782     0.0502     0.2546     0.1358   -44.5865     2.4490
