~VERSION INFORMATION
 VERS.                2.0:   CWLS LOG ASCII STANDARD - VERSION 2.0
 WRAP.                 NO:   ONE LINE PER DEPTH STEP
~WELL INFORMATION
#MNEM.UNIT      DATA TYPE    INFORMATION
#----------   ------------   ------------------------------
 STRT.F            2.0000:   START DEPTH
 STOP.F          592.0000:   STOP DEPTH
 STEP.F            0.1000:   STEP LENGTH
 NULL.          -999.2500:   NO VALUE
 COMP. BROWN JOHN E&C INC:   COMPANY
 WELL. NAVAL PETROLEUM RESERVE 3 SX-3 #73-3:   WELL
 FLD .             TEAPOT:   FIELD
 LOC .       S3 T38N R78W:   LOCATION
 CNTY.            NATRONA:   COUNTY
 STAT.            WYOMING:   STATE
 CTRY. UNITED STATES OF AMERICA:   COUNTRY
 SRVC.     Atlas Wireline:   SERVICE COMPANY
 DATE.        22-APR-1992:   LOGDATE
 API .       490252251000:   API NUMBER
~CURVE INFORMATION
#MNEM.UNIT       API CODE    CURVE DESCRIPTION
#----------   ------------   ------------------------------
 DEPT.F                  :   
 GRR .GAPI   07 310 01 00:   GAMMA RAY
 RILD.OHMM   07 120 46 00:   INDUCTION LOG DEEP RESISTIVITY
 RILM.OHMM   07 120 44 00:   INDUCTION LOG MEDIUM RESISTIVITY
~PARAMETER INFORMATION
#MNEM.UNIT          VALUE    DESCRIPTION
#----------   ------------   ------------------------------
 PD  .                 GL:   PERMANENT DATUM
 EPD .F              5148:   ELEVATION PERMANENT DATUM
 LMF .                 KB:   LOG MEASURED FROM
 DAPD.F                 5:   FEET ABOVE PERMANENT DATUM
 DMF .                 KB:   DRILLING MEASURED FROM
 EKB .F              5153:   KELLING BUSHING
 EDF .F              5152:   DRILLING FLOOR
 EGL .F              5148:   GROUND LEVEL
 DATE.        22-APR-1992:   RUN DATE
 RUN .                  1:   RUN NUMBER
 DD  .F               600:   DEPTH DRILLER
 DL  .F               601:   DEPTH LOGGER
 BLI .F               592:   BOTTOM LOG INTERVAL
 TLI .F                51:   TOP LOG INTERVAL
 CS  .IN            8.625:   CASING SIZE
 CBD .F                48:   CASING BOTTOM DRILLER
 CBL .F                51:   CASING BOTTOM LOGGER
 BS  .IN            7.875:   BIT SIZE
 BSD .F               600:   BIT SIZE AT DEPTH
 DFT .                AIR:   DRILLING FLUID TYPE
 LUN .            HL-5272:   LOGGING UNIT NUMBER
 LUL .             CASPER:   LOGGING UNIT LOCATION
 ENGI.       P. RAGMUSSEN:   RECORDING ENGINEER
 WITN.          G. STRONG:   WITNESSED BY
 CLNT.            A2DTECH:   CLIENT CODE
 ORIG.           5" PRINT:   ORIGIN OF DATA
 UWI .       490252251000:   UNIQUE WELL ID
 DICO. A2D Technologies, Inc.:   DIGITIZING COMPANY
~OTHER INFORMATION
~A    DEPT      GRR      RILD       RILM   
# ...
  147.6000   130.3652     8.4482     8.3924
  147.7000   130.7739     8.4490     8.3930
  147.8000   131.2667     8.4496     8.3936
  147.9000   131.7594     8.4858     8.3942
  148.0000   132.2848     8.5101     8.3948
  148.1000   133.0973     8.5242     8.4079
  148.2000   133.9813     8.5709     8.4562
  148.3000   134.9653     8.5718     8.5144
  148.4000   135.9492     8.6122     8.5537
  148.5000   136.8833     8.6330     8.6029
  148.6000   137.6448     8.6338     8.6354
  148.7000   138.1222     8.6406     8.6360
  148.8000   138.4343     8.6956     8.6367
  148.9000   138.6816     8.6963     8.6807
  149.0000   138.8623     8.6970     8.6982
  149.1000   138.8642     8.6977     8.6988
  149.2000   138.8663     8.6984     8.6897
  149.3000   138.8677     8.6992     8.6396
  149.4000   138.8696     8.6522     8.6402
  149.5000   138.8714     8.6402     8.6408
  149.6000   138.8732     8.6160     8.6166
  149.7000   138.8753     8.5681     8.5821
  149.8000   138.6617     8.5229     8.5803
  149.9000   138.4180     8.5237     8.5238
  150.0000   138.2111     8.5294     8.5243
  150.1000   138.0567     8.5363     8.5249
  150.2000   137.9023     8.5432     8.5255
  150.3000   137.7479     8.5501     8.5261
  150.4000   137.5935     8.5571     8.5267
  150.5000   137.4391     8.5640     8.5273
  150.6000   137.2847     8.5709     8.5279
  150.7000   137.1304     8.5778     8.5285
  150.8000   137.0748     8.5847     8.5291
  150.9000   136.9756     8.5893     8.5296
  151.0000   136.7744     8.5899     8.5303
  151.1000   136.7758     8.5905     8.5309
  151.2000   136.7770     8.5462     8.5315
  151.3000   136.7782     8.5321     8.5321
  151.4000   136.9020     8.5103     8.4911
  151.5000   137.1498     8.4629     8.4741
  151.6000   137.3975     8.4157     8.4746
  151.7000   137.6910     8.3688     8.4671
  151.8000   137.8929     8.3586     8.4170
  151.9000   137.9957     8.3336     8.4176
  152.0000   137.9969     8.3018     8.3847
  152.1000   137.9654     8.3023     8.3604
  152.2000   137.6969     8.3030     8.3495
  152.3000   137.2517     8.3035     8.3035
  152.4000   136.7600     8.3041     8.3041
  152.5000   136.2682     8.3046     8.2682
  152.6000   135.7764     8.3052     8.2476
  152.7000   135.2823     8.3059     8.2482
  152.8000   134.7927     8.3064     8.2487
  152.9000   134.3011     8.2743     8.2494
  153.0000   133.8093     8.2499     8.2499
  153.1000   133.3945     8.2505     8.2505
  153.2000   133.1493     8.2511     8.2510
  153.3000   132.8692     8.2517     8.2516
  153.4000   132.8702     8.2522     8.2523
  153.5000   132.8714     8.2528     8.2528
  153.6000   133.0712     8.2534     8.2860
  153.7000   133.6517     8.2539     8.3116
  153.8000   134.6905     8.2546     8.3122
  153.9000   135.3924     8.2551     8.3128
  154.0000   135.7781     8.2557     8.3134
  154.1000   136.0258     8.2562     8.3503
  154.2000   136.1428     8.2644     8.3726
  154.3000   135.8881     8.3151     8.3732
  154.4000   135.3031     8.3156     8.3737
  154.5000   134.7049     8.3162     8.3744
  154.6000   134.1103     8.3168     8.3749
  154.7000   133.6186     8.3174     8.3755
  154.8000   133.1582     8.3180     8.3761
  154.9000   132.8885     8.3186     8.3767
  155.0000   132.8896     8.3191     8.3773
  155.1000   133.0566     8.3197     8.3778
  155.2000   133.3043     8.3203     8.3784
  155.3000   133.5521     8.3167     8.3575
  155.4000   133.8021     8.2638     8.3214
  155.5000   133.8033     8.2643     8.3220
  155.6000   133.6165     8.2649     8.2761
  155.7000   133.2393     8.2470     8.2654
  155.8000   132.8234     8.2086     8.2660
  155.9000   132.5584     8.2093     8.2527
  156.0000   131.9941     8.2098     8.2098
  156.1000   131.7849     8.2104     8.2105
  156.2000   131.6938     8.1890     8.2110
  156.3000   131.5969     8.1545     8.2115
  156.4000   131.3934     8.1557     8.2121
  156.5000   131.3949     8.2026     8.2127
  156.6000   131.3960     8.2132     8.2133
  156.7000   131.3973     8.2138     8.2138
  156.8000   131.3985     8.2294     8.2144
  156.9000   131.3997     8.2724     8.2357
  157.0000   131.3928     8.2730     8.2729
  157.1000   131.0998     8.2735     8.2735
  157.2000   131.1008     8.2741     8.3201
  157.3000   130.9596     8.2746     8.3324
  157.4000   130.6280     8.2752     8.3330
  157.5000   130.1664     8.2758     8.3336
  157.6000   129.8954     8.2763     8.3342
  157.7000   129.4551     8.2770     8.3349
  157.8000   129.2926     8.2776     8.3354
  157.9000   129.1853     8.2781     8.3359
  158.0000   129.0974     8.2787     8.3365
  158.1000   129.5988     8.2793     8.3310
  158.2000   130.0858     8.2431     8.2799
  158.3000   130.5799     8.2230     8.2804
  158.4000   130.9434     8.2085     8.2499
  158.5000   131.1911     8.1670     8.2241
  158.6000   131.4388     8.1677     8.2153
  158.7000   131.7242     8.1284     8.1682
  158.8000   131.9342     8.1121     8.1240
  158.9000   132.0291     8.0942     8.0788
  159.0000   132.0303     8.0568     8.0569
  159.1000   131.9908     8.0575     8.0575
  159.2000   131.7302     8.0153     8.0580
  159.3000   131.5002     8.0027     8.0587
  159.4000   131.2549     7.9816     8.0592
  159.5000   131.0096     7.9483     8.0597
  159.6000   130.8272     7.9488     8.0603
  159.7000   130.8353     7.9037     8.0609
  159.8000   131.0830     7.8948     8.0615
  159.9000   131.1334     7.8953     8.0620
  160.0000   131.4170     7.8813     8.0626
  160.1000   132.0813     7.8416     8.0631
  160.2000   133.0687     7.8423     8.0637
  160.3000   134.1641     7.8428     8.0642
  160.4000   135.0431     7.8433     8.0211
  160.5000   137.1736     7.8438     8.0094
  160.6000   139.4571     7.8522     7.9874
  160.7000   140.9279     7.8998     7.9550
  160.8000   141.4318     7.9003     7.9539
  160.9000   141.6747     7.9008     7.9010
  161.0000   141.7368     7.9231     7.9014
  161.1000   141.4791     7.9571     7.8764
  161.2000   140.8403     7.9577     7.8477
  161.3000   139.8214     7.9583     7.8483
  161.4000   138.1109     7.9589     7.8488
  161.5000   136.4502     7.9594     7.8493
  161.6000   134.4793     7.9599     7.8499
  161.7000   132.8908     7.9559     7.8504
  161.8000   131.9457     7.9059     7.8510
  161.9000   131.1577     7.9064     7.8515
  162.0000   130.9289     7.9069     7.8520
  162.1000   130.8575     7.9074     7.8526
  162.2000   130.9765     7.9080     7.8532
  162.3000   131.2242     7.9086     7.8537
  162.4000   131.4719     7.9091     7.8542
  162.5000   131.7195     7.9419     7.8548
  162.6000   132.1633     7.9655     7.8554
  162.7000   132.9374     7.9660     7.8559
  162.8000   133.8406     7.9654     7.8564
  162.9000   134.6094     7.9211     7.8570
  163.0000   135.7097     7.9125     7.8576
  163.1000   136.5836     7.9130     7.8581
  163.2000   137.2465     7.8986     7.8586
  163.3000   137.6346     7.8545     7.8591
  163.4000   137.8824     7.8052     7.8597
  163.5000   138.1362     7.7673     7.8603
  163.6000   138.3778     7.7521     7.8608
  163.7000   138.4411     7.7346     7.8613
  163.8000   138.4423     7.6993     7.8407
  163.9000   138.1548     7.7000     7.8079
  164.0000   137.1223     7.7005     7.8084
  164.1000   135.1179     7.7010     7.8090
  164.2000   134.2930     7.7015     7.8095
  164.3000   133.0072     7.7020     7.7858
  164.4000   131.5293     7.7026     7.7565
  164.5000   130.0520     7.7032     7.7570
  164.6000   128.4673     7.7037     7.7576
  164.7000   128.2396     7.7042     7.7581
  164.8000   128.3397     7.7048     7.7312
  164.9000   128.4708     7.7053     7.7053
  165.0000   128.5932     7.7059     7.7058
  165.1000   129.1049     7.7064     7.7064
  165.2000   130.5858     7.7069     7.7069
  165.3000   132.0656     7.7074     7.7074
  165.4000   133.6847     7.7080     7.7080
  165.5000   135.2460     7.7085     7.7085
  165.6000   136.3994     7.7090     7.7091
  165.7000   136.9526     7.7096     7.7096
