~VERSION INFORMATION
 VERS.                2.0:   CWLS LOG ASCII STANDARD - VERSION 2.0
 WRAP.                 NO:   ONE LINE PER DEPTH STEP
~WELL INFORMATION
#MNEM.UNIT      DATA TYPE    INFORMATION
#----------   ------------   ------------------------------
 STRT.F            9.0000:   START DEPTH
 STOP.F          512.0000:   STOP DEPTH
 STEP.F            0.5000:   STEP LENGTH
 NULL.          -999.2500:   NO VALUE
 COMP. LAWRENCE-ALLISON &AS:   COMPANY
 WELL. NPR 3 #61-21SX10UP2:   WELL
 FLD .             TEAPOT:   FIELD
 LOC .      S10 T38N R78W:   LOCATION
 CNTY.            NATRONA:   COUNTY
 STAT.            WYOMING:   STATE
 CTRY. UNITED STATES OF AMERICA:   COUNTRY
 SRVC.      Dresser Atlas:   SERVICE COMPANY
 DATE.        13-DEC-1984:   LOGDATE
 API .       490251100500:   API NUMBER
~CURVE INFORMATION
#MNEM.UNIT       API CODE    CURVE DESCRIPTION
#----------   ------------   ------------------------------
 DEPT.F                  :   
 PORD.DEC    45 890 12 00:   POROSITY DENSITY SANDSTONE
 CNCF.DEC    42 890 03 00:   NEUTRON POROSITY SANDSTONE
 GRD .GAPI   45 310 01 00:   GAMMA RAY FROM DENSITY LOG
 CALD.IN     45 280 60 00:   CALIPER FROM DENSITY LOG
 CORR.G/C3   45 356 01 00:   DENSITY CORRECTION
 DEN .G/C3   45 350 01 00:   COMPENSATED BULK DENSTIY
 AC  .US/F   60 520 00 00:   ACCOUSTIC
 RILD.OHMM   07 120 46 00:   INDUCTION LOG DEEP RESISTIVITY
 RILM.OHMM   07 120 44 00:   INDUCTION LOG MEDIUM RESISTIVITY
 RFOC.OHMM   07 220 04 00:   RESISTIVITY FOCUSED LOG
 SPR .MV     11 010 01 00:   SPONTANEOUS POTENTIAL FROM RES.
 RS  .OHMM   11 220 09 00:   RESISTIVITY SHALLOW
 RD  .OHMM   11 220 10 00:   RESISTIVITY DEEP
~PARAMETER INFORMATION
#MNEM.UNIT          VALUE    DESCRIPTION
#----------   ------------   ------------------------------
 PD  .                 GL:   PERMANENT DATUM
 EPD .F              5157:   ELEVATION PERMANENT DATUM
 LMF .                 GL:   LOG MEASURED FROM
 DMF .                 GL:   DRILLING MEASURED FROM
 EGL .F              5157:   GROUND LEVEL
 DATE.         12-13-1984:   RUN DATE
 RUN .                  1:   RUN NUMBER
 DD  .F               514:   DEPTH DRILLER
 DL  .F               513:   DEPTH LOGGER
 BLI .F               512:   BOTTOM LOG INTERVAL
 TLI .F                20:   TOP LOG INTERVAL
 CS  .IN            8.625:   CASING SIZE
 CBD .F                20:   CASING BOTTOM DRILLER
 CBL .F                20:   CASING BOTTOM LOGGER
 BS  .IN            7.875:   BIT SIZE
 BSD .F               514:   BIT SIZE AT DEPTH
 DFT .          KCL WATER:   DRILLING FLUID TYPE
 MSS .           FLOWLINE:   MUD SAMPLE SOURCE
 RMS .OHMM            .17:   RESISTIVITY MUD SAMPLE
 MST .F                95:   MUD SAMPLE TEMPERATURE
 RMF .OHMM            .08:   RESISTIVITY MUD FILTRATE SAMPLE
 MFST.F                95:   MUD FILTRATE SAMPLE TEMPERATURE
 RMC .OHMM            .14:   RESISTIVITY MUD CAKE
 MCST.F                95:   MUD CAKE SAMPLE TEMPERATURE
 MFSS.               CALC:   MUD FILTRATE SAMPLE SOURCE
 MCSS.               CALC:   MUD CAKE SAMPLE SOURCE
 TCS .HRS              10:   TIME CURCULATED STOPPED
 MRT .F               100:   MAXIMUM RECORDED TEMPERATURE
 LUN .               6270:   LOGGING UNIT NUMBER
 LUL .                 FM:   LOGGING UNIT LOCATION
 ENGI.            LEBSOCK:   RECORDING ENGINEER
 WITN.        GREG GROOMS:   WITNESSED BY
 CLNT.            A2DTECH:   CLIENT CODE
 ORIG.           5" PRINT:   ORIGIN OF DATA
 UWI .       490251100500:   UNIQUE WELL ID
 DICO. A2D Technologies, Inc.:   DIGITIZING COMPANY
~OTHER INFORMATION
~A    DEPT    PORD       CNCF        GRD       CALD       CORR        DEN          AC      RILD       RILM       RFOC        SPR         RS         RD   
# ...
  113.0000     0.1495     0.2456    96.6193     7.8657     0.0124     2.4320   103.5143     9.4139     7.7553     9.4885   -75.8364    10.7785    22.8491
  113.5000     0.1501     0.2390    95.7097     7.8498     0.0078     2.4295   103.3667     9.4726     7.8575     9.5498   -76.1466    10.8502    23.3218
  114.0000     0.1495     0.2456    94.9508     7.8491     0.0032     2.4289   103.6741     9.5327     7.9069     9.6099   -76.1569    10.7696    23.4731
  114.5000     0.1483     0.2692    96.6014     7.8483    -0.0029     2.4319   103.6835     9.5266     8.0120     9.6016   -76.0147    10.6168    23.2966
  115.0000     0.1466     0.2825    99.7581     7.8476    -0.0060     2.4356   103.6830     9.5207     7.8410     9.5950   -75.8751    10.5390    23.1243
  115.5000     0.1451     0.2849   101.2582     7.8469    -0.0060     2.4379   103.5365     9.5147     7.7272     9.6553   -75.8880    10.5347    22.7943
  116.0000     0.1445     0.2843   100.3486     7.8461    -0.0046     2.4386   103.3900     9.5088     7.5098     9.6486   -75.8983    10.6038    22.9422
  116.5000     0.1454     0.2840    99.7403     7.8454     0.0059     2.4356   103.1692     9.5693     7.4009     9.6420   -76.2085    10.5994    23.0910
  117.0000     0.1467     0.2843    99.7343     7.8446     0.0089     2.4348   103.2491     9.4312     7.3445     9.6353   -76.3758    10.5217    23.0798
  117.5000     0.1466     0.2894   100.7826     7.8288    -0.0017     2.4355   103.4800     9.4220     7.2859     9.6286   -76.5292    10.3663    22.8957
  118.0000     0.1385     0.3024   103.1863     7.8129    -0.0033     2.4491   103.5599     9.3541     7.1289     9.6220   -76.5418    10.2251    22.5819
  118.5000     0.1355     0.3218   103.4830     7.7971     0.0027     2.4528   103.6398     9.2834     7.0239     9.4824   -76.7021    10.1372    22.2313
  119.0000     0.1343     0.3154   103.0252     7.7813     0.0056     2.4543   103.7198     9.2776     6.9205     9.3448   -76.5599    10.0052    21.7879
  119.5000     0.1313     0.2852   103.3193     7.7805     0.0025     2.4574   103.8752     9.2718     6.8187     9.3382   -76.4203     9.9319    21.6267
  120.0000     0.1271     0.2801   103.0118     7.7798     0.0025     2.4650   103.9551     9.2006     6.6800     9.2670   -76.2807     9.8592    21.6163
  120.5000     0.1290     0.2909    99.9939     7.7785     0.0236     2.4686   104.1105     9.1311     6.5375     9.1964   -76.2935     9.7870    21.4564
  121.0000     0.1329     0.3033    95.3192     7.7783     0.0537     2.4647   104.2659     9.0622     6.3979     9.1186   -76.1514     9.7153    21.4461
  121.5000     0.1369     0.3088    95.3133     7.7624     0.0445     2.4541   104.3458     8.9938     6.2179     9.0474   -76.0117     9.7113    21.2874
  122.0000     0.1375     0.3118    97.2892     7.7617     0.0248     2.4518   104.5012     8.8026     6.0011     8.9251   -75.5723     9.6402    20.9836
  122.5000     0.1348     0.3182    97.8616     7.7609     0.0250     2.4548   104.7321     8.4964     5.7918     8.7944   -75.4348     9.3723    20.6842
  123.0000     0.1342     0.3263    96.4558     7.7600     0.0293     2.4586   105.1240     8.0315     5.6288     8.6067   -75.1454     9.0489    19.9686
  123.5000     0.1369     0.3245    96.1931     7.7593     0.0262     2.4570   105.5160     7.6450     5.5087     8.3065   -74.8562     8.5567    19.0118
  124.0000     0.1440     0.3130    97.9928     7.7736     0.0186     2.4502   106.7843     7.3279     5.3537     7.7966   -74.8666     8.0352    17.9755
  124.5000     0.1492     0.3094    99.6435     7.7729     0.0080     2.4404   108.2227     7.0730     5.3129     7.2168   -74.8771     7.7043    16.9957
  125.0000     0.1532     0.3072    97.6797     7.7874     0.0019     2.4298   108.6800     6.8746     5.4212     6.7739   -74.8876     7.3359    16.0694
  125.5000     0.1552     0.3023    95.8665     7.7865     0.0048     2.4206   108.1561     6.7754     5.5318     6.6304   -74.9000     7.4873    15.5134
  126.0000     0.1510     0.2854    95.2597     7.8010     0.0108     2.4199   107.4059     6.8661     5.6841     7.2019   -74.9103     7.8567    16.3920
  126.5000     0.1431     0.2766    97.6619     7.8153     0.0228     2.4257   106.3537     7.1047     5.8001     7.8240   -74.9206     8.1308    17.5626
  127.0000     0.1359     0.2743   102.1740     7.8296     0.0364     2.4515   105.8299     7.3516     5.9597     8.1521   -75.0809     8.4183    18.4330
  127.5000     0.1299     0.2849   106.5355     7.8287     0.0408     2.4621   105.7578     7.5020     6.1238     8.2621   -75.0912     8.7181    18.9389
  128.0000     0.1314     0.2822   106.8322     7.8280     0.0377     2.4651   105.6124     7.7627     6.2924     8.3140   -75.2514     9.0200    19.2121
  128.5000     0.1329     0.2674   106.9754     7.8272     0.0347     2.4620   105.3149     8.0324     6.5108     8.4822   -75.5616     9.2733    19.3433
  129.0000     0.1342     0.2599   107.4227     7.8265     0.0240     2.4597   105.0930     8.2540     6.6900     8.5370   -75.5719     9.4527    19.4444
  129.5000     0.1348     0.2602   106.9635     7.8257     0.0119     2.4574   105.0219     8.6004     6.8276     8.6507   -75.7322     9.5809    19.4327
  130.0000     0.1333     0.2614   104.8491     7.8250    -0.0032     2.4566   105.0264     8.7168     6.8706     8.7051   -75.8924     9.7108    19.5588
  130.5000     0.1300     0.2657   101.2287     7.8242    -0.0066     2.4589   105.1064     8.6497     6.8646     8.6976   -76.0526     9.8425    19.4141
  131.0000     0.1315     0.2732    98.5119     7.8235     0.0027     2.4656   105.1965     8.6443     6.8123     8.7538   -76.0630     9.8374    19.4048
  131.5000     0.1386     0.2802    97.7440     7.8227     0.0162     2.4573   105.4182     8.5791     6.8076     8.6856   -76.0735     9.6978    18.8640
  132.0000     0.1432     0.2817    99.7048     7.8220     0.0177     2.4475   105.5736     8.5143     6.7557     8.6194   -75.9337     9.5602    18.5948
  132.5000     0.1437     0.2839    99.2420     7.8212     0.0131     2.4391   105.7290     8.4500     6.6577     8.5536   -75.6441     9.3593    18.3295
  133.0000     0.1398     0.2872    99.4156     7.8205     0.0254     2.4406   106.0354     8.3862     6.5611     8.4884   -75.6570     9.2265    18.1939
  133.5000     0.1425     0.2881   100.6476     7.8197     0.0326     2.4451   106.1908     8.2652     6.4659     8.4237   -75.5148     9.0327    17.8101
  134.0000     0.1462     0.2866   101.6646     7.8190     0.0239     2.4390   106.2707     8.2005     6.3721     8.3595   -75.2279     8.9665    17.5560
  134.5000     0.1453     0.2814    99.8241     7.8182     0.0007     2.4345   106.5016     8.0244     6.2766     8.2958   -75.0882     8.8393    17.1857
  135.0000     0.1435     0.2733   100.2700     7.8175    -0.0069     2.4345   106.8079     7.7977     6.1799     8.2900   -75.0986     8.7745    16.8232
  135.5000     0.1417     0.2731   102.0713     7.8167    -0.0069     2.4389   107.1897     7.4660     5.9205     8.1697   -74.9564     8.6500    16.3543
  136.0000     0.1411     0.2994   103.2716     7.8160    -0.0039     2.4406   107.8734     7.0545     5.5935     8.1075   -74.8168     8.4683    15.7885
  136.5000     0.1417     0.3191   100.1030     7.8152     0.0069     2.4419   109.0854     6.5650     5.2847     7.9898   -74.5272     8.1195    15.0320
  137.0000     0.1466     0.3221   101.7522     7.8296     0.0014     2.4388   111.2031     5.9748     4.8361     7.7112   -74.3898     7.6194    14.0069
  137.5000     0.1602     0.3140   106.7161     7.8288    -0.0137     2.4275   113.0189     5.8072     4.5392     7.2884   -74.1007     6.9964    12.8527
  138.0000     0.1732     0.2883   105.6560     7.8279    -0.0178     2.3935   114.8346     5.8036     4.5054     6.3707   -73.9610     6.3430    11.5765
  138.5000     0.1838     0.2902   100.3789     7.8424     0.0048     2.3738   113.8078     5.7607     4.7926     4.9977   -73.8214     5.8830    10.7086
