~VERSION INFORMATION
 VERS.                2.0:   CWLS LOG ASCII STANDARD - VERSION 2.0
 WRAP.                 NO:   ONE LINE PER DEPTH STEP
~WELL INFORMATION
#MNEM.UNIT      DATA TYPE    INFORMATION
#----------   ------------   ------------------------------
 STRT.F           25.0000:   START DEPTH
 STOP.F          681.0000:   STOP DEPTH
 STEP.F            0.5000:   STEP LENGTH
 NULL.          -999.2500:   NO VALUE
 COMP. FENIX & SCISSON INC:   COMPANY
 WELL.    56-SX-34 #56-34:   WELL
 FLD .             TEAPOT:   FIELD
 LOC .      S34 T39N R78W:   LOCATION
 CNTY.            NATRONA:   COUNTY
 STAT.            WYOMING:   STATE
 CTRY. UNITED STATES OF AMERICA:   COUNTRY
 SRVC.            Unknown:   SERVICE COMPANY
 DATE.        28-JAN-1979:   LOGDATE
 API .       490251077200:   API NUMBER
~CURVE INFORMATION
#MNEM.UNIT       API CODE    CURVE DESCRIPTION
#----------   ------------   ------------------------------
 DEPT.F                  :   
 SPR .MV     05 010 01 00:   SPONTANEOUS POTENTIAL FROM RES.
 DRHO.G/C3   45 356 01 00:   DENSITY CORRECTION
 RHOB.G/C3   45 350 01 00:   BULK DENSITY
 DPHI.DEC    45 890 12 00:   DENSITY POROSITY SANDSTONE
 CALD.IN     45 280 60 00:   CALIPER
 GRD .GAPI   45 310 01 00:   GAMMA RAY FROM DENSITY LOG
 SN  .OHMM   05 040 16 00:   SHORT NORMAL 16'
 ILD .OHMM   05 120 46 00:   INDUCTION LOG DEEP RESISTIVITY
~PARAMETER INFORMATION
#MNEM.UNIT          VALUE    DESCRIPTION
#----------   ------------   ------------------------------
 PD  .                 GL:   PERMANENT DATUM
 EPD .F              5088:   ELEVATION PERMANENT DATUM
 LMF .                 KB:   LOG MEASURED FROM
 DAPD.F                 4:   FEET ABOVE PERMANENT DATUM
 DMF .                 KB:   DRILLING MEASURED FROM
 EKB .F              5092:   KELLING BUSHING
 EGL .F              5088:   GROUND LEVEL
 DATE.            1-28-79:   RUN DATE
 RUN .                  1:   RUN NUMBER
 DD  .F               680:   DEPTH DRILLER
 DL  .F               681:   DEPTH LOGGER
 BLI .F               679:   BOTTOM LOG INTERVAL
 TLI .F                40:   TOP LOG INTERVAL
 CS  .IN            8.625:   CASING SIZE
 CBD .F                40:   CASING BOTTOM DRILLER
 CBL .F                40:   CASING BOTTOM LOGGER
 BS  .IN            7.875:   BIT SIZE
 BSD .F               680:   BIT SIZE AT DEPTH
 DFT .                KCL:   DRILLING FLUID TYPE
 DFD .                8.9:   DRILLING FLUID DENSITY
 DFV .                 43:   DRILLING FLUID VISCOSITY
 DFPH.                8.5:   DRILLING FLUID PH
 DFL .                9.8:   DRILLING FLUID LOSS
 MSS .           FLOWLINE:   MUD SAMPLE SOURCE
 RMS .OHMM            1.5:   RESISTIVITY MUD SAMPLE
 MST .F                66:   MUD SAMPLE TEMPERATURE
 RMF .OHMM            1.3:   RESISTIVITY MUD FILTRATE SAMPLE
 MFST.F                76:   MUD FILTRATE SAMPLE TEMPERATURE
 RMC .OHMM            1.3:   RESISTIVITY MUD CAKE
 MCST.F                78:   MUD CAKE SAMPLE TEMPERATURE
 MFSS.           MEASURED:   MUD FILTRATE SAMPLE SOURCE
 MCSS.           MEASURED:   MUD CAKE SAMPLE SOURCE
 RMB .OHMM            1.3:   RESISTIVITY MUD AT BHT
 BHT .F                76:   BOTTOM HOLE TEMPERATURE
 TCS .HRS               3:   TIME CURCULATED STOPPED
 MRT .F                76:   MAXIMUM RECORDED TEMPERATURE
 LUN .               3006:   LOGGING UNIT NUMBER
 LUL .             CASPER:   LOGGING UNIT LOCATION
 ENGI.            ROLLINS:   RECORDING ENGINEER
 WITN.              AMEND:   WITNESSED BY
 CLNT.            A2DTECH:   CLIENT CODE
 ORIG.       2", 5" PRINT:   ORIGIN OF DATA
 UWI .       490251077200:   UNIQUE WELL ID
 DICO. A2D Technologies, Inc.:   DIGITIZING COMPANY
~OTHER INFORMATION
~A   DEPT      SPR       DRHO       RHOB       DPHI       CALD         GRD        SN        ILD   
# ...
  268.0000   -42.2772     0.0595     2.4843     0.1198     7.9359    98.8367     9.0710     9.6889
  268.5000   -42.2772     0.0608     2.4795     0.1204     7.9372    99.6240     9.0710     9.6591
  269.0000   -42.2772     0.0621     2.4763     0.1211     7.9854    96.8827     9.0710     9.6295
  269.5000   -42.2772     0.0635     2.4780     0.1218     8.0346    96.2104     9.0710     9.6000
  270.0000   -42.2772     0.0648     2.4778     0.1225     8.0468   101.0396     9.0706     9.5705
  270.5000   -42.2772     0.0661     2.4753     0.1218     8.0275   105.1541     9.0720     9.5412
  271.0000   -42.2772     0.0675     2.4761     0.1203     8.0182   104.1940     9.0103     9.5119
  271.5000   -42.2772     0.0663     2.4810     0.1188     8.0423   102.8106     8.9633     9.4827
  272.0000   -42.2772     0.0641     2.4860     0.1178     8.0425   102.0795     8.9166     9.4536
  272.5000   -42.2772     0.0619     2.4853     0.1186     7.9995   105.8977     8.8702     9.4247
  273.0000   -42.2772     0.0598     2.4825     0.1193     8.0104   104.8460     8.8231     9.4074
  273.5000   -42.2772     0.0608     2.4820     0.1168     8.0327   102.8931     8.8532     9.3981
  274.0000   -42.2772     0.0619     2.4889     0.1132     8.0550   104.3032     8.8840     9.3888
  274.5000   -42.2772     0.0631     2.4959     0.1132     8.0044   105.4189     8.9150     9.3796
  275.0000   -42.2772     0.0604     2.4931     0.1178     7.9609   105.7108     8.9463     9.3704
  275.5000   -42.2772     0.0542     2.4819     0.1229     7.9894   109.6298     8.9875     9.3611
  276.0000   -42.2772     0.0496     2.4720     0.1249     7.9516   113.9070     8.9704     9.3520
  276.5000   -42.2772     0.0518     2.4719     0.1247     7.8775   110.9419     8.9450     9.3427
  277.0000   -42.2772     0.0536     2.4719     0.1245     7.9273   106.8669     8.9048     9.3335
  277.5000   -42.2772     0.0530     2.4719     0.1244     7.9691   108.6975     8.9331     9.3262
  278.0000   -42.2772     0.0524     2.4719     0.1242     7.9104   109.5482     9.0027     9.4543
  278.5000   -42.2772     0.0518     2.4720     0.1241     7.8572   107.7907     9.0730     9.5619
  279.0000   -42.2772     0.0524     2.4768     0.1197     7.8562   105.8385     9.1437     9.6709
  279.5000   -42.2772     0.0534     2.4845     0.1169     7.8564   104.9203     9.2150     9.7809
  280.0000   -42.2772     0.0564     2.4879     0.1174     7.8564   102.1327     9.2869     9.8922
  280.5000   -42.2772     0.0599     2.4876     0.1179     7.8565    96.7503     9.3593     9.9499
  281.0000   -42.2772     0.0615     2.4873     0.1184     7.8568    97.7449     9.4128     9.9499
  281.5000   -42.2772     0.0603     2.4870     0.1181     7.8548    99.7424     9.4248     9.9499
  282.0000   -42.2772     0.0609     2.4872     0.1172     7.7864    98.9129     9.4355     9.9499
  282.5000   -42.2772     0.0634     2.4882     0.1175     7.7142   100.6135     9.4464     9.9499
  283.0000   -42.2772     0.0635     2.4892     0.1197     7.7017   105.0904     9.4574     9.9499
  283.5000   -42.2772     0.0586     2.4827     0.1247     7.7768   105.0002     9.4683     9.9499
  284.0000   -42.2772     0.0536     2.4728     0.1297     7.7776   103.1879     9.4792     9.9500
  284.5000   -42.2772     0.0517     2.4630     0.1311     7.7771   101.7344     9.4897     9.9502
  285.0000   -42.2772     0.0556     2.4555     0.1317     7.7852   104.1604     9.5001     9.9503
  285.5000   -42.2772     0.0653     2.4623     0.1249     7.7972   107.4189     9.4128     9.8769
  286.0000   -42.2772     0.0721     2.4751     0.1201     7.8094   106.6943     9.0405     9.7720
  286.5000   -42.2771     0.0605     2.4804     0.1228     7.8224   103.0953     8.7093     9.6682
  287.0000   -42.2775     0.0476     2.4618     0.1304     7.8351    99.8203     8.3903     9.5656
  287.5000   -42.2787     0.0503     2.4611     0.1296     7.9482   100.3710     8.2019     9.4642
  288.0000   -42.4160     0.0621     2.4621     0.1289     8.0932   105.2323     8.0921     9.3638
  288.5000   -42.7898     0.0782     2.4629     0.1344     7.9483   109.7365     7.9839     9.2645
  289.0000   -42.8714     0.1009     2.4507     0.1389     7.9298   106.6130     7.8770     9.1663
  289.5000   -42.8761     0.1398     2.4340     0.1437     8.0514   105.4711     7.7716     9.0690
  290.0000   -42.8783     0.1776     2.4276     0.1449     8.1754   105.1498     7.6671     8.9729
  290.5000   -42.8805     0.2068     2.4641     0.1354     8.2601   103.7742     7.5633     8.9048
  291.0000   -42.8830     0.1775     2.4842     0.1261     8.3351   103.1083     7.3986     8.9727
  291.5000   -42.8855     0.1033     2.4755     0.1261     8.3869   102.6921     7.4030     9.0259
  292.0000   -42.8879     0.0682     2.4676     0.1220     8.2380   103.5544     7.3996     9.0794
  292.5000   -42.8904     0.0623     2.4749     0.1197     8.2759   104.2064     7.4879     9.1332
  293.0000   -42.8929     0.0628     2.4800     0.1204     8.1137   102.5978     7.6324     9.1874
  293.5000   -42.8953     0.0631     2.4795     0.1213     7.9837   100.8378     7.7794     9.2418
  294.0000   -42.8978     0.0583     2.4788     0.1221     8.0448    94.7744     7.9293     9.2966
  294.5000   -42.9002     0.0577     2.4780     0.1199     8.0740    95.3837     8.0820     9.3517
  295.0000   -42.9027     0.0576     2.4782     0.1179     8.0742    97.0640     8.2377     9.4128
  295.5000   -42.9052     0.0568     2.4853     0.1169     8.0747    98.3763     8.3963     9.4815
  296.0000   -42.9076     0.0530     2.4890     0.1170     8.0711    99.3585     8.5581     9.5585
  296.5000   -42.9101     0.0517     2.4884     0.1173     7.9971   101.2086     8.6933     9.6362
  297.0000   -42.9126     0.0517     2.4877     0.1176     8.0059   103.7589     8.8228     9.7144
  297.5000   -42.9150     0.0516     2.4871     0.1179     8.0029   103.1094     8.8228     9.7934
  298.0000   -42.9175     0.0516     2.4864     0.1173     7.9379   102.5310     8.7831     9.9499
  298.5000   -42.9200     0.0518     2.4873     0.1151     7.8980   102.4217     8.7335     9.9499
  299.0000   -42.9224     0.0581     2.4914     0.1132     7.9155   102.7885     8.6841     9.9499
  299.5000   -42.9249     0.0649     2.4949     0.1136     7.9322   102.5328     8.6350     9.9499
  300.0000   -42.9273     0.0679     2.4950     0.1202     7.9489   100.5818     8.5862     9.7975
  300.5000   -42.9298     0.0604     2.4845     0.1277     7.9658   100.9129     8.5377     9.6342
  301.0000   -42.9323     0.0530     2.4647     0.1306     7.9828   101.4138     8.4894     9.4736
  301.5000   -42.9347     0.0504     2.4579     0.1316     7.9929   101.1550     8.4414     9.3156
  302.0000   -42.9372     0.0527     2.4578     0.1296     7.9206   100.3597     8.4004     9.1603
  302.5000   -42.9397     0.0668     2.4623     0.1277     7.8929   103.4556     8.3632     9.0710
  303.0000   -42.9421     0.0825     2.4662     0.1273     7.9748   105.5309     8.3263     9.0710
  303.5000   -42.9446     0.0839     2.4671     0.1277     8.0550   106.8034     8.2895     9.0710
  304.0000   -42.9471     0.0774     2.4678     0.1307     8.1357   108.5672     8.2528     9.0710
  304.5000   -42.9495     0.0708     2.4599     0.1353     8.0591   110.3507     8.2163     9.0710
  305.0000   -42.9520     0.0691     2.4510     0.1357     8.0450   111.7295     8.1800     9.0710
  305.5000   -42.9544     0.0717     2.4490     0.1355     8.0363   109.7110     8.1439     9.0710
  306.0000   -42.9569     0.0742     2.4519     0.1330     7.8537   105.3283     8.1183     9.0710
  306.5000   -42.9594     0.0770     2.4565     0.1291     7.8402   100.6739     8.2969     9.0710
  307.0000   -42.9618     0.0781     2.4673     0.1209     8.0081    97.3031     8.4477     9.3737
  307.5000   -42.9643     0.0661     2.4781     0.1197     8.0581    99.9447     8.6550     9.6665
  308.0000   -42.9668     0.0527     2.4817     0.1215     8.0861   101.9024     8.8985     9.9685
