~VERSION INFORMATION
 VERS.                2.0:   CWLS LOG ASCII STANDARD - VERSION 2.0
 WRAP.                 NO:   ONE LINE PER DEPTH STEP
~WELL INFORMATION
#MNEM.UNIT      DATA TYPE    INFORMATION
#----------   ------------   ------------------------------
 STRT.M            0.0000:   START DEPTH
 STOP.M          642.0000:   STOP DEPTH
 STEP.M            0.1000:   STEP LENGTH
 NULL.          -999.2500:   NO VALUE
 COMP.   FLUOR DANIEL INC:   COMPANY
 WELL.     71-1 X 3 #71-3:   WELL
 FLD .             TEAPOT:   FIELD
 LOC .       S3 T38N R78W:   LOCATION
 CNTY.            NATRONA:   COUNTY
 STAT.            WYOMING:   STATE
 CTRY. UNITED STATES OF AMERICA:   COUNTRY
 SRVC.      Western Atlas:   SERVICE COMPANY
 DATE.        04-JAN-1995:   LOGDATE
 API .       490252267900:   API NUMBER
~CURVE INFORMATION
#MNEM.UNIT       API CODE    CURVE DESCRIPTION
#----------   ------------   ------------------------------
 DEPT.M                  :   
 RILD.OHMM   07 120 46 00:   INDUCTION LOG DEEP RESISTIVITY
 RILM.OHMM   07 120 44 00:   INDUCTION LOG MEDIUM RESISTIVITY
 GRR .GAPI   07 310 01 00:   GAMMA RAY
~PARAMETER INFORMATION
#MNEM.UNIT          VALUE    DESCRIPTION
#----------   ------------   ------------------------------
 PD  .                 GL:   PERMANENT DATUM
 EPD .F              5123:   ELEVATION PERMANENT DATUM
 LMF .                 KB:   LOG MEASURED FROM
 DAPD.F                10:   FEET ABOVE PERMANENT DATUM
 DMF .                 KB:   DRILLING MEASURED FROM
 EKB .F              5133:   KELLING BUSHING
 EDF .F              5132:   DRILLING FLOOR
 EGL .F              5123:   GROUND LEVEL
 DATE.        04-JAN-1995:   RUN DATE
 RUN .                  1:   RUN NUMBER
 DD  .F               647:   DEPTH DRILLER
 DL  .F               650:   DEPTH LOGGER
 BLI .F               642:   BOTTOM LOG INTERVAL
 TLI .F                96:   TOP LOG INTERVAL
 CS  .IN            9.625:   CASING SIZE
 CBD .F                96:   CASING BOTTOM DRILLER
 CBL .F                96:   CASING BOTTOM LOGGER
 BS  .IN             8.75:   BIT SIZE
 BSD .F               647:   BIT SIZE AT DEPTH
 DFT .                AIR:   DRILLING FLUID TYPE
 MRT .F                91:   MAXIMUM RECORDED TEMPERATURE
 LUN .            HL 6530:   LOGGING UNIT NUMBER
 LUL .             CASPER:   LOGGING UNIT LOCATION
 ENGI.        VERN RAUTIO:   RECORDING ENGINEER
 WITN.        GARY STRONG:   WITNESSED BY
 CLNT.            A2DTECH:   CLIENT CODE
 ORIG.           5" PRINT:   ORIGIN OF DATA
 UWI .       490252267900:   UNIQUE WELL ID
 DICO. A2D Technologies, Inc.:   DIGITIZING COMPANY
~OTHER INFORMATION
~A    DEPT    RILD       RILM        GRR   
# ...
  236.6000     9.0052     9.2809   129.8618
  236.7000     9.0049     9.2811   129.3051
  236.8000     9.0047     9.3069   129.3051
  236.9000     9.0044     9.3463   129.4637
  237.0000     9.0042     9.3466   129.7100
  237.1000     9.0039     9.3468   129.9563
  237.2000     9.0036     9.3471   130.2115
  237.3000     9.0034     9.3474   130.4489
  237.4000     9.0032     9.3476   130.8769
  237.5000     9.0029     9.3479   131.1178
  237.6000     9.0027     9.3482   131.1879
  237.7000     9.0024     9.3025   131.4199
  237.8000     9.0022     9.2840   131.4199
  237.9000     9.0019     9.2842   131.2151
  238.0000     9.0017     9.2845   130.8197
  238.1000     9.0014     9.2847   130.3271
  238.2000     9.0012     9.2850   129.7596
  238.3000     9.0009     9.2852   128.7009
  238.4000     9.0007     9.2600   128.0170
  238.5000     9.0004     9.2215   127.2780
  238.6000     9.0002     9.2217   126.6554
  238.7000     8.9999     9.2220   126.1627
  238.8000     8.9997     9.2223   125.6749
  238.9000     8.9994     9.2225   125.4286
  239.0000     8.9992     9.2228   125.3776
  239.1000     8.9989     9.2230   125.5172
  239.2000     8.9987     9.2233   125.6798
  239.3000     8.9984     9.2235   125.7637
  239.4000     8.9981     9.2238   126.5861
  239.5000     8.9979     9.2240   127.8972
  239.6000     8.9977     9.2243   129.0497
  239.7000     8.9974     9.2246   130.0351
  239.8000     8.9972     9.2248   130.9181
  239.9000     8.9969     9.2251   131.4199
  240.0000     8.9967     9.2253   131.6616
  240.1000     8.9964     9.2256   132.0939
  240.2000     8.9962     9.2258   132.4564
  240.3000     8.9959     9.2261   132.7027
  240.4000     8.9957     9.1848   132.9305
  240.5000     8.9448     9.1627   132.9305
  240.6000     8.9330     9.1630   133.3487
  240.7000     8.9052     9.1576   133.5347
  240.8000     8.8707     9.1001   133.6322
  240.9000     8.8704     9.1003   133.8786
  241.0000     8.8702     9.0674   134.1390
  241.1000     8.8699     9.0166   134.1390
  241.2000     8.8375     8.9755   134.3154
  241.3000     8.7873     8.9758   134.5617
  241.4000     8.7469     8.9277   134.7432
  241.5000     8.7467     8.9141   134.7523
  241.6000     8.7464     8.8895   135.0453
  241.7000     8.7096     8.8529   135.2449
  241.8000     8.6602     8.8515   135.3474
  241.9000     8.6252     8.7922   135.5235
  242.0000     8.6249     8.7526   135.9517
  242.1000     8.6246     8.7036   135.9517
  242.2000     8.5430     8.6716   136.1744
  242.3000     8.5053     8.6663   136.4207
  242.4000     8.5051     8.6121   136.6671
  242.5000     8.4970     8.6123   136.9134
  242.6000     8.4458     8.5809   137.1601
  242.7000     8.4008     8.5329   137.4061
  242.8000     8.3869     8.4851   137.6524
  242.9000     8.3636     8.4356   138.0330
  243.0000     8.3161     8.4358   138.3686
  243.1000     8.2706     8.4361   138.3913
  243.2000     8.2703     8.4126   138.6707
  243.3000     8.2323     8.3781   139.0973
  243.4000     8.2127     8.3784   139.4324
  243.5000     8.1958     8.3787   139.6787
  243.6000     8.1554     8.3030   139.9251
  243.7000     8.1552     8.2635   140.1813
  243.8000     8.1550     8.2476   140.1813
  243.9000     8.1233     8.2067   140.1813
  244.0000     8.0981     8.2070   139.9315
  244.1000     8.0873     8.1663   139.4389
  244.2000     8.0417     8.1506   138.9329
  244.3000     8.0415     8.1314   138.0665
  244.4000     8.0412     8.0858   137.4550
  244.5000     8.0158     8.0388   136.8641
  244.6000     7.9852     8.0391   136.3714
  244.7000     7.9849     8.0062   135.9517
  244.8000     7.9847     7.9613   135.9517
  244.9000     7.9449     7.9288   135.4977
  245.0000     7.9291     7.9290   135.3474
  245.1000     7.9288     7.9293   135.3474
  245.2000     7.9286     7.9295   135.3474
  245.3000     7.9284     7.9038   135.3474
  245.4000     7.8845     7.8595   135.3474
  245.5000     7.8731     7.8207   135.3474
  245.6000     7.8729     7.8210   135.4860
  245.7000     7.8593     7.8212   135.6496
  245.8000     7.8180     7.8214   135.6496
  245.9000     7.8178     7.8216   135.6496
  246.0000     7.8176     7.8218   135.6496
  246.1000     7.8174     7.8220   135.6496
  246.2000     7.8171     7.8222   135.5436
  246.3000     7.8169     7.8225   135.3474
  246.4000     7.8167     7.8227   135.3474
  246.5000     7.8165     7.8229   135.1067
  246.6000     7.8484     7.8231   134.8604
  246.7000     7.8705     7.8234   134.7432
  246.8000     7.8824     7.8236   134.5966
  246.9000     7.9249     7.8238   134.1214
  247.0000     7.9246     7.8396   133.8369
  247.1000     7.9244     7.8787   133.6288
  247.2000     7.9242     7.8790   133.3825
  247.3000     7.9406     7.9190   133.0397
  247.4000     7.9790     7.9343   132.5470
  247.5000     7.9787     7.9345   132.0242
  247.6000     7.9785     7.9348   131.3305
  247.7000     8.0097     7.9350   130.4161
  247.8000     8.0336     7.9788   129.5504
  247.9000     8.0334     7.9907   128.7476
  248.0000     8.0339     7.9910   127.7543
  248.1000     8.0794     8.0038   126.2840
  248.2000     8.1251     8.0471   125.8868
  248.3000     8.1448     8.0474   125.5369
  248.4000     8.1446     8.0475   125.3776
  248.5000     8.1497     8.0478   125.3464
  248.6000     8.2008     8.0642   125.0755
  248.7000     8.2420     8.1101   125.0755
  248.8000     8.2575     8.1611   125.2415
  248.9000     8.2573     8.1613   125.4878
  249.0000     8.2670     8.1615   125.7885
  249.1000     8.3143     8.1617   126.2840
  249.2000     8.3607     8.1713   126.7738
  249.3000     8.3718     8.2191   127.2665
  249.4000     8.3970     8.2193   127.7591
  249.5000     8.4445     8.2541   128.2518
  249.6000     8.4881     8.2770   128.7444
  249.7000     8.4878     8.2773   129.3051
  249.8000     8.4876     8.2823   129.7297
  249.9000     8.5180     8.3936   130.0659
  250.0000     8.5430     8.3938   130.2371
  250.1000     8.5348     8.3940   130.2999
  250.2000     8.5266     8.4113   130.3626
  250.3000     8.5185     8.4530   130.4253
  250.4000     8.5103     8.4532   130.4881
  250.5000     8.5021     8.4964   130.5196
  250.6000     8.4939     8.5126   130.5901
  250.7000     8.4863     8.5339   130.8379
  250.8000     8.4862     8.5824   131.1277
  250.9000     8.5272     8.6324   131.1287
  251.0000     8.5451     8.6442   131.1299
  251.1000     8.5647     8.6562   131.1311
  251.2000     8.6044     8.6683   131.1323
  251.3000     8.6042     8.6803   131.1336
  251.4000     8.6041     8.6987   130.9059
  251.5000     8.6040     8.7510   130.6606
  251.6000     8.6039     8.7510   130.5329
  251.7000     8.6038     8.7510   130.4721
  251.8000     8.6036     8.7763   130.2268
  251.9000     8.6035     8.8120   129.9326
  252.0000     8.6449     8.8152   129.7362
  252.1000     8.6632     8.8734   129.4908
  252.2000     8.6631     8.8734   129.2455
  252.3000     8.6630     8.8734   129.0002
  252.4000     8.6628     8.8734   128.7300
  252.5000     8.6627     8.8734   128.5096
  252.6000     8.6626     8.8734   128.2643
  252.7000     8.6625     8.8734   128.1293
  252.8000     8.6767     8.8734   128.0757
  252.9000     8.7226     8.8734   127.8296
  253.0000     8.7224     8.8734   127.8308
  253.1000     8.7223     8.8734   127.8320
  253.2000     8.7222     8.8734   127.8332
  253.3000     8.7221     8.8734   127.8344
  253.4000     8.7220     8.8734   127.8356
  253.5000     8.7218     8.8734   127.8370
  253.6000     8.7217     8.8634   127.8381
  253.7000     8.7216     8.8120   127.9980
  253.8000     8.7215     8.8120   128.1426
  253.9000     8.7214     8.8120   128.1913
  254.0000     8.7212     8.8120   128.4472
  254.1000     8.7211     8.7961   128.6868
  254.2000     8.7210     8.7510   128.9346
  254.3000     8.7209     8.7510   129.1823
  254.4000     8.7207     8.7510   129.3583
  254.5000     8.7206     8.7510   129.3757
  254.6000     8.7205     8.7510   129.6630
  254.7000     8.7204     8.7403   129.8711
