~VERSION INFORMATION
 VERS.                2.0:   CWLS LOG ASCII STANDARD - VERSION 2.0
 WRAP.                 NO:   ONE LINE PER DEPTH STEP
~WELL INFORMATION
#MNEM.UNIT      DATA TYPE    INFORMATION
#----------   ------------   ------------------------------
 STRT.F         1050.0000:   START DEPTH
 STOP.F         2592.5000:   STOP DEPTH
 STEP.F            0.5000:   STEP LENGTH
 NULL.          -999.2500:   NO VALUE
 COMP. LAWRENCE/ALLISON INC:   COMPANY
 WELL. NAVAL PETROLEUM RESERVE 3 X15 #34-15:   WELL
 FLD .            WILDCAT:   FIELD
 LOC .      S15 T38N R78W:   LOCATION
 CNTY.            NATRONA:   COUNTY
 STAT.            WYOMING:   STATE
 CTRY. UNITED STATES OF AMERICA:   COUNTRY
 SRVC.            Unknown:   SERVICE COMPANY
 DATE.        07-AUG-1988:   LOGDATE
 API .       490251125500:   API NUMBER
~CURVE INFORMATION
#MNEM.UNIT       API CODE    CURVE DESCRIPTION
#----------   ------------   ------------------------------
 DEPT.F                  :   
 ROP .MIN/FT 91 810 01 00:   RATE OF DRILLING PENETRATION
 TGAS.UNITS  91 830 01 00:   TOTAL GAS FROM HOTWIRE
~PARAMETER INFORMATION
#MNEM.UNIT          VALUE    DESCRIPTION
#----------   ------------   ------------------------------
 EKB .F              5286:   KELLING BUSHING
 EGL .F              5276:   GROUND LEVEL
 DATE.           9-7-1988:   RUN DATE
 RUN .                  1:   RUN NUMBER
 DD  .F              2592:   DEPTH DRILLER
 CBD .F              1044:   CASING BOTTOM DRILLER
 ENGI.               HUSK:   RECORDING ENGINEER
 CLNT.            A2DTECH:   CLIENT CODE
 ORIG.           5" PRINT:   ORIGIN OF DATA
 UWI .       490251125500:   UNIQUE WELL ID
 DICO. A2D Technologies, Inc.:   DIGITIZING COMPANY
~OTHER INFORMATION
~A  DEPT         ROP     TGAS   
# ...
 2022.0000     0.4306     5.7821
 2022.5000     0.4148     5.7821
 2023.0000     0.4025     5.7821
 2023.5000     0.3927     5.7821
 2024.0000     0.3789     5.7821
 2024.5000     0.4022     5.7821
 2025.0000     0.4373     5.7821
 2025.5000     0.4724     5.7821
 2026.0000     0.5043     5.7821
 2026.5000     0.4880     5.7821
 2027.0000     0.4647     5.7821
 2027.5000     0.4414     5.7821
 2028.0000     0.4181     5.7821
 2028.5000     0.3950     5.7821
 2029.0000     0.3783     5.7821
 2029.5000     0.3787     5.7821
 2030.0000     0.3787     5.7821
 2030.5000     0.3786     5.7821
 2031.0000     0.3783     5.7819
 2031.5000     0.3803     5.7822
 2032.0000     0.4183     5.8008
 2032.5000     0.4550     5.9103
 2033.0000     0.4913     6.0193
 2033.5000     0.5172     6.1280
 2034.0000     0.4933     6.2368
 2034.5000     0.4671     6.3456
 2035.0000     0.4408     6.4543
 2035.5000     0.4145     6.5631
 2036.0000     0.3914     6.6727
 2036.5000     0.4035     6.7835
 2037.0000     0.4268     6.8016
 2037.5000     0.4898     6.8987
 2038.0000     0.6234     6.9971
 2038.5000     0.7534     7.0954
 2039.0000     0.8835     7.1937
 2039.5000     1.0149     7.2920
 2040.0000     1.1538     7.3903
 2040.5000     1.1705     7.4886
 2041.0000     1.1556     7.5870
 2041.5000     1.0545     7.6866
 2042.0000     0.9591     7.7885
 2042.5000     0.8644     7.7378
 2043.0000     0.7697     7.6742
 2043.5000     0.6753     7.6111
 2044.0000     0.5808     7.5482
 2044.5000     0.5324     7.4853
 2045.0000     0.6071     7.4225
 2045.5000     0.6816     7.3596
 2046.0000     0.7560     7.2968
 2046.5000     0.7720     7.2339
 2047.0000     0.7293     7.1711
 2047.5000     0.6698     7.1082
 2048.0000     0.6090     7.0454
 2048.5000     0.5483     6.9826
 2049.0000     0.4880     6.9196
 2049.5000     0.4284     6.8560
 2050.0000     0.3928     6.7907
 2050.5000     0.3792     6.8133
 2051.0000     0.3807     6.8431
 2051.5000     0.3821     6.8725
 2052.0000     0.3836     6.9017
 2052.5000     0.3852     6.9310
 2053.0000     0.3867     6.9602
 2053.5000     0.3882     6.9894
 2054.0000     0.3899     7.0186
 2054.5000     0.3988     7.0479
 2055.0000     0.4479     7.0771
 2055.5000     0.4971     7.1063
 2056.0000     0.5292     7.1356
 2056.5000     0.4833     7.1648
 2057.0000     0.4341     7.1941
 2057.5000     0.3906     7.2232
 2058.0000     0.4205     7.2525
 2058.5000     0.4608     7.2836
 2059.0000     0.5011     7.2491
 2059.5000     0.5306     7.1910
 2060.0000     0.5004     7.1322
 2060.5000     0.4599     7.0735
 2061.0000     0.4189     7.0148
 2061.5000     0.3914     6.9561
 2062.0000     0.4727     6.8975
 2062.5000     0.5623     6.8388
 2063.0000     0.6519     6.7772
 2063.5000     0.7415     6.6958
 2064.0000     0.8171     6.6142
 2064.5000     0.7563     6.5327
 2065.0000     0.6896     6.4511
 2065.5000     0.6227     6.3690
 2066.0000     0.5566     6.2876
 2066.5000     0.5539     6.2843
 2067.0000     0.5544     6.2848
 2067.5000     0.5544     6.2849
 2068.0000     0.5444     6.2849
 2068.5000     0.4855     6.2849
 2069.0000     0.4269     6.2849
 2069.5000     0.3806     6.2849
 2070.0000     0.3544     6.2849
 2070.5000     0.3291     6.2849
 2071.0000     0.3283     6.2849
 2071.5000     0.3284     6.2849
 2072.0000     0.3284     6.2849
 2072.5000     0.3285     6.2849
 2073.0000     0.3284     6.2849
 2073.5000     0.3277     6.2849
 2074.0000     0.3501     6.2849
 2074.5000     0.3758     6.2849
 2075.0000     0.4018     6.2849
 2075.5000     0.4272     6.2849
 2076.0000     0.4556     6.2849
 2076.5000     0.4281     6.2849
 2077.0000     0.3893     6.2849
 2077.5000     0.3535     6.2849
 2078.0000     0.3819     6.2849
 2078.5000     0.4240     6.2849
 2079.0000     0.4678     6.2849
 2079.5000     0.4773     6.2849
 2080.0000     0.4391     6.2849
 2080.5000     0.4292     6.2849
 2081.0000     0.4288     6.2849
 2081.5000     0.4287     6.2849
 2082.0000     0.4175     6.2849
 2082.5000     0.4044     6.2849
 2083.0000     0.4050     6.2849
 2083.5000     0.4065     6.2849
 2084.0000     0.4080     6.2849
 2084.5000     0.4095     6.2849
 2085.0000     0.4109     6.2849
 2085.5000     0.4124     6.2849
 2086.0000     0.4138     6.2842
 2086.5000     0.4153     6.3130
 2087.0000     0.4179     6.3527
 2087.5000     0.4247     6.3926
 2088.0000     0.4386     6.4326
 2088.5000     0.4755     6.4725
 2089.0000     0.5115     6.5124
 2089.5000     0.5475     6.5523
 2090.0000     0.5791     6.5922
 2090.5000     0.5515     6.6321
 2091.0000     0.5200     6.6720
 2091.5000     0.4875     6.7119
 2092.0000     0.4793     6.7518
 2092.5000     0.4790     6.7917
 2093.0000     0.4790     6.8316
 2093.5000     0.4789     6.8715
 2094.0000     0.4794     6.9114
 2094.5000     0.4949     6.9513
 2095.0000     0.5549     6.9912
 2095.5000     0.6127     7.0311
 2096.0000     0.6294     7.0710
 2096.5000     0.5809     7.1109
 2097.0000     0.5339     7.1508
 2097.5000     0.4871     7.1913
 2098.0000     0.4532     7.2320
 2098.5000     0.4541     7.2679
 2099.0000     0.4703     7.1714
 2099.5000     0.5026     6.7150
 2100.0000     0.5349     6.2714
 2100.5000     0.5673     5.8336
 2101.0000     0.5998     5.7829
 2101.5000     0.6305     5.7794
 2102.0000     0.5976     5.2966
 2102.5000     0.5553     4.7992
 2103.0000     0.5127     5.1452
 2103.5000     0.4701     5.5034
 2104.0000     0.4298     5.7909
 2104.5000     0.4286     5.7824
 2105.0000     0.4288     5.7819
 2105.5000     0.4288     5.7822
 2106.0000     0.4290     5.7821
 2106.5000     0.4360     5.7823
 2107.0000     0.4559     5.7996
 2107.5000     0.4755     5.8493
 2108.0000     0.4949     5.8986
 2108.5000     0.4986     5.9479
 2109.0000     0.4793     5.9972
 2109.5000     0.4662     6.0465
 2110.0000     0.4669     6.0957
 2110.5000     0.4701     6.1450
 2111.0000     0.4734     6.1943
 2111.5000     0.4766     6.2436
 2112.0000     0.4774     6.2929
 2112.5000     0.4697     6.3422
 2113.0000     0.4622     6.3914
 2113.5000     0.4547     6.4407
 2114.0000     0.4473     6.4900
 2114.5000     0.4412     6.5393
 2115.0000     0.4414     6.5886
 2115.5000     0.4414     6.6379
 2116.0000     0.4377     6.6872
 2116.5000     0.4278     6.7369
 2117.0000     0.4180     6.7861
 2117.5000     0.4082  -999.2500
 2118.0000     0.3984  -999.2500
 2118.5000     0.3886  -999.2500
 2119.0000     0.3788  -999.2500
 2119.5000     0.3686  -999.2500
 2120.0000     0.3659  -999.2500
 2120.5000     0.3666  -999.2500
 2121.0000     0.4200  -999.2500
 2121.5000     0.4796  -999.2500
 2122.0000     0.5413  -999.2500
 2122.5000     0.5246  -999.2500
 2123.0000     0.4857  -999.2500
 2123.5000     0.4457  -999.2500
 2124.0000     0.4290  -999.2500
 2124.5000     0.4289  -999.2500
 2125.0000     0.4288  -999.2500
 2125.5000     0.4282  -999.2500
 2126.0000     0.4469  -999.2500
 2126.5000     0.4688  -999.2500
 2127.0000     0.4909  -999.2500
 2127.5000     0.5128  -999.2500
 2128.0000     0.5302  -999.2500
 2128.5000     0.5060  -999.2500
 2129.0000     0.4714  -999.2500
 2129.5000     0.4364  -999.2500
 2130.0000     0.4004  -999.2500
 2130.5000     0.3948  -999.2500
 2131.0000     0.4238  -999.2500
 2131.5000     0.4536  -999.2500
 2132.0000     0.4797  -999.2500
 2132.5000     0.4585  -999.2500
 2133.0000     0.4309  -999.2500
 2133.5000     0.4029  -999.2500
 2134.0000     0.3913  -999.2500
 2134.5000     0.3913  -999.2500
 2135.0000     0.3936  -999.2500
 2135.5000     0.3960  -999.2500
 2136.0000     0.3986  -999.2500
 2136.5000     0.4009  -999.2500
 2137.0000     0.4019  -999.2500
 2137.5000     0.4426  -999.2500
 2138.0000     0.4903  -999.2500
 2138.5000     0.5038  -999.2500
 2139.0000     0.4836  -999.2500
 2139.5000     0.4596  -999.2500
 2140.0000     0.4357  -999.2500
 2140.5000     0.4117  -999.2500
 2141.0000     0.3875  -999.2500
 2141.5000     0.3687  -999.2500
 2142.0000     0.3778  -999.2500
 2142.5000     0.3894  -999.2500
 2143.0000     0.4049  -999.2500
