~VERSION INFORMATION
 VERS.                2.0:   CWLS LOG ASCII STANDARD - VERSION 2.0
 WRAP.                 NO:   ONE LINE PER DEPTH STEP
~WELL INFORMATION
#MNEM.UNIT      DATA TYPE    INFORMATION
#----------   ------------   ------------------------------
 STRT.F          436.0000:   START DEPTH
 STOP.F         2160.0000:   STOP DEPTH
 STEP.F            0.5000:   STEP LENGTH
 NULL.          -999.2500:   NO VALUE
 COMP.   FLUOR DANIEL INC:   COMPANY
 WELL. NAVAL PETROLEUM RESERVE 3 X-29 #31-29:   WELL
 FLD .            WILDCAT:   FIELD
 LOC .      S29 T39N R78W:   LOCATION
 CNTY.            NATRONA:   COUNTY
 STAT.            WYOMING:   STATE
 CTRY. UNITED STATES OF AMERICA:   COUNTRY
 SRVC.            Unknown:   SERVICE COMPANY
 DATE.        25-JUN-1995:   LOGDATE
 API .       490252272300:   API NUMBER
~CURVE INFORMATION
#MNEM.UNIT       API CODE    CURVE DESCRIPTION
#----------   ------------   ------------------------------
 DEPT.F                  :   
 ROP .FT/HR  91 810 01 00:   RAT OF DRILLING PENETRATION
 TGAS.TC/CC  91 830 01 00:   TOTAL GAS UNIT
~PARAMETER INFORMATION
#MNEM.UNIT          VALUE    DESCRIPTION
#----------   ------------   ------------------------------
 EPD .F              5058:   ELEVATION PERMANENT DATUM
 EKB .F              5068:   KELLING BUSHING
 EGL .F              5058:   GROUND LEVEL
 DATE.        25-JUN-1995:   RUN DATE
 RUN .                  1:   RUN NUMBER
 ENGI.     C.TOWER/R.HUSK:   RECORDING ENGINEER
 CLNT.            A2DTECH:   CLIENT CODE
 ORIG.           5" PRINT:   ORIGIN OF DATA
 UWI .       490252272300:   UNIQUE WELL ID
 DICO. A2D Technologies, Inc.:   DIGITIZING COMPANY
~OTHER INFORMATION
~A   DEPT        ROP     TGAS   
# ...
 1529.5000     0.8049     2.4528
 1530.0000     0.8139     2.4528
 1530.5000     0.8041     2.4528
 1531.0000     0.8038     2.4528
 1531.5000     0.7845     2.4528
 1532.0000     0.7841     2.4528
 1532.5000     0.7838     2.4528
 1533.0000     0.7834     2.4528
 1533.5000     0.8018     2.4528
 1534.0000     0.8015     2.4528
 1534.5000     0.8106     2.4528
 1535.0000     0.8101     2.4528
 1535.5000     0.8098     2.4528
 1536.0000     0.8000     2.4528
 1536.5000     0.8090     2.2642
 1537.0000     0.7992     2.0755
 1537.5000     0.8083     2.0755
 1538.0000     0.7984     2.0755
 1538.5000     0.6289     2.0755
 1539.0000     0.6380     2.2642
 1539.5000     0.6470     2.2642
 1540.0000     0.6466     2.2642
 1540.5000     0.6462     2.2642
 1541.0000     0.6365     2.2642
 1541.5000     0.6455     2.2642
 1542.0000     0.6451     2.2642
 1542.5000     1.0027     2.2642
 1543.0000     1.0125     2.2874
 1543.5000     1.0199     2.4528
 1544.0000     0.6811     2.4528
 1544.5000     0.6808     2.4528
 1545.0000     0.6710     2.4528
 1545.5000     0.6706     2.4528
 1546.0000     0.6703     2.4528
 1546.5000     0.6699     2.4528
 1547.0000     0.6789     2.2642
 1547.5000     0.6786     2.0755
 1548.0000     0.6782     2.0755
 1548.5000     0.6778     2.0755
 1549.0000     0.6774     2.0755
 1549.5000     0.6865     2.0755
 1550.0000     0.6861     2.0755
 1550.5000     0.6879     2.0755
 1551.0000     0.6896     2.0755
 1551.5000     0.6912     2.0755
 1552.0000     0.6928     2.2642
 1552.5000     0.6945     2.2642
 1553.0000     0.6944     2.2642
 1553.5000     0.6942     2.2642
 1554.0000     0.6939     2.2642
 1554.5000     0.6938     2.4528
 1555.0000     0.6936     2.4528
 1555.5000     0.6934     2.6415
 1556.0000     0.6932     2.4528
 1556.5000     0.6930     2.4528
 1557.0000     0.6929     2.2642
 1557.5000     0.6927     2.4528
 1558.0000     0.6241     3.0327
 1558.5000     0.5607     3.4285
 1559.0000     0.5699     3.9623
 1559.5000     0.5697     4.3396
 1560.0000     0.5695     4.3396
 1560.5000     0.5599     4.1509
 1561.0000     0.5598     3.9623
 1561.5000     0.5596     3.9623
 1562.0000     0.5594     3.9623
 1562.5000     0.5592     3.9623
 1563.0000     0.5590     3.9623
 1563.5000     0.5682     3.9623
 1564.0000     0.6902     3.9623
 1564.5000     0.6806     3.9623
 1565.0000     0.6710     4.1509
 1565.5000     0.6709     4.3396
 1566.0000     0.6707     4.3396
 1566.5000     0.6799     4.3396
 1567.0000     0.6797     4.3396
 1567.5000     0.6889     4.3396
 1568.0000     0.6887     4.3396
 1568.5000     0.6885     4.5283
 1569.0000     0.6883     4.7170
 1569.5000     0.6881     4.7170
 1570.0000     0.6786     4.7170
 1570.5000     0.6784     4.7170
 1571.0000     0.6782     4.7170
 1571.5000     0.6780     4.7170
 1572.0000     0.6778     4.7170
 1572.5000     0.6776     4.7170
 1573.0000     0.6774     4.7170
 1573.5000     0.6772     4.7170
 1574.0000     0.6770     4.7170
 1574.5000     0.7991     4.5283
 1575.0000     0.7989     4.5283
 1575.5000     0.7987     4.5283
 1576.0000     0.7985     4.7170
 1576.5000     0.8077     4.7170
 1577.0000     0.8169     4.7170
 1577.5000     0.8167     4.7170
 1578.0000     0.6755     4.7170
 1578.5000     0.6566     4.7170
 1579.0000     0.6564     4.7170
 1579.5000     0.6562     4.7170
 1580.0000     0.6560     4.9057
 1580.5000     0.6558     4.9057
 1581.0000     0.6556     5.0943
 1581.5000     0.6554     5.0943
 1582.0000     0.6552     5.0943
 1582.5000     0.6551     5.0943
 1583.0000     0.6549     5.0943
 1583.5000     0.6641     5.0943
 1584.0000     0.6639     5.0943
 1584.5000     0.6637     5.0943
 1585.0000     0.6635     5.0943
 1585.5000     0.6633     5.0943
 1586.0000     0.6726     5.0943
 1586.5000     0.7946     5.0943
 1587.0000     0.7943     5.0943
 1587.5000     0.7942     5.2830
 1588.0000     0.8128     5.4717
 1588.5000     0.8032     5.4717
 1589.0000     0.8124     5.4717
 1589.5000     0.7926     5.2830
 1590.0000     0.6053     5.2830
 1590.5000     0.6239     5.2830
 1591.0000     0.6237     5.4717
 1591.5000     0.6235     5.4717
 1592.0000     0.6233     5.2830
 1592.5000     0.6231     5.2830
 1593.0000     0.6323     5.0943
 1593.5000     0.6321     4.7170
 1594.0000     0.6320     4.7170
 1594.5000     0.6224     4.7170
 1595.0000     0.6033     4.9057
 1595.5000     0.5750     5.0943
 1596.0000     0.5654     5.0943
 1596.5000     0.5652     5.2830
 1597.0000     0.5744     5.2830
 1597.5000     0.5836     5.4717
 1598.0000     0.6023     5.2830
 1598.5000     0.6115     5.0943
 1599.0000     0.6207     4.8800
 1599.5000     0.6205     4.7170
 1600.0000     0.6200     4.7170
 1600.5000     0.6161     4.7170
 1601.0000     0.6123     4.7170
 1601.5000     0.6084     4.8304
 1602.0000     0.6045     4.9057
 1602.5000     0.6007     4.9057
 1603.0000     0.5992     4.9057
 1603.5000     0.5989     4.9057
 1604.0000     0.5985     4.9057
 1604.5000     0.5981     4.9057
 1605.0000     0.5977     4.9057
 1605.5000     0.6068     4.9057
 1606.0000     0.5969     4.9057
 1606.5000     0.6060     4.9057
 1607.0000     0.6150     4.9057
 1607.5000     0.6146     4.9057
 1608.0000     0.6331     5.0943
 1608.5000     0.6422     5.2830
 1609.0000     0.6417     5.4717
 1609.5000     0.6414     5.6604
 1610.0000     0.6410     5.6604
 1610.5000     0.6312     5.6604
 1611.0000     0.6402     5.6604
 1611.5000     0.6398     5.4717
 1612.0000     0.6394     5.4717
 1612.5000     0.6391     5.4717
 1613.0000     0.6293     5.4717
 1613.5000     0.6289     5.4717
 1614.0000     0.6380     5.2830
 1614.5000     0.6376     5.2830
 1615.0000     0.6372     5.2830
 1615.5000     0.6368     5.2830
 1616.0000     0.6459     5.2830
 1616.5000     0.6549     5.2830
 1617.0000     0.6639     5.2830
 1617.5000     0.6635     5.2830
 1618.0000     0.6631     5.2830
 1618.5000     0.6627     5.0943
 1619.0000     0.6624     5.0943
 1619.5000     0.6620     5.0943
 1620.0000     0.6616     5.0943
 1620.5000     0.6613     5.2830
 1621.0000     0.6609     4.9057
 1621.5000     0.6605     4.9057
 1622.0000     0.6602     4.9057
 1622.5000     0.6597     4.9057
 1623.0000     0.6593     4.9057
 1623.5000     0.6496     4.9057
 1624.0000     0.6492     4.9057
 1624.5000     0.6394     5.0943
 1625.0000     0.6486     5.2830
 1625.5000     0.6481     5.2830
 1626.0000     0.6571     5.4717
 1626.5000     0.6568     5.4717
 1627.0000     0.6564     5.6604
 1627.5000     0.6560     5.6604
 1628.0000     0.6651     5.6604
 1628.5000     0.6646     5.6604
 1629.0000     0.6548     5.8491
 1629.5000     0.6545     6.0377
 1630.0000     0.6541     6.0377
 1630.5000     0.6537     6.4151
 1631.0000     0.6534     6.6038
 1631.5000     0.6530     6.6038
 1632.0000     0.7748     6.4151
 1632.5000     0.7932     6.2264
 1633.0000     0.7929     6.0377
 1633.5000     0.7925     6.0377
 1634.0000     0.7920     6.0377
 1634.5000     0.7917     6.2264
 1635.0000     0.7913     6.2264
 1635.5000     0.7909     6.4151
 1636.0000     0.7812     6.4151
 1636.5000     0.7903     6.2264
 1637.0000     0.7898     6.2264
 1637.5000     0.7895     6.2264
 1638.0000     0.7985     6.2264
 1638.5000     1.0049     6.2264
 1639.0000     0.9951     6.2264
 1639.5000     0.9947     6.2264
 1640.0000     0.9849     6.2264
 1640.5000     0.7966     6.4151
 1641.0000     0.7587     6.4151
 1641.5000     0.7771     6.4151
 1642.0000     0.7767     6.4151
 1642.5000     0.6635     6.4151
 1643.0000     0.6631     6.4151
 1643.5000     0.6722     6.2264
 1644.0000     0.6624     6.2264
 1644.5000     0.6620     6.2264
 1645.0000     0.6617     6.2264
 1645.5000     0.6707     6.2264
 1646.0000     0.6608     6.2264
 1646.5000     0.6605     6.2264
 1647.0000     0.6601     6.2264
 1647.5000     0.6597     6.4151
 1648.0000     0.6782     6.4151
 1648.5000     0.7907     6.4151
 1649.0000     0.7902     6.4151
 1649.5000     0.7898     6.6192
 1650.0000     0.7895     6.7925
 1650.5000     0.7891     6.7925
