~VERSION INFORMATION
 VERS.                2.0:   CWLS LOG ASCII STANDARD - VERSION 2.0
 WRAP.                 NO:   ONE LINE PER DEPTH STEP
~WELL INFORMATION
#MNEM.UNIT      DATA TYPE    INFORMATION
#----------   ------------   ------------------------------
 STRT.F           19.0000:   START DEPTH
 STOP.F         1200.0000:   STOP DEPTH
 STEP.F            0.5000:   STEP LENGTH
 NULL.          -999.2500:   NO VALUE
 COMP.       INTEX OIL CO:   COMPANY
 WELL.     NPR 3 #73 S-14:   WELL
 FLD .             TEAPOT:   FIELD
 LOC .      S14 T38N R78W:   LOCATION
 CNTY.            NATRONA:   COUNTY
 STAT.            WYOMING:   STATE
 CTRY. UNITED STATES OF AMERICA:   COUNTRY
 SRVC.       Schlumberger:   SERVICE COMPANY
 DATE.        24-AUG-1966:   LOGDATE
 API .       490250970900:   API NUMBER
~CURVE INFORMATION
#MNEM.UNIT       API CODE    CURVE DESCRIPTION
#----------   ------------   ------------------------------
 DEPT.F                  :   
 SPR .MV     05 010 01 00:   SPONTANEOUS POTENTIAL FROM RES.
 ILD .OHMM   05 120 46 00:   INDUCTION LOG DEEP
 ASN .OHMM   05 041 16 00:   AMPLIFIED SHORT NORMAL 16"
 CILD.MMHO   05 110 46 00:   CONDUCTIVITY INDUCTION LOG DEEP
 CALD.IN     45 280 60 00:   CALIPER
 GRD .GAPI   45 310 01 00:   GAMMA RAY FROM DENSITY LOG
 CORR.G/C3   45 356 01 00:   DENSITY CORRECTION
 RHOB.G/C3   45 350 01 00:   BULK DENSITY
 DPHI.DEC    45 890 12 00:   DENSITY POROSITY SANDSTONE
~PARAMETER INFORMATION
#MNEM.UNIT          VALUE    DESCRIPTION
#----------   ------------   ------------------------------
 PD  .                 GL:   PERMANENT DATUM
 EPD .F              5274:   ELEVATION PERMANENT DATUM
 LMF .                 KB:   LOG MEASURED FROM
 DAPD.F                 5:   FEET ABOVE PERMANENT DATUM
 DMF .                 KB:   DRILLING MEASURED FROM
 EKB .F              5279:   KELLING BUSHING
 EGL .F              5274:   GROUND LEVEL
 DATE.            8-24-66:   RUN DATE
 RUN .                  1:   RUN NUMBER
 DD  .F              1200:   DEPTH DRILLER
 DL  .F              1200:   DEPTH LOGGER
 BLI .F              1199:   BOTTOM LOG INTERVAL
 TLI .F                86:   TOP LOG INTERVAL
 CS  .IN            8.625:   CASING SIZE
 CBD .F                10:   CASING BOTTOM DRILLER
 BS  .IN             6.75:   BIT SIZE
 BSD .F              1200:   BIT SIZE AT DEPTH
 DFT .                GEL:   DRILLING FLUID TYPE
 DFD .               10.1:   DRILLING FLUID DENSITY
 DFV .                 60:   DRILLING FLUID VISCOSITY
 MSS .          FLOW LINE:   MUD SAMPLE SOURCE
 RMS .OHMM            1.8:   RESISTIVITY MUD SAMPLE
 MST .F                67:   MUD SAMPLE TEMPERATURE
 RMF .OHMM            1.4:   RESISTIVITY MUD FILTRATE SAMPLE
 MFST.F                77:   MUD FILTRATE SAMPLE TEMPERATURE
 MFSS.                  M:   MUD FILTRATE SAMPLE SOURCE
 RMB .OHMM            1.1:   RESISTIVITY MUD AT BHT
 BHT .F               112:   BOTTOM HOLE TEMPERATURE
 TCS .HRS               1:   TIME CURCULATED STOPPED
 MRT .F               112:   MAXIMUM RECORDED TEMPERATURE
 LUN .               4507:   LOGGING UNIT NUMBER
 LUL .               CSPR:   LOGGING UNIT LOCATION
 ENGI.            MANGOLD:   RECORDING ENGINEER
 WITN.                MAY:   WITNESSED BY
 CLNT.            A2DTECH:   CLIENT CODE
 ORIG.           5" PRINT:   ORIGIN OF DATA
 UWI .       490250970900:   UNIQUE WELL ID
 DICO. A2D Technologies, Inc.:   DIGITIZING COMPANY
~OTHER INFORMATION
~A   DEPT      SPR        ILD        ASN       CILD       CALD         GRD        CORR     RHOB       DPHI   
# ...
  931.5000   -40.1250     6.9260     7.5830   140.0900     7.2150   105.3460     0.0130     2.5210     0.0750
  932.0000   -39.9400     6.6200     7.3980   146.3540     7.2130   104.8330     0.0150     2.4990     0.0940
  932.5000   -39.5470     6.1060     7.1170   153.2630     7.2110   104.5050     0.0180     2.4980     0.0900
  933.0000   -39.1880     5.5780     6.7800   161.3390     7.2090   108.0320     0.0230     2.4970     0.0960
  933.5000   -38.8370     5.1640     6.4490   182.5850     7.2070   109.3690     0.0310     2.4950     0.0920
  934.0000   -38.4780     4.6750     6.0070   203.2970     7.2050   105.6570     0.0450     2.4900     0.1000
  934.5000   -38.1070     4.1510     5.5500   239.3250     7.2040   101.5240     0.0500     2.4660     0.1140
  935.0000   -37.7820     3.6010     5.1410   276.9410     7.2020    99.8870     0.0420     2.4450     0.1280
  935.5000   -37.8640     3.0680     4.7220   314.5580     7.2000   104.1000     0.0480     2.4200     0.1430
  936.0000   -37.9760     2.7930     4.2900   362.1380     7.1980   107.7250     0.0530     2.3930     0.1580
  936.5000   -37.7510     2.6430     3.8740   381.7470     7.1940   105.4350     0.0400     2.3640     0.1710
  937.0000   -37.5210     2.4590     3.5120   403.0970     7.1910   100.6880     0.0440     2.3370     0.1920
  937.5000   -37.2640     2.2520     3.2980   424.0760     7.1870    94.3940     0.0390     2.3140     0.2050
  938.0000   -36.9910     2.1630     3.2450   437.0630     7.1840    89.3950     0.0270     2.3240     0.2020
  938.5000   -36.9410     2.2850     2.9890   438.0620     7.1800    83.2240     0.0340     2.3420     0.1890
  939.0000   -37.0010     2.4170     2.7260   405.5420     7.1800    84.1560     0.0400     2.3650     0.1690
  939.5000   -37.2210     2.5670     2.6400   372.3350     7.1960    89.9910     0.0530     2.3990     0.1520
  940.0000   -37.5780     2.7380     3.0390   335.6280     7.2090    97.9160     0.0430     2.4320     0.1360
  940.5000   -37.8030     2.9880     3.5280   298.9200     7.2240   101.7920     0.0270     2.4200     0.1230
  941.0000   -38.2070     3.4360     3.8520   260.2400     7.2370   104.3740     0.0530     2.4590     0.1070
  941.5000   -38.9480     3.9010     4.0730   237.2560     7.2530   105.7100     0.0490     2.5020     0.0930
  942.0000   -39.4650     4.4960     4.6520   212.9670     7.2560   107.2770     0.0370     2.4970     0.0910
  942.5000   -39.5880     5.0280     5.3280   195.9290     7.2470   108.6470     0.0290     2.4990     0.0920
  943.0000   -39.6450     5.0950     5.5470   182.9170     7.2400   110.2200     0.0330     2.5100     0.0910
  943.5000   -39.6840     5.0690     5.6020   174.3260     7.2320   110.3550     0.0400     2.5220     0.0800
  944.0000   -39.6920     5.1260     5.6950   174.3260     7.2240   109.5590     0.0460     2.5330     0.0710
  944.5000   -39.7760     5.1330     5.7720   181.4550     7.2170   110.0290     0.0520     2.5350     0.0690
  945.0000   -39.7530     5.1380     5.8650   188.6110     7.2110   111.0850     0.0580     2.5150     0.0820
  945.5000   -39.5110     5.0350     5.9000   196.3040     7.2050   112.2530     0.0620     2.4890     0.0980
  946.0000   -39.2160     4.8670     5.7020   201.1190     7.2000   113.9440     0.0530     2.4640     0.1100
  946.5000   -38.9370     4.7530     5.3180   206.3240     7.1940   115.7090     0.0330     2.4400     0.1180
  947.0000   -38.7100     4.5930     5.1080   211.5280     7.1890   122.2610     0.0370     2.4360     0.1290
  947.5000   -38.3730     4.4470     5.1020   216.7330     7.1820   121.5840     0.0430     2.4480     0.1290
  948.0000   -38.2090     4.4130     4.9900   222.2780     7.1800   115.2860     0.0500     2.4610     0.1190
  948.5000   -38.7950     4.3590     4.8450   223.2770     7.1860   109.3190     0.0570     2.4680     0.1130
  949.0000   -39.3850     4.3560     5.0420   217.2030     7.1960   105.7880     0.0580     2.4590     0.1160
  949.5000   -39.3850     4.5030     5.4280   212.2880     7.1890   103.3470     0.0460     2.4620     0.1170
  950.0000   -39.3640     4.6540     5.4980   199.9060     7.1210   105.0940     0.0390     2.4860     0.1000
  950.5000   -39.3900     4.8950     5.5960   188.1780     7.0520   108.8620     0.0430     2.5070     0.0820
  951.0000   -39.3710     5.3140     5.9780   176.4500     7.0770   113.1270     0.0490     2.5150     0.0820
  951.5000   -39.5210     5.7860     6.3030   164.7210     7.1670   112.0500     0.0570     2.5190     0.0780
  952.0000   -39.7650     6.2230     6.5750   156.3440     7.2480   105.5350     0.0400     2.5150     0.0850
  952.5000   -39.9900     6.5090     6.8910   150.5640     7.2510   108.5020     0.0300     2.5110     0.0840
  953.0000   -40.2330     6.6740     7.1800   146.0680     7.2360   106.5120     0.0370     2.5080     0.0800
  953.5000   -40.4780     6.8990     7.3960   142.6070     7.2260   104.4170     0.0420     2.5070     0.0870
  954.0000   -40.6920     7.1440     7.6100   139.7830     7.2120   106.4180     0.0360     2.5180     0.0800
  954.5000   -40.9650     7.2010     7.7860   137.3630     7.2050   108.0960     0.0440     2.5330     0.0720
  955.0000   -41.1610     7.0680     7.8120   137.3630     7.2200   107.4440     0.0630     2.5520     0.0670
  955.5000   -40.9770     6.9240     7.7870   137.3630     7.2170   105.7360     0.0700     2.5490     0.0600
  956.0000   -40.6740     6.7940     7.7110   140.5530     7.2180   106.6800     0.0680     2.5210     0.0730
  956.5000   -40.4940     6.6440     7.5990   143.5980     7.2160   108.6690     0.0470     2.4920     0.0980
  957.0000   -40.1870     6.4830     7.5020   146.6440     7.2160   110.3740     0.0260     2.4900     0.1090
  957.5000   -40.0080     6.3010     7.3950   149.6890     7.2150   112.2040     0.0250     2.4880     0.0960
  958.0000   -40.2870     6.1330     7.2850   152.7340     7.2140   112.4840     0.0360     2.4950     0.0990
  958.5000   -40.6370     5.9410     7.1190   155.3450     7.2130   115.2090     0.0480     2.5110     0.0790
  959.0000   -40.9460     5.6650     6.9600   164.0030     7.2120   117.3960     0.0610     2.5180     0.0840
  959.5000   -41.2610     5.3500     6.8030   173.8110     7.2110   110.4510     0.0710     2.5040     0.0870
  960.0000   -41.2300     5.0270     6.5620   186.5950     7.2100   101.7680     0.0550     2.4860     0.1030
  960.5000   -40.9460     4.7240     6.3410   199.3790     7.2090   102.6540     0.0340     2.4790     0.1010
  961.0000   -40.6960     4.3950     6.0570   211.2890     7.2090   109.9030     0.0300     2.4890     0.0950
  961.5000   -40.3980     4.0430     5.7550   221.7780     7.2080   113.4970     0.0400     2.4990     0.0890
  962.0000   -40.1190     3.9460     5.3720   231.2690     7.2070   112.0390     0.0460     2.4930     0.0950
  962.5000   -39.8440     4.1530     4.9810   228.4720     7.2060   113.9810     0.0400     2.4630     0.1050
  963.0000   -39.5350     4.3630     4.9300   220.0800     7.2050   115.7380     0.0300     2.4470     0.1160
  963.5000   -39.6010     4.4890     4.9820   211.6880     7.2040   114.2400     0.0210     2.4600     0.1210
  964.0000   -39.9420     4.6730     5.1000   201.8630     7.2030   111.3020     0.0210     2.4780     0.1150
  964.5000   -39.9280     4.9160     5.4400   190.4620     7.2030   109.9300     0.0240     2.4850     0.1080
  965.0000   -39.7680     5.1750     5.8760   179.0600     7.2020   110.6140     0.0220     2.4740     0.1090
  965.5000   -39.9490     5.5690     6.3560   167.6580     7.2010   113.1970     0.0150     2.4760     0.1080
  966.0000   -40.1510     6.0780     6.7580   157.3430     7.2000   115.1540     0.0110     2.5040     0.0870
  966.5000   -40.0620     6.4250     6.9700   151.5980     7.1990   114.8840     0.0300     2.5020     0.0890
  967.0000   -39.8900     6.5280     7.1050   148.0520     7.2000   116.3050     0.0270     2.4940     0.0930
  967.5000   -39.7150     6.5840     7.2290   145.7790     7.2040   119.7900     0.0240     2.4980     0.0960
