~VERSION INFORMATION
 VERS.                2.0:   CWLS LOG ASCII STANDARD - VERSION 2.0
 WRAP.                 NO:   ONE LINE PER DEPTH STEP
~WELL INFORMATION
#MNEM.UNIT      DATA TYPE    INFORMATION
#----------   ------------   ------------------------------
 STRT.F           20.0000:   START DEPTH
 STOP.F          508.0000:   STOP DEPTH
 STEP.F            0.5000:   STEP LENGTH
 NULL.          -999.2500:   NO VALUE
 COMP. FENIX & SCISSON INC:   COMPANY
 WELL.      NPR #3 #45-10:   WELL
 FLD .             TEAPOT:   FIELD
 LOC .      S10 T38N R78W:   LOCATION
 CNTY.            NATRONA:   COUNTY
 STAT.            WYOMING:   STATE
 CTRY. UNITED STATES OF AMERICA:   COUNTRY
 SRVC.              Welex:   SERVICE COMPANY
 DATE.        09-MAY-1980:   LOGDATE
 API .       490251081000:   API NUMBER
~CURVE INFORMATION
#MNEM.UNIT       API CODE    CURVE DESCRIPTION
#----------   ------------   ------------------------------
 DEPT.F                  :   
 SPR .MV     07 010 01 00:   SPONTANEOUS POTENTIAL
 SGRD.OHMM   07 220 05 00:   SHALLOW GUARD RESISTIVITY
 ILD .OHMM   07 120 46 00:   INDUCTION LOG DEEP RESISTIVITY
 ILM .OHMM   07 120 44 00:   INDUCTION LOG MEDIUM
 GRD .GAPI   45 310 01 00:   GAMMA RAY FROM DENSITY LOG
 CALD.IN     45 280 60 00:   CALIPER
 CORR.G/C3   45 356 01 00:   DENSITY CORRECTION
 RHOB.G/C3   45 350 01 00:   BULK DENSITY
 DPHI.DEC    45 890 12 00:   DENSITY POROSITY SANDSTONE
~PARAMETER INFORMATION
#MNEM.UNIT          VALUE    DESCRIPTION
#----------   ------------   ------------------------------
 PD  .                 GL:   PERMANENT DATUM
 EPD .F              5228:   ELEVATION PERMANENT DATUM
 LMF .                 KB:   LOG MEASURED FROM
 DAPD.F                 5:   FEET ABOVE PERMANENT DATUM
 DMF .                 KB:   DRILLING MEASURED FROM
 EKB .F              5233:   KELLING BUSHING
 EGL .F              5228:   GROUND LEVEL
 DATE.             5-9-80:   RUN DATE
 RUN .                  1:   RUN NUMBER
 DD  .F               507:   DEPTH DRILLER
 DL  .F               510:   DEPTH LOGGER
 BLI .F               508:   BOTTOM LOG INTERVAL
 TLI .F                20:   TOP LOG INTERVAL
 BS  .IN            7.875:   BIT SIZE
 BSD .F               507:   BIT SIZE AT DEPTH
 DFT .                KCL:   DRILLING FLUID TYPE
 DFD .                8.9:   DRILLING FLUID DENSITY
 DFV .                 42:   DRILLING FLUID VISCOSITY
 MSS .                PIT:   MUD SAMPLE SOURCE
 RMS .OHMM            .36:   RESISTIVITY MUD SAMPLE
 MST .F                75:   MUD SAMPLE TEMPERATURE
 RMF .OHMM            .29:   RESISTIVITY MUD FILTRATE SAMPLE
 MFST.F                75:   MUD FILTRATE SAMPLE TEMPERATURE
 RMC .OHMM            .43:   RESISTIVITY MUD CAKE
 MCST.F                75:   MUD CAKE SAMPLE TEMPERATURE
 MFSS.           MEASURED:   MUD FILTRATE SAMPLE SOURCE
 MCSS.           MEASURED:   MUD CAKE SAMPLE SOURCE
 TCS .HRS               2:   TIME CURCULATED STOPPED
 MRT .F               100:   MAXIMUM RECORDED TEMPERATURE
 LUN .               9685:   LOGGING UNIT NUMBER
 LUL .             CASPER:   LOGGING UNIT LOCATION
 ENGI.            TOTHILL:   RECORDING ENGINEER
 WITN.           DINSMORE:   WITNESSED BY
 CLNT.            A2DTECH:   CLIENT CODE
 ORIG.         2.5" PRINT:   ORIGIN OF DATA
 UWI .       490251081000:   UNIQUE WELL ID
 DICO. A2D Technologies, Inc.:   DIGITIZING COMPANY
~OTHER INFORMATION
~A   DEPT      SPR       SGRD        ILD        ILM         GRD        CALD       CORR       RHOB       DPHI 
# ...
  348.5000   -39.0758    17.5400    13.5445    12.7399    82.2705     7.9394     0.0089     2.3527     0.1935
  349.0000   -39.1841    17.5916    13.5885    12.7015    82.8646     7.9378     0.0157     2.3523     0.1974
  349.5000   -39.1739    17.6433    13.6328    12.6896    83.0968     7.9361     0.0181     2.3500     0.1934
  350.0000   -38.9485    17.7260    13.6694    12.8875    82.7623     7.9345     0.0145     2.3480     0.2006
  350.5000   -38.6622    17.6067    13.6712    13.0909    82.4768     7.9328     0.0117     2.3474     0.1989
  351.0000   -38.0334    17.3172    13.6251    13.2976    82.1916     7.9311     0.0220     2.3564     0.1933
  351.5000   -38.4476    17.0324    13.5484    13.4166    81.8903     7.9295     0.0321     2.3715     0.1838
  352.0000   -39.0018    16.7523    13.4719    13.0148    81.6027     7.9278     0.0328     2.3769     0.1773
  352.5000   -39.5476    16.4769    13.3972    12.6382    81.3576     7.9262     0.0238     2.3666     0.1837
  353.0000   -39.5502    16.2059    13.3241    12.2270    81.3944     7.9245     0.0135     2.3582     0.1895
  353.5000   -39.5624    15.8571    13.2513    12.3954    81.4473     7.9228     0.0177     2.3633     0.1877
  354.0000   -39.5616    15.9213    13.1711    12.5911    81.5081     7.9212     0.0157     2.3681     0.1861
  354.5000   -39.5536    16.0150    13.1217    12.6896    81.5663     7.9195     0.0083     2.3572     0.1908
  355.0000   -39.5444    16.1094    13.0665    12.4446    81.6240     7.9179    -0.0006     2.3457     0.1952
  355.5000   -39.1819    16.1543    13.0115    12.2273    81.6842     7.9162    -0.0065     2.3408     0.1998
  356.0000   -38.8174    16.0308    12.9571    12.0021    81.7438     7.9145     0.0067     2.3477     0.1982
  356.5000   -38.3889    15.8643    12.9031    12.0021    81.7972     7.9128     0.0232     2.3623     0.1909
  357.0000   -38.3820    15.6995    12.8494    12.0475    81.8609     7.9111     0.0300     2.3753     0.1790
  357.5000   -38.8282    15.5653    12.7958    12.0847    81.9207     7.9096     0.0380     2.3939     0.1654
  358.0000   -39.2892    15.6428    12.7425    12.1220    81.8047     7.9078     0.0410     2.4118     0.1571
  358.5000   -39.7515    15.8445    12.6894    12.1596    81.1929     7.9111     0.0325     2.4062     0.1600
  359.0000   -40.2252    16.0488    12.6365    12.1976    80.2977     7.9152     0.0246     2.4097     0.1610
  359.5000   -40.3279    16.2558    12.5838    12.2270    78.7384     7.9194     0.0162     2.4079     0.1596
  360.0000   -40.2457    16.4571    12.5314    12.2135    78.3394     7.9236     0.0084     2.3990     0.1637
  360.5000   -40.1758    16.1162    12.4792    12.1815    78.9293     7.9278    -0.0002     2.4014     0.1660
  361.0000   -40.1088    15.7950    12.4272    12.1499    78.8088     7.9319     0.0087     2.4100     0.1624
  361.5000   -40.0457    15.5472    12.3754    12.1185    78.5683     7.9358     0.0210     2.4470     0.1424
  362.0000   -39.9752    15.4810    12.3239    12.0865    78.3426     7.9407     0.0388     2.4811     0.1045
  362.5000   -40.1522    15.4150    12.2725    12.0553    78.5262     7.9437     0.0374     2.4867     0.1097
  363.0000   -40.5763    15.3493    12.2270    12.0019    78.7281     7.9451     0.0279     2.4804     0.1167
  363.5000   -41.6271    15.2790    12.3876    12.0069    78.9610     7.9026     0.0265     2.4713     0.1217
  364.0000   -42.4319    15.1687    12.5339    12.0108    79.9302     7.8667     0.0226     2.4601     0.1295
  364.5000   -42.8004    14.9979    12.6820    11.9926    80.9466     7.8292     0.0235     2.4436     0.1387
  365.0000   -42.6407    16.1210    12.8318    12.8806    82.0010     7.8363     0.0212     2.4254     0.1482
  365.5000   -42.5410    18.3682    12.9834    13.8608    83.0514     7.8440     0.0152     2.4111     0.1562
  366.0000   -42.4352    20.9287    13.1368    15.5466    83.7987     7.8531     0.0098     2.3997     0.1646
  366.5000   -42.2421    23.8585    13.2920    15.2638    83.8718     7.8614     0.0034     2.3894     0.1705
  367.0000   -41.9706    20.4127    13.4166    14.4565    83.9662     7.8804     0.0021     2.3817     0.1751
  367.5000   -41.5467    17.4538    13.4166    13.6908    84.0441     7.9198     0.0008     2.3809     0.1773
  368.0000   -41.1196    14.9238    13.1620    12.9654    84.1218     7.9585    -0.0002     2.3843     0.1749
  368.5000   -40.7985    13.6681    12.9169    12.2790    84.2137     7.9877    -0.0026     2.3740     0.1796
  369.0000   -41.2389    13.6395    12.6764    11.6321    84.2742     7.9877    -0.0068     2.3693     0.1845
  369.5000   -41.5864    13.6911    12.4405    11.0204    84.3595     7.9882    -0.0108     2.3732     0.1832
  370.0000   -41.9468    13.6851    12.2089    10.4408    83.9161     7.9881    -0.0154     2.3776     0.1816
  370.5000   -41.8263    13.6803    11.9816    10.1193    83.3595     7.9880    -0.0171     2.3774     0.1799
  371.0000   -41.7201    13.4051    11.7585    10.0464    83.3852     7.9881    -0.0165     2.3763     0.1776
  371.5000   -41.5756    13.4792    11.5396     9.9740    83.8453     7.9880    -0.0040     2.3993     0.1739
  372.0000   -41.8851    13.5611    11.3248     9.9022    84.3236     7.9880     0.0097     2.4208     0.1306
  372.5000   -41.7913    13.6724    11.1131     9.8296    83.8618     7.9879     0.0243     2.4054     0.1507
  373.0000   -41.1095    13.6652    10.9061     9.7596    83.2220     7.9879     0.0314     2.3935     0.1692
  373.5000   -40.6204    13.3048    10.7356     9.6897    83.1697     7.9879     0.0232     2.3934     0.1789
  374.0000   -40.4388    12.9364    10.6327     9.6203    83.1568     7.9879     0.0163     2.3987     0.1700
  374.5000   -41.3133    12.5777    10.5450     9.5512    83.1745     7.9879     0.0089     2.4080     0.1636
  375.0000   -42.0554    12.2251    10.4579     9.4826    83.1602     7.9879     0.0031     2.4091     0.1608
  375.5000   -42.8890    12.2884    10.3714     9.4288    83.1522     7.9879     0.0032     2.4029     0.1609
  376.0000   -43.2574    12.5799    10.2856     9.3877    82.6797     7.9879     0.0006     2.3976     0.1634
  376.5000   -43.3620    12.9275    10.2019     9.2902    82.1053     7.9880    -0.0086     2.3884     0.1684
  377.0000   -43.4647    12.7747    10.1549     9.1936    81.5092     7.9880    -0.0175     2.3780     0.1752
  377.5000   -43.5446    12.4364    10.1332     9.0832    81.4304     7.9880    -0.0253     2.3677     0.1814
  378.0000   -43.0642    12.1069    10.1125     9.1272    81.5706     7.9881    -0.0223     2.3693     0.1853
  378.5000   -42.6154    12.0021    10.0919     9.2192    81.7001     7.9880    -0.0142     2.3679     0.1805
  379.0000   -42.1524    12.0021    10.0713     9.3120    81.8309     7.9876    -0.0063     2.3697     0.1877
  379.5000   -41.6845    12.0021    10.0507     9.4058    81.9642     7.9892     0.0017     2.3781     0.1763
  380.0000   -41.8341    12.0021    10.0302     9.5006    82.2458     7.9752     0.0097     2.3750     0.1805
  380.5000   -42.2099    12.0021    10.0097     9.6046    82.5145     7.9485     0.0177     2.3868     0.1777
  381.0000   -42.5857    12.0021     9.9899     9.6046    82.7950     7.9271     0.0257     2.3866     0.1693
  381.5000   -42.9796    12.4950     9.9691     9.5496    83.0667     7.9153     0.0336     2.4069     0.1610
  382.0000   -43.1481    12.9431     9.9686     9.5016    83.3416     7.9392     0.0417     2.4264     0.1515
  382.5000   -43.0086    13.4166     9.9680     9.4539    83.6341     7.9159     0.0494     2.4365     0.1458
  383.0000   -42.8948    13.1558     9.9679     9.4065    83.7863     7.9001     0.0575     2.4482     0.1392
  383.5000   -42.7719    12.7217     9.9678     9.3592    83.7727     7.8834     0.0666     2.4598     0.1326
  384.0000   -42.3578    12.2270     9.9679     9.3122    83.7775     7.8654     0.0671     2.4627     0.1258
  384.5000   -41.9093    12.3620     9.9681     9.2653    83.7675     7.8484     0.0523     2.4509     0.1290
