~VERSION INFORMATION
 VERS.                2.0:   CWLS LOG ASCII STANDARD - VERSION 2.0
 WRAP.                 NO:   ONE LINE PER DEPTH STEP
~WELL INFORMATION
#MNEM.UNIT      DATA TYPE    INFORMATION
#----------   ------------   ------------------------------
 STRT.F           48.0000:   START DEPTH
 STOP.F          650.0000:   STOP DEPTH
 STEP.F            0.5000:   STEP LENGTH
 NULL.          -999.2500:   NO VALUE
 COMP. FENIX & SCISSON INC:   COMPANY
 WELL.    36 SX 34 #36-34:   WELL
 FLD .             TEAPOT:   FIELD
 LOC .      S34 T39N R78W:   LOCATION
 CNTY.            NATRONA:   COUNTY
 STAT.            WYOMING:   STATE
 CTRY. UNITED STATES OF AMERICA:   COUNTRY
 SRVC.            Unknown:   SERVICE COMPANY
 DATE.        19-JAN-1979:   LOGDATE
 API .       490251076800:   API NUMBER
~CURVE INFORMATION
#MNEM.UNIT       API CODE    CURVE DESCRIPTION
#----------   ------------   ------------------------------
 DEPT.F                  :   
 SPR .MV     05 010 01 00:   SPONTANEOUS POTENTIAL FROM RES.
 SN  .OHMM   05 040 16 00:   SHORT NORMAL 16"
 IL  .OHMM   05 120 00 00:   INDUCTION LOG
 CALD.IN     45 280 60 00:   CALIPER
 GRD .GAPI   45 310 01 00:   GAMMA RAY FROM DENSITY LOG
 RHOB.G/C3   45 350 01 00:   BULK DENSITY
 DPHI.DEC    45 890 12 00:   DENSITY POROSITY SANDSTONE
 CORR.G/C3   45 356 01 00:   DENSITY CORRECTION
~PARAMETER INFORMATION
#MNEM.UNIT          VALUE    DESCRIPTION
#----------   ------------   ------------------------------
 PD  .                 GL:   PERMANENT DATUM
 EPD .F              5125:   ELEVATION PERMANENT DATUM
 LMF .                 KB:   LOG MEASURED FROM
 DAPD.F                 4:   FEET ABOVE PERMANENT DATUM
 DMF .                 KB:   DRILLING MEASURED FROM
 EKB .F              5129:   KELLING BUSHING
 EGL .F              5125:   GROUND LEVEL
 DATE.            1-19-79:   RUN DATE
 RUN .                  1:   RUN NUMBER
 DD  .F               650:   DEPTH DRILLER
 DL  .F               650:   DEPTH LOGGER
 BLI .F               643:   BOTTOM LOG INTERVAL
 TLI .F                50:   TOP LOG INTERVAL
 CS  .IN            8.625:   CASING SIZE
 CBD .F                40:   CASING BOTTOM DRILLER
 CBL .F                36:   CASING BOTTOM LOGGER
 BS  .IN            7.875:   BIT SIZE
 BSD .F               650:   BIT SIZE AT DEPTH
 DFT .                KCL:   DRILLING FLUID TYPE
 DFD .                8.8:   DRILLING FLUID DENSITY
 DFV .                 34:   DRILLING FLUID VISCOSITY
 DFL .                8.8:   DRILLING FLUID LOSS
 MSS .           FLOWLINE:   MUD SAMPLE SOURCE
 RMS .OHMM            .17:   RESISTIVITY MUD SAMPLE
 MST .F                62:   MUD SAMPLE TEMPERATURE
 RMF .OHMM            .15:   RESISTIVITY MUD FILTRATE SAMPLE
 MFST.F                62:   MUD FILTRATE SAMPLE TEMPERATURE
 RMC .OHMM            .22:   RESISTIVITY MUD CAKE
 MCST.F                63:   MUD CAKE SAMPLE TEMPERATURE
 MFSS.           MEASURED:   MUD FILTRATE SAMPLE SOURCE
 MCSS.           MEASURED:   MUD CAKE SAMPLE SOURCE
 RMB .OHMM            .18:   RESISTIVITY MUD AT BHT
 BHT .F                60:   BOTTOM HOLE TEMPERATURE
 TCS .HRS               3:   TIME CURCULATED STOPPED
 MRT .F                60:   MAXIMUM RECORDED TEMPERATURE
 LUN .                 30:   LOGGING UNIT NUMBER
 LUL .             CASPER:   LOGGING UNIT LOCATION
 ENGI.         B. ROLLINS:   RECORDING ENGINEER
 WITN.           DINSMORE:   WITNESSED BY
 CLNT.            A2DTECH:   CLIENT CODE
 ORIG.           5" PRINT:   ORIGIN OF DATA
 UWI .       490251076800:   UNIQUE WELL ID
 DICO. A2D Technologies, Inc.:   DIGITIZING COMPANY
~OTHER INFORMATION
~A   DEPT      SPR           SN        IL      CALD        GRD       RHOB       DPHI       CORR   
# ...
  250.5000   -54.9880     7.2560     7.9880     8.2310   117.0060     2.4770     0.1080     0.0150
  251.0000   -55.3780     7.2070     7.9360     8.2310   114.8740     2.4890     0.1020     0.0220
  251.5000   -56.2700     7.1580     7.8840     8.2310   112.5000     2.5020     0.0960     0.0300
  252.0000   -56.2430     7.1100     7.8320     8.2310   110.6270     2.5100     0.0910     0.0370
  252.5000   -55.9960     7.0610     7.7800     8.2320   111.8430     2.5130     0.0900     0.0400
  253.0000   -55.7430     7.0120     7.7800     8.2320   114.2750     2.5160     0.0890     0.0420
  253.5000   -55.4820     6.9620     7.8010     8.2330   116.4510     2.5180     0.0880     0.0440
  254.0000   -55.8550     7.0050     7.8290     8.2330   112.7080     2.5190     0.0870     0.0420
  254.5000   -56.7300     7.0480     7.8560     8.2330   109.1390     2.5190     0.0900     0.0400
  255.0000   -57.1530     7.0920     7.8830     8.2340   111.5920     2.5080     0.0930     0.0340
  255.5000   -57.1510     7.1360     7.9110     8.2340   108.8540     2.4990     0.0960     0.0280
  256.0000   -56.7430     7.1800     7.9380     8.2350   111.0110     2.4980     0.0980     0.0280
  256.5000   -55.8680     7.2240     7.9650     8.2350   114.9980     2.4990     0.0980     0.0270
  257.0000   -55.2790     7.2670     7.9920     8.2350   119.0070     2.5010     0.0980     0.0270
  257.5000   -55.9290     7.2960     8.0200     8.2360   121.1520     2.5040     0.0970     0.0270
  258.0000   -56.5570     7.3070     8.0470     8.2360   117.3470     2.5030     0.0960     0.0260
  258.5000   -56.8870     7.3170     8.0740     8.2370   113.9710     2.5030     0.0950     0.0260
  259.0000   -56.6620     7.3280     8.1010     8.2370   111.5260     2.5070     0.0930     0.0280
  259.5000   -56.4440     7.3380     8.1290     8.2370   110.0520     2.5100     0.0920     0.0290
  260.0000   -56.2210     7.3480     8.1560     8.2380   108.5850     2.5140     0.0910     0.0300
  260.5000   -56.1920     7.3590     8.1830     8.2380   107.8910     2.5170     0.0910     0.0310
  261.0000   -56.6890     7.3720     8.2110     8.2390   109.0460     2.5190     0.0910     0.0320
  261.5000   -57.1770     7.3850     8.2240     8.2390   109.7790     2.5130     0.0960     0.0300
  262.0000   -57.7010     7.3990     8.2240     8.2390   107.6560     2.5040     0.1000     0.0230
  262.5000   -56.8990     7.4120     8.2240     8.2400   111.0260     2.4950     0.1040     0.0170
  263.0000   -56.3880     7.4260     8.2240     8.2400   114.5280     2.4860     0.1080     0.0130
  263.5000   -56.0940     7.4390     8.2240     8.2410   114.4940     2.4810     0.1100     0.0120
  264.0000   -55.5540     7.4520     8.2240     8.2410   113.6630     2.4840     0.1090     0.0160
  264.5000   -54.8110     7.4660     8.2240     8.2410   114.3670     2.4860     0.1080     0.0210
  265.0000   -54.9400     7.4790     8.2240     8.2420   115.2070     2.4860     0.1080     0.0250
  265.5000   -55.1250     7.4930     8.2240     8.2420   113.4970     2.4850     0.1080     0.0260
  266.0000   -55.3120     7.5060     8.2240     8.2430   111.1610     2.4840     0.1090     0.0250
  266.5000   -55.5080     7.5190     8.2240     8.2430   111.5020     2.4840     0.1090     0.0250
  267.0000   -55.1290     7.5330     8.2240     8.2430   113.8010     2.4940     0.1080     0.0300
  267.5000   -54.5540     7.5460     8.2240     8.2440   115.6240     2.5110     0.1010     0.0350
  268.0000   -54.5670     7.5590     8.3720     8.2440   116.2840     2.5220     0.0960     0.0400
  268.5000   -54.5490     7.6320     8.5410     8.2450   113.0000     2.5220     0.0960     0.0370
  269.0000   -55.3820     7.7800     8.7110     8.2450   110.4710     2.5150     0.0970     0.0320
  269.5000   -56.4390     7.9270     8.8810     8.2450   109.3350     2.5080     0.0990     0.0310
  270.0000   -56.9690     8.0750     9.0510     8.2460   108.3960     2.5110     0.0990     0.0300
  270.5000   -56.3180     8.2230     9.2210     8.2460   105.3170     2.5180     0.0960     0.0340
  271.0000   -55.4180     8.3700     9.3900     8.2470   105.7720     2.5170     0.0960     0.0380
  271.5000   -54.5110     8.5180     9.5600     8.2470   106.7550     2.5130     0.0980     0.0400
  272.0000   -54.6280     8.6660     9.7300     8.2470   107.9580     2.5090     0.1000     0.0360
  272.5000   -54.9220     8.8130     9.9000     8.2480   104.3800     2.5090     0.1000     0.0280
  273.0000   -54.7340     8.9610    10.0700     8.2480   100.5130     2.5120     0.0970     0.0270
  273.5000   -54.1670     9.1080    10.2390     8.2490    99.8090     2.5150     0.0940     0.0270
  274.0000   -53.5050     9.1910    10.4090     8.2490    99.2620     2.5180     0.0910     0.0270
  274.5000   -51.6830     9.1910    10.5790     8.2490    99.1750     2.5210     0.0870     0.0310
  275.0000   -51.6000     9.1910    10.7490     8.2500   100.6680     2.5190     0.0880     0.0340
  275.5000   -53.0000     9.1910    10.9180     8.2500   102.1640     2.5110     0.0930     0.0270
  276.0000   -53.1760     9.1060    11.0880     8.2510   102.1100     2.5030     0.0990     0.0200
  276.5000   -53.1750     9.0870    11.2580     8.2510   101.2550     2.4960     0.1040     0.0120
  277.0000   -53.0490     9.0670    11.3710     8.2500   101.3500     2.4880     0.1090     0.0150
  277.5000   -52.4210     9.0470    11.3090     8.2480   104.8670     2.4830     0.1100     0.0210
  278.0000   -51.8210     9.0270    11.2630     8.2470   106.5310     2.4870     0.1060     0.0270
  278.5000   -52.0260     9.0070    11.2170     8.2460   106.8920     2.4950     0.1020     0.0330
  279.0000   -52.2720     8.9870    11.1710     8.2440   105.3630     2.5020     0.0980     0.0390
  279.5000   -52.5340     8.9670    11.1250     8.2430   100.7060     2.5080     0.0970     0.0400
  280.0000   -52.1380     8.9470    11.0780     8.2420    98.7860     2.5060     0.1020     0.0350
  280.5000   -51.5240     8.9170    11.0320     8.2400   102.5440     2.4960     0.1070     0.0280
  281.0000   -51.3930     8.8800    10.9860     8.2390   101.4410     2.4860     0.1120     0.0220
  281.5000   -51.8230     8.8440    10.9400     8.2380   100.0340     2.4760     0.1180     0.0160
  282.0000   -52.2440     8.8080    10.8940     8.2370    99.8860     2.4660     0.1210     0.0140
  282.5000   -52.6280     8.7720    10.8470     8.2350    99.8350     2.4670     0.1180     0.0140
  283.0000   -52.7920     8.7350    10.8010     8.2340   100.0800     2.4730     0.1140     0.0210
  283.5000   -52.9650     8.6990    10.7550     8.2330   101.9460     2.4840     0.1100     0.0290
  284.0000   -53.1450     8.6630    10.7090     8.2310   101.6170     2.4940     0.1060     0.0310
  284.5000   -52.9570     8.6270    10.6630     8.2300   101.0010     2.5050     0.1020     0.0290
  285.0000   -52.6480     8.5900    10.6160     8.2290   100.3410     2.5090     0.0990     0.0270
  285.5000   -53.3050     8.5540    10.5700     8.2270   100.5400     2.4990     0.1030     0.0250
  286.0000   -53.1070     8.5180    10.5240     8.2260   104.0810     2.4880     0.1090     0.0240
  286.5000   -52.1320     8.4820    10.4780     8.2250   107.1590     2.4770     0.1150     0.0220
  287.0000   -52.1040     8.4450    10.4320     8.2240   107.1510     2.4660     0.1180     0.0230
  287.5000   -51.7980     8.4090    10.3850     8.2220   105.9820     2.4680     0.1170     0.0260
  288.0000   -50.8290     8.3730    10.3390     8.2210   105.5990     2.4700     0.1180     0.0280
  288.5000   -50.0440     8.3370    10.2930     8.2200   106.1550     2.4690     0.1180     0.0310
  289.0000   -50.5090     8.3010    10.2470     8.2180   108.4240     2.4670     0.1170     0.0340
  289.5000   -50.9580     8.2640    10.2010     8.2170   109.8220     2.4700     0.1170     0.0310
  290.0000   -51.4020     8.2280    10.1540     8.2160   106.6230     2.4660     0.1180     0.0260
  290.5000   -51.8590     8.1920    10.1080     8.2140   103.2030     2.4610     0.1200     0.0220
