~VERSION INFORMATION
 VERS.                2.0:   CWLS LOG ASCII STANDARD - VERSION 2.0
 WRAP.                 NO:   ONE LINE PER DEPTH STEP
~WELL INFORMATION
#MNEM.UNIT      DATA TYPE    INFORMATION
#----------   ------------   ------------------------------
 STRT.F           43.0000:   START DEPTH
 STOP.F          551.0000:   STOP DEPTH
 STEP.F            0.5000:   STEP LENGTH
 NULL.          -999.2500:   NO VALUE
 COMP. FENIX & SCISSON INC:   COMPANY
 WELL.   NPR 3  27-S #3-3:   WELL
 FLD .             TEAPOT:   FIELD
 LOC .       S3 T38N R78W:   LOCATION
 CNTY.            NATRONA:   COUNTY
 STAT.            WYOMING:   STATE
 CTRY. UNITED STATES OF AMERICA:   COUNTRY
 SRVC.           BIRDWELL:   SERVICE COMPANY
 DATE.        07-OCT-1978:   LOGDATE
 API .       490251071600:   API NUMBER
~CURVE INFORMATION
#MNEM.UNIT       API CODE    CURVE DESCRIPTION
#----------   ------------   ------------------------------
 DEPT.F                  :   
 SPR .MV     05 010 01 00:   SPONTANEOUS POTENTIAL FROM RES.
 SN  .OHMM   05 040 16 00:   SHORT NORMAL 16"
 ILD .OHMM   05 120 46 00:   INDUCTION LOG DEEP
 GRD .GAPI   45 310 01 00:   GAMMA RAY FROM DENSITY LOG
 CALD.IN     45 280 60 00:   CALIPER
 RHOB.G/C3   45 350 01 00:   BULK DENSITY
 CORR.G/C3   45 356 01 00:   DENSITY CORRECTION
 DPHI.DEC    45 890 12 00:   DENSITY POROSITY SANDSTONE
~PARAMETER INFORMATION
#MNEM.UNIT          VALUE    DESCRIPTION
#----------   ------------   ------------------------------
 PD  .                 GL:   PERMANENT DATUM
 EPD .F              5241:   ELEVATION PERMANENT DATUM
 LMF .                 KB:   LOG MEASURED FROM
 DAPD.F                 4:   FEET ABOVE PERMANENT DATUM
 DMF .                 KB:   DRILLING MEASURED FROM
 EKB .F              5245:   KELLING BUSHING
 EGL .F              5241:   GROUND LEVEL
 DATE.            10-7-78:   RUN DATE
 RUN .                  1:   RUN NUMBER
 DD  .F               552:   DEPTH DRILLER
 DL  .F               551:   DEPTH LOGGER
 BLI .F               545:   BOTTOM LOG INTERVAL
 TLI .F                48:   TOP LOG INTERVAL
 CS  .IN            8.625:   CASING SIZE
 CBL .F                43:   CASING BOTTOM LOGGER
 BS  .IN            7.875:   BIT SIZE
 BSD .F               552:   BIT SIZE AT DEPTH
 DFT .                KCL:   DRILLING FLUID TYPE
 DFD .                8.7:   DRILLING FLUID DENSITY
 DFV .                 38:   DRILLING FLUID VISCOSITY
 DFPH.                  9:   DRILLING FLUID PH
 DFL .                 38:   DRILLING FLUID LOSS
 MSS .            MUD PIT:   MUD SAMPLE SOURCE
 RMS .OHMM            .24:   RESISTIVITY MUD SAMPLE
 MST .F                48:   MUD SAMPLE TEMPERATURE
 RMF .OHMM             .2:   RESISTIVITY MUD FILTRATE SAMPLE
 MFST.F                62:   MUD FILTRATE SAMPLE TEMPERATURE
 RMC .OHMM             .3:   RESISTIVITY MUD CAKE
 MCST.F                62:   MUD CAKE SAMPLE TEMPERATURE
 MFSS.               MEAS:   MUD FILTRATE SAMPLE SOURCE
 MCSS.               MEAS:   MUD CAKE SAMPLE SOURCE
 TCS .HRS               3:   TIME CURCULATED STOPPED
 LUN .               2958:   LOGGING UNIT NUMBER
 LUL .               CASP:   LOGGING UNIT LOCATION
 ENGI.             MILLER:   RECORDING ENGINEER
 WITN.              AMEND:   WITNESSED BY
 CLNT.            A2DTECH:   CLIENT CODE
 ORIG.       2", 5" PRINT:   ORIGIN OF DATA
 UWI .       490251071600:   UNIQUE WELL ID
 DICO. A2D Technologies, Inc.:   DIGITIZING COMPANY
~OTHER INFORMATION
~A   DEPT      SPR         SN        ILD        GRD         CALD       RHOB      CORR        DPHI 
   43.0000  -999.2500  -999.2500  -999.2500  -999.2500     8.0187     2.5005    -0.1401     0.1226
   43.5000  -999.2500  -999.2500  -999.2500  -999.2500     7.9980     2.3832    -0.0970     0.1816
   44.0000  -999.2500  -999.2500  -999.2500  -999.2500     7.9604     2.3352    -0.0331     0.2062
   44.5000  -999.2500  -999.2500  -999.2500  -999.2500     7.8748     2.3637     0.0197     0.2016
   45.0000  -999.2500  -999.2500  -999.2500  -999.2500     7.7538     2.4134     0.0507     0.1592
   45.5000  -999.2500  -999.2500  -999.2500  -999.2500     7.6332     2.4115     0.0467     0.1605
   46.0000   -69.2231  -999.2500  -999.2500  -999.2500     7.6526     2.4095     0.0458     0.1626
   46.5000   -69.2231  -999.2500  -999.2500  -999.2500     7.6908     2.4127     0.0451     0.1596
   47.0000   -69.2231  -999.2500  -999.2500  -999.2500     7.7290     2.4250     0.0349     0.1552
   47.5000   -69.2231  -999.2500     4.7972  -999.2500     7.7675     2.4192     0.0247     0.1574
   48.0000   -69.2216     4.9376     5.4663  -999.2500     7.8337     2.4148     0.0249     0.1595
   48.5000   -69.2145     5.7614     6.1847  -999.2500     8.0378     2.4283     0.0249     0.1540
   49.0000   -69.2333     6.3614     6.8008  -999.2500     8.2419     2.4434     0.0236     0.1465
   49.5000   -69.9720     6.6336     7.0039  -999.2500     8.3339     2.4464     0.0190     0.1408
   50.0000   -73.0659     6.8100     7.0956  -999.2500     8.3321     2.4420     0.0153     0.1385
   50.5000   -73.9752     6.8797     7.1885  -999.2500     8.3288     2.4375     0.0191     0.1431
   51.0000   -74.8403     6.9028     7.2542  -999.2500     8.3253     2.4330     0.0338     0.1480
   51.5000   -76.5852     6.9273     7.2542  -999.2500     8.3217     2.4285     0.0638     0.1502
   52.0000   -76.9616     6.9275     7.2542  -999.2500     8.3187     2.4240     0.1141     0.1533
   52.5000   -77.1043     6.9275     7.2542  -999.2500     8.2455     2.4253     0.2057     0.1529
   53.0000   -79.1044     6.9274     7.1997  -999.2500     8.1132     2.4666     0.2738     0.1356
   53.5000   -79.8792     6.9285     7.1396  -999.2500     7.9807     2.5122     0.2843     0.1022
   54.0000   -79.7692     6.9008     7.0800  -999.2500     7.8481     2.5089     0.2111     0.1109
   54.5000   -79.6417     6.8260     7.0209  -999.2500     7.7147     2.4536     0.1306     0.1349
   55.0000   -79.5118     6.7012     6.9915  -999.2500     7.6640     2.4149     0.0810     0.1564
   55.5000   -79.3842     6.5788     6.9913  -999.2500     7.7968     2.4098     0.0526     0.1601
   56.0000   -79.2619     6.4944     6.9930  -999.2500     7.9969     2.4040     0.0242     0.1640
   56.5000   -79.4319     6.4944     6.9086  -999.2500     8.1993     2.4046     0.0189     0.1667
   57.0000   -80.0273     6.4944     6.7891  -999.2500     8.2845     2.4241     0.0189     0.1557
   57.5000   -80.3819     6.2396     6.6727  -999.2500     8.3000     2.4278     0.0191     0.1525
   58.0000   -80.3779     6.0166     6.6153  -999.2500     8.3134     2.4267     0.0258     0.1517
   58.5000   -80.3788     5.8016     6.6766  -999.2500     8.3640     2.4295     0.0485     0.1505
   59.0000   -80.3777     5.6490     6.8473  -999.2500     8.3917     2.4480     0.0707     0.1449
   59.5000   -80.3744     5.6269     7.0422  -999.2500     8.3675     2.4662     0.0733     0.1245
   60.0000   -80.3963     5.6048     7.2426  -999.2500     8.3452     2.4693     0.0682     0.1177
   60.5000   -81.0586     5.5829     7.4487  -999.2500     8.2782     2.4453     0.0654     0.1390
   61.0000   -81.7460     5.5610     7.5964  -999.2500     8.1917     2.4181     0.0932     0.1591
   61.5000   -81.7862     5.5392     7.5174  -999.2500     8.1059     2.4159     0.1737     0.1612
   62.0000   -81.7915     5.5176     7.2596  -999.2500     7.9705     2.4477     0.2477     0.1401
   62.5000   -81.7994     5.4960     7.0107  -999.2500     7.8180     2.4722     0.2179     0.1246
   63.0000   -81.8083     5.4744     6.7704  -999.2500     7.6576     2.4708     0.1601     0.1242
   63.5000   -81.8172     5.4509     6.5383  -999.2500     7.6199     2.4374     0.1028     0.1404
   64.0000   -81.8261     5.4903     6.3141  -999.2500     7.6188     2.4120     0.0461     0.1639
   64.5000   -81.8351     5.5345     6.0977  -999.2500     7.6452     2.3884     0.0063     0.1741
   65.0000   -81.8440     5.5791     5.8681  -999.2500     7.7846     2.3838     0.0092     0.1779
   65.5000   -81.8529     5.6244     5.9061  -999.2500     7.9538     2.3863     0.0156     0.1723
   66.0000   -81.8618     5.6561     5.9911  -999.2500     8.1165     2.4122     0.0221     0.1552
   66.5000   -81.8707     5.6496     6.1308  -999.2500     8.1711     2.4424     0.0253     0.1427
   67.0000   -81.8796     5.6449     6.2737  -999.2500     8.1966     2.4450     0.0259     0.1451
   67.5000   -81.8886     5.6403     6.4200  -999.2500     8.2176     2.4360     0.0275     0.1475
   68.0000   -81.8975     5.6357     6.5697  -999.2500     8.2176     2.4210     0.0553     0.1543
   68.5000   -81.9064     5.6310     6.6153  -999.2500     8.1658     2.4058     0.1274     0.1644
   69.0000   -81.9153     5.6264     6.6153  -999.2500     8.0895     2.4003     0.2094     0.1679
   69.5000   -81.9242     5.6217     6.6153  -999.2500     8.0546     2.4344     0.2880     0.1402
   70.0000   -81.9332     5.6171     6.6153  -999.2500     8.0125     2.5035     0.2828     0.1126
   70.5000   -81.9421     5.6126     6.6153  -999.2500     7.8277     2.5155     0.1962     0.1030
   71.0000   -81.9511     5.6078     6.6153  -999.2500     7.7507     2.4751     0.1013     0.1235
   71.5000   -81.9594     5.6031     6.5149  -999.2500     7.7047     2.4362     0.0702     0.1437
   72.0000   -81.9722     5.6651     6.3742  -999.2500     7.5417     2.4277     0.0408     0.1532
   72.5000   -81.7475     5.7222     6.2366  -999.2500     7.5339     2.4012     0.0184     0.1685
   73.0000   -81.4008     5.7796     6.0885  -999.2500     7.5499     2.3721     0.0189     0.1852
   73.5000   -81.0522     5.8375     6.0885  -999.2500     7.5648     2.3625     0.0188     0.1906
   74.0000   -80.7701     5.8960     6.0885  -999.2500     7.6028     2.3963     0.0159     0.1712
   74.5000   -80.7761     5.9550     6.1591  -999.2500     8.0166     2.4235     0.0132     0.1557
   75.0000   -80.7768     6.0327     6.2614  -999.2500     8.0908     2.4231     0.0103     0.1558
   75.5000   -80.7770     6.0297     6.3758  -999.2500     8.1153     2.4228     0.0104     0.1556
   76.0000   -80.7781     6.0255     6.6262  -999.2500     8.1412     2.4370     0.0131     0.1521
   76.5000   -80.7875     6.0213     6.9160  -999.2500     8.2391     2.4389     0.0204     0.1467
   77.0000   -80.3417     6.0171     7.1876  -999.2500     8.3087     2.4307     0.0413     0.1499
   77.5000   -79.7872     6.0129     7.2022  -999.2500     8.3249     2.4170     0.1039     0.1508
   78.0000   -79.2274     6.0087     7.2155  -999.2500     8.2663     2.4094     0.1978     0.1508
   78.5000   -78.8174     6.0045     7.2290  -999.2500     8.0378     2.4413     0.2948     0.1470
   79.0000   -78.5142     6.0003     7.2430  -999.2500     8.0396     2.4953     0.3318     0.1200
   79.5000   -78.1764     5.9961     7.2558  -999.2500     7.5650     2.5296     0.3337     0.0918
   80.0000   -76.5841     5.9919     7.1016  -999.2500     7.6577     2.5128     0.2282     0.1043
   80.5000   -75.5911     5.9877     6.9656  -999.2500     7.7373     2.4829     0.1336     0.1205
   81.0000   -75.1643     5.9836     6.8323  -999.2500     7.7033     2.4528     0.0952     0.1366
   81.5000   -74.6593     5.9764     6.7013  -999.2500     7.6644     2.4228     0.0664     0.1528
   82.0000   -73.6118     5.9976     6.5722  -999.2500     7.7200     2.4111     0.0550     0.1609
   82.5000   -72.5643     6.0384     6.4333  -999.2500     7.7947     2.4157     0.0526     0.1573
   83.0000   -71.7451     6.0795     6.4356  -999.2500     7.8389     2.4286     0.0555     0.1492
