~VERSION INFORMATION
 VERS.                2.0:   CWLS LOG ASCII STANDARD - VERSION 2.0
 WRAP.                 NO:   ONE LINE PER DEPTH STEP
~WELL INFORMATION
#MNEM.UNIT      DATA TYPE    INFORMATION
#----------   ------------   ------------------------------
 STRT.F           42.0000:   START DEPTH
 STOP.F         3140.0000:   STOP DEPTH
 STEP.F            0.5000:   STEP LENGTH
 NULL.          -999.2500:   NO VALUE
 COMP. LAWRENCE-ALLISON & AS:   COMPANY
 WELL.     88 X 33 #88-33:   WELL
 FLD .             NPR #3:   FIELD
 LOC .      S33 T39N R78W:   LOCATION
 CNTY.            NATRONA:   COUNTY
 STAT.            WYOMING:   STATE
 CTRY. UNITED STATES OF AMERICA:   COUNTRY
 SRVC.       Schlumberger:   SERVICE COMPANY
 DATE.        13-DEC-1987:   LOGDATE
 API .       490251120300:   API NUMBER
~CURVE INFORMATION
#MNEM.UNIT       API CODE    CURVE DESCRIPTION
#----------   ------------   ------------------------------
 DEPT.F                  :   
 GRR .GAPI   07 310 01 00:   GAMMA RAY FROM RES
 SPR .MV     07 010 01 00:   SPONTANEOUS POTENTIAL
 ILD .OHMM   07 120 46 00:   INDUCTION LOG DEEP RES
 ILM .OHMM   07 120 44 00:   INDUCTION LOG MEDIUM RES
 SFLU.OHMM   07 220 01 00:   SPHERICALLY FOCUSED LOG UNAVERAGED RES
 DPHI.DEC    45 890 12 00:   DENSITY POROSITY SANDSTONE
 NPHI.DEC    42 890 03 00:   NEUTRON POROSITY SANDSTONE
 CALD.IN     45 280 60 00:   CALIPER FROM DENSITY LOG
 DRHO.G/C3   45 356 01 00:   DENSITY CORRECTION
 RHOB.G/C3   45 350 01 00:   BULK DENSITY
~PARAMETER INFORMATION
#MNEM.UNIT          VALUE    DESCRIPTION
#----------   ------------   ------------------------------
 PD  .                 GL:   PERMANENT DATUM
 EPD .F              5746:   ELEVATION PERMANENT DATUM
 LMF .                 KB:   LOG MEASURED FROM
 DAPD.F                11:   FEET ABOVE PERMANENT DATUM
 DMF .                 KB:   DRILLING MEASURED FROM
 EKB .F              5157:   KELLING BUSHING
 EGL .F              5146:   GROUND LEVEL
 DATE.        13-DEC-1987:   RUN DATE
 RUN .                  1:   RUN NUMBER
 DD  .F              3155:   DEPTH DRILLER
 DL  .F              3140:   DEPTH LOGGER
 BLI .F              3132:   BOTTOM LOG INTERVAL
 TLI .F               614:   TOP LOG INTERVAL
 CS  .IN            9.625:   CASING SIZE
 CBD .F               608:   CASING BOTTOM DRILLER
 CBL .F               614:   CASING BOTTOM LOGGER
 BS  .IN            7.875:   BIT SIZE
 BSD .F              3155:   BIT SIZE AT DEPTH
 DFT .       KCL DIS. PAC:   DRILLING FLUID TYPE
 DFD .                  9:   DRILLING FLUID DENSITY
 DFV .                 41:   DRILLING FLUID VISCOSITY
 DFPH.                9.5:   DRILLING FLUID PH
 DFL .                8.4:   DRILLING FLUID LOSS
 MSS .           FLOWLINE:   MUD SAMPLE SOURCE
 RMS .OHMM          0.523:   RESISTIVITY MUD SAMPLE
 MST .F                63:   MUD SAMPLE TEMPERATURE
 RMF .OHMM          0.435:   RESISTIVITY MUD FILTRATE SAMPLE
 MFST.F                63:   MUD FILTRATE SAMPLE TEMPERATURE
 RMC .OHMM          0.489:   RESISTIVITY MUD CAKE
 MCST.F                63:   MUD CAKE SAMPLE TEMPERATURE
 MFSS.              PRESS:   MUD FILTRATE SAMPLE SOURCE
 MCSS.               CALC:   MUD CAKE SAMPLE SOURCE
 RMB .OHMM          0.288:   RESISTIVITY MUD AT BHT
 BHT .F               120:   BOTTOM HOLE TEMPERATURE
 TCS .HRS            0600:   TIME CURCULATED STOPPED
 TLAB.HRS            1430:   TIME LOGGER AT BOTTOM
 MRT .F               120:   MAXIMUM RECORDED TEMPERATURE
 LUN .               8198:   LOGGING UNIT NUMBER
 LUL .             CASPER:   LOGGING UNIT LOCATION
 ENGI.          W. BENSON:   RECORDING ENGINEER
 WITN.        GARY STRONG:   WITNESSED BY
 CLNT.            A2DTECH:   CLIENT CODE
 ORIG.           5" PRINT:   ORIGIN OF DATA
 UWI .       490251120300:   UNIQUE WELL ID
 DICO. A2D Technologies, Inc.:   DIGITIZING COMPANY
~OTHER INFORMATION
~A   DEPT      GRR        SPR        ILD        ILM       SFLU       DPHI       NPHI       CALD       DRHO       RHOB   
# ...
 2454.0000   125.6024   -91.0001     6.4334     6.3856     7.5330     0.0598     0.2581     8.6977    -0.0457     2.5473
 2454.5000   124.0211   -90.8539     6.4773     6.5183     7.9621     0.0577     0.2593     8.7135    -0.0428     2.5489
 2455.0000   125.3765   -90.7079     6.6124     6.7001     8.4157     0.0592     0.2617     8.7144    -0.0405     2.5421
 2455.5000   126.0542   -90.5617     6.7506     6.7922     8.8951     0.0610     0.2773     8.7302    -0.0375     2.5391
 2456.0000   123.7952   -90.5664     6.8439     6.8381     9.1449     0.0597     0.2816     8.7610    -0.0340     2.5444
 2456.5000   119.2771   -90.4202     6.8906     6.7894     8.9569     0.0582     0.2779     8.7768    -0.0303     2.5474
 2457.0000   120.6325   -90.4248     6.7476     6.6946     8.5924     0.0588     0.2683     8.7624    -0.0274     2.5467
 2457.5000   123.7952   -90.4293     6.6078     6.5554     8.0175     0.0591     0.2538     8.7481    -0.0244     2.5430
 2458.0000   126.0542   -90.4339     6.5160     6.5541     7.4810     0.0588     0.2433     8.7338    -0.0229     2.5445
 2458.5000   124.0211   -90.4384     6.5606     6.5527     7.3781     0.0567     0.2418     8.7195    -0.0215     2.5482
 2459.0000   120.1807   -90.4429     6.5595     6.6428     7.6912     0.0552     0.2439     8.7204    -0.0237     2.5527
 2459.5000   117.4699   -90.4474     6.6503     6.6877     8.2427     0.0549     0.2502     8.7212    -0.0282     2.5543
 2460.0000   116.0244   -90.4520     6.7420     6.8267     8.9569     0.0564     0.2595     8.7067    -0.0304     2.5505
 2460.5000   113.0905   -90.4565     6.8351     6.8731     9.5329     0.0582     0.2728     8.7076    -0.0312     2.5460
 2461.0000   112.7259   -90.4610     7.1243     7.1135     9.7330     0.0579     0.2842     8.7084    -0.0298     2.5483
 2461.5000   116.8098   -90.4655     7.0253     6.9176     9.4018     0.0594     0.2851     8.7091    -0.0275     2.5453
 2462.0000   122.4882   -90.6207     6.9276     6.8210     8.8836     0.0741     0.2857     8.7099    -0.0202     2.5216
 2462.5000   129.6321   -90.7758     6.7841     6.8196     8.4061     0.1075     0.2875     8.7106     0.0109     2.4468
 2463.0000   130.7982   -91.0815     6.6898     6.6778     7.9460     0.1277     0.2890     8.7114     0.0442     2.4314
 2463.5000   125.6222   -90.9354     6.5060     6.4491     7.7446     0.1247     0.2866     8.7121     0.0494     2.4492
 2464.0000   120.5665   -90.4882     6.2836     6.3150     7.7446     0.1123     0.2806     8.7129     0.0205     2.4684
 2464.5000   122.1465   -89.8903     6.0268     6.1411     7.7984     0.0952     0.2697     8.7136    -0.0136     2.5057
 2465.0000   125.4665   -89.4430     5.9430     5.9307     7.6877     0.0795     0.2688     8.7144    -0.0314     2.5177
 2465.5000   128.6250   -89.2958     5.9012     6.1386     7.3202     0.0723     0.2682     8.7151    -0.0344     2.5260
 2466.0000   129.9219   -89.3014     5.9416     6.3978     6.8832     0.0714     0.2634     8.7159    -0.0374     2.5267
 2466.5000   128.1853   -89.9084     6.0237     6.4413     6.7898     0.0711     0.2582     8.7166    -0.0373     2.5252
 2467.0000   125.5541   -90.0635     6.0647     6.3510     7.0779     0.0720     0.2597     8.7324    -0.0352     2.5275
 2467.5000   123.7503   -90.2175     5.8979     6.1761     7.4294     0.0716     0.2661     8.7179    -0.0345     2.5275
 2468.0000   120.5057   -90.0714     5.7757     5.9645     7.7984     0.0710     0.2730     8.7188    -0.0345     2.5260
 2468.5000   115.3399   -89.9253     5.6954     5.8001     7.5330     0.0722     0.2805     8.6745    -0.0345     2.5223
 2469.0000   113.8554   -89.9314     5.5389     5.6796     7.0779     0.0725     0.2904     8.6151    -0.0353     2.5246
 2469.5000   117.1185   -89.9355     5.4242     5.6002     6.6964     0.0716     0.2969     8.5858    -0.0353     2.5291
 2470.0000   124.8638   -89.9401     5.3119     5.5220     6.2053     0.0698     0.2954     8.5865    -0.0353     2.5291
 2470.5000   131.7564   -90.0952     5.2019     5.3328     5.9527     0.0698     0.2900     8.5873    -0.0383     2.5246
 2471.0000   133.5090   -90.2503     5.0240     5.1859     5.7901     0.0716     0.2876     8.6030    -0.0398     2.5186
 2471.5000   129.6687   -90.4054     4.8860     5.0431     5.8708     0.0743     0.2937     8.6038    -0.0391     2.5156
 2472.0000   122.8916   -90.4100     4.7189     4.9042     5.9116     0.0770     0.3003     8.5895    -0.0376     2.5127
 2472.5000   124.0211   -90.1133     4.5575     4.7362     5.8708     0.0803     0.3103     8.5902    -0.0369     2.5044
 2473.0000   130.3464   -89.9661     4.4323     4.5110     5.7501     0.0866     0.3259     8.5910    -0.0355     2.4909
 2473.5000   137.3494   -89.8200     4.3048     4.3148     5.4402     0.0926     0.3262     8.5917    -0.0340     2.4872
 2474.0000   140.7379   -89.5233     4.1525     4.1494     5.1115     0.0947     0.3199     8.5925    -0.0325     2.4918
 2474.5000   140.0602   -89.3773     3.9607     4.0303     4.5438     0.0911     0.3087     8.5932    -0.0311     2.4964
 2475.0000   139.3825   -89.2312     3.8256     3.9240     4.2105     0.0875     0.2940     8.5940    -0.0281     2.5052
 2475.5000   136.8976   -89.6886     3.7466     3.8159     4.1240     0.0830     0.2985     8.6098    -0.0237     2.5188
 2476.0000   128.9910   -89.9944     3.6985     3.7626     4.2693     0.0776     0.3003     8.6105    -0.0200     2.5248
 2476.5000   126.7319   -90.3001     3.6725     3.7359     4.4813     0.0724     0.3072     8.5962    -0.0253     2.5255
 2477.0000   130.5723   -90.4552     3.7232     3.7906     4.7695     0.0721     0.3036     8.6120    -0.0290     2.5218
 2477.5000   135.7681   -90.3092     3.7516     3.8691     4.8360     0.0736     0.2762     8.6128    -0.0327     2.5211
 2478.0000   139.3825   -90.0125     3.8534     3.9464     4.6392     0.0736     0.2713     8.6135    -0.0327     2.5211
 2478.5000   135.7681   -89.8653     3.9612     4.0285     4.7039     0.0754     0.2719     8.6143    -0.0312     2.5196
 2479.0000   134.1868   -89.7192     4.0462     4.1408     4.9719     0.0760     0.2762     8.6150    -0.0298     2.5211
 2479.5000   134.4126   -89.5731     4.1569     4.2000     5.3654     0.0754     0.2858     8.6158    -0.0291     2.5264
 2480.0000   133.9608   -90.0306     4.2164     4.2555     5.4780     0.0721     0.2976     8.6165    -0.0284     2.5301
 2480.5000   130.7982   -90.3363     4.3023     4.2858     5.4402     0.0676     0.3022     8.6173    -0.0277     2.5346
 2481.0000   124.6988   -90.6420     4.3316     4.3431     5.3284     0.0658     0.3062     8.6180    -0.0277     2.5362
 2481.5000   120.4066   -90.6466     4.3611     4.3723     5.2551     0.0649     0.2957     8.6188    -0.0270     2.5362
 2482.0000   119.5030   -90.6511     4.3605     4.4325     5.2188     0.0645     0.2827     8.6195    -0.0270     2.5347
 2482.5000   120.8584   -90.6556     4.3908     4.4623     5.2188     0.0673     0.2782     8.6203    -0.0285     2.5310
 2483.0000   122.8916   -90.5084     4.4512     4.4926     5.3654     0.0709     0.2755     8.6211    -0.0292     2.5235
 2483.5000   125.1506   -90.2117     4.5438     4.5859     5.5930     0.0727     0.2746     8.6218    -0.0315     2.5227
 2484.0000   128.0874   -90.0656     4.6709     4.6489     5.8303     0.0714     0.2734     8.6226    -0.0323     2.5250
 2484.5000   132.1536   -89.7701     4.8015     4.7456     5.9941     0.0696     0.2728     8.6233    -0.0330     2.5280
 2485.0000   135.2264   -89.4734     4.9701     4.9460     6.2053     0.0684     0.2740     8.6241    -0.0330     2.5303
 2485.5000   138.3411   -89.4779     5.1446     5.1550     6.4685     0.0666     0.2794     8.6239    -0.0331     2.5340
 2486.0000   139.8343   -89.4825     5.2520     5.3727     6.6964     0.0660     0.2869     8.6231    -0.0323     2.5348
 2486.5000   139.0351   -89.4870     5.3616     5.4844     6.9323     0.0668     0.2914     8.6224    -0.0301     2.5278
 2487.0000   136.5933   -89.4915     5.5115     5.5985     7.0870     0.0706     0.2911     8.6216    -0.0294     2.5243
