~VERSION INFORMATION
 VERS.                2.0:   CWLS LOG ASCII STANDARD - VERSION 2.0
 WRAP.                 NO:   ONE LINE PER DEPTH STEP
~WELL INFORMATION
#MNEM.UNIT      DATA TYPE    INFORMATION
#----------   ------------   ------------------------------
 STRT.F           34.0000:   START DEPTH
 STOP.F          616.0000:   STOP DEPTH
 STEP.F            0.5000:   STEP LENGTH
 NULL.          -999.2500:   NO VALUE
 COMP. FENIX & SCISSON INC:   COMPANY
 WELL. NAVAL PETROLEUM RESERVE 3 S-10 #86-10:   WELL
 FLD .             TEAPOT:   FIELD
 LOC .      S10 T38N R78W:   LOCATION
 CNTY.            NATRONA:   COUNTY
 STAT.            WYOMING:   STATE
 CTRY. UNITED STATES OF AMERICA:   COUNTRY
 SRVC.              Welex:   SERVICE COMPANY
 DATE.        12-APR-1977:   LOGDATE
 API .       490251033800:   API NUMBER
~CURVE INFORMATION
#MNEM.UNIT       API CODE    CURVE DESCRIPTION
#----------   ------------   ------------------------------
 DEPT.F                  :   
 CALD.IN     45 280 60 00:   CALIPER FROM DENSITY LOG
 GRD .GAPI   45 310 01 00:   GAMMA RAY FROM DENSITY LOG
 CORR.G/C3   45 356 01 00:   DENSITY CORRECTION
 DPHI.DEC    45 890 12 00:   DENSITY POROSITY SANDSTONE
 RHOB.G/C3   45 350 01 00:   BULK DENSITY
 SPR .MV     07 010 01 00:   SPONTANEOUS POTENTIAL
 ILD .OHMM   07 120 46 00:   INDUCTION LOG DEEP
 ILM .OHMM   07 120 44 00:   INDUCTION LOG MEDIUM
 SGRD.OHMM   07 221 05 00:   SHALLOW SHORT GUARD RESISTIVITY
~PARAMETER INFORMATION
#MNEM.UNIT          VALUE    DESCRIPTION
#----------   ------------   ------------------------------
 PD  .                 GL:   PERMANENT DATUM
 EPD .F              5240:   ELEVATION PERMANENT DATUM
 LMF .                 KB:   LOG MEASURED FROM
 DAPD.F                 5:   FEET ABOVE PERMANENT DATUM
 DMF .                 KB:   DRILLING MEASURED FROM
 EKB .F              5245:   KELLING BUSHING
 EGL .F              5240:   GROUND LEVEL
 DATE.        12-APR-1977:   RUN DATE
 RUN .                  1:   RUN NUMBER
 DD  .F               625:   DEPTH DRILLER
 DL  .F               617:   DEPTH LOGGER
 BLI .F               615:   BOTTOM LOG INTERVAL
 TLI .F                35:   TOP LOG INTERVAL
 CS  .IN            8.625:   CASING SIZE
 BS  .IN            7.875:   BIT SIZE
 BSD .F               625:   BIT SIZE AT DEPTH
 DFT .           KCL- GEL:   DRILLING FLUID TYPE
 DFD .                8.8:   DRILLING FLUID DENSITY
 BHT .F                68:   BOTTOM HOLE TEMPERATURE
 TCS .HRS            0100:   TIME CURCULATED STOPPED
 MRT .F                68:   MAXIMUM RECORDED TEMPERATURE
 ENGI.        E. CALLAHAN:   RECORDING ENGINEER
 WITN.            R. LYON:   WITNESSED BY
 CLNT.            A2DTECH:   CLIENT CODE
 ORIG.           5" PRINT:   ORIGIN OF DATA
 UWI .       490251033800:   UNIQUE WELL ID
 DICO. A2D Technologies, Inc.:   DIGITIZING COMPANY
~OTHER INFORMATION
~A   DEPT     CALD        GRD       CORR       DPHI         RHOB      SPR        ILD        ILM       SGRD   
# ...
  107.0000     8.0917   121.0456     0.0326     0.1038     2.4923  -100.0000     6.8464     7.9013    10.4213
  107.5000     8.0929   120.7555     0.0267     0.1071     2.4833  -100.0000     6.9400     8.0093    10.2037
  108.0000     8.0940   121.0633     0.0237     0.1113     2.4729  -100.0000     6.9867     8.1181    10.2002
  108.5000     8.0950   121.8140     0.0178     0.1124     2.4684  -100.0000     6.9853     8.2855    10.5556
  109.0000     8.0960   122.2680     0.0164     0.1130     2.4669  -100.0000     7.0812     8.5144    10.9993
  109.5000     8.0971   122.5736     0.0164     0.1133     2.4670  -100.0000     7.1292     8.5705    11.3836
  110.0000     8.0981   121.5417     0.0150     0.1118     2.4715  -100.0000     7.1772     8.6870    11.9434
  110.5000     8.0991   122.4430     0.0151     0.1141     2.4656  -100.0000     7.2256     8.7450    12.3596
  111.0000     8.1002   123.3421     0.0152     0.1147     2.4686  -100.0000     7.3244     8.8027    12.3553
  111.5000     8.1012   124.3895     0.0152     0.1114     2.4784  -100.0000     7.3737     8.7382    12.0973
  112.0000     8.1023   124.5468     0.0168     0.1104     2.4664  -100.0000     7.3722     8.3222    11.7630
  112.5000     8.1033   124.1105     0.0199     0.1128     2.4695  -100.0000     7.4222     8.4938    11.7589
  113.0000     8.1043   123.3776     0.0245     0.1077     2.4837  -100.0000     7.4203     8.6092    12.0014
  113.5000     8.1054   122.6446     0.0276     0.1020     2.4920  -100.0000     7.5221     8.7269    11.9145
  114.0000     8.1064   121.7633     0.0279     0.0995     2.4935   -99.2515     7.5205     8.9069    11.5853
  114.5000     8.1074   121.1764     0.0247     0.0995     2.4838   -98.2036     7.5190     9.0271    11.6617
  115.0000     8.1085   122.6712     0.0203     0.1020     2.4831   -97.0060     7.5700     9.0874    12.3212
  115.5000     8.1095   121.4931     0.0188     0.1034     2.4854   -95.8084     7.5681     9.0208    12.9283
  116.0000     8.1105   120.1667     0.0219     0.1005     2.4900   -94.4611     7.6194     9.0177    12.4843
  116.5000     8.1116   119.8788     0.0235     0.0985     2.4930   -92.8144     7.7236     9.1402    12.9193
  117.0000     8.1126   119.4426     0.0251     0.0982     2.4960   -91.1677     7.7760     9.2005    13.1858
  117.5000     8.1136   118.5613     0.0252     0.0998     2.4901   -89.8204     7.8284     9.7208    13.0903
  118.0000     8.1147   117.2348     0.0271     0.1017     2.4871   -88.6228     7.9905    10.2714    13.0858
  118.5000     8.1157   116.3535     0.0287     0.1014     2.4909   -88.4731     8.0624    10.0561    13.0813
  119.0000     8.1167   115.3238     0.0303     0.0989     2.4969   -87.4251     8.2118     9.4456    13.4437
  119.5000     8.1178   114.5908     0.0330     0.0959     2.5022   -86.2275     8.3823     9.5739    13.2544
  120.0000     8.1188   112.3742     0.0345     0.0926     2.5075   -85.7784     8.4974    10.0189    12.8881
  120.5000     8.1199   112.0861     0.0361     0.0893     2.5098   -85.7784     8.6257    10.5557    13.0632
  121.0000     8.1209   112.8370     0.0347     0.0863     2.5106   -87.2755     8.6836    10.7731    15.3116
  121.5000     8.1219   114.0328     0.0333     0.0859     2.5084   -91.0180     8.8025    10.8298    20.6112
  122.0000     8.1230   117.3058     0.0318     0.0943     2.5017   -93.2635     8.8502    10.7512    13.9846
  122.5000     8.1241   119.8369     0.0319     0.1027     2.4889   -93.8623     8.7873    10.7475    13.6926
  123.0000     8.1250   119.8458     0.0320     0.1042     2.4800   -94.0120     8.7141    10.5961    13.8786
  123.5000     8.1261   121.1900     0.0336     0.1056     2.4845   -94.0120     8.6629    10.5925    13.9704
  124.0000     8.1271   122.0891     0.0336     0.1056     2.4868   -93.8623     8.5911    10.5158    13.6784
  124.5000     8.1281   122.6914     0.0322     0.1071     2.4778   -93.5629     8.4715    10.5121    13.3927
  125.0000     8.1292   123.1454     0.0263     0.1097     2.4689   -93.2635     8.3631    10.5085    13.2041
  125.5000     8.1302   123.1543     0.0234     0.1124     2.4637   -92.6647     8.2464    10.5049    13.0181
  126.0000     8.1312   123.0148     0.0249     0.1127     2.4638   -91.9162     8.1878    10.4173    12.9239
  126.5000     8.1323   122.5727     0.0265     0.1066     2.4767   -91.0180     8.1861    10.2110    12.9194
  127.0000     8.1182   121.8378     0.0326     0.1006     2.4896   -90.4192     8.1844     9.9872    12.9149
  127.5000     8.1195   121.2512     0.0387     0.0915     2.5085   -89.3713     8.1827     9.8569    13.2730
  128.0000     8.1205   120.6647     0.0402     0.0804     2.5225   -89.3494     8.1810    10.0113    13.5467
  128.5000     8.1216   120.0643     0.0388     0.0784     2.5231   -89.8204     8.2443    10.3493    13.3557
  129.0000     8.1226   118.8665     0.0374     0.0795     2.5202   -90.2695     8.4073    10.2346    13.2590
  129.5000     8.1236   117.4036     0.0344     0.0764     2.5273   -89.9701     8.5307     9.3779    13.6266
  130.0000     8.1247   116.5381     0.0345     0.0725     2.5330   -89.6707     8.6476     9.5229    13.1585
  130.5000     8.1257   115.1662     0.0376     0.0711     2.5360   -89.0719     8.8190    10.0610    13.0517
  131.0000     8.1268   114.2014     0.0407     0.0709     2.5383   -89.0719     8.8171    10.4742    13.2407
  131.5000     8.1278   113.9136     0.0423     0.0692     2.5376   -89.3713     8.8766    10.9900    18.9686
  132.0000     8.1288   115.0346     0.0408     0.0699     2.5241   -89.8204     8.8673    11.2071    23.0161
  132.5000     8.1299   119.8682     0.0394     0.0791     2.5099   -90.4192     8.8116    10.8134    15.1903
  133.0000     8.1309   124.4765     0.0350     0.0931     2.4995   -90.8683     8.6819    10.3623    12.3384
  133.5000     8.1319   128.6397     0.0305     0.0997     2.4913   -91.0180     8.6205    10.0916    13.3096
  134.0000     8.1330   130.1322     0.0261     0.1045     2.4831   -90.5689     8.4480     9.9495    13.9654
  134.5000     8.1340   131.3281     0.0216     0.1095     2.4749   -89.9701     8.3880     9.9460    13.6737
  135.0000     8.1350   132.5239     0.0158     0.1140     2.4666   -89.3713     8.2654     9.9426    13.2958
  135.5000     8.1361   133.4230     0.0143     0.1167     2.4599   -88.7725     8.1557     9.9391    13.1996
  136.0000     8.1371   134.1737     0.0129     0.1181     2.4555   -88.4731     8.0925     9.9357    13.1950
  136.5000     8.1381   135.8146     0.0130     0.1187     2.4525   -88.0239     7.9798     9.6551    13.0995
  137.0000     8.1392   135.2300     0.0116     0.1163     2.4623   -87.4251     7.9281     9.0692    12.8259
  137.5000     8.1402   134.4970     0.0117     0.1127     2.4706   -87.2755     7.8718     9.0716    12.4715
  138.0000     8.1412   134.9510     0.0102     0.1093     2.4766   -86.9761     7.8116     9.2637    12.3812
  138.5000     8.1423   134.3664     0.0103     0.1108     2.4722   -86.3772     7.7563     9.3246    12.3769
  139.0000     8.1433   132.8916     0.0104     0.1111     2.4692   -85.7784     7.7013     9.3164    12.3726
  139.5000     8.1444   131.8619     0.0104     0.1102     2.4737   -85.1796     7.4933     9.2490    12.5407
  140.0000     8.1454   133.0577     0.0105     0.1113     2.4745   -84.2814     7.3345     9.2458    12.7994
  140.5000     8.1464   131.8796     0.0091     0.1134     2.4678   -83.2335     7.0868     9.1788    12.4456
  141.0000     8.1475   131.5896     0.0092     0.1173     2.4559   -82.6347     6.9369     9.0496    11.8531
  141.5000     8.1485   131.1555     0.0092     0.1211     2.4431   -82.0359     6.8403     8.7320    11.3671
  142.0000     8.1496   130.4203     0.0093     0.1238     2.4387   -82.4850     6.7010     8.2653    10.9010
  142.5000     8.1506   130.1347     0.0094     0.1223     2.4470   -83.8323     6.6534     8.3805    10.5267
  143.0000     8.1516   129.1050     0.0095     0.1196     2.4530   -84.5808     6.6520     8.3693    10.3068
