~VERSION INFORMATION
 VERS.                2.0:   CWLS LOG ASCII STANDARD - VERSION 2.0
 WRAP.                 NO:   ONE LINE PER DEPTH STEP
~WELL INFORMATION
#MNEM.UNIT      DATA TYPE    INFORMATION
#----------   ------------   ------------------------------
 STRT.F            0.0000:   START DEPTH
 STOP.F          625.0000:   STOP DEPTH
 STEP.F            0.5000:   STEP LENGTH
 NULL.          -999.2500:   NO VALUE
 COMP.       F D SERV INC:   COMPANY
 WELL.    75-3 SX-3 #72-3:   WELL
 FLD .             TEAPOT:   FIELD
 LOC .       S3 T38N R78W:   LOCATION
 CNTY.            NATRONA:   COUNTY
 STAT.            WYOMING:   STATE
 CTRY. UNITED STATES OF AMERICA:   COUNTRY
 SRVC.     Atlas Wireline:   SERVICE COMPANY
 DATE.        05-MAY-1992:   LOGDATE
 API .       490252251800:   API NUMBER
~CURVE INFORMATION
#MNEM.UNIT       API CODE    CURVE DESCRIPTION
#----------   ------------   ------------------------------
 DEPT.F                  :   
 CALD.IN     45 280 60 00:   CALIPER FROM DENSITY
 CORR.G/C3   45 356 01 00:   DENSITY CORRECTION
 DEN .G/C3   45 350 01 00:   COMPENSATED BULK DENSTIY
 GRD .GAPI   45 310 01 00:   GAMMA RAY FROM DENSITY LOG
 RILD.OHMM   07 120 46 00:   INDUCTION LOG DEEP RESISTIVITY
 RILM.OHMM   07 120 44 00:   INDUCTION LOG MEDIUM RESISTIVITY
 PORD.DEC    45 890 12 00:   POROSITY DENSITY SANDSTONE
~PARAMETER INFORMATION
#MNEM.UNIT          VALUE    DESCRIPTION
#----------   ------------   ------------------------------
 PD  .                 GL:   PERMANENT DATUM
 EPD .F              5148:   ELEVATION PERMANENT DATUM
 LMF .                 KB:   LOG MEASURED FROM
 DAPD.F                 5:   FEET ABOVE PERMANENT DATUM
 DMF .                 KB:   DRILLING MEASURED FROM
 EKB .F              5153:   KELLING BUSHING
 EDF .F              5152:   DRILLING FLOOR
 EGL .F              5148:   GROUND LEVEL
 DATE.        05-MAY-1992:   RUN DATE
 RUN .                  1:   RUN NUMBER
 DD  .F               630:   DEPTH DRILLER
 DL  .F               633:   DEPTH LOGGER
 BLI .F               625:   BOTTOM LOG INTERVAL
 CS  .IN            8.625:   CASING SIZE
 CBD .F                44:   CASING BOTTOM DRILLER
 CBL .F                49:   CASING BOTTOM LOGGER
 BS  .IN            7.875:   BIT SIZE
 BSD .F               630:   BIT SIZE AT DEPTH
 DFT .        AIR DRILLED:   DRILLING FLUID TYPE
 MRT .F                88:   MAXIMUM RECORDED TEMPERATURE
 LUN .           HL- 6274:   LOGGING UNIT NUMBER
 LUL .             CASPER:   LOGGING UNIT LOCATION
 ENGI.       P. RASHUSSEN:   RECORDING ENGINEER
 WITN.          G. STRONG:   WITNESSED BY
 CLNT.            A2DTECH:   CLIENT CODE
 ORIG.           5" PRINT:   ORIGIN OF DATA
 UWI .       490252251800:   UNIQUE WELL ID
 DICO. A2D Technologies, Inc.:   DIGITIZING COMPANY
~OTHER INFORMATION
~A    DEPT    CALD       CORR        DEN         GRD      RILD       RILM       PORD   
# ...
  318.5000     8.1628    -0.0038     2.5047   156.7146     8.5653     8.8112     0.0881
  319.0000     8.1475     0.0053     2.5032   162.1935     8.5624     8.8082     0.0888
  319.5000     8.1622     0.0053     2.5092   163.0582     8.4992     8.8680     0.0878
  320.0000     8.1619     0.0023     2.5228   157.3550     8.4962     8.9277     0.0836
  320.5000     8.1916    -0.0068     2.5348   155.8579     8.3754     8.8009     0.0770
  321.0000     8.1613    -0.0128     2.5499   158.2751     8.3726     8.7985     0.0679
  321.5000     8.1910    -0.0158     2.5438   161.8930     8.3697     8.7961     0.0625
  322.0000     8.2057    -0.0128     2.5287   166.7139     8.2507     8.7937     0.0698
  322.5000     8.2204    -0.0098     2.5167   170.6326     8.1334     8.7301     0.0764
  323.0000     8.2201    -0.0098     2.5015   175.7543     8.0739     8.7277     0.0840
  323.5000     8.2348    -0.0038     2.4938   176.3647     8.0149     8.6044     0.0900
  324.0000     8.2495     0.0023     2.4880   174.2683     7.7371     8.4239     0.0946
  324.5000     8.2492     0.0053     2.4895   170.6682     7.5212     8.0763     0.0997
  325.0000     8.2639     0.0083     2.4879   171.8801     7.2604     7.7972     0.1000
  325.5000     8.2636    -0.0038     2.4834   174.2950     7.0579     7.3688     0.0982
  326.0000     8.2633    -0.0128     2.4819   172.4994     6.6254     6.9097     0.0982
  326.5000     8.2629    -0.0189     2.4788   173.1117     6.2629     6.5648     0.0997
  327.0000     8.2626    -0.0068     2.4743   175.2421     5.9569     5.8504     0.1028
  327.5000     8.2623    -0.0008     2.4652   177.1078     5.3912     5.4167     0.1109
  328.0000     8.2470     0.0023     2.4426   178.9556     4.9560     4.8095     0.1175
  328.5000     8.2317    -0.0068     2.4019   180.9671     4.1991     4.2112     0.1300
  329.0000     8.2165    -0.0128     2.3671   182.4798     3.6757     3.6617     0.1544
  329.5000     8.2162    -0.0158     2.3309   185.1954     3.1071     3.2512     0.1792
  330.0000     8.2009    -0.0094     2.2766   189.7156     2.4836     2.9273     0.2124
  330.5000     8.2006     0.0053     2.2343   189.7245     2.3478     2.6174     0.2480
  331.0000     8.2003     0.0143     2.2051   187.6282     2.2194     2.3403     0.2638
  331.5000     8.2000     0.0173     2.2162   176.5092     2.1575     2.2752     0.2684
  332.0000     8.1997     0.0143     2.2524   161.1798     2.2334     2.3554     0.2578
  332.5000     8.1994     0.0143     2.3007   160.2842     2.3942     2.4899     0.2212
  333.0000     8.1841     0.0143     2.3640   164.8066     2.4959     2.6878     0.2001
  333.5000     8.1688     0.0113     2.4168   170.2290     2.6944     2.9856     0.1626
  334.0000     8.1535     0.0023     2.4500   175.9522     3.0121     3.3934     0.1318
  334.5000     8.1682     0.0023     2.4711   179.5970     3.6618     3.9852     0.1086
  335.0000     8.1829     0.0023     2.4982   178.0753     4.8074     5.1012     0.1004
  335.5000     8.1826     0.0023     2.4997   176.8811     5.2637     5.5452     0.0953
  336.0000     8.1823     0.0053     2.4861   178.6948     5.5728     6.0278     0.0959
  336.5000     8.1820     0.0083     2.4816   179.0042     5.8982     6.3721     0.0983
  337.0000     8.1817     0.0113     2.4815   177.8101     6.3043     6.6427     0.1014
  337.5000     8.1814     0.0143     2.4830   176.3175     6.5719     6.8767     0.1020
  338.0000     8.1811     0.0113     2.4860   175.7226     6.6163     7.0694     0.1011
  338.5000     8.1808     0.0053     2.4892   176.0345     6.5674     7.1174     0.0996
  339.0000     8.1955     0.0023     2.4935   176.6449     6.5194     7.0655     0.0959
  339.5000     8.1952    -0.0068     2.5056   177.8568     6.4267     6.9172     0.0914
  340.0000     8.1948    -0.0128     2.5086   179.0687     6.3798     6.5857     0.0863
  340.5000     8.1945    -0.0189     2.5056   180.2806     6.1586     6.1831     0.0872
  341.0000     8.1943    -0.0128     2.4995   182.9963     5.7409     5.8052     0.0927
  341.5000     8.1940    -0.0068     2.4708   186.0127     5.3891     5.4885     0.1027
  342.0000     8.1937     0.0023     2.4376   191.4351     5.1661     5.2254     0.1151
  342.5000     8.2084     0.0083     2.4135   192.7018     4.9522     5.0766     0.1308
  343.0000     8.2381     0.0113     2.4090   189.0469     4.7805     4.9334     0.1467
  343.5000     8.2378     0.0143     2.4240   185.1460     4.7103     4.9030     0.1431
  344.0000     8.2525     0.0146     2.4587   179.1399     4.8108     4.9016     0.1292
  344.5000     8.2522     0.0143     2.4723   177.9458     4.8855     4.9349     0.1166
  345.0000     8.2519     0.0022     2.4873   177.9249     4.9542     5.0376     0.1072
  345.5000     8.2666    -0.0071     2.4980   176.7139     5.0589     5.2150     0.1012
  346.0000     8.2663    -0.0098     2.4994   174.6664     5.2021     5.5129     0.0975
  346.5000     8.2510    -0.0068     2.4993   176.4798     5.3868     5.7470     0.0951
  347.0000     8.2506     0.0023     2.4978   176.7895     5.6171     5.9911     0.0930
  347.5000     8.2353     0.0083     2.5054   175.2946     5.9812     6.2455     0.0900
  348.0000     8.2051     0.0113     2.5114   174.6998     6.3688     6.5107     0.0867
  348.5000     8.1898     0.0053     2.5129   174.1072     6.6876     6.7871     0.0843
  349.0000     8.1445     0.0023     2.5098   175.3213     6.8769     7.0753     0.0843
  349.5000     8.1292     0.0113     2.5068   177.7362     7.1709     7.3245     0.0858
  350.0000     8.1304     0.0143     2.5045   182.9399     7.3226     7.5521     0.0870
  350.5000     8.1392     0.0083     2.4996   183.4520     7.5299     7.6855     0.0894
  351.0000     8.1480     0.0023     2.4946   183.1901     7.6357     7.8495     0.0940
  351.5000     8.1567    -0.0068     2.4870   181.7012     7.6309     7.9590     0.0952
  352.0000     8.1655    -0.0098     2.4856   179.0094     7.5826     7.9023     0.0967
  352.5000     8.1725     0.0023     2.4870   177.5167     7.4775     7.7917     0.0976
  353.0000     8.1871     0.0113     2.4952   181.4451     7.3647     7.6292     0.0972
  353.5000     8.1868     0.0173     2.5072   185.9713     7.2211     7.4182     0.0934
  354.0000     8.2015     0.0053     2.5111   186.2832     7.0716     7.2130     0.0859
  354.5000     8.2462    -0.0008     2.5126   185.3958     6.9736     7.0135     0.0834
  355.0000     8.2459    -0.0008     2.5095   188.7227     6.7345     6.8673     0.0847
  355.5000     8.2306    -0.0008     2.4989   192.9481     6.4134     6.6774     0.0886
  356.0000     8.2303    -0.0038     2.4838   196.2712     6.1077     6.4475     0.0940
  356.5000     8.2450    -0.0068     2.4747   202.3024     5.8166     6.2256     0.0989
  357.0000     8.2453    -0.0098     2.4581   203.5203     5.3868     5.7248     0.1061
  357.5000     8.2594    -0.0038     2.3842   200.2269     4.8855     5.0466     0.1131
  358.0000     8.2591     0.0053     2.3675   195.1290     4.4308     4.7709     0.1391
  358.5000     8.2420     0.0264     2.3841   183.4145     4.4308     4.7068     0.1714
  359.0000     8.1835     0.0173     2.4203   176.8129     4.5562     4.8086     0.1629
  359.5000     8.1682     0.0113     2.4610   179.8353     4.8855     5.0848     0.1403
  360.0000     8.1679     0.0053     2.5017   183.1584     5.2752     5.4248     0.0953
  360.5000     8.1826     0.0023     2.5092   184.6770     6.0231     5.7318     0.0880
  361.0000     8.1823     0.0023     2.4925   185.5941     6.6876     6.0275     0.0893
  361.5000     8.1820     0.0053     2.4804   185.9098     7.0224     6.7127     0.0944
  362.0000     8.1817     0.0085     2.4804   187.7413     7.2211     7.0477     0.0995
  362.5000     8.1814     0.0143     2.4879   189.2732     7.4255     7.2462     0.1011
  363.0000     8.1661     0.0177     2.4909   191.4066     7.5299     7.3470     0.0989
  363.5000     8.1658     0.0234     2.4924   195.4464     7.5826     7.5014     0.0968
