~VERSION INFORMATION
 VERS.                2.0:   CWLS LOG ASCII STANDARD - VERSION 2.0
 WRAP.                 NO:   ONE LINE PER DEPTH STEP
~WELL INFORMATION
#MNEM.UNIT      DATA TYPE    INFORMATION
#----------   ------------   ------------------------------
 STRT.F           22.0000:   START DEPTH
 STOP.F          533.0000:   STOP DEPTH
 STEP.F            0.5000:   STEP LENGTH
 NULL.          -999.2500:   NO VALUE
 COMP. FENIX & SCISSON INC:   COMPANY
 WELL.        NPR 3 #32-3:   WELL
 FLD .        TEAPOT DOME:   FIELD
 LOC .       S3 T38N R78W:   LOCATION
 CNTY.            NATRONA:   COUNTY
 STAT.            WYOMING:   STATE
 CTRY. UNITED STATES OF AMERICA:   COUNTRY
 SRVC.            Unknown:   SERVICE COMPANY
 DATE.        19-JUL-1978:   LOGDATE
 API .       490251067200:   API NUMBER
~CURVE INFORMATION
#MNEM.UNIT       API CODE    CURVE DESCRIPTION
#----------   ------------   ------------------------------
 DEPT.F                  :   
 SPR .MV     05 010 01 00:   SPONTANEOUS POTENTIAL FROM RES.
 SN  .OHMM   05 040 16 00:   SHORT NORMAL 16"
 IL  .OHMM   05 120 00 00:   INDUCTION LOG
 RHOB.G/C3   45 350 01 00:   BULK DENSITY
 DPHI.DEC    45 890 12 00:   DENSITY POROSITY SANDSTONE
 CORR.G/C3   45 356 01 00:   DENSITY CORRECTION
 CALD.IN     45 280 60 00:   CALIPER
 GRD .GAPI   45 310 01 00:   GAMMA RAY FROM DENSITY LOG
~PARAMETER INFORMATION
#MNEM.UNIT          VALUE    DESCRIPTION
#----------   ------------   ------------------------------
 PD  .                 GL:   PERMANENT DATUM
 EPD .F              5179:   ELEVATION PERMANENT DATUM
 LMF .                 KB:   LOG MEASURED FROM
 DAPD.F                 4:   FEET ABOVE PERMANENT DATUM
 DMF .                 KB:   DRILLING MEASURED FROM
 EKB .F              5183:   KELLING BUSHING
 EGL .F              5179:   GROUND LEVEL
 DATE.            7-19-78:   RUN DATE
 RUN .                  1:   RUN NUMBER
 DD  .F               520:   DEPTH DRILLER
 DL  .F               533:   DEPTH LOGGER
 BLI .F               527:   BOTTOM LOG INTERVAL
 TLI .F                50:   TOP LOG INTERVAL
 CS  .IN            8.625:   CASING SIZE
 CBD .F                40:   CASING BOTTOM DRILLER
 BS  .IN            7.875:   BIT SIZE
 BSD .F               520:   BIT SIZE AT DEPTH
 DFT .                KCL:   DRILLING FLUID TYPE
 DFD .                8.7:   DRILLING FLUID DENSITY
 DFV .                 33:   DRILLING FLUID VISCOSITY
 DFPH.                  9:   DRILLING FLUID PH
 DFL .               12.4:   DRILLING FLUID LOSS
 MSS .          FLOW LINE:   MUD SAMPLE SOURCE
 RMS .OHMM            .28:   RESISTIVITY MUD SAMPLE
 MST .F                70:   MUD SAMPLE TEMPERATURE
 RMF .OHMM            .24:   RESISTIVITY MUD FILTRATE SAMPLE
 MFST.F                76:   MUD FILTRATE SAMPLE TEMPERATURE
 RMC .OHMM             .5:   RESISTIVITY MUD CAKE
 MCST.F                78:   MUD CAKE SAMPLE TEMPERATURE
 MFSS.               MEAS:   MUD FILTRATE SAMPLE SOURCE
 MCSS.               MEAS:   MUD CAKE SAMPLE SOURCE
 TCS .HRS               2:   TIME CURCULATED STOPPED
 LUN .               2958:   LOGGING UNIT NUMBER
 LUL .               CASP:   LOGGING UNIT LOCATION
 ENGI.             MILLER:   RECORDING ENGINEER
 WITN.           MCGINLEY:   WITNESSED BY
 CLNT.            A2DTECH:   CLIENT CODE
 ORIG.           5" PRINT:   ORIGIN OF DATA
 UWI .       490251067200:   UNIQUE WELL ID
 DICO. A2D Technologies, Inc.:   DIGITIZING COMPANY
~OTHER INFORMATION
~A   DEPT      SPR         SN         IL       RHOB       DPHI       CORR       CALD         GRD  
# ...
  143.5000   -26.8639     7.8345     8.4526     2.4750     0.1288    -0.0075     7.6290    84.2846
  144.0000   -26.8733     7.7755     8.3733     2.4641     0.1361    -0.0155     7.6289    82.3071
  144.5000   -26.8827     7.7169     8.2972     2.4549     0.1394    -0.0202     7.6290    82.6020
  145.0000   -26.8920     7.6589     8.2411     2.4541     0.1392    -0.0154     7.6301    84.3201
  145.5000   -26.9014     7.6012     8.1870     2.4506     0.1428    -0.0101     7.6371    85.4708
  146.0000   -26.9108     7.5440     8.1332     2.4476     0.1436    -0.0048     7.6441    85.6735
  146.5000   -26.9202     7.5017     8.0799     2.4511     0.1348     0.0004     7.6510    85.8958
  147.0000   -26.9295     7.5578     8.0268     2.4644     0.1260     0.0016     7.6579    85.7764
  147.5000   -26.9389     7.6118     7.9987     2.4796     0.1175    -0.0030     7.6648    85.4721
  148.0000   -26.9483     7.6660     8.1245     2.4893     0.1156    -0.0076     7.6718    85.1773
  148.5000   -26.9577     7.7206     8.2113     2.4877     0.1216    -0.0121     7.6787    85.6247
  149.0000   -26.9671     7.7755     8.2991     2.4827     0.1230    -0.0167     7.6856    85.9958
  149.5000   -26.9764     7.8308     8.3878     2.4782     0.1303    -0.0212     7.6925    85.0937
  150.0000   -26.9858     7.8865     8.4774     2.4680     0.1365    -0.0225     7.6995    84.3786
  150.5000   -26.9952     7.9426     8.5680     2.4579     0.1420    -0.0138     7.7067    84.8374
  151.0000   -27.0046     7.9991     8.6596     2.4530     0.1315    -0.0055     7.7068    86.3769
  151.5000   -27.0140     8.0560     8.6864     2.4605     0.1267     0.0017     7.7038    87.9001
  152.0000   -27.0232     8.0749     8.6864     2.4679     0.1259     0.0006     7.7009    86.7888
  152.5000   -27.0300     8.0785     8.6865     2.4742     0.1279    -0.0004     7.6979    84.7004
  153.0000   -27.0296     8.0821     8.6864     2.4730     0.1320    -0.0014     7.6949    83.3930
  153.5000   -27.0304     8.0857     8.6864     2.4669     0.1269    -0.0024     7.6920    83.1965
  154.0000   -26.8788     8.0894     8.6864     2.4711     0.1284    -0.0033     7.6890    82.8000
  154.5000   -26.5949     8.0930     8.6864     2.4773     0.1244    -0.0042     7.6860    81.8629
  155.0000   -26.3014     8.0966     8.6864     2.4730     0.1300    -0.0052     7.6831    80.9406
  155.5000   -26.2380     8.1002     8.6864     2.4669     0.1348    -0.0034     7.6801    80.0143
  156.0000   -26.2368     8.1038     8.6864     2.4648     0.1356    -0.0015     7.6771    79.0798
  156.5000   -26.2375     8.1074     8.6864     2.4647     0.1329     0.0004     7.6742    78.6571
  157.0000   -26.2376     8.1111     8.6864     2.4657     0.1258     0.0022     7.6712    81.3509
  157.5000   -26.2376     8.1147     8.6919     2.4713     0.1180     0.0026     7.6682    83.9093
  158.0000   -26.2376     8.1183     8.7016     2.4855     0.1280    -0.0004     7.6653    83.3480
  158.5000   -26.2376     8.1220     8.7114     2.4848     0.1328    -0.0032     7.6623    82.5389
  159.0000   -26.2376     8.1256     8.7212     2.4722     0.1268    -0.0063     7.6593    82.2244
  159.5000   -26.2376     8.1292     8.7310     2.4594     0.1356    -0.0052     7.6564    83.2436
  160.0000   -26.2376     8.1328     8.7407     2.4583     0.1347    -0.0043     7.6534    85.9482
  160.5000   -26.2376     8.1364     8.7506     2.4608     0.1316    -0.0034     7.6507    86.1221
  161.0000   -26.2376     8.1398     8.7604     2.4675     0.1286    -0.0023     7.6615    85.8265
  161.5000   -26.2376     8.1445     8.7927     2.4711     0.1311     0.0016     7.6905    85.7822
  162.0000   -26.2377     8.1439     8.8804     2.4675     0.1312     0.0055     7.7192    85.4283
  162.5000   -26.2380     8.2736     9.0580     2.4696     0.1196     0.0079     7.7480    83.0033
  163.0000   -26.2358     8.3814     9.2384     2.4801     0.1194     0.0088     7.7772    80.7844
  163.5000   -26.1756     8.4905     9.4223     2.4883     0.1192     0.0096     7.8069    79.8618
  164.0000   -26.1131     8.6011     9.6080     2.4866     0.1267     0.0105     7.8290    80.1779
  164.5000   -26.0508     8.7131     9.7971     2.4723     0.1281     0.0114     7.8284    81.8861
  165.0000   -26.0395     8.8266     9.9880     2.4760     0.1225     0.0067     7.8298    82.5872
  165.5000   -25.9741     8.9347    10.1826     2.4826     0.1168     0.0005     7.8316    82.4228
  166.0000   -25.6341     9.0426    10.3809     2.4890     0.1214    -0.0041     7.8334    81.4012
  166.5000   -25.2999     9.1517    10.5832     2.4821     0.1277    -0.0014     7.8352    80.5960
  167.0000   -25.2106     9.2622    10.7893     2.4739     0.1278     0.0012     7.8370    80.7910
  167.5000   -25.1665     9.3741    10.9995     2.4719     0.1280    -0.0011     7.8388    81.0439
  168.0000   -25.1232     9.4872    11.2138     2.4720     0.1223    -0.0043     7.8405    80.1039
  168.5000   -25.0794     9.6018    11.4322     2.4802     0.1164     0.0003     7.8423    77.7135
  169.0000   -25.0356     9.7177    11.6550     2.4886     0.1151     0.0061     7.8441    75.2564
  169.5000   -24.9917     9.8350    11.8821     2.4969     0.1106     0.0070     7.8459    74.1245
  170.0000   -24.9479     9.9025    12.1141     2.5041     0.1060     0.0064     7.8477    73.1042
  170.5000   -24.9040     9.9614    12.2585     2.4992     0.1040     0.0057     7.8495    72.3515
  171.0000   -24.8602    10.0207    12.3587     2.5094     0.1088     0.0051     7.8513    71.5086
  171.5000   -24.8163    10.0804    12.4592     2.5021     0.1152     0.0044     7.8531    70.6411
  172.0000   -24.7724    10.1404    12.5327     2.4906     0.1216     0.0038     7.8549    71.4647
  172.5000   -24.7284    10.2008    12.4963     2.4791     0.1280     0.0028     7.8566    73.0613
  173.0000   -24.6849    10.2443    12.4625     2.4683     0.1300     0.0017     7.8584    74.9446
  173.5000   -24.6609    10.1350    12.4288     2.4682     0.1293     0.0005     7.8602    76.9572
  174.0000   -24.6960    10.0506    12.1954     2.4687     0.1288    -0.0006     7.8620    77.4271
  174.5000   -24.7292     9.9668    11.8786     2.4692     0.1320    -0.0017     7.8638    77.6403
  175.0000   -24.7624     9.8838    11.5709     2.4646     0.1351    -0.0028     7.8656    77.8497
  175.5000   -24.7956     9.8015    11.3800     2.4592     0.1398    -0.0040     7.8674    78.0498
  176.0000   -24.8282     9.7198    11.3125     2.4504     0.1448    -0.0021     7.8692    77.5921
  176.5000   -24.8463     9.6389    11.2865     2.4444     0.1426     0.0025     7.8710    76.9722
  177.0000   -24.8269     9.5586    11.2606     2.4476     0.1408     0.0070     7.8727    77.2872
  177.5000   -24.8082     9.5069    11.2285     2.4472     0.1440     0.0116     7.8745    80.2510
  178.0000   -24.7894     9.4832    11.2466     2.4456     0.1380     0.0117     7.8763    80.6523
  178.5000   -24.7706     9.4589    11.2732     2.4551     0.1335     0.0089     7.8781    79.7275
  179.0000   -24.7519     9.4333    11.2998     2.4639     0.1352     0.0060     7.8799    78.8418
  179.5000   -24.7331     9.4223    11.3265     2.4608     0.1369     0.0031     7.8817    76.1970
  180.0000   -24.7144     9.4074    11.3533     2.4590     0.1337     0.0001     7.8835    73.2802
  180.5000   -24.6955     9.3925    11.3801     2.4638     0.1325    -0.0022     7.8853    72.3948
  181.0000   -24.6764     9.3775    11.4070     2.4658     0.1328     0.0035     7.8869    71.2671
  181.5000   -24.6534     9.3626    11.4352     2.4616     0.1388     0.0092     7.8874    70.7011
  182.0000   -24.8300     9.3458    11.2598     2.4581     0.1321     0.0053     7.8880    72.1853
  182.5000   -25.0632     9.2305    11.0784     2.4650     0.1264     0.0006     7.8886    73.2150
  183.0000   -25.2956     9.1099    10.9000     2.4722     0.1296    -0.0006     7.8891    74.1109
  183.5000   -25.4613     8.9910    10.7532     2.4677     0.1373     0.0050     7.8897    74.2138
