~VERSION INFORMATION
 VERS.                2.0:   CWLS LOG ASCII STANDARD - VERSION 2.0
 WRAP.                 NO:   ONE LINE PER DEPTH STEP
~WELL INFORMATION
#MNEM.UNIT      DATA TYPE    INFORMATION
#----------   ------------   ------------------------------
 STRT.F           30.5000:   START DEPTH
 STOP.F          674.0000:   STOP DEPTH
 STEP.F            0.5000:   STEP LENGTH
 NULL.          -999.2500:   NO VALUE
 COMP. FENIX & SCISSON INC:   COMPANY
 WELL. NPR 3 #37 SX 34-34:   WELL
 FLD .        TEAPOT DOME:   FIELD
 LOC .      S34 T39N R78W:   LOCATION
 CNTY.            NATRONA:   COUNTY
 STAT.            WYOMING:   STATE
 CTRY. UNITED STATES OF AMERICA:   COUNTRY
 SRVC.           BIRDWELL:   SERVICE COMPANY
 DATE.        21-JAN-1979:   LOGDATE
 API .       490251074400:   API NUMBER
~CURVE INFORMATION
#MNEM.UNIT       API CODE    CURVE DESCRIPTION
#----------   ------------   ------------------------------
 DEPT.F                  :   
 SPR .MV     05 010 01 00:   SPONTANEOUS POTENTIAL FROM RES.
 SN  .OHMM   05 040 16 00:   SHORT NORMAL 16"
 IL  .OHMM   05 120 00 00:   INDUCTION LOG
 CALD.IN     45 280 60 00:   CALIPER
 GRD .GAPI   45 310 01 00:   GAMMA RAY FROM DENSITY LOG
 RHOB.G/C3   45 350 01 00:   BULK DENSITY
 DPHI.DEC    45 890 12 00:   DENSITY POROSITY SANDSTONE
 CORR.G/C3   45 356 01 00:   DENSITY CORRECTION
~PARAMETER INFORMATION
#MNEM.UNIT          VALUE    DESCRIPTION
#----------   ------------   ------------------------------
 PD  .                 GL:   PERMANENT DATUM
 EPD .F              5175:   ELEVATION PERMANENT DATUM
 LMF .                 KB:   LOG MEASURED FROM
 DAPD.F                 4:   FEET ABOVE PERMANENT DATUM
 DMF .                 KB:   DRILLING MEASURED FROM
 EKB .F              5179:   KELLING BUSHING
 EGL .F              5175:   GROUND LEVEL
 DATE.            1-21-79:   RUN DATE
 RUN .                  1:   RUN NUMBER
 DD  .F               674:   DEPTH DRILLER
 DL  .F               673:   DEPTH LOGGER
 BLI .F               666:   BOTTOM LOG INTERVAL
 TLI .F                40:   TOP LOG INTERVAL
 CS  .IN            8.625:   CASING SIZE
 CBD .F                40:   CASING BOTTOM DRILLER
 CBL .F                30:   CASING BOTTOM LOGGER
 BS  .IN            7.875:   BIT SIZE
 BSD .F               674:   BIT SIZE AT DEPTH
 DFT .                KCL:   DRILLING FLUID TYPE
 DFD .                8.8:   DRILLING FLUID DENSITY
 DFV .                 60:   DRILLING FLUID VISCOSITY
 DFPH.                9.5:   DRILLING FLUID PH
 DFL .                  8:   DRILLING FLUID LOSS
 MSS .           FLOWLINE:   MUD SAMPLE SOURCE
 RMS .OHMM            .23:   RESISTIVITY MUD SAMPLE
 MST .F                56:   MUD SAMPLE TEMPERATURE
 MFSS.           MEASURED:   MUD FILTRATE SAMPLE SOURCE
 MCSS.           MEASURED:   MUD CAKE SAMPLE SOURCE
 RMB .OHMM            .22:   RESISTIVITY MUD AT BHT
 BHT .F                60:   BOTTOM HOLE TEMPERATURE
 TCS .HRS               4:   TIME CURCULATED STOPPED
 MRT .F                60:   MAXIMUM RECORDED TEMPERATURE
 LUN .               3006:   LOGGING UNIT NUMBER
 LUL .             CASPER:   LOGGING UNIT LOCATION
 ENGI.            ROLLINS:   RECORDING ENGINEER
 WITN.           DINSMORE:   WITNESSED BY
 CLNT.            A2DTECH:   CLIENT CODE
 ORIG.       2", 5" PRINT:   ORIGIN OF DATA
 UWI .       490251074400:   UNIQUE WELL ID
 DICO. A2D Technologies, Inc.:   DIGITIZING COMPANY
~OTHER INFORMATION
~A   DEPT      SPR         SN         IL       CALD        GRD       RHOB       DPHI       CORR   
# ...
  233.0000   -46.3930     7.8420     7.4870     8.1590   111.3510     2.4830     0.1200     0.0200
  233.5000   -46.3930     7.8330     7.4730     8.1580   113.8870     2.4810     0.1200     0.0200
  234.0000   -46.3930     7.8230     7.4590     8.1600   117.3480     2.4790     0.1210     0.0200
  234.5000   -46.3930     7.8130     7.4450     8.1610   118.0540     2.4780     0.1200     0.0200
  235.0000   -46.3930     7.8040     7.4320     8.1630   113.1110     2.4780     0.1200     0.0200
  235.5000   -46.3930     7.7940     7.4180     8.1650   110.8360     2.4780     0.1190     0.0200
  236.0000   -46.3930     7.7850     7.4040     8.1660   109.1020     2.4790     0.1190     0.0200
  236.5000   -46.3930     7.7750     7.3900     8.1680   107.5470     2.4810     0.1180     0.0210
  237.0000   -46.3930     7.7660     7.3770     8.1690   107.5700     2.4830     0.1180     0.0240
  237.5000   -46.3930     7.7560     7.3630     8.1710   108.5540     2.4830     0.1170     0.0260
  238.0000   -46.3930     7.7460     7.3490     8.1730   112.6630     2.4830     0.1130     0.0260
  238.5000   -46.3930     7.7370     7.3310     8.1740   113.6270     2.4880     0.1100     0.0250
  239.0000   -46.3930     7.7270     7.3200     8.1760   113.5070     2.4940     0.1060     0.0190
  239.5000   -46.3930     7.7180     7.3940     8.1780   112.7670     2.5030     0.1020     0.0070
  240.0000   -46.3930     7.7080     7.3890     8.1760   113.2280     2.5120     0.0990    -0.0010
  240.5000   -46.3810     7.6980     7.3890     8.1740   116.7320     2.5200     0.0970     0.0000
  241.0000   -46.3630     7.6890     7.3890     8.1710   118.7650     2.5220     0.1000     0.0080
  241.5000   -46.3450     7.6790     7.3890     8.1680   121.0640     2.5150     0.1050     0.0140
  242.0000   -46.3270     7.6700     7.3890     8.1650   122.7800     2.5070     0.1090     0.0180
  242.5000   -46.3090     7.6600     7.3890     8.1630   122.5370     2.4990     0.1130     0.0170
  243.0000   -46.2910     7.6510     7.3890     8.1600   122.2100     2.4910     0.1150     0.0160
  243.5000   -46.2730     7.6410     7.3890     8.1570   123.0550     2.4890     0.1140     0.0160
  244.0000   -46.2550     7.6310     7.3890     8.1550   124.3240     2.4900     0.1120     0.0160
  244.5000   -46.2370     7.6220     7.3890     8.1520   124.6290     2.4910     0.1100     0.0150
  245.0000   -46.2190     7.6120     7.3890     8.1490   121.8090     2.4950     0.1090     0.0150
  245.5000   -46.2010     7.6020     7.3890     8.1470   118.5450     2.4960     0.1120     0.0150
  246.0000   -46.1820     7.5970     7.3880     8.1440   117.8230     2.4950     0.1130     0.0150
  246.5000   -46.1640     7.6420     7.4240     8.1410   118.9700     2.4940     0.1130     0.0140
  247.0000   -46.1460     7.6760     7.4700     8.1380   119.5720     2.4930     0.1120     0.0140
  247.5000   -46.1280     7.7100     7.5150     8.1390   118.0950     2.4920     0.1110     0.0130
  248.0000   -46.1100     7.7440     7.5610     8.1410   116.0980     2.4940     0.1090     0.0120
  248.5000   -46.0920     7.7780     7.6070     8.1430   114.2040     2.4960     0.1090     0.0110
  249.0000   -46.0740     7.8110     7.6520     8.1450   114.2370     2.4970     0.1140     0.0100
  249.5000   -46.0560     7.8450     7.6980     8.1470   114.2730     2.4960     0.1160     0.0080
  250.0000   -46.0380     7.8790     7.7430     8.1480   110.1400     2.4910     0.1160     0.0110
  250.5000   -46.0200     7.9130     7.8090     8.1500   109.2480     2.4870     0.1160     0.0150
  251.0000   -46.0020     7.9550     7.7380     8.1520   110.5460     2.4840     0.1180     0.0190
  251.5000   -45.9840     7.9170     7.6070     8.1540   111.3320     2.4820     0.1190     0.0220
  252.0000   -45.9660     7.8520     7.4760     8.1560   111.3280     2.4820     0.1160     0.0220
  252.5000   -45.9480     7.7860     7.3450     8.1580   111.3000     2.4820     0.1130     0.0220
  253.0000   -45.9290     7.7200     7.2130     8.1420   112.5030     2.4880     0.1110     0.0220
  253.5000   -45.9110     7.6550     7.1220     8.1190   115.9040     2.4930     0.1110     0.0220
  254.0000   -45.8930     7.5890     7.1220     8.0990   119.7240     2.4940     0.1110     0.0200
  254.5000   -45.8750     7.5230     7.1220     8.1190   122.7760     2.4940     0.1110     0.0180
  255.0000   -45.8570     7.4580     7.1220     8.1400   122.5970     2.4940     0.1110     0.0160
  255.5000   -45.8390     7.4040     7.1220     8.1580   118.2140     2.4940     0.1120     0.0140
  256.0000   -45.8210     7.3510     7.1220     8.1550   113.5030     2.4930     0.1150     0.0120
  256.5000   -45.8030     7.2970     7.1220     8.1530   110.5040     2.4920     0.1230     0.0170
  257.0000   -45.7850     7.2440     7.1220     8.1510   111.6000     2.4840     0.1240     0.0200
  257.5000   -45.7670     7.1880     7.1220     8.1490   113.2570     2.4760     0.1250     0.0210
  258.0000   -45.7490     7.2400     7.1220     8.1460   114.9150     2.4720     0.1210     0.0210
  258.5000   -45.7310     7.2950     7.1220     8.1440   115.9100     2.4760     0.1150     0.0220
  259.0000   -45.7130     7.3510     7.1210     8.1420   116.8970     2.4800     0.1100     0.0200
  259.5000   -45.6950     7.4060     7.1430     8.1400   117.9120     2.4910     0.1070     0.0170
  260.0000   -45.6760     7.4610     7.1880     8.1380   117.5620     2.5020     0.1040     0.0130
  260.5000   -45.6580     7.5160     7.2340     8.1350   116.3720     2.5120     0.1040     0.0090
  261.0000   -45.6400     7.5710     7.2790     8.1330   115.1050     2.5140     0.1080     0.0060
  261.5000   -45.6220     7.6270     7.3250     8.1310   113.8410     2.5100     0.1140     0.0050
  262.0000   -45.6040     7.6820     7.3700     8.1290   112.5860     2.4970     0.1190     0.0050
  262.5000   -45.5860     7.7370     7.4160     8.1260   111.8790     2.4850     0.1190     0.0040
  263.0000   -45.5680     7.7920     7.4580     8.1240   112.8620     2.4820     0.1190     0.0070
  263.5000   -45.5500     7.8110     7.4660     8.1220   114.2080     2.4810     0.1190     0.0090
  264.0000   -45.5320     7.8150     7.4740     8.1200   114.6830     2.4810     0.1190     0.0110
  264.5000   -45.5140     7.8180     7.4820     8.1180   115.5340     2.4810     0.1190     0.0130
  265.0000   -45.4960     7.8220     7.4900     8.1190   116.2330     2.4810     0.1190     0.0160
  265.5000   -45.4780     7.8250     7.4980     8.1210   112.7540     2.4810     0.1180     0.0160
  266.0000   -45.4600     7.8290     7.5060     8.1220   108.2410     2.4810     0.1160     0.0160
  266.5000   -45.4410     7.8320     7.5140     8.1230   106.5710     2.4830     0.1150     0.0160
  267.0000   -45.4230     7.8360     7.5230     8.1250   106.8490     2.4870     0.1140     0.0160
  267.5000   -45.4050     7.8390     7.5310     8.1260   112.7050     2.4880     0.1160     0.0170
  268.0000   -45.3870     7.8430     7.5390     8.1280   114.3300     2.4880     0.1180     0.0180
  268.5000   -45.3690     7.8460     7.5470     8.1290   113.9260     2.4860     0.1200     0.0170
  269.0000   -45.3510     7.8490     7.5550     8.1300   112.9520     2.4840     0.1210     0.0170
  269.5000   -45.3330     7.8530     7.5630     8.1320   111.9730     2.4820     0.1220     0.0160
  270.0000   -45.3150     7.8560     7.5710     8.1330   111.9240     2.4800     0.1230     0.0150
  270.5000   -45.2970     7.8600     7.5790     8.1350   111.7820     2.4780     0.1240     0.0140
  271.0000   -45.2790     7.8630     7.5870     8.1360   110.6310     2.4760     0.1250     0.0130
  271.5000   -45.2610     7.8670     7.5940     8.1370   107.6430     2.4740     0.1260     0.0130
  272.0000   -45.2430     7.8700     7.6270     8.1380   106.8370     2.4710     0.1240     0.0120
  272.5000   -45.2250     7.8740     7.6640     8.1380   106.0760     2.4700     0.1220     0.0110
  273.0000   -45.2070     7.8770     7.7020     8.1380   106.1540     2.4750     0.1200     0.0100
