~VERSION INFORMATION
 VERS.                2.0:   CWLS LOG ASCII STANDARD - VERSION 2.0
 WRAP.                 NO:   ONE LINE PER DEPTH STEP
~WELL INFORMATION
#MNEM.UNIT      DATA TYPE    INFORMATION
#----------   ------------   ------------------------------
 STRT.F           29.0000:   START DEPTH
 STOP.F          503.0000:   STOP DEPTH
 STEP.F            0.5000:   STEP LENGTH
 NULL.          -999.2500:   NO VALUE
 COMP. FENIX & SCISSON INC:   COMPANY
 WELL.      78 SX 3 #78-3:   WELL
 FLD .             TEAPOT:   FIELD
 LOC .       S3 T38N R78W:   LOCATION
 CNTY.            NATRONA:   COUNTY
 STAT.            WYOMING:   STATE
 CTRY. UNITED STATES OF AMERICA:   COUNTRY
 SRVC.            Unknown:   SERVICE COMPANY
 DATE.        17-OCT-1978:   LOGDATE
 API .       490251072400:   API NUMBER
~CURVE INFORMATION
#MNEM.UNIT       API CODE    CURVE DESCRIPTION
#----------   ------------   ------------------------------
 DEPT.F                  :   
 CALD.IN     45 280 60 00:   CALIPER
 GRD .GAPI   45 310 01 00:   GAMMA RAY FROM DENSITY LOG
 CORR.G/C3   45 356 01 00:   DENSITY CORRECTION
 RHOB.G/C3   45 350 01 00:   BULK DENSITY
 DPHI.DEC    45 890 12 00:   DENSITY POROSITY SANDSTONE
 SPR .MV     05 010 01 00:   SPONTANEOUS POTENTIAL FROM RES.
 IL  .OHMM   05 120 00 00:   INDUCTION LOG
 SN  .OHMM   05 040 16 00:   SHORT NORMAL 16"
~PARAMETER INFORMATION
#MNEM.UNIT          VALUE    DESCRIPTION
#----------   ------------   ------------------------------
 PD  .                 GL:   PERMANENT DATUM
 EPD .F              5154:   ELEVATION PERMANENT DATUM
 LMF .                 KB:   LOG MEASURED FROM
 DAPD.F                 4:   FEET ABOVE PERMANENT DATUM
 DMF .                 KB:   DRILLING MEASURED FROM
 EKB .F              5158:   KELLING BUSHING
 EGL .F              5154:   GROUND LEVEL
 DATE.           10-17-78:   RUN DATE
 RUN .                  1:   RUN NUMBER
 DD  .F               498:   DEPTH DRILLER
 DL  .F               503:   DEPTH LOGGER
 BLI .F               497:   BOTTOM LOG INTERVAL
 TLI .F                46:   TOP LOG INTERVAL
 CS  .IN            8.625:   CASING SIZE
 CBD .F                40:   CASING BOTTOM DRILLER
 BS  .IN            7.875:   BIT SIZE
 BSD .F               498:   BIT SIZE AT DEPTH
 DFT .                KCL:   DRILLING FLUID TYPE
 DFD .                8.7:   DRILLING FLUID DENSITY
 DFV .                 38:   DRILLING FLUID VISCOSITY
 DFPH.                  9:   DRILLING FLUID PH
 DFL .                9.6:   DRILLING FLUID LOSS
 MSS .          FLOW LINE:   MUD SAMPLE SOURCE
 RMS .OHMM             .2:   RESISTIVITY MUD SAMPLE
 MST .F                52:   MUD SAMPLE TEMPERATURE
 RMF .OHMM            .18:   RESISTIVITY MUD FILTRATE SAMPLE
 MFST.F                58:   MUD FILTRATE SAMPLE TEMPERATURE
 RMC .OHMM            .16:   RESISTIVITY MUD CAKE
 MCST.F                64:   MUD CAKE SAMPLE TEMPERATURE
 MFSS.               MEAS:   MUD FILTRATE SAMPLE SOURCE
 MCSS.               MEAS:   MUD CAKE SAMPLE SOURCE
 TCS .HRS               1:   TIME CURCULATED STOPPED
 MRT .F                72:   MAXIMUM RECORDED TEMPERATURE
 LUN .               2958:   LOGGING UNIT NUMBER
 LUL .               CASP:   LOGGING UNIT LOCATION
 ENGI.             MILLER:   RECORDING ENGINEER
 WITN.           DINSMORE:   WITNESSED BY
 CLNT.            A2DTECH:   CLIENT CODE
 ORIG.           5" PRINT:   ORIGIN OF DATA
 UWI .       490251072400:   UNIQUE WELL ID
 DICO. A2D Technologies, Inc.:   DIGITIZING COMPANY
~OTHER INFORMATION
~A   DEPT     CALD         GRD      CORR       RHOB       DPHI        SPR         IL         SN   
# ...
  191.0000     7.9715   124.7138     0.0306     2.4960     0.1027   -34.2061     8.3808     7.5721
  191.5000     7.9713   125.3244     0.0313     2.4971     0.1026   -34.1629     8.2272     7.4727
  192.0000     7.9711   126.4111     0.0320     2.4981     0.1025   -34.1197     8.1067     7.3745
  192.5000     7.9708   127.4948     0.0322     2.4989     0.1024   -34.0765     7.9592     7.2777
  193.0000     7.9706   128.2187     0.0276     2.4955     0.1063   -34.0333     7.8149     7.1821
  193.5000     7.9704   128.4752     0.0230     2.4920     0.1109   -33.9901     7.6733     7.0880
  194.0000     7.9702   128.7362     0.0219     2.4886     0.1116   -33.9465     7.5342     6.9953
  194.5000     7.9700   128.9938     0.0288     2.4851     0.1101   -33.9015     7.3976     6.9019
  195.0000     7.9697   129.2429     0.0355     2.4874     0.1075   -33.8623     7.2636     6.7080
  195.5000     7.9695   129.5586     0.0402     2.4922     0.1052   -33.9971     7.1319     6.4614
  196.0000     7.9693   131.1291     0.0331     2.4906     0.1123   -34.7190     7.0043     6.2239
  196.5000     7.9691   133.7908     0.0261     2.4810     0.1191   -35.2617     6.8119     5.9951
  197.0000     7.9688   135.4527     0.0193     2.4706     0.1258   -35.3872     6.5594     5.7283
  197.5000     7.9686   129.9451     0.0191     2.4589     0.1325   -35.8870     6.3194     5.4221
  198.0000     7.9684   125.3987     0.0198     2.4474     0.1390   -36.4186     5.5750     5.1323
  198.5000     7.9682   122.9493     0.0206     2.4360     0.1558   -36.9473     4.9494     4.8286
  199.0000     7.9679   124.7871     0.0213     2.4227     0.1762   -37.0060     4.3960     4.4729
  199.5000     7.9677   126.9670     0.0221     2.3774     0.1987   -36.9950     3.9054     4.1434
  200.0000     7.9675   129.1073     0.0240     2.3393     0.2213   -36.4370     3.5103     3.8382
  200.5000     7.9673   127.1652     0.0271     2.3005     0.2437   -34.9372     3.3249     3.5555
  201.0000     7.9670   124.7491     0.0302     2.2606     0.2570   -33.4436     3.1652     3.3201
  201.5000     7.9668   122.3661     0.0319     2.2401     0.2603   -32.9952     3.0280     3.3047
  202.0000     7.9666   120.1570     0.0272     2.2573     0.2338   -32.6616     3.0283     3.2914
  202.5000     7.9664   118.4675     0.0225     2.3225     0.2045   -32.4367     3.1195     3.4147
  203.0000     7.9661   116.6931     0.0176     2.3915     0.1752   -32.4418     3.2198     3.6537
  203.5000     7.9659   116.2160     0.0157     2.4279     0.1456   -32.4422     3.5998     3.9517
  204.0000     7.9657   120.3376     0.0143     2.4429     0.1322   -32.3961     4.0249     4.2951
  204.5000     7.9655   125.8866     0.0129     2.4586     0.1248   -32.0199     4.4994     4.6662
  205.0000     7.9653   131.4397     0.0114     2.4742     0.1182   -30.5532     5.0299     5.0095
  205.5000     7.9650   130.8719     0.0100     2.4846     0.1112   -30.2925     5.4139     5.3167
  206.0000     7.9648   129.9219     0.0086     2.4823     0.1128   -30.3283     5.7584     5.6439
  206.5000     7.9646   129.2821     0.0071     2.4801     0.1151   -30.3730     6.0811     5.9510
  207.0000     7.9644   130.4649     0.0063     2.4754     0.1174   -30.4143     6.3240     6.0406
  207.5000     7.9641   132.5560     0.0060     2.4703     0.1188   -30.4632     6.4451     6.0899
  208.0000     7.9639   134.6126     0.0057     2.4690     0.1199   -30.6816     6.6216     6.1519
  208.5000     7.9637   134.4127     0.0054     2.4678     0.1209   -30.8741     6.5457     6.1142
  209.0000     7.9635   134.0849     0.0050     2.4667     0.1220   -30.9545     6.4206     6.0672
  209.5000     7.9632   133.7706     0.0047     2.4631     0.1232   -31.0260     6.2758     5.9733
  210.0000     7.9630   134.3113     0.0054     2.4480     0.1343   -31.5648     6.0480     5.8150
  210.5000     7.9628   135.9720     0.0121     2.4318     0.1462   -32.1639     5.8298     5.6609
  211.0000     7.9626   137.6330     0.0187     2.4156     0.1581   -32.2434     5.6193     5.5108
  211.5000     7.9623   138.2908     0.0254     2.3988     0.1626   -32.2433     5.4164     5.3647
  212.0000     7.9621   138.3154     0.0277     2.3969     0.1630   -32.2425     5.2207     5.2225
  212.5000     7.9619   137.8571     0.0257     2.4151     0.1541   -32.2419     5.0321     5.1182
  213.0000     7.9617   135.7904     0.0237     2.4283     0.1460   -32.2410     4.8498     5.1182
  213.5000     7.9614   133.5151     0.0217     2.4362     0.1394   -31.9478     4.7551     5.1182
  214.0000     7.9612   130.5509     0.0206     2.4432     0.1328   -31.4338     4.7551     5.2944
  214.5000     7.9610   127.6138     0.0219     2.4553     0.1254   -31.4468     4.9871     5.5062
  215.0000     7.9608   125.4000     0.0232     2.4681     0.1177   -31.4494     5.2678     5.7264
  215.5000     7.9605   124.4976     0.0243     2.4809     0.1100   -31.4592     5.5651     5.9555
  216.0000     7.9603   124.6185     0.0221     2.4936     0.1035   -30.8838     5.8796     6.1937
  216.5000     7.9601   124.7764     0.0195     2.4972     0.1025   -30.2423     6.2101     6.4415
  217.0000     7.9599   125.1736     0.0170     2.5003     0.1016   -30.2558     6.5105     6.6993
  217.5000     7.9597   127.7955     0.0171     2.5032     0.1013   -30.2564     6.7738     6.9667
  218.0000     7.9594   131.9431     0.0182     2.5043     0.1007   -30.2510     7.0479     7.2459
  218.5000     7.9592   136.0521     0.0194     2.5045     0.1004   -30.2990     7.3330     7.3498
  219.0000     7.9590   140.4333     0.0205     2.5031     0.1004   -31.4158     7.5730     7.3823
  219.5000     7.9587   136.6928     0.0216     2.5004     0.1013   -31.5639     7.7018     7.4149
  220.0000     7.9585   134.1651     0.0228     2.4959     0.1036   -31.7951     7.8133     7.4626
  220.5000     7.9583   134.4118     0.0239     2.4913     0.1060   -32.5644     7.7253     7.4377
  221.0000     7.9581   134.6829     0.0250     2.4869     0.1084   -32.9400     7.6486     7.3920
  221.5000     7.9578   132.9556     0.0262     2.4845     0.1090   -33.1104     7.5723     7.3465
  222.0000     7.9576   131.9262     0.0246     2.4859     0.1097   -33.2789     7.4969     7.3004
  222.5000     7.9574   131.6036     0.0198     2.4872     0.1104   -33.4275     7.4223     7.2284
  223.0000     7.9572   129.7617     0.0150     2.4861     0.1129   -33.2517     7.3484     7.1571
  223.5000     7.9570   126.5159     0.0102     2.4811     0.1159   -32.6135     7.2753     7.0780
  224.0000     7.9567   126.4881     0.0054     2.4761     0.1187   -32.5606     7.0740     6.9499
  224.5000     7.9565   126.5021     0.0045     2.4711     0.1217   -32.5008     6.8441     6.8241
  225.0000     7.9563   128.1125     0.0045     2.4661     0.1240   -32.4405     6.6216     6.7006
  225.5000     7.9561   129.9202     0.0044     2.4622     0.1242   -32.3799     6.4064     6.5793
  226.0000     7.9558   130.8153     0.0091     2.4598     0.1248   -32.3193     6.1981     6.4602
  226.5000     7.9556   131.6962     0.0149     2.4575     0.1268   -32.2587     5.9966     6.3432
  227.0000     7.9554   133.0067     0.0206     2.4549     0.1288   -32.1981     5.7683     6.2280
  227.5000     7.9552   135.4187     0.0264     2.4542     0.1283   -32.1375     5.8281     6.1693
  228.0000     7.9549   138.8208     0.0322     2.4641     0.1221   -32.0768     5.9005     6.1519
  228.5000     7.9547   142.4111     0.0318     2.4753     0.1159   -32.0169     5.9746     6.3016
  229.0000     7.9544   146.0265     0.0276     2.4864     0.1097   -31.9610     6.0497     6.4256
  229.5000     7.9477   147.7967     0.0234     2.4975     0.1035   -31.8930     6.1256     6.5520
  230.0000     7.9269   145.1329     0.0191     2.5034     0.1024   -31.4243     6.2988     6.7307
  230.5000     7.9063   139.9477     0.0149     2.5008     0.1073   -28.1471     6.5296     6.9757
  231.0000     7.8857   133.4257     0.0142     2.4951     0.1098   -29.2660     6.7688     7.2296
