~VERSION INFORMATION
 VERS.                2.0:   CWLS LOG ASCII STANDARD - VERSION 2.0
 WRAP.                 NO:   ONE LINE PER DEPTH STEP
~WELL INFORMATION
#MNEM.UNIT      DATA TYPE    INFORMATION
#----------   ------------   ------------------------------
 STRT.F          458.0000:   START DEPTH
 STOP.F         2155.0000:   STOP DEPTH
 STEP.F            0.5000:   STEP LENGTH
 NULL.          -999.2500:   NO VALUE
 COMP.   FLUOR DANIEL INC:   COMPANY
 WELL. NAVAL PETROLEUM RESERVE 3 SHX- 1 #33-29:   WELL
 FLD .             TEAPOT:   FIELD
 LOC .      S29 T39N R78W:   LOCATION
 CNTY.            NATRONA:   COUNTY
 STAT.            WYOMING:   STATE
 CTRY. UNITED STATES OF AMERICA:   COUNTRY
 SRVC.            Unknown:   SERVICE COMPANY
 DATE.        29-JUN-1995:   LOGDATE
 API .       490252272500:   API NUMBER
~CURVE INFORMATION
#MNEM.UNIT       API CODE    CURVE DESCRIPTION
#----------   ------------   ------------------------------
 DEPT.F                  :   
 C1  .VF     91 831 01 00:   METHANE
 C2  .VF     91 832 01 00:   ETHANE
 C3  .VF     91 833 01 00:   PROPANE
 C4  .VF     91 834 01 00:   BUTANE
 ROP .FT/HR  91 810 01 00:   RAT OF DRILLING PENETRATION
 TGAS.TC/CC  91 830 01 00:   TOTAL GAS UNIT
~PARAMETER INFORMATION
#MNEM.UNIT          VALUE    DESCRIPTION
#----------   ------------   ------------------------------
 EKB .F              5020:   KELLING BUSHING
 EGL .F              5010:   GROUND LEVEL
 DATE.        29-JUN-1995:   RUN DATE
 RUN .                  1:   RUN NUMBER
 BLI .F              2155:   BOTTOM LOG INTERVAL
 TLI .F               460:   TOP LOG INTERVAL
 ENGI.     C.TOWER/R.HUSK:   RECORDING ENGINEER
 CLNT.            A2DTECH:   CLIENT CODE
 ORIG.           5" PRINT:   ORIGIN OF DATA
 UWI .       490252272500:   UNIQUE WELL ID
 DICO. A2D Technologies, Inc.:   DIGITIZING COMPANY
~OTHER INFORMATION
~A   DEPT       C1         C2         C3         C4          ROP       TGAS 
# ...
 1446.0000     1.9800     0.5053     0.0000     0.0000     0.7750    16.7987
 1446.5000     1.9666     0.4996     0.0000     0.0000     0.7752    18.6999
 1447.0000     1.9537     0.5885     0.0000     0.0000     0.7754    19.6597
 1447.5000     1.9406     0.5839     0.0000     0.0000     0.7662    19.6780
 1448.0000     1.9251     0.5794     0.0000     0.0000     0.7759    19.6964
 1448.5000     1.9123     0.5748     0.0000     0.0000     0.7762    18.7687
 1449.0000     1.8995     0.5701     0.0000     0.0000     0.7764    18.7917
 1449.5000     1.8867     0.5645     0.0000     0.0000     0.7766    19.7515
 1450.0000     1.8739     0.4665     0.0000     0.0000     0.7769    19.7699
 1450.5000     1.8619     0.4620     0.0000     0.0000     0.7771    18.8468
 1451.0000     1.8484     0.4574     0.0000     0.0000     0.7773    17.9238
 1451.5000     1.8356     0.4529     0.0000     0.0000     0.7775    17.0007
 1452.0000     1.8225     0.4483     0.0000     0.0000     0.7778    17.0237
 1452.5000     1.9943     0.4439     0.0000     0.0000     0.6641    17.0420
 1453.0000     2.1722     0.5326     0.0000     0.0000     0.6558    17.0604
 1453.5000     2.0016     0.5411     0.0000     0.0000     0.6561    17.0788
 1454.0000     1.8428     0.5383     0.0000     0.0000     0.6469    17.0972
 1454.5000     1.7905     0.5355     0.0000     0.0000     0.6472    17.1155
 1455.0000     1.7812     0.6263     0.0000     0.0000     0.6474    17.1339
 1455.5000     1.7719     0.6229     0.0000     0.0000     0.6476    18.0941
 1456.0000     1.9505     0.7140     0.0000     0.0000     0.6478    18.1166
 1456.5000     2.1289     0.6174     0.0000     0.0000     0.6481    18.1350
 1457.0000     2.1175     0.6147     0.0000     0.0000     0.6483    17.2074
 1457.5000     2.2981     0.6119     0.0000     0.0000     0.6391    17.2303
 1458.0000     2.4742     0.5155     0.0000     0.0000     0.6394    17.2487
 1458.5000     2.4651     0.5131     0.0000     0.0000     0.6396    15.3842
 1459.0000     2.4559     0.5103     0.0000     0.0000     0.6493    13.5197
 1459.5000     2.4468     0.5075     0.0000     0.0000     0.6495    14.4795
 1460.0000     2.4375     0.5047     0.0000     0.0000     0.6497    14.4979
 1460.5000     2.4281     0.5013     0.0000     0.0000     0.6500    13.5749
 1461.0000     2.4171     0.4991     0.0000     0.0000     0.6502    14.5392
 1461.5000     2.4080     0.4959     0.0000     0.0000     0.6504    15.4990
 1462.0000     2.3988     0.4935     0.0000     0.0000     0.6507    16.4588
 1462.5000     2.3897     0.4904     0.0000     0.0000     0.6509    17.4186
 1463.0000     2.3805     0.4879     0.0000     0.0000     0.6511    19.3198
 1463.5000     2.3714     0.4850     0.0000     0.0000     0.6514    20.2796
 1464.0000     2.3623     0.4821     0.0000     0.0000     0.6516    21.2394
 1464.5000     2.3531     0.4794     0.0000     0.0000     0.6519    21.2578
 1465.0000     2.5500     0.4766     0.0847     0.0000     0.6521    25.0418
 1465.5000     2.7098     0.4738     0.2542     0.0000     0.6523    28.9205
 1466.0000     3.0734     0.5645     0.4237     0.0000     0.6055    32.6146
 1466.5000     3.1040     0.6553     0.5085     0.0000     0.5209    34.5158
 1467.0000     3.4324     0.8395     0.5940     0.0000     0.5212    35.4756
 1467.5000     3.6108     0.8361     0.6780     0.0000     0.5214    36.4354
 1468.0000     3.7891     0.9275     0.6780     0.0000     0.5217    39.2780
 1468.5000     3.7777     1.0182     0.6780     0.0000     0.5219    40.2378
 1469.0000     3.9562     1.0150     0.6780     0.0000     0.5222    40.2561
 1469.5000     3.9469     1.0120     0.5932     0.0000     0.5224    40.2745
 1470.0000     3.9375     1.0093     0.5932     0.0000     0.5226    39.3515
 1470.5000     3.9264     1.0065     0.5932     0.0000     0.5323    39.3703
 1471.0000     3.9172     1.0037     0.5932     0.0000     0.5325    39.3928
 1471.5000     3.9081     1.0944     0.5932     0.0000     0.5327    39.4112
 1472.0000     3.9000     1.0911     0.5932     0.0000     0.5330    39.4295
 1472.5000     3.8898     1.1825     0.5932     0.0000     0.5426    38.5019
 1473.0000     3.8807     1.1794     0.5932     0.0000     0.5428    38.5248
 1473.5000     3.8715     1.1763     0.5932     0.0000     0.5431    38.5432
 1474.0000     3.8624     1.1736     0.5932     0.0000     0.5434    38.5616
 1474.5000     4.0408     1.1710     0.5932     0.0000     0.5436    37.6385
 1475.0000     4.0312     1.1682     0.5932     0.0000     0.5438    36.7155
 1475.5000     4.2100     1.1654     0.6780     0.0000     0.5440    36.7343
 1476.0000     4.3884     1.1626     0.6780     0.0000     0.5443    36.7568
 1476.5000     4.3769     1.1598     0.6780     0.0000     0.5445    35.8292
 1477.0000     4.3678     1.2499     0.6780     0.0000     0.5447    35.8521
 1477.5000     4.3587     1.2472     0.6780     0.0000     0.5450    35.8705
 1478.0000     4.3495     1.2536     0.6780     0.0000     0.5452    35.8889
 1478.5000     4.3404     1.3358     0.6780     0.0000     0.5454    34.0198
 1479.0000     4.3312     1.3324     0.5932     0.0000     0.5457    34.0428
 1479.5000     4.3219     1.3297     0.5932     0.0000     0.5459    34.0611
 1480.0000     4.3125     1.3269     0.5932     0.0000     0.5462    33.1381
 1480.5000     4.4913     1.3242     0.5932     0.0000     0.5464    32.2150
 1481.0000     4.4813     1.2280     0.5932     0.0000     0.5466    29.4091
 1481.5000     4.4708     1.1318     0.5932     0.0000     0.5469    29.4321
 1482.0000     4.4616     1.0355     0.5932     0.0000     0.6601    29.4505
 1482.5000     4.6406     0.9387     0.5932     0.0000     0.6603    29.4688
 1483.0000     4.6312     0.9704     0.5932     0.0000     0.6605    28.5412
 1483.5000     4.6217     0.9332     0.5932     0.0000     0.6608    28.5641
 1484.0000     4.6125     0.9308     0.5932     0.0000     0.6516    28.5825
 1484.5000     4.6031     0.9280     0.5932     0.0000     0.6613    29.5423
 1485.0000     4.5920     0.9250     0.5932     0.0000     0.6615    28.6192
 1485.5000     4.5829     0.9222     0.5932     0.0000     0.6618    28.6381
 1486.0000     4.5750     0.9196     0.5932     0.0000     0.6620    28.6606
 1486.5000     4.5911     0.9168     0.5932     0.0000     0.6622    28.6789
 1487.0000     4.7452     1.0075     0.5932     0.0000     0.6624    28.6973
 1487.5000     4.7344     1.0300     0.5932     0.0000     0.6721    28.7157
 1488.0000     4.7250     1.0953     0.5932     0.0000     0.5687    27.7926
 1488.5000     4.7156     1.0925     0.5932     0.0000     0.5690    26.8650
 1489.0000     4.7062     1.0893     0.5932     0.0000     0.5693    26.8879
 1489.5000     4.6969     1.0865     0.5932     0.0000     0.5695    26.9063
 1490.0000     4.6858     1.0841     0.5932     0.0000     0.5697    26.9247
 1490.5000     4.4892     1.0813     0.5085     0.0000     0.5699    26.9435
 1491.0000     4.4800     1.0783     0.5085     0.0000     0.5607    26.0200
 1491.5000     4.4719     1.0756     0.5085     0.0000     0.5610    25.0970
 1492.0000     4.4618     1.0729     0.5085     0.0000     0.5612    25.1199
 1492.5000     4.4531     1.0701     0.5085     0.0000     0.5520    25.1383
 1493.0000     4.4435     1.0673     0.5085     0.0000     0.5523    26.0981
 1493.5000     4.4344     1.0645     0.5932     0.0000     0.5525    26.1164
 1494.0000     4.4245     1.0612     0.5932     0.0000     0.5527    26.1348
 1494.5000     4.4156     1.0589     0.5932     0.0000     0.5530    26.1532
 1495.0000     4.4063     1.0557     0.6780     0.0000     0.5438    27.1130
 1495.5000     4.3969     1.0533     0.6780     0.0000     0.5441    27.1318
 1496.0000     4.3864     1.0505     0.6780     0.0000     0.5537    27.1543
 1496.5000     4.3781     1.0475     0.6780     0.0000     0.5445    27.1727
 1497.0000     4.3681     1.0447     0.6780     0.0000     0.5447    27.1910
 1497.5000     4.5465     1.0420     0.6780     0.0000     0.5450    26.2634
