~VERSION INFORMATION
 VERS.                2.0:   CWLS LOG ASCII STANDARD - VERSION 2.0
 WRAP.                 NO:   ONE LINE PER DEPTH STEP
~WELL INFORMATION
#MNEM.UNIT      DATA TYPE    INFORMATION
#----------   ------------   ------------------------------
 STRT.F            4.0000:   START DEPTH
 STOP.F          584.0000:   STOP DEPTH
 STEP.F            0.1000:   STEP LENGTH
 NULL.          -999.2500:   NO VALUE
 COMP.       F D SERV INC:   COMPANY
 WELL. N P R 3 SX-3 #62-3:   WELL
 FLD .             TEAPOT:   FIELD
 LOC .       S3 T38N R78W:   LOCATION
 CNTY.            NATRONA:   COUNTY
 STAT.            WYOMING:   STATE
 CTRY. UNITED STATES OF AMERICA:   COUNTRY
 SRVC.     Atlas Wireline:   SERVICE COMPANY
 DATE.        17-APR-1992:   LOGDATE
 API .       490252251600:   API NUMBER
~CURVE INFORMATION
#MNEM.UNIT       API CODE    CURVE DESCRIPTION
#----------   ------------   ------------------------------
 DEPT.F                  :   
 GRR .GAPI   07 310 01 00:   GAMMA RAY
 RILD.OHMM   07 120 46 00:   INDUCTION LOG DEEP RESISTIVITY
 RILM.OHMM   07 120 44 00:   INDUCTION LOG MEDIUM RESISTIVITY
~PARAMETER INFORMATION
#MNEM.UNIT          VALUE    DESCRIPTION
#----------   ------------   ------------------------------
 PD  .                 GL:   PERMANENT DATUM
 EPD .F              5135:   ELEVATION PERMANENT DATUM
 LMF .                 KB:   LOG MEASURED FROM
 DAPD.F                 5:   FEET ABOVE PERMANENT DATUM
 DMF .                 KB:   DRILLING MEASURED FROM
 EKB .F              5140:   KELLING BUSHING
 EDF .F              5139:   DRILLING FLOOR
 EGL .F              5135:   GROUND LEVEL
 DATE.        17-APR-1992:   RUN DATE
 RUN .                  1:   RUN NUMBER
 DD  .F               589:   DEPTH DRILLER
 DL  .F               590:   DEPTH LOGGER
 BLI .F               584:   BOTTOM LOG INTERVAL
 TLI .F                48:   TOP LOG INTERVAL
 CS  .IN            8.625:   CASING SIZE
 CBD .F                48:   CASING BOTTOM DRILLER
 CBL .F                48:   CASING BOTTOM LOGGER
 BS  .IN            7.875:   BIT SIZE
 BSD .F               589:   BIT SIZE AT DEPTH
 DFT .                AIR:   DRILLING FLUID TYPE
 TCS .HRS               2:   TIME CURCULATED STOPPED
 MRT .F                85:   MAXIMUM RECORDED TEMPERATURE
 LUN .            HL-6274:   LOGGING UNIT NUMBER
 LUL .             CASPER:   LOGGING UNIT LOCATION
 ENGI.             RAUTIO:   RECORDING ENGINEER
 WITN.        GARY STRONG:   WITNESSED BY
 CLNT.            A2DTECH:   CLIENT CODE
 ORIG.           5" PRINT:   ORIGIN OF DATA
 UWI .       490252251600:   UNIQUE WELL ID
 DICO. A2D Technologies, Inc.:   DIGITIZING COMPANY
~OTHER INFORMATION
~A    DEPT      GRR      RILD       RILM   
# ...
  386.2000    72.6806    28.0866    24.9637
  386.3000    73.5170    27.7794    24.8235
  386.4000    74.2851    27.5668    24.8206
  386.5000    75.0530    27.2658    24.5914
  386.6000    75.8214    27.0878    24.3905
  386.7000    76.7089    26.9497    24.2990
  386.8000    77.3577    26.5952    24.2776
  386.9000    78.2844    26.2674    24.1249
  387.0000    79.2060    26.0846    23.8727
  387.1000    80.0196    25.7788    23.6922
  387.2000    81.0901    25.6320    23.6176
  387.3000    82.0670    25.5929    23.6482
  387.4000    82.9040    25.5897    23.7786
  387.5000    83.9328    25.5865    23.7763
  387.6000    85.2854    25.5832    23.8825
  387.7000    86.7876    25.5796    24.0169
  387.8000    87.9727    25.5768    24.1039
  387.9000    88.6198    25.5736    24.1188
  388.0000    89.2294    25.5704    24.2679
  388.1000    89.4373    25.5941    24.2658
  388.2000    89.2273    25.7431    24.2634
  388.3000    89.2288    25.7400    24.3881
  388.4000    88.7434    25.7368    24.6657
  388.5000    88.4198    25.8087    24.9439
  388.6000    88.2950    25.9107    24.9414
  388.7000    88.2236    25.9074    25.0512
  388.8000    87.9849    25.9037    25.1922
  388.9000    87.9865    25.9010    25.3339
  389.0000    87.9875    25.8977    25.4601
  389.1000    87.9888    25.8944    25.4571
  389.2000    87.9900    25.8912    25.4548
  389.3000    87.9912    25.8877    25.5497
  389.4000    87.9926    25.8846    25.6283
  389.5000    87.9938    25.8814    25.5938
  389.6000    87.9950    25.9507    25.4449
  389.7000    87.9962    26.0563    25.4424
  389.8000    87.9253    26.0532    25.4399
  389.9000    87.6557    26.2318    25.3578
  390.0000    87.0627    26.2291    25.2109
  390.1000    86.2075    26.2259    25.0647
  390.2000    85.3435    26.2777    24.9021
  390.3000    84.5783    26.4247    24.8999
  390.4000    83.8128    26.5847    24.8975
  390.5000    83.0063    26.7214    24.8950
  390.6000    82.7655    26.8709    24.8926
  390.7000    82.5111    26.9489    24.8902
  390.8000    82.2566    26.9834    24.8878
  390.9000    82.0737    27.1376    24.8853
  391.0000    82.0750    27.4459    24.8829
  391.1000    82.0765    27.5060    24.8805
  391.2000    82.0775    27.5925    24.8781
  391.3000    82.0788    27.6919    24.8753
  391.4000    82.0800    27.7274    24.9970
  391.5000    82.1239    28.0743    25.2309
  391.6000    82.3951    28.3607    25.4564
  391.7000    82.3963    28.5723    25.6580
  391.8000    82.5821    28.8065    26.1098
  391.9000    82.7113    29.0957    26.2530
  392.0000    82.7834    29.2584    26.6294
  392.1000    83.0263    29.5908    27.0049
  392.2000    83.0277    29.7944    27.4090
  392.3000    83.2413    29.8669    28.0249
  392.4000    83.4982    29.8632    28.5758
  392.5000    83.7552    29.8421    28.5734
  392.6000    84.0122    29.6473    28.5706
  392.7000    84.2838    29.3492    28.5012
  392.8000    84.5258    29.2289    28.2766
  392.9000    84.4148    29.0832    27.7748
  393.0000    84.2875    28.7494    27.6200
  393.1000    84.1482    28.4124    27.2304
  393.2000    83.6383    28.4090    26.7652
  393.3000    83.0415    28.2835    26.3510
  393.4000    82.4062    27.9506    26.0690
  393.5000    81.4853    27.6154    26.0661
  393.6000    80.4640    27.5990    26.0640
  393.7000    79.4846    27.4157    25.9692
  393.8000    78.6726    27.2791    25.8774
  393.9000    77.7131    27.1205    25.8235
  394.0000    76.1417    26.9628    25.5131
  394.1000    75.1123    26.8339    25.5108
  394.2000    74.9971    26.8304    25.4027
  394.3000    75.2668    26.8272    25.1833
  394.4000    75.8677    26.8238    24.9343
  394.5000    76.2917    26.7426    24.7818
  394.6000    76.8042    26.6303    24.4509
  394.7000    77.5120    26.6177    24.2177
  394.8000    78.4953    26.4377    23.9403
  394.9000    79.3113    26.1842    23.6660
  395.0000    80.2712    26.0647    23.3948
  395.1000    80.9292    26.0039    23.1104
  395.2000    81.4417    25.8527    22.8619
  395.3000    81.9542    25.6931    22.4176
  395.4000    82.4545    25.4167    22.1551
  395.5000    82.7565    25.3303    22.1190
  395.6000    82.9683    25.1170    21.9850
  395.7000    83.2252    24.7612    21.6887
  395.8000    83.4821    24.6057    21.5855
  395.9000    83.6988    24.1083    21.3876
  396.0000    83.7001    23.9940    21.0978
  396.1000    83.4624    23.7744    20.7368
  396.2000    83.3900    23.5015    20.3569
  396.3000    83.2660    23.1945    20.2475
  396.4000    83.0800    22.6248    20.0498
  396.5000    83.0698    22.3868    19.8743
  396.6000    82.7702    22.0431    19.7591
  396.7000    82.7713    21.6661    19.6484
  396.8000    82.7725    21.3544    19.6461
  396.9000    82.7738    21.2278    19.6446
  397.0000    82.8146    20.9843    19.5770
  397.1000    83.0888    20.8379    19.4635
  397.2000    83.3283    20.7842    19.3508
  397.3000    83.7666    20.7406    19.2293
  397.4000    84.4036    20.6200    19.2276
  397.5000    85.1041    20.4878    19.2257
  397.6000    85.6272    20.2770    19.1214
  397.7000    86.5340    20.1986    18.9023
  397.8000    87.1636    20.1445    18.6878
  397.9000    87.7791    20.0020    18.5796
  398.0000    88.3875    19.7721    18.5565
  398.1000    89.1165    19.6572    18.4939
  398.2000    89.6651    19.6295    18.3867
  398.3000    90.3791    19.6270    18.2801
  398.4000    90.7857    19.6245    18.1642
  398.5000    91.1666    19.6220    18.1626
  398.6000    91.5450    19.6193    18.1609
  398.7000    91.5462    19.6172    18.1591
  398.8000    91.5477    19.6147    18.1573
  398.9000    91.3398    19.5644    18.1555
  399.0000    91.2375    19.4506    18.1538
  399.1000    91.1435    19.3351    18.1520
  399.2000    90.8125    19.1181    18.1502
  399.3000    89.9913    19.0620    18.1484
  399.4000    89.7555    19.0596    18.1467
  399.5000    89.5011    19.0572    18.1447
  399.6000    89.1235    19.0548    18.1431
  399.7000    88.6798    19.0521    18.1413
  399.8000    88.4253    19.0500    18.1395
  399.9000    88.1240    19.0476    18.1378
  400.0000    87.9666    19.0332    18.1360
  400.1000    87.7736    19.0014    18.1627
  400.2000    87.5805    18.9696    18.1894
  400.3000    87.3874    18.9379    18.2161
  400.4000    87.1799    18.9040    18.2428
  400.5000    87.4147    19.0037    18.2696
  400.6000    87.6684    19.0325    18.2963
  400.7000    87.9221    19.0303    18.3230
  400.8000    88.1759    19.0889    18.3497
  400.9000    88.4296    19.3002    18.3802
  401.0000    88.7309    19.4266    18.5018
  401.1000    88.7294    19.4248    18.5884
  401.2000    88.7275    19.4226    18.6282
  401.3000    88.8196    19.4205    18.6679
  401.4000    89.0365    19.4183    18.7555
  401.5000    89.0342    19.4160    18.7532
  401.6000    89.0325    19.4140    18.8536
  401.7000    89.2095    19.4118    18.9600
  401.8000    89.4632    19.4096    19.0670
  401.9000    89.7171    19.4074    19.1432
  402.0000    89.9789    19.4052    19.1413
  402.1000    90.5853    19.4028    19.1391
  402.2000    90.7909    19.4970    19.1375
  402.3000    91.0446    19.5348    19.1356
  402.4000    91.2050    19.5326    19.1338
  402.5000    91.2397    19.5304    19.1320
  402.6000    91.5136    19.5282    19.1300
  402.7000    91.7470    19.5260    19.1282
  402.8000    91.8225    19.5239    19.1263
  402.9000    91.8206    19.5217    19.1244
  403.0000    91.8187    19.5195    19.1225
  403.1000    91.8091    19.5292    19.1207
  403.2000    91.5021    19.6517    19.1186
  403.3000    91.5006    19.6498    19.1170
  403.4000    91.3492    19.7229    19.1151
  403.5000    90.9990    19.7831    19.1132
  403.6000    90.4859    19.7809    19.1332
  403.7000    89.9305    19.7787    19.2434
  403.8000    89.6942    19.8912    19.2416
  403.9000    89.4367    19.9130    19.2397
  404.0000    89.0583    19.9107    19.2378
  404.1000    88.6731    19.9085    19.2359
  404.2000    88.6712    19.9212    19.2553
  404.3000    88.6690    20.0435    19.5026
