~VERSION INFORMATION
 VERS.                2.0:   CWLS LOG ASCII STANDARD - VERSION 2.0
 WRAP.                 NO:   ONE LINE PER DEPTH STEP
~WELL INFORMATION
#MNEM.UNIT      DATA TYPE    INFORMATION
#----------   ------------   ------------------------------
 STRT.F            4.0000:   START DEPTH
 STOP.F          693.0000:   STOP DEPTH
 STEP.F            0.5000:   STEP LENGTH
 NULL.          -999.2500:   NO VALUE
 COMP.   FLUOR DANIEL INC:   COMPANY
 WELL. NAVAL PETROLEUM RESERVE 3 SX-3 #1-34:   WELL
 FLD .             TEAPOT:   FIELD
 LOC .      S34 T39N R78W:   LOCATION
 CNTY.            NATRONA:   COUNTY
 STAT.            WYOMING:   STATE
 CTRY. UNITED STATES OF AMERICA:   COUNTRY
 SRVC.      Western Atlas:   SERVICE COMPANY
 DATE.        06-FEB-1994:   LOGDATE
 API .       490252269600:   API NUMBER
~CURVE INFORMATION
#MNEM.UNIT       API CODE    CURVE DESCRIPTION
#----------   ------------   ------------------------------
 DEPT.F                  :   
 GRR .GAPI   07 310 01 00:   GAMMA RAY FROM RES. LOG.
 ILD .OHMM   07 120 46 00:   INDUCTION LOG DEEP
 ILM .OHMM   07 120 44 00:   INDUCTION LOG MEDIUM
~PARAMETER INFORMATION
#MNEM.UNIT          VALUE    DESCRIPTION
#----------   ------------   ------------------------------
 PD  .                 GL:   PERMANENT DATUM
 EPD .F              5097:   ELEVATION PERMANENT DATUM
 LMF .                 KB:   LOG MEASURED FROM
 DAPD.F                10:   FEET ABOVE PERMANENT DATUM
 DMF .                 KB:   DRILLING MEASURED FROM
 EKB .F              5107:   KELLING BUSHING
 EDF .F              5106:   DRILLING FLOOR
 EGL .F              5097:   GROUND LEVEL
 DATE.         6-FEB-1994:   RUN DATE
 RUN .                  1:   RUN NUMBER
 DD  .F               700:   DEPTH DRILLER
 DL  .F               701:   DEPTH LOGGER
 BLI .F               693:   BOTTOM LOG INTERVAL
 CS  .IN            9.625:   CASING SIZE
 CBD .F                56:   CASING BOTTOM DRILLER
 CBL .F                56:   CASING BOTTOM LOGGER
 BS  .IN             8.75:   BIT SIZE
 BSD .F               700:   BIT SIZE AT DEPTH
 DFT .                AIR:   DRILLING FLUID TYPE
 MRT .F                89:   MAXIMUM RECORDED TEMPERATURE
 LUN .            HL-6274:   LOGGING UNIT NUMBER
 LUL .             CASPER:   LOGGING UNIT LOCATION
 ENGI.        VERN RAUTIO:   RECORDING ENGINEER
 WITN.        GARY STRONG:   WITNESSED BY
 CLNT.            A2DTECH:   CLIENT CODE
 ORIG.           5" PRINT:   ORIGIN OF DATA
 UWI .       490252269600:   UNIQUE WELL ID
 DICO. A2D Technologies, Inc.:   DIGITIZING COMPANY
~OTHER INFORMATION
~A    DEPT      GRR       ILD        ILM   
# ...
  368.0000   109.5140     7.2990     7.7070
  368.5000   110.7090     7.2860     7.6770
  369.0000   109.6750     7.2730     7.6470
  369.5000   108.2180     7.2450     7.6170
  370.0000   106.7650     7.2140     7.5870
  370.5000   106.8970     7.1820     7.5570
  371.0000   109.4160     7.1510     7.5260
  371.5000   110.3310     7.1200     7.4960
  372.0000   108.1960     7.0880     7.4350
  372.5000   105.1510     7.0570     7.3250
  373.0000   103.6780     7.0250     7.2140
  373.5000   105.1280     6.9270     7.0580
  374.0000   108.5740     6.6630     6.7890
  374.5000   110.9420     6.4000     6.5210
  375.0000   110.8490     6.1360     6.2520
  375.5000   109.5860     5.9720     6.0850
  376.0000   107.6830     5.9340     6.0850
  376.5000   107.1270     5.8890     6.0850
  377.0000   109.0080     5.8440     6.1410
  377.5000   110.2540     5.8060     6.2190
  378.0000   109.8070     5.8060     6.2970
  378.5000   109.2330     5.8830     6.3760
  379.0000   111.1230     6.0060     6.4540
  379.5000   113.1190     6.1300     6.5320
  380.0000   113.8140     6.2540     6.6110
  380.5000   114.4480     6.3780     6.6890
  381.0000   114.9830     6.5010     6.7670
  381.5000   115.1650     6.6200     6.8460
  382.0000   114.3390     6.6050     6.9380
  382.5000   112.6800     6.5910     6.9380
  383.0000   111.6330     6.5760     6.9380
  383.5000   112.1160     6.5620     6.8730
  384.0000   112.7110     6.5580     6.7450
  384.5000   112.4390     6.4370     6.6820
  385.0000   113.1810     6.2450     6.5580
  385.5000   113.9250     5.9620     6.2740
  386.0000   114.2320     5.6780     5.9470
  386.5000   112.1580     5.3950     5.6200
  387.0000   110.5370     5.1110     5.2930
  387.5000   111.0060     4.9100     5.0450
  388.0000   111.4640     4.8140     4.9510
  388.5000   110.3150     4.8380     4.9980
  389.0000   109.1120     4.8850     5.0770
  389.5000   109.2270     4.9330     5.2910
  390.0000   112.2370     4.9800     5.5060
  390.5000   114.7310     5.1780     5.7200
  391.0000   116.3140     5.4630     5.9350
  391.5000   115.4280     5.7480     6.1490
  392.0000   113.2560     6.0340     6.3640
  392.5000   112.5300     6.3190     6.5250
  393.0000   113.3870     6.4370     6.5970
  393.5000   113.6110     6.5430     6.6700
  394.0000   111.5610     6.6150     6.7430
  394.5000   109.5880     6.6860     6.8150
  395.0000   107.7460     6.7580     6.8880
  395.5000   106.8520     6.8300     6.9610
  396.0000   106.9200     6.9020     7.0330
  396.5000   107.8080     6.9730     7.1060
  397.0000   109.8150     7.0450     7.1790
  397.5000   111.5970     7.1170     7.2510
  398.0000   112.4080     7.1350     7.2870
  398.5000   111.1830     7.1350     7.3100
  399.0000   110.1300     7.1350     7.3330
  399.5000   111.1680     7.1350     7.3550
  400.0000   112.1740     7.1350     7.3780
  400.5000   113.1440     7.1350     7.4010
  401.0000   111.5490     7.1350     7.4240
  401.5000   110.8060     7.1350     7.4470
  402.0000   113.2680     7.1350     7.4780
  402.5000   116.4610     7.1370     7.4310
  403.0000   117.3310     7.1040     7.3570
  403.5000   115.1060     7.0550     7.2830
  404.0000   111.5600     7.0070     7.2090
  404.5000   109.1900     6.9590     7.1350
  405.0000   110.3870     6.9100     7.0610
  405.5000   112.0610     6.8420     6.9710
  406.0000   112.1090     6.7020     6.8280
  406.5000   111.6950     6.4970     6.6200
  407.0000   112.1840     6.2820     6.4010
  407.5000   113.9760     6.0670     6.1820
  408.0000   114.4550     5.8520     5.9630
  408.5000   113.3470     5.5430     5.6480
  409.0000   111.6300     5.1870     5.2810
  409.5000   110.4090     4.7580     4.8240
  410.0000   111.6280     4.3280     4.3680
  410.5000   112.9770     3.8990     3.8810
  411.0000   113.9000     3.4690     3.4910
  411.5000   112.9310     3.0400     3.0720
  412.0000   111.5790     2.6110     2.6530
  412.5000   110.2190     2.4150     2.4600
  413.0000   108.0570     2.3550     2.4000
  413.5000   103.7660     2.2960     2.3390
  414.0000    99.9120     2.2330     2.2750
  414.5000    96.6300     2.3110     2.4370
  415.0000    97.3770     2.3940     2.6090
  415.5000   100.7010     2.4750     2.9180
  416.0000   106.9010     2.8800     3.3680
  416.5000   113.0490     3.2730     3.8170
  417.0000   118.4750     3.6660     4.3020
  417.5000   117.6330     4.0870     4.6540
  418.0000   115.5090     4.5180     5.0360
  418.5000   115.8810     4.9490     5.4180
  419.0000   117.3880     5.3800     5.6980
  419.5000   118.9800     5.7300     5.9160
  420.0000   119.3100     5.8510     6.0280
  420.5000   119.3120     6.0280     6.0280
  421.0000   119.2980     6.0060     6.0280
  421.5000   119.3820     5.9640     6.0280
  422.0000   120.8560     5.9230     6.0280
  422.5000   121.2510     5.9160     6.0280
  423.0000   122.4580     5.9160     6.0300
  423.5000   123.6220     5.9160     6.0280
  424.0000   124.2490     5.6750     5.8730
  424.5000   125.0730     5.3190     5.6030
  425.0000   126.4390     4.9640     5.1890
  425.5000   128.9860     4.6090     4.7750
  426.0000   130.3330     4.2530     4.3610
  426.5000   130.0680     4.0400     4.1220
  427.0000   128.5390     3.9820     4.0760
  427.5000   126.2570     3.9250     4.0300
  428.0000   123.9860     3.8450     3.9910
  428.5000   121.7110     3.8820     3.9910
  429.0000   119.4250     4.0260     4.2960
  429.5000   116.4640     4.2790     4.5610
  430.0000   115.6590     4.5330     4.8260
  430.5000   118.5750     4.7870     5.0910
  431.0000   124.5110     5.0400     5.3560
  431.5000   128.2100     5.2940     5.6210
  432.0000   126.3410     5.5480     5.8850
  432.5000   124.7060     5.8020     6.1500
  433.0000   126.6220     6.0550     6.4150
  433.5000   128.0190     6.3380     6.6280
  434.0000   127.7170     6.6250     6.8170
  434.5000   126.5000     6.8090     6.9380
  435.0000   126.3510     6.8090     6.9380
  435.5000   126.5220     6.8090     6.9380
  436.0000   126.1600     6.8090     6.9380
  436.5000   123.0830     6.7070     6.8340
  437.0000   120.9070     6.5540     6.6780
  437.5000   120.1330     6.4020     6.5230
  438.0000   122.7810     6.2490     6.3670
  438.5000   125.7830     6.0960     6.2120
  439.0000   127.4390     5.9440     6.0560
  439.5000   129.5300     5.6920     5.8000
  440.0000   131.1130     5.3230     5.4230
  440.5000   132.0880     4.9530     5.0470
  441.0000   130.5960     4.5840     4.6700
  441.5000   128.8100     4.2140     4.2940
  442.0000   128.4000     4.0670     4.1440
  442.5000   128.7020     4.1790     4.4210
  443.0000   130.2950     4.3150     4.7570
  443.5000   131.9370     4.4500     5.0930
  444.0000   132.3210     4.5940     5.4290
  444.5000   128.7710     4.9830     5.7660
  445.0000   125.0660     5.3970     6.1020
  445.5000   122.9680     5.8110     6.4380
  446.0000   121.9190     6.2250     6.6620
  446.5000   122.0480     6.6380     6.8240
  447.0000   124.6060     6.6820     6.8890
  447.5000   127.5090     6.5940     6.9400
  448.0000   130.5150     6.5140     6.9920
  448.5000   131.5650     6.4970     7.0430
  449.0000   131.4840     6.7260     7.0950
  449.5000   130.0540     6.8900     7.1460
  450.0000   127.2150     7.0690     7.2030
  450.5000   124.3760     7.0690     7.2030
  451.0000   123.3300     7.0690     7.2030
  451.5000   123.1540     7.0520     7.1860
  452.0000   125.3050     6.9760     7.1080
  452.5000   128.2180     6.8990     7.0300
  453.0000   130.9620     6.8220     6.9510
  453.5000   130.6540     6.7450     6.8730
  454.0000   128.8360     6.8040     6.9330
  454.5000   128.3260     6.8630     6.9930
  455.0000   130.6960     6.9380     7.0690
  455.5000   133.8970     6.8660     6.9960
  456.0000   136.0340     6.7690     6.8970
  456.5000   136.9980     6.6720     6.7980
  457.0000   136.0640     6.4670     6.5840
  457.5000   134.6060     6.1390     6.2380
  458.0000   133.1550     5.8120     5.8930
  458.5000   132.3000     5.4890     5.5470
