~VERSION INFORMATION
 VERS.                2.0:   CWLS LOG ASCII STANDARD - VERSION 2.0
 WRAP.                 NO:   ONE LINE PER DEPTH STEP
~WELL INFORMATION
#MNEM.UNIT      DATA TYPE    INFORMATION
#----------   ------------   ------------------------------
 STRT.F            0.0000:   START DEPTH
 STOP.F          524.0000:   STOP DEPTH
 STEP.F            0.5000:   STEP LENGTH
 NULL.          -999.2500:   NO VALUE
 COMP.       F D SERV INC:   COMPANY
 WELL. NAVAL PETROLEUM RESERVE 3 SX-1 #83-2-10:   WELL
 FLD .             TEAPOT:   FIELD
 LOC .      S10 T38N R78W:   LOCATION
 CNTY.            NATRONA:   COUNTY
 STAT.            WYOMING:   STATE
 CTRY. UNITED STATES OF AMERICA:   COUNTRY
 SRVC.     Atlas Wireline:   SERVICE COMPANY
 DATE.        10-FEB-1993:   LOGDATE
 API .       490252258100:   API NUMBER
~CURVE INFORMATION
#MNEM.UNIT       API CODE    CURVE DESCRIPTION
#----------   ------------   ------------------------------
 DEPT.F                  :   
 RILM.OHMM   07 120 44 00:   RESITIVITY LONG MEDIUM
 RILD.OHMM   07 120 46 00:   INDUCTION LOG DEEP RESISTIVITY
 GRR .GAPI   07 310 01 00:   GAMMA RAY
 PORZ.DEC    45 890 12 00:   DENSITY POROSITY
 ZCOR.G/C3   45 356 01 00:   DENSITY CORRECTION
 ZDEN.G/C3   45 350 01 00:   BULK DENSITY
 NPHI.DEC    42 890 03 00:   NEUTRON POROSITY SANDSTONE
 C13 .IN     45 280 13 00:   CALIPER X
~PARAMETER INFORMATION
#MNEM.UNIT          VALUE    DESCRIPTION
#----------   ------------   ------------------------------
 PD  .                 GL:   PERMANENT DATUM
 EPD .F              5156:   ELEVATION PERMANENT DATUM
 LMF .                 KB:   LOG MEASURED FROM
 DAPD.F                10:   FEET ABOVE PERMANENT DATUM
 DMF .                 KB:   DRILLING MEASURED FROM
 EKB .F              5166:   KELLING BUSHING
 EDF .F              5165:   DRILLING FLOOR
 EGL .F              5156:   GROUND LEVEL
 DATE.        10-FEB-1993:   RUN DATE
 RUN .                  1:   RUN NUMBER
 DD  .F               525:   DEPTH DRILLER
 DL  .F               526:   DEPTH LOGGER
 BLI .F               518:   BOTTOM LOG INTERVAL
 CS  .IN            8.625:   CASING SIZE
 CBD .F                80:   CASING BOTTOM DRILLER
 CBL .F                81:   CASING BOTTOM LOGGER
 BS  .IN            7.875:   BIT SIZE
 BSD .F               525:   BIT SIZE AT DEPTH
 DFT .                AIR:   DRILLING FLUID TYPE
 MRT .F                70:   MAXIMUM RECORDED TEMPERATURE
 LUN .            HL 6274:   LOGGING UNIT NUMBER
 LUL .             CASPER:   LOGGING UNIT LOCATION
 ENGI.          V. RAUTIO:   RECORDING ENGINEER
 WITN.          G. STRONG:   WITNESSED BY
 CLNT.            A2DTECH:   CLIENT CODE
 ORIG.           5" PRINT:   ORIGIN OF DATA
 UWI .       490252258100:   UNIQUE WELL ID
 DICO. A2D Technologies, Inc.:   DIGITIZING COMPANY
~OTHER INFORMATION
~A    DEPT    RILM       RILD         GRR      PORZ       ZCOR       ZDEN       NPHI        C13   
# ...
  121.5000     7.9679     7.9072   146.0855     0.1003  -999.2500  -999.2500     0.3260     8.1427
  122.0000     8.0221     7.9621   141.5490     0.0994  -999.2500  -999.2500     0.3242     8.1572
  122.5000     8.0201     8.0175   140.3308     0.0982  -999.2500  -999.2500     0.3236     8.1566
  123.0000     8.0747     8.0732   140.9226     0.0958    -0.0112     2.4912     0.3224     8.1559
  123.5000     8.0726     8.0732   144.2292     0.0949    -0.0120     2.4906     0.3215     8.1554
  124.0000     8.0710     7.9621   146.9326     0.0976    -0.0142     2.4895     0.3218     8.1548
  124.5000     8.0690     7.9621   147.5243     0.1042    -0.0188     2.4834     0.3239     8.1542
  125.0000     8.0674     7.9621   147.5099     0.1036    -0.0158     2.4782     0.3242     8.1535
  125.5000     8.0101     7.9072   149.3083     0.1018    -0.0081     2.4797     0.3236     8.1379
  126.0000     8.0085     7.8526   157.1398     0.1009    -0.0023     2.4826     0.3224     8.1373
  126.5000     7.9516     7.8526   157.1252     0.1003    -0.0008     2.4856     0.3200     8.1217
  127.0000     7.8406     7.7984   148.9690     0.0997    -0.0023     2.4871     0.3207     8.1210
  127.5000     7.8386     7.7984   147.4491     0.0994    -0.0053     2.4885     0.3246     8.1204
  128.0000     7.8371     7.8526   145.6276     0.1021    -0.0053     2.4869     0.3243     8.1198
  128.5000     7.8900     7.9072   143.2027     0.1048    -0.0054     2.4824     0.3216     8.1343
  129.0000     7.9437     7.9072   142.2862     0.1054     0.0006     2.4779     0.3168     8.1336
  129.5000     7.9970     8.0175   142.2745     0.1064     0.0096     2.4763     0.3156     8.1331
  130.0000     8.0509     8.1293   143.1651     0.1088     0.0186     2.4740     0.3144     8.1325
  130.5000     8.1711     8.2427   143.4581     0.1115     0.0231     2.4695     0.3105     8.1319
  131.0000     8.2739     8.3650   141.6337     0.1112     0.0186     2.4634     0.3063     8.1312
  131.5000     8.4456     8.5924   139.5105     0.1060     0.0051     2.4717     0.3023     8.1306
  132.0000     8.5622     8.7122   143.1188     0.0964    -0.0070     2.4837     0.2988     8.1301
  132.5000     8.7404     8.8337   144.3139     0.0898    -0.0100     2.4994     0.2961     8.1295
  133.0000     8.9218     9.0191   142.4895     0.0874    -0.0040     2.5069     0.2964     8.1288
  133.5000     9.0445     9.1449   141.5729     0.0886     0.0050     2.5061     0.2970     8.1282
  134.0000     9.2326     9.3369   141.2597     0.0919     0.0095     2.5023     0.2967     8.1277
  134.5000     9.4243     9.4671   140.6448     0.0925     0.0080     2.4985     0.2961     8.1271
  135.0000     9.5539     9.5992   140.3315     0.0916     0.0080     2.4977     0.2943     8.1265
  135.5000     9.6858     9.7330   140.6216     0.0904     0.0017     2.5007     0.2913     8.1258
  136.0000     9.8868     9.8688   136.6856     0.0898    -0.0056     2.5037     0.2888     8.1252
  136.5000    10.1041    10.0064   130.6408     0.0907    -0.0026     2.5036     0.2862     8.1247
  137.0000    10.3019    10.2165   129.1210     0.0898     0.0049     2.5006     0.2835     8.1241
  137.5000    10.5163    10.4309   128.5061     0.0886     0.0109     2.5036     0.2826     8.1234
  138.0000    10.6609    10.6499   129.0978     0.0905     0.0094     2.5058     0.2820     8.1380
  138.5000    10.8076    10.7984   133.6651     0.0920     0.0003     2.4997     0.2799     8.1373
  139.0000    10.9562    11.0251   135.4095     0.0889    -0.0089     2.5004     0.2775     8.1359
  139.5000    11.1836    11.1017   135.3950     0.0883    -0.0072     2.5034     0.2757     8.1210
  140.0000    11.2597    11.1841   135.0818     0.0896    -0.0072     2.5064     0.2766     8.1204
  140.5000    11.2569    11.3348   133.2603     0.0953    -0.0088     2.5033     0.2788     8.1048
  141.0000    11.2546    11.4136   129.6288     0.0941    -0.0117     2.4980     0.2800     8.1042
  141.5000    11.3306    11.4136   128.0754     0.0923    -0.0073     2.4957     0.2809     8.1035
  142.0000    11.4072    11.3348   128.0973     0.0923     0.0047     2.4995     0.2815     8.1181
  142.5000    11.4048    11.3348   127.4796     0.0932     0.0122     2.5002     0.2809     8.1174
  143.0000    11.4020    11.1789   126.2613     0.0947     0.0077     2.4971     0.2785     8.1169
  143.5000    11.3210    11.1017   127.1547     0.0968     0.0032     2.4933     0.2752     8.1162
  144.0000    11.0859    11.0251   128.3498     0.0986    -0.0013     2.4888     0.2749     8.1156
  144.5000    10.9311    10.7984   129.5449     0.1008     0.0047     2.4850     0.2771     8.1302
  145.0000    10.7785    10.7239   130.7370     0.1022     0.0047     2.4804     0.2791     8.1295
  145.5000    10.6279    10.7239   131.6304     0.1007     0.0031     2.4834     0.2810     8.1288
  146.0000    10.6253    10.7239   131.9234     0.0989     0.0001     2.4871     0.2807     8.1282
  146.5000    10.6971    10.6499   131.6073     0.0989    -0.0014     2.4871     0.2785     8.1427
  147.0000    10.6950    10.6499   132.5008     0.1010     0.0031     2.4810     0.2741     8.1422
  147.5000    10.6928    10.6499   132.7908     0.1016     0.0136     2.4833     0.2705     8.1265
  148.0000    10.6169    10.6499   127.0448     0.1001     0.0166     2.4877     0.2675     8.1258
  148.5000    10.5409    10.6384   126.7316     0.0995     0.0045     2.4846     0.2672     8.1252
  149.0000    10.5388    10.5764   127.3233     0.1026    -0.0181     2.4779     0.2684     8.1247
  149.5000    10.4639    10.5034   130.9316     0.1083    -0.0165     2.4718     0.2687     8.1090
  150.0000    10.3896    10.3589   133.6350     0.1098    -0.0060     2.4673     0.2669     8.1234
  150.5000    10.2460    10.3581   132.4108     0.1098     0.0030     2.4665     0.2663     8.1078
  151.0000    10.1746    10.2150   132.3967     0.1107     0.0090     2.4657     0.2669     8.1071
  151.5000    10.0337    10.0738   132.9864     0.1134     0.0165     2.4611     0.2684     8.1065
  152.0000     9.9638    10.0035   133.2736     0.1182     0.0165     2.4543     0.2706     8.1060
  152.5000     9.9631     9.9338   133.8594     0.1176     0.0120     2.4550     0.2745     8.1054
  153.0000     9.8935     9.8646   134.1505     0.1161     0.0060     2.4588     0.2799     8.1047
  153.5000     9.7567     9.8640   134.7362     0.1161     0.0045     2.4579     0.2799     8.1345
  154.0000     9.7561     9.7951   134.4170     0.1176     0.0045     2.4557     0.2793     8.1337
  154.5000     9.6881     9.7945   126.2582     0.1173     0.0045     2.4571     0.2797     8.1330
  155.0000     9.6873     9.7939   123.2275     0.1152     0.0045     2.4594     0.2827     8.1325
  155.5000     9.6198     9.7931   124.4166     0.1128     0.0045     2.4623     0.2854     8.1319
  156.0000     9.5492     9.7249   126.5142     0.1119     0.0045     2.4646     0.2881     8.1331
  156.5000     9.4205     9.5905   127.4086     0.1113     0.0045     2.4653     0.2888     8.1608
  157.0000     9.3548     9.5235   127.3585     0.1104     0.0030     2.4668     0.2885     8.1753
  157.5000     9.2896     9.5229   126.1668     0.1101     0.0000     2.4690     0.2882     8.2048
  158.0000     9.1610     9.3913   126.1528     0.1110    -0.0030     2.4674     0.2873     8.2041
  158.5000     9.1604     9.3259   127.3454     0.1110    -0.0060     2.4659     0.2870     8.1282
  159.0000     9.0966     9.2608   128.8361     0.1113    -0.0060     2.4658     0.2870     8.0975
  159.5000     9.0958     9.1963   128.8220     0.1116    -0.0060     2.4658     0.2870     8.1120
  160.0000     9.0952     9.1323   127.9030     0.1119    -0.0060     2.4643     0.2880     8.1265
  160.5000     9.0947     9.1315   128.1906     0.1120    -0.0060     2.4650     0.2889     8.1258
  161.0000     9.0939     9.1309   130.5863     0.1123    -0.0060     2.4634     0.2904     8.1253
  161.5000     9.0933     9.1304   131.7824     0.1120    -0.0045     2.4649     0.2907     8.1247
