~VERSION INFORMATION
 VERS.                2.0:   CWLS LOG ASCII STANDARD - VERSION 2.0
 WRAP.                 NO:   ONE LINE PER DEPTH STEP
~WELL INFORMATION
#MNEM.UNIT      DATA TYPE    INFORMATION
#----------   ------------   ------------------------------
 STRT.F           38.0000:   START DEPTH
 STOP.F          483.5000:   STOP DEPTH
 STEP.F            0.5000:   STEP LENGTH
 NULL.          -999.2500:   NO VALUE
 COMP. FENIX & SCISSON INC:   COMPANY
 WELL.    43 SX 10 #43-10:   WELL
 FLD .             TEAPOT:   FIELD
 LOC .      S10 T38N R78W:   LOCATION
 CNTY.            NATRONA:   COUNTY
 STAT.            WYOMING:   STATE
 CTRY. UNITED STATES OF AMERICA:   COUNTRY
 SRVC.            Unknown:   SERVICE COMPANY
 DATE.        12-NOV-1978:   LOGDATE
 API .       490251072700:   API NUMBER
~CURVE INFORMATION
#MNEM.UNIT       API CODE    CURVE DESCRIPTION
#----------   ------------   ------------------------------
 DEPT.F                  :   
 SPR .MV     05 010 01 00:   SPONTANEOUS POTENTIAL FROM RES.
 SN  .OHMM   05 040 16 00:   SHORT NORMAL 16"
 IL  .OHMM   05 120 00 00:   INDUCTION LOG
 GRD .GAPI   45 310 01 00:   GAMMA RAY FROM DENSITY LOG
 CALD.IN     45 280 60 00:   CALIPER
 DEN .G/C3   45 350 01 00:   COMPENSATED BULK DENSTIY
 DPHI.DEC    45 890 12 00:   DENSITY POROSITY SANDSTONE
 CORR.G/C3   45 356 01 00:   DENSITY CORRECTION
~PARAMETER INFORMATION
#MNEM.UNIT          VALUE    DESCRIPTION
#----------   ------------   ------------------------------
 PD  .                 GL:   PERMANENT DATUM
 EPD .F              5193:   ELEVATION PERMANENT DATUM
 LMF .                 KB:   LOG MEASURED FROM
 DAPD.F                 4:   FEET ABOVE PERMANENT DATUM
 DMF .                 KB:   DRILLING MEASURED FROM
 EKB .F              5197:   KELLING BUSHING
 EGL .F              5193:   GROUND LEVEL
 DATE.           11-12-78:   RUN DATE
 RUN .                  1:   RUN NUMBER
 DD  .F               480:   DEPTH DRILLER
 DL  .F               485:   DEPTH LOGGER
 BLI .F               479:   BOTTOM LOG INTERVAL
 TLI .F                50:   TOP LOG INTERVAL
 CS  .IN            8.625:   CASING SIZE
 CBD .F                40:   CASING BOTTOM DRILLER
 CBL .F                45:   CASING BOTTOM LOGGER
 BS  .IN            7.875:   BIT SIZE
 BSD .F               480:   BIT SIZE AT DEPTH
 DFT .            SEA MUD:   DRILLING FLUID TYPE
 DFD .                8.7:   DRILLING FLUID DENSITY
 DFV .                 36:   DRILLING FLUID VISCOSITY
 DFPH.               10.5:   DRILLING FLUID PH
 MSS .            MUD PIT:   MUD SAMPLE SOURCE
 RMS .OHMM            .42:   RESISTIVITY MUD SAMPLE
 MST .F                52:   MUD SAMPLE TEMPERATURE
 RMF .OHMM            .42:   RESISTIVITY MUD FILTRATE SAMPLE
 MFST.F                52:   MUD FILTRATE SAMPLE TEMPERATURE
 RMC .OHMM            .48:   RESISTIVITY MUD CAKE
 MCST.F                54:   MUD CAKE SAMPLE TEMPERATURE
 MFSS.               MEAS:   MUD FILTRATE SAMPLE SOURCE
 MCSS.               MEAS:   MUD CAKE SAMPLE SOURCE
 RMB .OHMM            .34:   RESISTIVITY MUD AT BHT
 BHT .F                71:   BOTTOM HOLE TEMPERATURE
 TCS .HRS               3:   TIME CURCULATED STOPPED
 MRT .F                71:   MAXIMUM RECORDED TEMPERATURE
 LUN .               3006:   LOGGING UNIT NUMBER
 LUL .               CASP:   LOGGING UNIT LOCATION
 ENGI.             MILLER:   RECORDING ENGINEER
 WITN.           DINSMORE:   WITNESSED BY
 CLNT.            A2DTECH:   CLIENT CODE
 ORIG.       2", 5" PRINT:   ORIGIN OF DATA
 UWI .       490251072700:   UNIQUE WELL ID
 DICO. A2D Technologies, Inc.:   DIGITIZING COMPANY
~OTHER INFORMATION
~A   DEPT      SPR         SN         IL         GRD      CALD        DEN       DPHI       CORR   
# ...
  362.0000   -18.2060    21.6050    26.4109    90.7118     8.3231     2.3228     0.2141     0.0213
  362.5000   -18.2296    22.1388    27.1381    91.2017     8.3204     2.3226     0.2138     0.0186
  363.0000   -18.2403    22.1329    27.6166    91.3318     8.3178     2.3224     0.2141     0.0171
  363.5000   -18.2513    22.1353    27.6166    88.1558     8.3173     2.3222     0.2146     0.0158
  364.0000   -18.2623    22.1349    27.6172    86.0320     8.3423     2.3220     0.2151     0.0144
  364.5000   -18.2732    22.1347    27.6166    84.6123     8.3765     2.3206     0.2156     0.0129
  365.0000   -18.2842    22.1347    27.6166    84.8169     8.3763     2.3129     0.2202     0.0162
  365.5000   -18.2952    22.1347    27.6166    85.3408     8.3666     2.3052     0.2255     0.0216
  366.0000   -18.3062    22.1347    27.6169    85.1786     8.3525     2.3003     0.2261     0.0252
  366.5000   -18.3172    22.1348    27.6335    84.9032     8.3394     2.3142     0.2206     0.0265
  367.0000   -18.3282    22.1339    27.6740    82.9040     8.2925     2.3277     0.2127     0.0279
  367.5000   -18.3392    22.1918    27.7143    82.0134     8.2633     2.3416     0.2047     0.0271
  368.0000   -18.3502    22.2787    27.7546    80.7682     8.2853     2.3463     0.1990     0.0245
  368.5000   -18.3612    22.3668    27.7949    78.3021     8.3062     2.3484     0.1982     0.0217
  369.0000   -18.3721    22.4552    27.8345    77.4450     8.3276     2.3503     0.1964     0.0218
  369.5000   -18.3831    22.5440    27.8704    77.0667     8.3231     2.3551     0.1929     0.0242
  370.0000   -18.3941    22.6331    27.7305    77.2434     8.2997     2.3642     0.1894     0.0216
  370.5000   -18.4042    22.7226    27.6026    77.4189     8.2762     2.3905     0.1812     0.0171
  371.0000   -18.4117    22.8125    27.4744    77.5921     8.2640     2.4264     0.1532     0.0095
  371.5000   -18.4525    22.9026    27.3631    77.7654     8.3044     2.4648     0.1253     0.0018
  372.0000   -19.0248    22.9932    27.6970    77.9370     8.3438     2.5031     0.0975     0.0005
  372.5000   -19.5935    23.0841    28.1305    78.0490     8.3829     2.5413     0.0712     0.0005
  373.0000   -20.1535    23.1790    27.8595    77.9460     8.4227     2.5568     0.0802     0.0004
  373.5000   -20.2170    23.0381    27.3773    78.0568     8.4282     2.5196     0.0973     0.0041
  374.0000   -20.3469    22.8928    26.9035    78.8819     8.4176     2.4761     0.1188     0.0094
  374.5000   -20.4193    22.7485    26.4379    80.5787     8.4066     2.4362     0.1404     0.0149
  375.0000   -20.4171    22.6022    25.9803    82.6202     8.3957     2.4082     0.1619     0.0168
  375.5000   -20.1769    22.1939    25.5306    84.6815     8.3848     2.3821     0.1853     0.0171
  376.0000   -19.9072    21.6148    25.0887    86.6539     8.3738     2.3604     0.1925     0.0175
  376.5000   -19.6375    21.0534    24.6545    87.5455     8.3629     2.3542     0.1941     0.0178
  377.0000   -19.3677    20.5066    23.9259    87.7715     8.3520     2.3506     0.1959     0.0182
  377.5000   -19.0849    19.9996    23.0511    87.7614     8.3410     2.3496     0.1977     0.0185
  378.0000   -19.1867    19.9175    22.6959    88.1548     8.3300     2.3493     0.1980     0.0189
  378.5000   -19.4113    19.8413    22.6050    88.9170     8.3186     2.3490     0.1978     0.0192
  379.0000   -19.4782    19.7648    22.5144    90.5049     8.3273     2.3467     0.1977     0.0196
  379.5000   -19.5360    19.6882    22.4242    91.1330     8.3406     2.3382     0.2033     0.0200
  380.0000   -19.5946    19.5443    22.3344    91.6520     8.3540     2.3315     0.2077     0.0203
  380.5000   -19.6534    19.2426    22.2449    91.6817     8.3674     2.3308     0.2080     0.0207
  381.0000   -19.7122    18.9470    22.1558    89.9107     8.3808     2.3308     0.2084     0.0211
  381.5000   -19.7710    18.6546    22.0671    88.6782     8.3942     2.3313     0.2076     0.0214
  382.0000   -19.8299    18.3693    21.9787    88.4941     8.3965     2.3330     0.2063     0.0218
  382.5000   -19.8887    18.1490    21.8907    88.3844     8.3973     2.3380     0.2037     0.0222
  383.0000   -19.9475    17.9905    21.8030    88.6347     8.3981     2.3429     0.2010     0.0225
  383.5000   -20.0063    17.8316    21.6391    91.1760     8.3990     2.3478     0.1983     0.0230
  384.0000   -20.0652    17.6741    21.1052    95.8752     8.3998     2.3526     0.1955     0.0234
  384.5000   -20.1240    17.4601    20.5845    96.5853     8.4007     2.3576     0.1928     0.0238
  385.0000   -20.1825    17.1579    20.0766    95.9001     8.4015     2.3663     0.1866     0.0242
  385.5000   -20.2295    16.8609    19.5812    93.5284     8.4024     2.3764     0.1805     0.0242
  386.0000   -20.2555    16.5145    19.0981    88.6389     8.4032     2.3810     0.1772     0.0219
  386.5000   -20.2818    15.9850    18.6269    84.1984     8.4041     2.3814     0.1763     0.0196
  387.0000   -20.3081    15.5544    18.1673    81.7189     8.4049     2.3817     0.1768     0.0173
  387.5000   -20.3344    15.3943    17.7410    81.0389     8.4058     2.3807     0.1774     0.0149
  388.0000   -20.3607    15.2359    17.5035    80.4247     8.4066     2.3730     0.1800     0.0137
  388.5000   -20.3865    15.0791    17.2801    80.7247     8.4075     2.3660     0.1893     0.0128
  389.0000   -20.4085    14.9238    17.0596    82.3783     8.4083     2.3644     0.1890     0.0118
  389.5000   -20.6214    14.7702    16.8419    83.8659     8.4092     2.3706     0.1857     0.0108
  390.0000   -20.8708    14.6182    16.6269    84.3508     8.4100     2.3809     0.1787     0.0108
  390.5000   -21.1233    14.4840    16.4615    84.4343     8.4109     2.3915     0.1721     0.0111
  391.0000   -21.2373    14.4840    16.4026    83.2229     8.4117     2.3937     0.1700     0.0115
  391.5000   -21.2756    14.4840    16.3440    80.5913     8.4126     2.3945     0.1697     0.0119
  392.0000   -21.3125    14.2576    16.2217    80.3594     8.4134     2.3936     0.1704     0.0123
  392.5000   -21.3494    14.0183    16.0242    80.5347     8.4143     2.3910     0.1721     0.0132
  393.0000   -21.3864    13.9390    15.8291    81.2547     8.4151     2.3909     0.1722     0.0144
  393.5000   -21.4235    13.9099    15.6363    84.3456     8.4170     2.3909     0.1724     0.0157
  394.0000   -21.4636    13.8821    15.5128    85.4420     8.4240     2.3909     0.1725     0.0185
  394.5000   -21.5031    13.8539    15.4100    86.5071     8.4297     2.3917     0.1725     0.0243
  395.0000   -21.5426    13.8095    15.3078    87.3678     8.3642     2.3981     0.1697     0.0302
  395.5000   -21.5821    13.6950    15.2064    88.1062     8.2781     2.4153     0.1533     0.0326
  396.0000   -21.6216    13.5822    15.1055    88.1987     8.3933     2.4330     0.1398     0.0296
  396.5000   -21.6611    13.4702    15.0030    88.3044     8.4390     2.4476     0.1384     0.0259
  397.0000   -21.7006    13.3592    14.8931    88.5059     8.4465     2.4489     0.1376     0.0222
  397.5000   -21.7401    13.2490    14.7840    88.9330     8.4535     2.4486     0.1370     0.0184
  398.0000   -21.7796    13.1398    14.6758    89.9506     8.4305     2.4482     0.1364     0.0147
  398.5000   -21.8191    13.0315    14.5065    91.3120     8.3982     2.4463     0.1407     0.0110
  399.0000   -21.8586    12.9241    14.2739    91.6755     8.4310     2.4377     0.1457     0.0105
  399.5000   -21.8981    12.8401    14.0422    90.5432     8.4538     2.4246     0.1507     0.0105
  400.0000   -21.9371    12.8123    13.8177    89.4252     8.4443     2.4219     0.1532     0.0105
  400.5000   -21.9763    12.7846    13.7019    88.4894     8.4356     2.4219     0.1532     0.0105
  401.0000   -22.0527    12.7569    13.7032    86.6548     8.4270     2.4245     0.1514     0.0105
  401.5000   -22.3857    12.7293    13.7046    84.9159     8.4183     2.4329     0.1455     0.0105
  402.0000   -22.7231    12.7018    13.6915    84.7956     8.3951     2.4426     0.1392     0.0113
