~VERSION INFORMATION
 VERS.                2.0:   CWLS LOG ASCII STANDARD - VERSION 2.0
 WRAP.                 NO:   ONE LINE PER DEPTH STEP
~WELL INFORMATION
#MNEM.UNIT      DATA TYPE    INFORMATION
#----------   ------------   ------------------------------
 STRT.F           32.0000:   START DEPTH
 STOP.F          688.5000:   STOP DEPTH
 STEP.F            0.5000:   STEP LENGTH
 NULL.          -999.2500:   NO VALUE
 COMP. FENIX & SCISSON INC:   COMPANY
 WELL.       NPR 3 #78-34:   WELL
 FLD .  TEAPOT DOME NPR-3:   FIELD
 LOC .      S34 T39N R78W:   LOCATION
 CNTY.            NATRONA:   COUNTY
 STAT.            WYOMING:   STATE
 CTRY. UNITED STATES OF AMERICA:   COUNTRY
 SRVC.           BIRDWELL:   SERVICE COMPANY
 DATE.        16-AUG-1978:   LOGDATE
 API .       490251070700:   API NUMBER
~CURVE INFORMATION
#MNEM.UNIT       API CODE    CURVE DESCRIPTION
#----------   ------------   ------------------------------
 DEPT.F                  :   
 SPR .MV     05 010 01 00:   SPONTANEOUS POTENTIAL
 SN  .OHMM   05 040 16 00:   SHORT NORMAL 16'
 ILD .OHMM   05 120 46 00:   INDUCTION LOG DEEP RESISTIVITY
 CALD.IN     45 280 60 00:   CALIPER
 GRD .GAPI   45 310 01 00:   GAMMA RAY FROM DENSITY LOG
 RHOB.G/C3   45 350 01 00:   BULK DENSITY
 DPHI.DEC    45 890 12 00:   DENSITY POROSITY SANDSTONE
 CORR.G/C3   45 356 01 00:   DENSITY CORRECTION
~PARAMETER INFORMATION
#MNEM.UNIT          VALUE    DESCRIPTION
#----------   ------------   ------------------------------
 PD  .                 GL:   PERMANENT DATUM
 EPD .F              5085:   ELEVATION PERMANENT DATUM
 LMF .                 KB:   LOG MEASURED FROM
 DAPD.F                 4:   FEET ABOVE PERMANENT DATUM
 DMF .                 KB:   DRILLING MEASURED FROM
 EKB .F              5089:   KELLING BUSHING
 EGL .F              5085:   GROUND LEVEL
 DATE.          8-16-1978:   RUN DATE
 RUN .                  1:   RUN NUMBER
 DD  .F               680:   DEPTH DRILLER
 DL  .F               688:   DEPTH LOGGER
 BLI .F               682:   BOTTOM LOG INTERVAL
 TLI .F                50:   TOP LOG INTERVAL
 CS  .IN            8.625:   CASING SIZE
 CBD .F                40:   CASING BOTTOM DRILLER
 BS  .IN            7.875:   BIT SIZE
 BSD .F               680:   BIT SIZE AT DEPTH
 DFT .                KCL:   DRILLING FLUID TYPE
 RMS .OHMM            .32:   RESISTIVITY MUD SAMPLE
 MST .F                64:   MUD SAMPLE TEMPERATURE
 RMF .OHMM             .3:   RESISTIVITY MUD FILTRATE SAMPLE
 MFST.F                76:   MUD FILTRATE SAMPLE TEMPERATURE
 RMC .OHMM            .16:   RESISTIVITY MUD CAKE
 MCST.F                64:   MUD CAKE SAMPLE TEMPERATURE
 MFSS.               MEAS:   MUD FILTRATE SAMPLE SOURCE
 MCSS.               MEAS:   MUD CAKE SAMPLE SOURCE
 TCS .HRS               1:   TIME CURCULATED STOPPED
 LUN .               3006:   LOGGING UNIT NUMBER
 LUL .               CASP:   LOGGING UNIT LOCATION
 ENGI.             MILLER:   RECORDING ENGINEER
 WITN.           MCGINLEY:   WITNESSED BY
 CLNT.            A2DTECH:   CLIENT CODE
 ORIG.           5" PRINT:   ORIGIN OF DATA
 UWI .       490251070700:   UNIQUE WELL ID
 DICO. A2D Technologies, Inc.:   DIGITIZING COMPANY
~OTHER INFORMATION
~A   DEPT      SPR         SN        ILD       CALD         GRD      RHOB       DPHI       CORR   
# ...
  477.5000   -24.4719     8.6250     7.9402     7.7858   107.9117     2.4563     0.1002     0.0894
  478.0000   -24.0571     8.7851     8.0135     7.7592   100.7437     2.5002     0.0998     0.0561
  478.5000   -23.6411     8.8662     7.8754     7.7253    93.4630     2.5095     0.1061     0.0475
  479.0000   -23.2253     8.8662     7.7694     7.6912    86.2289     2.5003     0.1128     0.0502
  479.5000   -22.8089     8.9480     7.7242     7.6574    80.5395     2.4984     0.1166     0.0638
  480.0000   -22.2873     9.0317     7.7925     7.6234    79.9422     2.5190     0.1027     0.0778
  480.5000   -21.5733     9.4029     8.3019     7.6097    81.5288     2.5352     0.0915     0.0878
  481.0000   -20.8620     9.8926     8.7525     7.6312    84.6043     2.5438     0.0870     0.0867
  481.5000   -20.1222    10.4019     9.2274     7.6529    86.1736     2.5482     0.0850     0.0858
  482.0000   -19.7509    10.9376     9.7276     7.6562    85.2992     2.5477     0.0862     0.0850
  482.5000   -19.4820    11.5010    10.2551     7.5897    84.3386     2.5427     0.0878     0.0841
  483.0000   -19.2163    12.0933    10.8111     7.5244    85.6521     2.5378     0.0895     0.0832
  483.5000   -18.9489    12.7161    11.3973     7.4863    87.7277     2.5329     0.0910     0.0822
  484.0000   -18.6813    13.3710    12.0152     7.4869    89.8287     2.5280     0.1002     0.0772
  484.5000   -18.4122    14.0597    12.6666     7.5730    91.9257     2.5196     0.1090     0.0670
  485.0000   -18.1456    14.7838    13.3534     7.7120    92.1846     2.4995     0.1178     0.0599
  485.5000   -18.1100    15.3907    13.7833     7.6258    90.7409     2.4802     0.1266     0.0611
  486.0000   -18.0863    15.8210    13.9141     7.5117    81.9849     2.4611     0.1436     0.0615
  486.5000   -18.0611    15.9671    13.9091     7.4823    72.6177     2.4342     0.1671     0.0502
  487.0000   -18.0358    16.3005    13.9104     7.4573    67.0759     2.3941     0.1906     0.0505
  487.5000   -18.0104    16.6293    13.9106     7.4309    64.2222     2.3542     0.2093     0.0707
  488.0000   -17.9850    16.9648    13.9106     7.4304    61.4386     2.3316     0.2117     0.0914
  488.5000   -17.9597    17.1855    14.2163     7.5300    57.3580     2.3356     0.2170     0.1132
  489.0000   -17.9343    17.1855    14.7311     7.6290    52.5001     2.3630     0.1919     0.1202
  489.5000   -17.9089    17.1599    15.2646     7.6906    51.7784     2.3787     0.1812     0.1090
  490.0000   -17.8836    17.1276    15.8210     7.7333    55.1143     2.3540     0.1981     0.0943
  490.5000   -17.8582    17.0954    15.8210     7.7682    58.5110     2.3342     0.2106     0.0803
  491.0000   -17.8328    17.0634    15.9671     7.7883    59.2412     2.3185     0.2227     0.0849
  491.5000   -17.8072    17.0314    15.9671     7.7896    59.4119     2.3367     0.2239     0.0980
  492.0000   -17.7793    16.9995    15.7272     7.8099    58.6991     2.3593     0.1995     0.0805
  492.5000   -17.7536    16.9677    15.4805     7.8302    56.7009     2.3676     0.1898     0.0699
  493.0000   -17.9157    16.9359    15.2377     7.8506    54.7163     2.3252     0.2158     0.0698
  493.5000   -19.1334    16.9042    14.9987     7.8817    52.7457     2.2929     0.2375     0.0698
  494.0000   -19.3753    16.8725    14.8200     7.9561    52.5386     2.2998     0.2322     0.0667
  494.5000   -19.4185    16.8409    14.7707     8.0289    56.4989     2.3114     0.2255     0.0581
  495.0000   -19.4583    16.8093    14.7216     8.0712    59.2895     2.3147     0.2230     0.0496
  495.5000   -19.5005    16.7778    14.6727     8.0819    62.0987     2.3153     0.2213     0.0410
  496.0000   -19.5430    16.7464    14.6240     8.0924    63.4061     2.3028     0.2285     0.0323
  496.5000   -19.5855    16.7150    14.5754     8.1022    63.0478     2.2900     0.2400     0.0339
  497.0000   -19.6276    16.6837    14.5269     8.1251    60.9203     2.2835     0.2435     0.0395
  497.5000   -19.6695    16.6525    14.4787     8.1173    58.2647     2.2831     0.2439     0.0452
  498.0000   -19.7147    16.6213    14.4305     8.0686    55.6141     2.2857     0.2425     0.0509
  498.5000   -19.9179    16.5902    14.3826     8.0203    52.9446     2.2914     0.2352     0.0533
  499.0000   -20.4119    16.5591    14.3348     7.9714    51.8148     2.2967     0.2279     0.0550
  499.5000   -20.9019    16.5280    14.2995     8.0024    54.3667     2.3113     0.2209     0.0549
  500.0000   -21.3425    16.4971    14.2995     8.0454    57.1058     2.3271     0.2143     0.0529
  500.5000   -21.3836    16.4662    14.2995     8.0358    59.0282     2.3428     0.2076     0.0462
  501.0000   -21.4179    16.4353    14.2995     7.9790    59.4661     2.3526     0.1996     0.0353
  501.5000   -21.4532    16.4046    14.2995     7.9089    60.1265     2.3401     0.2052     0.0243
  502.0000   -21.4888    16.3738    14.2995     7.8191    60.7624     2.3271     0.2147     0.0132
  502.5000   -21.5262    16.3431    14.2995     7.7273    61.0347     2.3141     0.2241     0.0171
  503.0000   -21.6204    16.3125    14.2995     7.6770    60.3927     2.3012     0.2335     0.0232
  503.5000   -21.7788    16.2820    14.2995     7.6371    59.7676     2.2880     0.2404     0.0293
  504.0000   -21.9367    16.2633    14.2998     7.5975    59.1417     2.2818     0.2431     0.0354
  504.5000   -22.0951    16.1481    14.2995     7.5578    58.5158     2.2842     0.2397     0.0398
  505.0000   -22.2534    15.8807    14.2995     7.5180    58.2185     2.3038     0.2303     0.0384
  505.5000   -22.4117    15.6178    14.1307     7.4783    58.4167     2.3199     0.2210     0.0371
  506.0000   -22.5700    15.3591    13.5935     7.4385    58.9107     2.3219     0.2189     0.0360
  506.5000   -22.7283    15.0245    13.0766     7.3979    60.5528     2.3453     0.2185     0.0380
  507.0000   -22.8866    14.6385    12.5795     7.3412    62.2257     2.3730     0.2020     0.0401
  507.5000   -23.0448    14.2625    12.1012     7.2767    63.8900     2.3840     0.1855     0.0418
  508.0000   -23.2031    13.8962    11.6411     7.2307    65.5414     2.4077     0.1689     0.0397
  508.5000   -23.3615    13.5183    11.2346     7.2492    66.7003     2.4281     0.1562     0.0377
  509.0000   -23.5195    13.4194    11.0574     7.2992    67.2278     2.4310     0.1497     0.0357
  509.5000   -23.6784    13.3211    10.8829     7.3477    67.5597     2.4320     0.1497     0.0337
  510.0000   -23.7519    13.2239    10.7112     7.3960    67.0785     2.4171     0.1642     0.0317
  510.5000   -23.7631    13.1276    10.5581     7.4444    66.4064     2.4023     0.1764     0.0301
  511.0000   -23.7729    13.0245    10.5581     7.4859    65.7898     2.3948     0.1751     0.0316
  511.5000   -23.7826    12.8826    10.5581     7.4620    65.8054     2.3979     0.1718     0.0331
  512.0000   -23.7925    12.7413    10.5581     7.4389    65.7960     2.3998     0.1706     0.0346
  512.5000   -23.8024    12.6015    10.5581     7.4161    66.2254     2.3970     0.1728     0.0361
  513.0000   -23.8122    12.4638    10.5583     7.3933    66.7609     2.3939     0.1726     0.0375
  513.5000   -23.8221    12.3438    10.6129     7.3707    68.5173     2.3907     0.1764     0.0427
  514.0000   -23.8320    12.3638    10.6917     7.3432    70.0996     2.3971     0.1784     0.0491
  514.5000   -23.8418    12.3817    10.7712     7.3318    68.4716     2.4030     0.1669     0.0540
  515.0000   -23.8517    12.3996    10.8512     7.3524    67.0326     2.4026     0.1690     0.0539
  515.5000   -23.8616    12.4176    10.9318     7.3675    67.3880     2.4001     0.1719     0.0596
  516.0000   -23.8714    12.4354    11.0131     7.3729    68.6036     2.4055     0.1685     0.0706
  516.5000   -23.8813    12.4566    11.0949     7.3791    70.2126     2.4104     0.1673     0.0815
  517.0000   -23.8912    12.4245    11.1773     7.3848    71.2178     2.4127     0.1661     0.0925
  517.5000   -23.9010    12.3804    11.2604     7.3917    70.2508     2.4185     0.1623     0.1035
