~VERSION INFORMATION
 VERS.                2.0:   CWLS LOG ASCII STANDARD - VERSION 2.0
 WRAP.                 NO:   ONE LINE PER DEPTH STEP
~WELL INFORMATION
#MNEM.UNIT      DATA TYPE    INFORMATION
#----------   ------------   ------------------------------
 STRT.F            0.0000:   START DEPTH
 STOP.F          562.0000:   STOP DEPTH
 STEP.F            0.1000:   STEP LENGTH
 NULL.          -999.2500:   NO VALUE
 COMP. BROWN JOHN E&C INC:   COMPANY
 WELL.    73-1 SX-3 #73-3:   WELL
 FLD .             TEAPOT:   FIELD
 LOC .       S3 T38N R78W:   LOCATION
 CNTY.            NATRONA:   COUNTY
 STAT.            WYOMING:   STATE
 CTRY. UNITED STATES OF AMERICA:   COUNTRY
 SRVC.      Western Atlas:   SERVICE COMPANY
 DATE.        23-APR-1992:   LOGDATE
 API .       490252251200:   API NUMBER
~CURVE INFORMATION
#MNEM.UNIT       API CODE    CURVE DESCRIPTION
#----------   ------------   ------------------------------
 DEPT.F                  :   
 GRR .GAPI   07 310 01 00:   GAMMA RAY
 RILD.OHMM   07 120 46 00:   INDUCTION LOG DEEP RESISTIVITY
 RILM.OHMM   07 120 44 00:   INDUCTION LOG MEDIUM RESISTIVITY
 CILD.MMHO   07 110 46 00:   CONDUCTIVITY INDUCTION LOG DEEP
~PARAMETER INFORMATION
#MNEM.UNIT          VALUE    DESCRIPTION
#----------   ------------   ------------------------------
 PD  .                 GL:   PERMANENT DATUM
 EPD .F              5164:   ELEVATION PERMANENT DATUM
 LMF .                 KB:   LOG MEASURED FROM
 DAPD.F                 5:   FEET ABOVE PERMANENT DATUM
 DMF .                 KB:   DRILLING MEASURED FROM
 EKB .F              5169:   KELLING BUSHING
 EDF .F              5168:   DRILLING FLOOR
 EGL .F              5164:   GROUND LEVEL
 DATE.        23-APR-1992:   RUN DATE
 RUN .                  1:   RUN NUMBER
 DD  .F               561:   DEPTH DRILLER
 DL  .F               564:   DEPTH LOGGER
 BLI .F               562:   BOTTOM LOG INTERVAL
 CS  .IN            8.625:   CASING SIZE
 CBD .F                48:   CASING BOTTOM DRILLER
 CBL .F                49:   CASING BOTTOM LOGGER
 BS  .IN            7.875:   BIT SIZE
 BSD .F               561:   BIT SIZE AT DEPTH
 DFT .                AIR:   DRILLING FLUID TYPE
 TCS .HRS               2:   TIME CURCULATED STOPPED
 LUN .           HL- 6272:   LOGGING UNIT NUMBER
 LUL .             CASPER:   LOGGING UNIT LOCATION
 ENGI.            LEBSOCK:   RECORDING ENGINEER
 WITN.        GARY STRONG:   WITNESSED BY
 CLNT.            A2DTECH:   CLIENT CODE
 ORIG.       2", 5" PRINT:   ORIGIN OF DATA
 UWI .       490252251200:   UNIQUE WELL ID
 DICO. A2D Technologies, Inc.:   DIGITIZING COMPANY
~OTHER INFORMATION
~A    DEPT      GRR      RILD       RILM       CILD   
# ...
  321.2000   141.9467     4.6338     4.8401   200.2588
  321.3000   142.6249     4.6084     4.8050   202.2164
  321.4000   143.5065     4.5831     4.7180   204.1741
  321.5000   144.3664     4.5562     4.6948   205.9390
  321.6000   145.0858     4.5331     4.6690   207.6520
  321.7000   145.8892     4.5246     4.6342   209.3650
  321.8000   146.5249     4.5150     4.5857   210.7375
  321.9000   147.2442     4.4902     4.5562   211.9627
  322.0000   147.9635     4.4618     4.5356   213.1879
  322.1000   148.6187     4.4411     4.5107   214.5615
  322.2000   148.0134     4.4168     4.4858   216.0303
  322.3000   148.0139     4.3926     4.4611   217.4991
  322.4000   147.8804     4.3676     4.4367   219.0946
  322.5000   147.6414     4.3200     4.4308   220.8076
  322.6000   147.3953     4.2908     4.4308   222.5206
  322.7000   146.9164     4.2789     4.4308   224.2338
  322.8000   146.8049     4.2736     4.4308   225.9473
  322.9000   146.6855     4.2492     4.4308   227.6608
  323.0000   146.4465     4.2269     4.4308   229.1252
  323.1000   146.2006     4.2038     4.4308   230.1060
  323.2000   145.7357     4.1999     4.4308   231.0869
  323.3000   145.4264     4.2230     4.4308   231.8235
  323.4000   145.0816     4.2492     4.4308   231.8281
  323.5000   144.6031     4.2697     4.4308   231.8326
  323.6000   144.0825     4.2789     4.4396   231.7978
  323.7000   143.4275     4.2868     4.4641   231.5583
  323.8000   142.7091     4.3089     4.4931   231.3188
  323.9000   141.7154     4.3089     4.5136   231.0619
  324.0000   140.2221     4.3278     4.5385   230.5782
  324.1000   138.0249     4.3516     4.5562   230.0944
  324.2000   135.9802     4.3756     4.5568   229.6019
  324.3000   134.1492     4.4000     4.5820   228.4081
  324.4000   132.5575     4.4000     4.6266   227.1923
  324.5000   130.6417     4.4173     4.6652   225.8451
  324.6000   128.7258     4.4308     4.6910   224.7606
  324.7000   128.3315     4.4437     4.7180   223.5448
  324.8000   128.3321     4.5246     4.7680   222.0884
  324.9000   128.3327     4.5471     4.8025   221.1129
  325.0000   128.3333     4.5883     4.8404   219.8967
  325.1000   128.8131     4.6296     4.8939   218.6806
  325.2000   129.8211     4.6600     4.9542   217.2907
  325.3000   131.0199     4.7510     4.9785   215.8310
  325.4000   132.2189     4.7944     5.0406   214.3712
  325.5000   133.4879     4.8623     5.1044   212.9111
  325.6000   134.6157     4.9352     5.1376   211.4508
  325.7000   135.9759     4.9896     5.2386   209.9905
  325.8000   137.3156     5.0448     5.2863   208.5304
  325.9000   138.5499     5.1006     5.3448   207.0705
  326.0000   140.1577     5.1569     5.4039   205.6106
  326.1000   141.2146     5.2138     5.4637   203.8257
  326.2000   141.8218     5.2752     5.5243   201.6336
  326.3000   141.8932     5.3298     5.6090   199.4415
  326.4000   141.6751     5.3887     5.6717   197.4220
  326.5000   141.6759     5.4482     5.7030   195.7176
  326.6000   141.6764     5.5046     5.7360   194.0131
  326.7000   141.5433     5.5393     5.8272   192.0501
  326.8000   141.3746     5.5916     5.8795   189.3702
  326.9000   141.3684     5.6534     5.9396   186.6902
  327.0000   141.1293     5.7158     6.0281   184.0528
  327.1000   140.8903     5.7775     6.0652   181.6159
  327.2000   140.6514     5.8094     6.1248   179.1790
  327.3000   140.4124     5.8414     6.1926   176.8051
  327.4000   140.1661     5.9064     6.2612   175.1011
  327.5000   139.7020     5.9889     6.3306   173.3971
  327.6000   139.2235     6.0231     6.4134   171.6863
  327.7000   138.6396     6.0550     6.4716   170.7185
  327.8000   137.9634     6.1117     6.5234   169.7467
  327.9000   137.4419     6.1648     6.5594   168.6837
  328.0000   136.7877     6.1987     6.5962   167.1399
  328.1000   135.9149     6.2369     6.6693   165.4361
  328.2000   135.1399     6.2978     6.7154   163.4186
  328.3000   134.7169     6.3246     6.7525   162.0280
  328.4000   134.7177     6.3485     6.7897   160.3236
  328.5000   135.1263     6.4185     6.8291   158.6191
  328.6000   135.8874     6.5036     6.9011   157.4471
  328.7000   136.8462     6.5036     6.9251   156.4750
  328.8000   137.8049     6.5227     6.9410   155.5030
  328.9000   138.7647     6.5681     6.9851   154.8425
  329.0000   139.9135     6.6411     7.0716   154.3589
  329.1000   140.9853     6.6774     7.1061   153.8752
  329.2000   141.8181     6.7142     7.1211   153.1241
  329.3000   142.2988     6.7345     7.1348   152.1524
  329.4000   142.7775     6.7480     7.1709   151.1806
  329.5000   143.0818     6.8291     7.1709   150.3207
  329.6000   142.8726     6.8634     7.1709   149.5931
  329.7000   142.0568     6.8769     7.1709   148.8655
  329.8000   140.7867     6.8910     7.1709   148.2276
  329.9000   140.1124     6.9251     7.1709   147.7439
  330.0000   139.5556     6.9251     7.1709   147.2601
  330.1000   139.0769     6.9251     7.1415   146.7084
  330.2000   138.6331     6.9251     7.1023   145.9807
  330.3000   138.3655     6.9141     7.0551   145.2530
  330.4000   138.3661     6.8769     6.9736   144.6628
  330.5000   138.8094     6.8769     6.9374   144.6682
  330.6000   139.4445     6.8487     6.8737   144.6727
  330.7000   139.9242     6.7933     6.8137   144.6773
  330.8000   140.4898     6.7267     6.7816   144.6818
  330.9000   140.6870     6.6876     6.7816   144.6863
  331.0000   141.3271     6.6532     6.7816   144.6982
  331.1000   142.0766     6.5926     6.7816   145.4352
  331.2000   142.3103     6.5491     6.7816   146.1721
  331.3000   142.0648     6.5444     6.7816   146.9672
  331.4000   141.8259     6.5036     6.7816   147.1961
  331.5000   141.4680     6.5036     6.7816   147.4447
  331.6000   140.9894     6.5036     6.7816   147.7353
  331.7000   140.4952     6.4922     6.7713   148.1448
  331.8000   139.8001     6.4583     6.7341   148.6376
  331.9000   138.7454     6.4583     6.6971   149.1304
  332.0000   137.4429     6.4308     6.6333   149.4420
  332.1000   135.8803     6.3955     6.5606   149.6906
  332.2000   133.5285     6.3688     6.4887   149.9392
  332.3000   131.7872     6.3688     6.4134   150.1878
  332.4000   130.4884     6.3351     6.3802   150.4364
  332.5000   129.8031     6.3246     6.3452   150.6849
  332.6000   129.5914     6.3246     6.2963   151.2080
  332.7000   129.8952     6.3246     6.2369   151.9450
  332.8000   130.7103     6.3246     6.2369   152.6820
  332.9000   131.6691     6.2938     6.2069   153.5342
  333.0000   132.7045     6.2593     6.1935   154.5149
  333.1000   133.9159     6.2250     6.1819   155.4956
  333.2000   135.3553     6.1935     6.1455   156.2895
  333.3000   136.6038     6.1935     6.0652   156.7823
  333.4000   137.9280     6.1661     6.0652   157.2751
  333.5000   139.3662     6.1505     6.0652   157.8396
  333.6000   140.8097     6.1415     6.0652   158.5763
  333.7000   142.4820     6.1077     6.0652   159.3130
  333.8000   143.1075     6.0412     6.0652   160.0996
  333.9000   143.1239     5.9991     6.0652   161.0804
  334.0000   142.9333     5.9812     6.0652   162.0612
  334.1000   142.9340     5.9690     6.0584   163.0420
  334.2000   142.9346     5.8983     6.0231   164.0231
  334.3000   142.9352     5.8393     6.0231   165.0042
  334.4000   142.8380     5.7755     6.0009   165.9853
  334.5000   142.5647     5.7007     5.9547   166.9660
  334.6000   142.0280     5.6073     5.8938   167.9467
  334.7000   141.3970     5.5008     5.8573   168.9912
  334.8000   140.3845     5.4257     5.8014   169.9084
  334.9000   139.1040     5.3536     5.7379   170.8895
  335.0000   137.7476     5.2950     5.6855   172.0218
  335.1000   137.1825     5.2379     5.6521   173.4708
  335.2000   136.9866     5.2091     5.5781   175.1838
  335.3000   136.8806     5.1380     5.5535   176.8968
  335.4000   136.7422     5.0808     5.5230   178.9788
  335.5000   136.2757     5.0529     5.4845   181.1800
  335.6000   136.7675     5.0238     5.4244   183.3811
  335.7000   137.2475     4.9720     5.3946   185.4201
