~VERSION INFORMATION
 VERS.                2.0:   CWLS LOG ASCII STANDARD - VERSION 2.0
 WRAP.                 NO:   ONE LINE PER DEPTH STEP
~WELL INFORMATION
#MNEM.UNIT      DATA TYPE    INFORMATION
#----------   ------------   ------------------------------
 STRT.F           33.5000:   START DEPTH
 STOP.F          680.0000:   STOP DEPTH
 STEP.F            0.5000:   STEP LENGTH
 NULL.          -999.2500:   NO VALUE
 COMP. FENIX & SCISSON INC:   COMPANY
 WELL.       NPR 3 #66-34:   WELL
 FLD .             TEAPOT:   FIELD
 LOC .      S34 T39N R78W:   LOCATION
 CNTY.            NATRONA:   COUNTY
 STAT.            WYOMING:   STATE
 CTRY. UNITED STATES OF AMERICA:   COUNTRY
 SRVC.           BIRDWELL:   SERVICE COMPANY
 DATE.        12-AUG-1978:   LOGDATE
 API .       490251068400:   API NUMBER
~CURVE INFORMATION
#MNEM.UNIT       API CODE    CURVE DESCRIPTION
#----------   ------------   ------------------------------
 DEPT.F                  :   
 SPR .MV     05 010 01 00:   SPONTANEOUS POTENTIAL FROM RES.
 SN  .OHMM   05 040 16 00:   SHORT NORMAL 16"
 IL  .OHMM   05 120 00 00:   INDUCTION LOG
 CORR.G/C3   45 356 01 00:   DENSITY CORRECTION
 GRD .GAPI   45 310 01 00:   GAMMA RAY FROM DENSITY LOG
 RHOB.G/C3   45 350 01 00:   BULK DENSITY
 DPHI.DEC    45 890 12 00:   DENSITY POROSITY SANDSTONE
 CALD.IN     45 280 60 00:   CALIPER
~PARAMETER INFORMATION
#MNEM.UNIT          VALUE    DESCRIPTION
#----------   ------------   ------------------------------
 PD  .                 GL:   PERMANENT DATUM
 EPD .F              5078:   ELEVATION PERMANENT DATUM
 LMF .                 KB:   LOG MEASURED FROM
 DAPD.F                 4:   FEET ABOVE PERMANENT DATUM
 DMF .                 KB:   DRILLING MEASURED FROM
 EKB .F              5082:   KELLING BUSHING
 EGL .F              5078:   GROUND LEVEL
 DATE.            8-12-78:   RUN DATE
 RUN .                  1:   RUN NUMBER
 DD  .F               675:   DEPTH DRILLER
 DL  .F               686:   DEPTH LOGGER
 BLI .F               680:   BOTTOM LOG INTERVAL
 TLI .F                50:   TOP LOG INTERVAL
 CS  .IN            8.625:   CASING SIZE
 CBD .F                40:   CASING BOTTOM DRILLER
 BS  .IN            7.875:   BIT SIZE
 BSD .F               675:   BIT SIZE AT DEPTH
 DFT .                KCL:   DRILLING FLUID TYPE
 DFL .               10.4:   DRILLING FLUID LOSS
 MSS .          FLOW LINE:   MUD SAMPLE SOURCE
 RMS .OHMM            .18:   RESISTIVITY MUD SAMPLE
 MST .F                90:   MUD SAMPLE TEMPERATURE
 RMF .OHMM            .16:   RESISTIVITY MUD FILTRATE SAMPLE
 MFST.F                90:   MUD FILTRATE SAMPLE TEMPERATURE
 RMC .OHMM            .32:   RESISTIVITY MUD CAKE
 MCST.F                90:   MUD CAKE SAMPLE TEMPERATURE
 MFSS.               MEAS:   MUD FILTRATE SAMPLE SOURCE
 TCS .HRS               3:   TIME CURCULATED STOPPED
 LUN .               3006:   LOGGING UNIT NUMBER
 LUL .               CASP:   LOGGING UNIT LOCATION
 ENGI.             MILLER:   RECORDING ENGINEER
 WITN.           MCGINLEY:   WITNESSED BY
 CLNT.            A2DTECH:   CLIENT CODE
 ORIG.           5" PRINT:   ORIGIN OF DATA
 UWI .       490251068400:   UNIQUE WELL ID
 DICO. A2D Technologies, Inc.:   DIGITIZING COMPANY
~OTHER INFORMATION
~A   DEPT      SPR         SN         IL       CORR         GRD      RHOB       DPHI       CALD   
# ...
  236.0000   -53.8030     7.0209     6.4643     0.0274   106.8068     2.4916     0.1096     8.0104
  236.5000   -53.7827     7.0039     6.4049     0.0260   107.3046     2.4987     0.1097     8.0200
  237.0000   -53.7624     6.9707     6.4200     0.0226   106.3634     2.4972     0.1108     8.0125
  237.5000   -53.7421     6.9375     6.4478     0.0191   105.7106     2.4945     0.1119     7.9996
  238.0000   -53.7214     6.8933     6.4955     0.0184   105.8147     2.4934     0.1122     7.9864
  238.5000   -53.7014     6.9139     6.5706     0.0184   105.9861     2.4952     0.1107     7.9734
  239.0000   -53.7524     6.9475     6.6470     0.0197   102.7554     2.4979     0.1080     7.9645
  239.5000   -53.8102     7.0121     6.7241     0.0211    99.2102     2.5043     0.1053     7.9855
  240.0000   -53.8678     7.0907     6.8021     0.0226    96.8926     2.5105     0.1026     7.9995
  240.5000   -53.9252     7.1698     6.8810     0.0240   102.3212     2.5145     0.1013     7.9835
  241.0000   -53.9827     7.2499     6.9567     0.0255   106.2007     2.5155     0.1003     8.0003
  241.5000   -54.0407     7.3311     7.0480     0.0258   103.0202     2.5166     0.0993     8.0207
  242.0000   -54.0973     7.4181     7.1360     0.0211    98.8409     2.5097     0.1037     8.0057
  242.5000   -54.0676     7.4600     7.2251     0.0165    99.2146     2.4972     0.1122     7.9876
  243.0000   -54.0326     7.5041     7.3505     0.0118    99.5881     2.4905     0.1164     8.0072
  243.5000   -53.9981     7.5561     7.3295     0.0104    99.7551     2.4910     0.1149     8.0446
  244.0000   -53.9634     7.5186     7.2929     0.0137    96.8867     2.4962     0.1128     8.0620
  244.5000   -53.9289     7.4740     7.2570     0.0180    93.1033     2.5017     0.1084     8.0393
  245.0000   -53.9045     7.4186     7.2214     0.0192    91.7725     2.5070     0.1038     8.0103
  245.5000   -53.9425     7.4306     7.1859     0.0164    97.5202     2.5002     0.1016     7.9817
  246.0000   -53.9795     7.4467     7.1511     0.0137    96.8428     2.4905     0.1122     7.9675
  246.5000   -54.0165     7.4628     7.2309     0.0143    95.5967     2.4909     0.1133     7.9853
  247.0000   -54.0535     7.4790     7.3107     0.0175    95.7220     2.4920     0.1124     8.0027
  247.5000   -54.0922     7.4870     7.3429     0.0204    96.6304     2.4890     0.1131     8.0205
  248.0000   -54.0768     7.4373     7.2350     0.0193    96.5051     2.4854     0.1195     8.0035
  248.5000   -54.0456     7.3995     7.1589     0.0184    95.1766     2.4837     0.1179     7.9832
  249.0000   -54.0140     7.3618     7.0857     0.0184    93.8518     2.4883     0.1156     7.9954
  249.5000   -53.9824     7.3244     7.0664     0.0189    97.0062     2.4898     0.1157     8.0095
  250.0000   -53.9509     7.2836     7.0477     0.0212   100.8854     2.4909     0.1156     8.0118
  250.5000   -53.9200     7.3100     7.0209     0.0233   100.9972     2.4939     0.1118     7.9830
  251.0000   -53.9121     7.3393     7.0422     0.0255    94.8761     2.5006     0.1080     7.9629
  251.5000   -53.9464     7.3687     7.0798     0.0277    93.9869     2.5072     0.1042     7.9720
  252.0000   -53.9801     7.3983     7.1177     0.0271    97.5579     2.5121     0.1004     7.9821
  252.5000   -54.0139     7.4281     7.1558     0.0251    99.2519     2.5116     0.0999     7.9922
  253.0000   -54.0477     7.4578     7.1941     0.0231    98.1568     2.5112     0.1020     8.0015
  253.5000   -54.0811     7.4870     7.2170     0.0211    99.2338     2.5124     0.1041     7.9955
  254.0000   -54.0890     7.4308     7.1276     0.0204   100.4700     2.5157     0.1028     7.9887
  254.5000   -54.0639     7.3508     7.0209     0.0204    98.8728     2.5192     0.1009     7.9817
  255.0000   -54.0391     7.3778     7.0310     0.0216    96.3823     2.5187     0.1015     8.0073
  255.5000   -54.0141     7.4286     7.0498     0.0237    93.8514     2.5109     0.1033     8.0389
  256.0000   -53.9892     7.4870     7.0689     0.0258    93.2886     2.5028     0.1086     8.0517
  256.5000   -53.9643     7.4378     7.0853     0.0280    96.4824     2.4975     0.1130     8.0157
  257.0000   -53.9393     7.3809     7.0212     0.0283    99.7263     2.4996     0.1115     7.9836
  257.5000   -53.9149     7.3244     6.9629     0.0229   102.9353     2.4964     0.1100     8.0032
  258.0000   -53.9165     7.2683     6.9049     0.0171   103.2737     2.4882     0.1128     8.0246
  258.5000   -53.9571     7.2170     6.8302     0.0177   101.5325     2.4898     0.1132     8.0456
  259.0000   -53.9972     7.2343     6.8526     0.0167    98.7326     2.4883     0.1158     8.0562
  259.5000   -54.0375     7.2693     6.8861     0.0135    98.5977     2.4800     0.1223     8.0252
  260.0000   -54.0777     7.3046     6.9191     0.0106   103.9494     2.4770     0.1237     7.9950
  260.5000   -54.1179     7.3505     6.9567     0.0135   103.5286     2.4798     0.1213     7.9885
  261.0000   -54.1581     7.3131     6.8964     0.0162   102.4613     2.4829     0.1190     7.9993
  261.5000   -54.1984     7.2565     6.8086     0.0110   101.9002     2.4812     0.1193     8.0105
  262.0000   -54.2387     7.2009     6.7220     0.0063   102.2753     2.4764     0.1271     8.0213
  262.5000   -54.2786     7.1458     6.6667     0.0125   102.7387     2.4720     0.1209     8.0088
  263.0000   -54.2897     7.0911     6.6189     0.0213   102.9374     2.4870     0.1116     7.9946
  263.5000   -54.2678     7.0368     6.5715     0.0283   101.5815     2.4970     0.1076     7.9821
  264.0000   -54.2461     6.9830     6.5236     0.0180   100.0254     2.4878     0.1182     7.9820
  264.5000   -54.2243     6.9295     6.4292     0.0103    98.5327     2.4759     0.1263     7.9820
  265.0000   -54.2025     6.8765     6.3347     0.0122    98.4943     2.4711     0.1260     7.9820
  265.5000   -54.1807     6.8257     6.2418     0.0179    98.7167     2.4747     0.1236     7.9822
  266.0000   -54.1589     6.7894     6.1502     0.0236   103.1296     2.4795     0.1212     8.0012
  266.5000   -54.1372     6.7533     6.0616     0.0231   108.9654     2.4831     0.1194     8.0223
  267.0000   -54.1154     6.7174     6.0194     0.0209   110.0025     2.4824     0.1191     8.0434
  267.5000   -54.0896     6.7059     5.9783     0.0223   107.4904     2.4826     0.1189     8.0621
  268.0000   -54.0478     6.7660     5.9513     0.0246   107.1931     2.4840     0.1195     8.0377
  268.5000   -54.0076     6.8067     6.0061     0.0256   107.6439     2.4850     0.1185     8.0113
  269.0000   -53.9672     6.8477     6.1032     0.0216   108.1426     2.4826     0.1187     7.9847
  269.5000   -53.9276     6.8890     6.2014     0.0192   104.9307     2.4810     0.1210     7.9943
  270.0000   -53.9087     6.9304     6.2876     0.0245   100.1948     2.4838     0.1170     8.0085
  270.5000   -53.9386     6.9722     6.2491     0.0298    95.8863     2.4983     0.1056     8.0207
  271.0000   -53.9675     7.0142     6.2309     0.0325    93.6289     2.5000     0.1060     7.9952
  271.5000   -53.9966     7.0209     6.4593     0.0292    91.4574     2.4981     0.1077     7.9677
  272.0000   -54.0257     6.9557     6.7059     0.0249    91.7794     2.4960     0.1095     7.9629
  272.5000   -54.0548     6.8931     6.6582     0.0214    97.6717     2.4940     0.1112     7.9943
  273.0000   -54.0835     6.9193     6.6073     0.0190    99.3857     2.4949     0.1120     8.0275
  273.5000   -54.0883     6.9652     6.5567     0.0185    95.2640     2.4960     0.1116     8.0606
  274.0000   -54.0613     7.0110     6.5065     0.0204    92.6288     2.5023     0.1084     8.0343
  274.5000   -54.0346     7.0575     6.4640     0.0257    91.4159     2.5084     0.1042     7.9858
  275.0000   -54.0077     7.0855     6.4393     0.0309    91.8649     2.5139     0.1004     7.9414
  275.5000   -53.9809     7.0451     6.4049     0.0344    91.6992     2.5127     0.1010     8.0010
  276.0000   -53.9540     7.0155     6.4401     0.0344    92.9616     2.5113     0.1023     8.0804
