~VERSION INFORMATION
 VERS.                2.0:   CWLS LOG ASCII STANDARD - VERSION 2.0
 WRAP.                 NO:   ONE LINE PER DEPTH STEP
~WELL INFORMATION
#MNEM.UNIT      DATA TYPE    INFORMATION
#----------   ------------   ------------------------------
 STRT.F           19.5000:   START DEPTH
 STOP.F          690.5000:   STOP DEPTH
 STEP.F            0.5000:   STEP LENGTH
 NULL.          -999.2500:   NO VALUE
 COMP. FENIX & SCISSON INC:   COMPANY
 WELL. 37-22 SX 11 WI #3-11:   WELL
 FLD .             TEAPOT:   FIELD
 LOC .      S11 T38N R78W:   LOCATION
 CNTY.            NATRONA:   COUNTY
 STAT.            WYOMING:   STATE
 CTRY. UNITED STATES OF AMERICA:   COUNTRY
 SRVC.      Dresser Atlas:   SERVICE COMPANY
 DATE.        11-AUG-1980:   LOGDATE
 API .       490251084400:   API NUMBER
~CURVE INFORMATION
#MNEM.UNIT       API CODE    CURVE DESCRIPTION
#----------   ------------   ------------------------------
 DEPT.F                  :   
 SPR .MV     07 010 01 00:   SPONTANEOUS POTENTIAL
 SFL .OHMM   07 220 01 00:   SHALLOW FOCUSED LOG RESISTIVITY
 ILD .OHMM   07 120 46 00:   INDUCTION LOG DEEP
 ILM .OHMM   07 120 44 00:   INDUCTION LOG MEDIUM
 GRD .GAPI   45 310 01 00:   GAMMA RAY FROM DENSITY LOG
 CALD.IN     45 280 60 00:   CALIPER
 CORR.G/C3   45 356 01 00:   DENSITY CORRECTION
 RHOB.G/C3   45 350 01 00:   BULK DENSITY
 NPHI.DEC    42 890 12 00:   NEUTRON POROSITY SANDSTONE
 DPHI.DEC    45 890 12 00:   DENSITY POROSITY SANDSTONE
~PARAMETER INFORMATION
#MNEM.UNIT          VALUE    DESCRIPTION
#----------   ------------   ------------------------------
 PD  .                 GL:   PERMANENT DATUM
 EPD .F              5191:   ELEVATION PERMANENT DATUM
 LMF .                 KB:   LOG MEASURED FROM
 DAPD.F                 5:   FEET ABOVE PERMANENT DATUM
 DMF .                 KB:   DRILLING MEASURED FROM
 EKB .F              5196:   KELLING BUSHING
 EGL .F              5191:   GROUND LEVEL
 DATE.            8-11-80:   RUN DATE
 RUN .                  1:   RUN NUMBER
 DD  .F               680:   DEPTH DRILLER
 DL  .F               689:   DEPTH LOGGER
 BLI .F               687:   BOTTOM LOG INTERVAL
 TLI .F                20:   TOP LOG INTERVAL
 CS  .IN            8.625:   CASING SIZE
 BS  .IN            7.875:   BIT SIZE
 BSD .F               680:   BIT SIZE AT DEPTH
 DFT .           CHEM GEL:   DRILLING FLUID TYPE
 DFD .                9.9:   DRILLING FLUID DENSITY
 DFV .                 52:   DRILLING FLUID VISCOSITY
 DFPH.               11.5:   DRILLING FLUID PH
 DFL .                104:   DRILLING FLUID LOSS
 MSS .           FLOWLINE:   MUD SAMPLE SOURCE
 RMS .OHMM             .2:   RESISTIVITY MUD SAMPLE
 MST .F                74:   MUD SAMPLE TEMPERATURE
 RMF .OHMM            .15:   RESISTIVITY MUD FILTRATE SAMPLE
 MFST.F                74:   MUD FILTRATE SAMPLE TEMPERATURE
 RMC .OHMM            .25:   RESISTIVITY MUD CAKE
 MCST.F                74:   MUD CAKE SAMPLE TEMPERATURE
 MFSS.               CALC:   MUD FILTRATE SAMPLE SOURCE
 MCSS.               CALC:   MUD CAKE SAMPLE SOURCE
 TCS .HRS               3:   TIME CURCULATED STOPPED
 LUN .             HL6150:   LOGGING UNIT NUMBER
 LUL .                 FM:   LOGGING UNIT LOCATION
 ENGI.            BRANNEY:   RECORDING ENGINEER
 WITN.           MCINTYRE:   WITNESSED BY
 CLNT.            A2DTECH:   CLIENT CODE
 ORIG.           5" PRINT:   ORIGIN OF DATA
 UWI .       490251084400:   UNIQUE WELL ID
 DICO. A2D Technologies, Inc.:   DIGITIZING COMPANY
~OTHER INFORMATION
~A   DEPT      SPR        SFL        ILD        ILM        GRD       CALD       CORR       RHOB       NPHI       DPHI   
# ...
  455.0000   -51.9190     8.0020     7.0460     6.1950   124.3940     8.1540     0.0670     2.4750     0.2760     0.1240
  455.5000   -52.0090     7.8860     7.1770     6.1530   125.9300     8.1550     0.0670     2.4730     0.2730     0.1280
  456.0000   -52.0830     7.7930     7.0790     6.0810   123.0970     8.1520     0.0680     2.4810     0.2690     0.1230
  456.5000   -52.0010     7.7000     6.9800     6.0100   122.8020     8.1490     0.0690     2.4740     0.2610     0.1280
  457.0000   -51.9170     7.6070     6.8810     5.9380   121.4910     8.1460     0.0690     2.4820     0.2660     0.1210
  457.5000   -51.8340     7.5140     6.7820     5.8660   120.5910     8.1440     0.0680     2.4710     0.2730     0.1270
  458.0000   -51.7500     7.4220     6.6830     5.7940   118.2530     8.1410     0.0590     2.4550     0.2740     0.1330
  458.5000   -51.6670     7.3290     6.5840     5.7230   118.0950     8.1380     0.0550     2.4610     0.2720     0.1310
  459.0000   -51.5840     7.2360     6.4850     5.6510   120.2330     8.1350     0.0720     2.4720     0.2700     0.1270
  459.5000   -51.5010     7.1430     6.3860     5.5790   122.7300     8.1330     0.0680     2.4810     0.2700     0.1220
  460.0000   -51.4200     7.0210     6.2870     5.5070   122.8980     8.1300     0.0680     2.4740     0.2790     0.1290
  460.5000   -51.3370     6.9680     6.1950     5.2450   124.3390     8.1270     0.0760     2.4840     0.2750     0.1180
  461.0000   -51.4740     6.9140     6.0500     4.9510   127.0910     8.1250     0.0750     2.4780     0.2700     0.1240
  461.5000   -51.8620     6.8600     5.8820     4.6570   126.3560     8.1220     0.0720     2.4680     0.2730     0.1280
  462.0000   -52.2480     6.5870     5.7150     4.3640   126.4360     8.1190     0.0690     2.4560     0.2710     0.1330
  462.5000   -52.6330     6.2850     5.5480     4.0700   122.9590     8.1160     0.0630     2.4420     0.2770     0.1430
  463.0000   -53.0190     5.9840     5.3810     3.7770   124.7950     8.1140     0.0520     2.4190     0.2870     0.1540
  463.5000   -53.3990     5.6820     5.0980     3.4830   126.6300     8.1110     0.0390     2.3960     0.2900     0.1670
  464.0000   -53.5670     5.3800     4.7070     3.2260   126.7090     8.1080     0.0470     2.3800     0.2920     0.1780
  464.5000   -53.1780     5.0780     4.2110     3.5970   127.9560     8.1050     0.0760     2.4010     0.2970     0.1690
  465.0000   -52.8050     4.8780     4.5940     3.9980   125.8650     8.1030     0.1050     2.4280     0.2990     0.1600
  465.5000   -52.4340     6.1810     5.1160     4.4000   123.3150     8.1000     0.1300     2.4770     0.2990     0.1320
  466.0000   -52.0630     7.1550     5.6380     4.8010   121.8680     8.0970     0.1010     2.5070     0.2990     0.1110
  466.5000   -51.6910     7.6880     6.1600     5.2030   122.8420     8.0960     0.0740     2.4930     0.2910     0.1210
  467.0000   -51.3190     7.7840     6.6820     5.6040   118.8800     8.0980     0.0620     2.4800     0.2860     0.1170
  467.5000   -50.9460     7.8800     7.1200     6.0050   119.0340     8.1010     0.0400     2.4640     0.2840     0.1280
  468.0000   -50.5700     7.9750     7.1730     6.2520   120.0770     8.1030     0.0480     2.4550     0.2860     0.1350
  468.5000   -50.4990     8.0710     7.2260     6.2520   121.2090     8.1060     0.0570     2.4720     0.2790     0.1270
  469.0000   -50.4350     8.1670     7.2790     6.2520   121.4990     8.1080     0.0660     2.4920     0.2710     0.1170
  469.5000   -50.3360     8.2620     7.3320     6.2520   124.1710     8.1100     0.0700     2.5090     0.2670     0.1060
  470.0000   -50.2360     8.3580     7.3850     6.2520   127.2550     8.1130     0.0630     2.5030     0.2660     0.1090
  470.5000   -50.1360     8.4540     7.4380     6.2520   128.5010     8.1150     0.0680     2.5090     0.2660     0.1060
  471.0000   -50.0360     8.5460     7.4910     6.2520   129.6820     8.1170     0.0710     2.5130     0.2650     0.1030
  471.5000   -49.9370     8.4840     7.5440     6.2520   129.4660     8.1200     0.0610     2.5030     0.2680     0.1100
  472.0000   -49.8380     8.3870     7.5840     6.2520   128.2230     8.1220     0.0510     2.4930     0.2710     0.1160
  472.5000   -49.7350     8.2900     7.5210     6.2520   127.8420     8.1250     0.0410     2.4820     0.2740     0.1240
  473.0000   -49.8490     8.2150     7.4720     6.2520   129.2790     8.1270     0.0420     2.4750     0.2690     0.1200
  473.5000   -50.1590     8.1670     7.4220     6.2520   129.8990     8.1290     0.0480     2.4870     0.2640     0.1150
  474.0000   -50.4680     8.1190     7.3720     6.2520   129.7220     8.1320     0.0530     2.4960     0.2580     0.1120
  474.5000   -50.7770     8.0710     7.3230     6.2520   128.3980     8.1340     0.0590     2.5050     0.2550     0.1090
  475.0000   -51.0880     8.0230     7.2730     6.2450   126.9050     8.1380     0.0640     2.5130     0.2620     0.1060
  475.5000   -51.4060     7.9750     7.2230     6.2380   126.5250     8.1430     0.0640     2.5080     0.2640     0.1070
  476.0000   -51.4750     7.9270     7.1740     6.2310   128.2080     8.1470     0.0580     2.5000     0.2580     0.1120
  476.5000   -51.4100     7.8790     7.1240     6.2240   126.4000     8.1520     0.0530     2.4910     0.2570     0.1170
  477.0000   -51.3410     7.8320     7.0740     6.2170   126.2740     8.1560     0.0580     2.4970     0.2630     0.1100
  477.5000   -51.2720     7.7840     7.0250     6.2100   127.3060     8.1610     0.0720     2.5070     0.2680     0.1030
  478.0000   -51.2020     7.7360     6.9750     6.2020   127.3570     8.1650     0.0790     2.5150     0.2690     0.1100
  478.5000   -51.1330     7.6880     6.9250     6.1950   128.1320     8.1700     0.0720     2.4930     0.2690     0.1190
  479.0000   -51.0630     7.6400     6.8760     6.1230   129.2250     8.1740     0.0660     2.4930     0.2710     0.1150
  479.5000   -50.9940     7.5920     6.8050     6.0470   127.7790     8.1790     0.0600     2.4850     0.2740     0.1250
  480.0000   -50.9250     7.5440     6.7170     5.9710   125.8610     8.1830     0.0540     2.4740     0.2780     0.1220
  480.5000   -50.8550     7.4720     6.6300     5.8950   125.7890     8.1880     0.0590     2.4870     0.2710     0.1170
  481.0000   -50.7860     7.3610     6.5420     5.8190   124.9240     8.1930     0.0560     2.4780     0.2650     0.1260
  481.5000   -50.7160     7.2510     6.4550     5.7430   127.0050     8.1910     0.0490     2.4640     0.2700     0.1310
  482.0000   -50.6470     7.1410     6.3680     5.6680   129.9690     8.1850     0.0580     2.4720     0.2780     0.1250
  482.5000   -50.5770     7.0300     6.2800     5.5920   132.5410     8.1800     0.0580     2.4800     0.2800     0.1220
  483.0000   -50.5040     6.9200     6.1950     5.4890   135.0250     8.1750     0.0510     2.4720     0.2820     0.1290
  483.5000   -50.6260     6.7920     6.2730     5.3500   137.5950     8.1690     0.0580     2.4700     0.2790     0.1230
  484.0000   -50.7780     6.9510     6.3680     5.2110   138.6450     8.1640     0.0630     2.4790     0.2750     0.1260
  484.5000   -50.9310     7.1410     6.4620     5.0720   137.6640     8.1590     0.0540     2.4600     0.2820     0.1320
  485.0000   -51.0850     7.3310     6.6070     4.8740   134.3160     8.1530     0.0450     2.4520     0.2850     0.1370
  485.5000   -51.2390     7.6540     6.3400     4.5080   131.1060     8.1480     0.0380     2.4460     0.2850     0.1440
  486.0000   -51.3930     7.2820     5.7650     4.1420   128.4270     8.1430     0.0320     2.4270     0.2840     0.1560
  486.5000   -51.5470     6.4960     5.1900     3.8060   126.1580     8.1370     0.0260     2.4080     0.2860     0.1670
  487.0000   -51.7000     5.7090     4.6150     4.0900   125.0750     8.1320     0.0250     2.3890     0.2900     0.1760
  487.5000   -51.8520     4.5320     4.2110     4.3510   129.7430     8.1270     0.0450     2.4000     0.2910     0.1680
  488.0000   -52.0060     5.3700     4.6300     4.6130   130.0690     8.1210     0.0840     2.4430     0.2880     0.1430
