~VERSION INFORMATION
 VERS.                2.0:   CWLS LOG ASCII STANDARD - VERSION 2.0
 WRAP.                 NO:   ONE LINE PER DEPTH STEP
~WELL INFORMATION
#MNEM.UNIT      DATA TYPE    INFORMATION
#----------   ------------   ------------------------------
 STRT.F           18.0000:   START DEPTH
 STOP.F          647.0000:   STOP DEPTH
 STEP.F            0.5000:   STEP LENGTH
 NULL.          -999.2500:   NO VALUE
 COMP. FENIX & SCISSON INC:   COMPANY
 WELL. NAVAL PETROLEUM RESERVE 3 SX-1 #82-15:   WELL
 FLD .        TEAPOT DOME:   FIELD
 LOC .      S15 T38N R78W:   LOCATION
 CNTY.            NATRONA:   COUNTY
 STAT.            WYOMING:   STATE
 CTRY. UNITED STATES OF AMERICA:   COUNTRY
 SRVC.            Unknown:   SERVICE COMPANY
 DATE.        15-MAR-1979:   LOGDATE
 API .       490251076500:   API NUMBER
~CURVE INFORMATION
#MNEM.UNIT       API CODE    CURVE DESCRIPTION
#----------   ------------   ------------------------------
 DEPT.F                  :   
 SPR .MV     05 010 01 00:   SPONTANEOUS POTENTIAL FROM RES.
 SN  .OHMM   05 040 16 00:   SHORT NORMAL 16"
 IL  .OHMM   05 120 00 00:   INDUCTION LOG
 CALD.IN     45 280 60 00:   CALIPER
 GRD .GAPI   45 310 01 00:   GAMMA RAY FROM DENSITY LOG
 RHOB.G/C3   45 350 01 00:   BULK DENSITY
 DPHI.DEC    45 890 12 00:   DENSITY POROSITY SANDSTONE
 CORR.G/C3   45 356 01 00:   DENSITY CORRECTION
~PARAMETER INFORMATION
#MNEM.UNIT          VALUE    DESCRIPTION
#----------   ------------   ------------------------------
 PD  .                 GL:   PERMANENT DATUM
 EPD .F              5249:   ELEVATION PERMANENT DATUM
 LMF .                 KB:   LOG MEASURED FROM
 DAPD.F                 4:   FEET ABOVE PERMANENT DATUM
 DMF .                 KB:   DRILLING MEASURED FROM
 EKB .F              5253:   KELLING BUSHING
 EGL .F              5249:   GROUND LEVEL
 DATE.            1-15-79:   RUN DATE
 RUN .                  1:   RUN NUMBER
 DD  .F               670:   DEPTH DRILLER
 DL  .F               647:   DEPTH LOGGER
 BLI .F               640:   BOTTOM LOG INTERVAL
 TLI .F                30:   TOP LOG INTERVAL
 CS  .IN            8.625:   CASING SIZE
 CBD .F                40:   CASING BOTTOM DRILLER
 CBL .F                34:   CASING BOTTOM LOGGER
 BS  .IN            7.875:   BIT SIZE
 BSD .F               670:   BIT SIZE AT DEPTH
 DFT .                KCL:   DRILLING FLUID TYPE
 DFD .                8.9:   DRILLING FLUID DENSITY
 DFV .                 44:   DRILLING FLUID VISCOSITY
 DFPH.                8.5:   DRILLING FLUID PH
 DFL .               14.8:   DRILLING FLUID LOSS
 MSS .           FLOWLINE:   MUD SAMPLE SOURCE
 RMS .OHMM            .26:   RESISTIVITY MUD SAMPLE
 MST .F                61:   MUD SAMPLE TEMPERATURE
 RMF .OHMM            .25:   RESISTIVITY MUD FILTRATE SAMPLE
 MFST.F                60:   MUD FILTRATE SAMPLE TEMPERATURE
 RMC .OHMM             .2:   RESISTIVITY MUD CAKE
 MCST.F                60:   MUD CAKE SAMPLE TEMPERATURE
 MFSS.           MEASURED:   MUD FILTRATE SAMPLE SOURCE
 MCSS.           MEASURED:   MUD CAKE SAMPLE SOURCE
 RMB .OHMM            .27:   RESISTIVITY MUD AT BHT
 BHT .F                58:   BOTTOM HOLE TEMPERATURE
 TCS .HRS               5:   TIME CURCULATED STOPPED
 MRT .F                58:   MAXIMUM RECORDED TEMPERATURE
 LUN .               3006:   LOGGING UNIT NUMBER
 LUL .             CASPER:   LOGGING UNIT LOCATION
 ENGI.            ROLLINS:   RECORDING ENGINEER
 WITN.              AMEND:   WITNESSED BY
 CLNT.            A2DTECH:   CLIENT CODE
 ORIG.         2.5" PRINT:   ORIGIN OF DATA
 UWI .       490251076500:   UNIQUE WELL ID
 DICO. A2D Technologies, Inc.:   DIGITIZING COMPANY
~OTHER INFORMATION
~A   DEPT      SPR         SN         IL       CALD         GRD      RHOB       DPHI       CORR   
# ...
  301.5000   -66.4600     8.3990     8.7030     7.9710   110.6940     2.4550     0.1380     0.0930
  302.0000   -66.5320     8.4000     8.7070     7.9820   107.6080     2.4680     0.1260     0.0930
  302.5000   -66.6050     8.3990     8.7120     7.9900   104.0020     2.4840     0.1110     0.0920
  303.0000   -66.6800     8.3980     8.6220     7.9940   100.5250     2.4990     0.1140     0.0910
  303.5000   -66.7240     8.3130     8.5020     7.9200    97.2190     2.5080     0.1230     0.0910
  304.0000   -66.6930     8.2310     8.3830     7.8470    94.3290     2.5000     0.1310     0.0960
  304.5000   -66.6630     8.1490     8.2630     7.8370    95.1340     2.4830     0.1380     0.1010
  305.0000   -66.6310     8.0660     8.1430     7.8760    96.3920     2.4670     0.1390     0.1060
  305.5000   -66.5990     7.9820     8.0240     7.9440    99.6830     2.4600     0.1400     0.1140
  306.0000   -66.5680     7.8990     7.9040     8.0060   103.1230     2.4600     0.1410     0.1190
  306.5000   -66.5360     7.8160     7.7850     8.0440   105.3070     2.4600     0.1390     0.1160
  307.0000   -66.5050     7.7330     7.6650     8.0430   105.0490     2.4590     0.1430     0.1100
  307.5000   -66.4740     7.6490     7.5460     8.0470   102.3630     2.4530     0.1480     0.1050
  308.0000   -66.4420     7.5660     7.4260     8.0500    99.6240     2.4460     0.1520     0.0990
  308.5000   -66.4100     7.4830     7.3070     8.0520    99.8890     2.4380     0.1560     0.0950
  309.0000   -66.3830     7.4000     7.1870     8.0560   103.7750     2.4300     0.1610     0.0990
  309.5000   -66.3380     7.3160     7.0680     8.0590   110.0960     2.4270     0.1610     0.1020
  310.0000   -66.4230     7.2330     6.9480     8.0620   108.6180     2.4300     0.1560     0.1070
  310.5000   -66.6380     7.1140     6.8280     8.0650   106.0650     2.4320     0.1510     0.1110
  311.0000   -66.8350     7.1380     6.7310     8.0680   103.4730     2.4390     0.1460     0.1150
  311.5000   -67.0370     7.1800     6.7800     8.0710   102.6170     2.4460     0.1410     0.1180
  312.0000   -67.2390     7.2210     6.8210     8.0730   102.1400     2.4530     0.1380     0.1170
  312.5000   -67.4400     7.2630     6.8620     8.0770   102.6310     2.4610     0.1340     0.1070
  313.0000   -67.6410     7.3040     6.9030     8.0800   102.9260     2.4650     0.1360     0.0990
  313.5000   -67.8430     7.3460     6.9440     8.1030   105.0440     2.4660     0.1390     0.0900
  314.0000   -68.0440     7.3870     6.9850     8.1350   108.3010     2.4640     0.1380     0.0890
  314.5000   -68.2460     7.4280     7.0260     8.1670   109.3770     2.4620     0.1380     0.0890
  315.0000   -68.4470     7.4700     7.0680     8.1980   107.6390     2.4590     0.1400     0.0880
  315.5000   -68.6490     7.5110     7.1090     8.2290   106.1990     2.4590     0.1410     0.0870
  316.0000   -68.8500     7.5530     7.1500     8.2490   104.7460     2.4600     0.1390     0.0860
  316.5000   -69.0520     7.5940     7.1910     8.2630   103.4890     2.4600     0.1370     0.0870
  317.0000   -69.2530     7.6360     7.2320     8.2760   106.7670     2.4610     0.1430     0.0910
  317.5000   -69.4550     7.6770     7.2730     8.2910   111.4810     2.4580     0.1460     0.1010
  318.0000   -69.6560     7.7190     7.3140     8.3040   112.4880     2.4550     0.1410     0.1130
  318.5000   -69.8570     7.7610     7.3800     8.3190   109.4480     2.4520     0.1320     0.1200
  319.0000   -70.0590     7.8020     7.3770     8.3210   106.4260     2.4640     0.1240     0.1130
  319.5000   -70.2610     7.8440     7.3600     8.3230   104.4120     2.4800     0.1280     0.1060
  320.0000   -70.4580     7.8850     7.3420     8.3250   105.6850     2.4800     0.1280     0.0950
  320.5000   -70.6720     7.9270     7.3260     8.3270   109.3710     2.4780     0.1270     0.0820
  321.0000   -70.7660     7.9480     7.3090     8.3290   109.4490     2.4760     0.1340     0.0690
  321.5000   -70.7370     7.8980     7.2920     8.3300   106.6740     2.4730     0.1380     0.0680
  322.0000   -70.7250     7.8540     7.2760     8.3320   107.8870     2.4660     0.1370     0.0690
  322.5000   -70.7080     7.8090     7.2590     8.3340   112.1370     2.4630     0.1370     0.0590
  323.0000   -70.6910     7.7650     7.2370     8.3360   112.8860     2.4650     0.1380     0.0440
  323.5000   -70.6750     7.7210     7.1990     8.3370   110.7360     2.4620     0.1390     0.0270
  324.0000   -70.6580     7.6760     7.1610     8.3390   108.6850     2.4600     0.1400     0.0160
  324.5000   -70.6420     7.6320     7.1230     8.3410   107.2220     2.4560     0.1450     0.0150
  325.0000   -70.6250     7.5880     7.0850     8.3430   106.3030     2.4480     0.1530     0.0160
  325.5000   -70.6090     7.5430     7.0470     8.3450   106.9590     2.4400     0.1520     0.0180
  326.0000   -70.5920     7.4990     7.0080     8.3460   107.6530     2.4420     0.1480     0.0210
  326.5000   -70.5760     7.4540     6.9700     8.3480   108.1460     2.4470     0.1480     0.0230
  327.0000   -70.5590     7.4100     6.9320     8.3500   106.3560     2.4490     0.1480     0.0250
  327.5000   -70.5420     7.3630     6.8940     8.3510   104.4030     2.4470     0.1460     0.0270
  328.0000   -70.5260     7.3100     6.8560     8.3530   101.9750     2.4500     0.1440     0.0300
  328.5000   -70.5090     7.2580     6.8180     8.3550   103.0310     2.4550     0.1410     0.0320
  329.0000   -70.4930     7.2050     6.7800     8.3570   106.8050     2.4600     0.1390     0.0340
  329.5000   -70.4760     7.1530     6.7410     8.3590   109.3770     2.4610     0.1380     0.0320
  330.0000   -70.4600     7.1000     6.6720     8.3500   109.8670     2.4620     0.1390     0.0310
  330.5000   -70.4430     7.0480     6.5910     8.3100   109.9900     2.4630     0.1400     0.0300
  331.0000   -70.4260     6.9950     6.5100     8.2720   110.0680     2.4640     0.1340     0.0290
  331.5000   -70.4100     6.9430     6.4290     8.2430   110.3150     2.4680     0.1380     0.0270
  332.0000   -70.3930     6.8900     6.3480     8.2600   108.7120     2.4660     0.1420     0.0260
  332.5000   -70.3770     6.8380     6.2670     8.2780   104.7840     2.4580     0.1450     0.0260
  333.0000   -70.3650     6.7850     6.1870     8.2810    99.7610     2.4500     0.1490     0.0270
  333.5000   -70.3830     6.7330     6.1060     8.2810   101.0390     2.4450     0.1480     0.0270
  334.0000   -70.3980     6.6800     6.0250     8.2810   104.3300     2.4430     0.1510     0.0270
  334.5000   -70.4150     6.6280     5.9440     8.2820   107.3960     2.4390     0.1550     0.0280
  335.0000   -70.4310     6.5750     5.8630     8.2820   108.1960     2.4330     0.1580     0.0280
  335.5000   -70.4470     6.5230     5.7820     8.2830   107.0330     2.4300     0.1530     0.0280
  336.0000   -70.4640     6.4700     5.7010     8.2830   107.3420     2.4380     0.1490     0.0290
  336.5000   -70.4800     6.4180     5.7010     8.2840   106.4220     2.4470     0.1440     0.0290
  337.0000   -70.4960     6.3680     5.7350     8.2850   104.6500     2.4530     0.1420     0.0290
  337.5000   -70.5130     6.3760     5.8120     8.2850   106.8600     2.4550     0.1410     0.0300
  338.0000   -70.5290     6.3840     5.8880     8.2860   109.4580     2.4550     0.1400     0.0310
  338.5000   -70.5450     6.3910     5.9640     8.2860   110.4840     2.4530     0.1420     0.0320
  339.0000   -70.5610     6.3990     6.0250     8.2870   107.5410     2.4530     0.1450     0.0340
  339.5000   -70.5780     6.4060     6.0510     8.2870   105.9180     2.4520     0.1470     0.0360
  340.0000   -70.5940     6.4140     6.0830     8.2880   104.5570     2.4510     0.1440     0.0380
  340.5000   -70.6100     6.4210     6.1150     8.2880   103.3570     2.4530     0.1410     0.0370
  341.0000   -70.6270     6.4290     6.1460     8.2890   102.3690     2.4540     0.1400     0.0360
  341.5000   -70.6430     6.4360     6.1780     8.2890   103.6520     2.4560     0.1440     0.0350
