~VERSION INFORMATION
 VERS.                2.0:   CWLS LOG ASCII STANDARD - VERSION 2.0
 WRAP.                 NO:   ONE LINE PER DEPTH STEP
~WELL INFORMATION
#MNEM.UNIT      DATA TYPE    INFORMATION
#----------   ------------   ------------------------------
 STRT.F          630.0000:   START DEPTH
 STOP.F         1708.0000:   STOP DEPTH
 STEP.F            0.5000:   STEP LENGTH
 NULL.          -999.2500:   NO VALUE
 COMP. FENIX & SCISSON INC:   COMPANY
 WELL.      SHX 34 #58-34:   WELL
 FLD .             TEAPOT:   FIELD
 LOC .      S34 T39N R78W:   LOCATION
 CNTY.            NATRONA:   COUNTY
 STAT.            WYOMING:   STATE
 CTRY. UNITED STATES OF AMERICA:   COUNTRY
 SRVC.           BIRDWELL:   SERVICE COMPANY
 DATE.        28-MAR-1979:   LOGDATE
 API .       490251077400:   API NUMBER
~CURVE INFORMATION
#MNEM.UNIT       API CODE    CURVE DESCRIPTION
#----------   ------------   ------------------------------
 DEPT.F                  :   
 CORR.G/C3   45 356 01 00:   DENSITY CORRECTION
 DPHI.DEC    45 890 12 00:   DENSITY POROSITY SANDSTONE
 RHOB.G/C3   45 350 01 00:   BULK DENSITY
 CALD.IN     45 280 60 00:   CALIPER
 GRD .GAPI   45 310 01 00:   GAMMA RAY FROM DENSITY LOG
~PARAMETER INFORMATION
#MNEM.UNIT          VALUE    DESCRIPTION
#----------   ------------   ------------------------------
 PD  .                 GL:   PERMANENT DATUM
 EPD .F              5120:   ELEVATION PERMANENT DATUM
 LMF .                 KB:   LOG MEASURED FROM
 DAPD.F                10:   FEET ABOVE PERMANENT DATUM
 DMF .                 KB:   DRILLING MEASURED FROM
 EKB .F              5130:   KELLING BUSHING
 EGL .F              5120:   GROUND LEVEL
 DATE.            3-28-79:   RUN DATE
 RUN .                  2:   RUN NUMBER
 DD  .F              1720:   DEPTH DRILLER
 DL  .F              1708:   DEPTH LOGGER
 BLI .F              1708:   BOTTOM LOG INTERVAL
 TLI .F               649:   TOP LOG INTERVAL
 CS  .IN            9.625:   CASING SIZE
 CBD .F               639:   CASING BOTTOM DRILLER
 CBL .F               646:   CASING BOTTOM LOGGER
 BS  .IN             8.75:   BIT SIZE
 BSD .F              1720:   BIT SIZE AT DEPTH
 DFT .                OIL:   DRILLING FLUID TYPE
 TCS .HRS               3:   TIME CURCULATED STOPPED
 MRT .F               150:   MAXIMUM RECORDED TEMPERATURE
 LUN .               2959:   LOGGING UNIT NUMBER
 LUL .             CASPER:   LOGGING UNIT LOCATION
 ENGI.         B. ROLLINS:   RECORDING ENGINEER
 WITN.              AMEND:   WITNESSED BY
 CLNT.            A2DTECH:   CLIENT CODE
 ORIG.           5" PRINT:   ORIGIN OF DATA
 UWI .       490251077400:   UNIQUE WELL ID
 DICO. A2D Technologies, Inc.:   DIGITIZING COMPANY
~OTHER INFORMATION
~A   DEPT     CORR       DPHI       RHOB       CALD         GRD  
# ...
  691.0000     0.0463     0.0540     2.4530    10.0010   125.3917
  691.5000     0.0451     0.0564     2.4515    10.0358   123.5834
  692.0000     0.0434     0.0543     2.4592    10.0692   121.8073
  692.5000     0.0378     0.0516     2.4606    10.0988   120.1970
  693.0000     0.0324     0.0502     2.4578    10.1004   120.8069
  693.5000     0.0255     0.0499     2.4578    10.0992   122.0026
  694.0000     0.0291     0.0497     2.4601    10.1004   122.1393
  694.5000     0.0410     0.0495     2.4612    10.1074   120.3036
  695.0000     0.0714     0.0505     2.4585    10.1443   128.8403
  695.5000     0.0996     0.0523     2.4563    10.1385   123.4104
  696.0000     0.1200     0.0542     2.4531    10.1402   119.7290
  696.5000     0.1318     0.0502     2.4554    10.1404   115.0665
  697.0000     0.1342     0.0536     2.4613    10.1398   114.2272
  697.5000     0.1034     0.0608     2.4500    10.1401   118.8539
  698.0000     0.0707     0.0697     2.4257    10.1400   125.4582
  698.5000     0.0468     0.0785     2.4172    10.1400   123.7963
  699.0000     0.0452     0.0829     2.4062    10.1400   119.2023
  699.5000     0.0578     0.0764     2.4132    10.1400   117.7210
  700.0000     0.0723     0.0691     2.4382    10.1400   120.5670
  700.5000     0.0874     0.0496     2.4624    10.1400   123.0120
  701.0000     0.0905     0.0430     2.4746    10.1400   122.0318
  701.5000     0.0866     0.0421     2.4791    10.1400   120.3407
  702.0000     0.0825     0.0413     2.4780    10.1400   118.5307
  702.5000     0.0784     0.0406     2.4764    10.1400   114.7605
  703.0000     0.0718     0.0438     2.4728    10.1400   110.5890
  703.5000     0.0602     0.0535     2.4614    10.1400   108.9497
  704.0000     0.0487     0.0631     2.4491    10.1400   109.8415
  704.5000     0.0411     0.0669     2.4352    10.1400   114.4435
  705.0000     0.0461     0.0630     2.4335    10.1400   119.9365
  705.5000     0.0515     0.0581     2.4475    10.1400   118.3051
  706.0000     0.0585     0.0533     2.4540    10.1400   115.6984
  706.5000     0.0664     0.0527     2.4541    10.1400   113.1404
  707.0000     0.0744     0.0542     2.4550    10.1400   110.9355
  707.5000     0.0820     0.0485     2.4625    10.1400   109.3638
  708.0000     0.0897     0.0422     2.4719    10.1400   108.4724
  708.5000     0.0897     0.0378     2.4807    10.1400   110.4583
  709.0000     0.0809     0.0335     2.4872    10.1400   114.3557
  709.5000     0.0674     0.0358     2.4889    10.1400   116.6181
  710.0000     0.0663     0.0398     2.4861    10.1400   115.5801
  710.5000     0.0715     0.0397     2.4802    10.1401   117.0380
  711.0000     0.0679     0.0396     2.4763    10.1400   120.1847
  711.5000     0.0636     0.0437     2.4753    10.1400   122.0383
  712.0000     0.0634     0.0515     2.4676    10.1405   121.9514
  712.5000     0.0848     0.0532     2.4587    10.1345   118.5033
  713.0000     0.0998     0.0441     2.4704    10.1187   115.6111
  713.5000     0.1068     0.0355     2.4867    10.1036   112.3199
  714.0000     0.1139     0.0264     2.5078    10.0883   108.3481
  714.5000     0.0972     0.0199     2.5031    10.0730   109.8059
  715.0000     0.0807     0.0283     2.4918    10.0577   113.7104
  715.5000     0.0696     0.0382     2.4816    10.0424   110.9130
  716.0000     0.0617     0.0429     2.4711    10.0271   108.7941
  716.5000     0.0601     0.0478     2.4645    10.0120   107.1464
  717.0000     0.0708     0.0423     2.4742     9.9964   110.8469
  717.5000     0.0720     0.0327     2.4865     9.9795   115.1648
  718.0000     0.0608     0.0406     2.4830     9.9419   120.1439
  718.5000     0.0509     0.0434     2.4761     9.9006   122.0027
  719.0000     0.0404     0.0481     2.4702     9.8593   122.1793
  719.5000     0.0364     0.0518     2.4488     9.8177   121.8456
  720.0000     0.0426     0.0574     2.4531     9.7762   120.7352
  720.5000     0.0481     0.0494     2.4574     9.7416   123.7286
  721.0000     0.0558     0.0494     2.4557     9.7419   122.7888
  721.5000     0.0667     0.0494     2.4538     9.7819   120.9151
  722.0000     0.0703     0.0518     2.4625     9.8260   121.3875
  722.5000     0.0652     0.0541     2.4557     9.8595   123.9765
  723.0000     0.0611     0.0576     2.4492     9.8471   124.1401
  723.5000     0.0640     0.0613     2.4427     9.8329   121.5792
  724.0000     0.0809     0.0622     2.4373     9.8181   119.1216
  724.5000     0.1004     0.0613     2.4396     9.8034   118.0352
  725.0000     0.1104     0.0574     2.4560     9.7873   119.2069
  725.5000     0.1142     0.0534     2.4492     9.7847   120.3282
  726.0000     0.1099     0.0598     2.4438     9.7999   119.5841
  726.5000     0.1348     0.0472     2.4634     9.8137   117.8919
  727.0000     0.1293     0.0377     2.4801     9.8274   118.4358
  727.5000     0.1253     0.0415     2.4763     9.8416   119.4314
  728.0000     0.1232     0.0428     2.4719     9.8555   117.2183
  728.5000     0.1236     0.0399     2.4751     9.8695   117.8317
  729.0000     0.1242     0.0431     2.4725     9.8835   118.4314
  729.5000     0.1362     0.0447     2.4674     9.8974   116.7461
  730.0000     0.1488     0.0399     2.4721     9.9114   113.2775
  730.5000     0.1632     0.0384     2.4792     9.9254   110.1314
  731.0000     0.1892     0.0312     2.4920     9.9393   106.8892
  731.5000     0.2030     0.0223     2.5077     9.9534   103.8814
  732.0000     0.1976     0.0223     2.5051     9.9672   101.4609
  732.5000     0.1901     0.0223     2.5037     9.9795   114.9975
  733.0000     0.1832     0.0223     2.5073     9.9798   124.2799
  733.5000     0.1850     0.0255     2.5052     9.9757   118.7615
  734.0000     0.1865     0.0263     2.5031     9.9707   120.4474
  734.5000     0.1888     0.0263     2.5008     9.9657   124.0409
  735.0000     0.2111     0.0196     2.5073     9.9608   128.5865
  735.5000     0.2303     0.0056     2.5334     9.9559   126.7315
  736.0000     0.2272     0.0167     2.5253     9.9509   122.1006
  736.5000     0.2370     0.0098     2.5193     9.9460   118.0214
  737.0000     0.2323     0.0080     2.5374     9.9411   114.9412
  737.5000     0.2085     0.0183     2.5182     9.9362   117.9421
  738.0000     0.1743     0.0263     2.5022     9.9313   120.5146
  738.5000     0.1674     0.0233     2.5017     9.9264   123.5244
  739.0000     0.1577     0.0204     2.5079     9.9215   124.2890
  739.5000     0.1406     0.0175     2.5162     9.9166   119.6357
  740.0000     0.1128     0.0191     2.5094     9.9116   127.0740
  740.5000     0.0984     0.0382     2.4917     9.9069   132.0699
  741.0000     0.1018     0.0375     2.4831     9.9022   130.5255
  741.5000     0.1027     0.0311     2.4842     9.8937   131.6125
  742.0000     0.1003     0.0255     2.4975     9.8690   136.4737
  742.5000     0.0866     0.0297     2.4995     9.8445   134.1394
  743.0000     0.0727     0.0348     2.4922     9.8197   127.1516
  743.5000     0.0591     0.0382     2.4804     9.7948   119.2658
  744.0000     0.0444     0.0524     2.4622     9.7704   111.6468
  744.5000     0.0405     0.0637     2.4458     9.7454   103.7631
  745.0000     0.0444     0.0645     2.4317     9.7202   105.1609
  745.5000     0.0558     0.0531     2.4492     9.6974   107.5098
  746.0000     0.0596     0.0412     2.4669     9.6693   109.8341
  746.5000     0.0635     0.0351     2.4835     9.6531   112.0147
  747.0000     0.0636     0.0329     2.4934     9.5689   111.8335
  747.5000     0.0642     0.0300     2.4990     9.4969   110.8054
  748.0000     0.0591     0.0276     2.4929     9.4199   109.6273
  748.5000     0.0482     0.0364     2.4881     9.3421   111.6665
  749.0000     0.0383     0.0451     2.4616     9.2688   112.2084
  749.5000     0.0284     0.0725     2.4353     9.1843   110.0613
  750.0000     0.0245     0.0965     2.3958     9.2806   108.0155
  750.5000     0.0294     0.1195     2.3486     9.3759   106.9234
  751.0000     0.0552     0.1307     2.3219     9.4926   106.9080
  751.5000     0.1014     0.1080     2.3533     9.4988   108.6229
