~VERSION INFORMATION
 VERS.                2.0:   CWLS LOG ASCII STANDARD - VERSION 2.0
 WRAP.                 NO:   ONE LINE PER DEPTH STEP
~WELL INFORMATION
#MNEM.UNIT      DATA TYPE    INFORMATION
#----------   ------------   ------------------------------
 STRT.F           30.0000:   START DEPTH
 STOP.F          510.0000:   STOP DEPTH
 STEP.F            0.5000:   STEP LENGTH
 NULL.          -999.2500:   NO VALUE
 COMP. FENIX & SCISSON INC:   COMPANY
 WELL.    66-SX 3FP #54-3:   WELL
 FLD .             TEAPOT:   FIELD
 LOC .       S3 T38N R78W:   LOCATION
 CNTY.            NATRONA:   COUNTY
 STAT.            WYOMING:   STATE
 CTRY. UNITED STATES OF AMERICA:   COUNTRY
 SRVC.              Welex:   SERVICE COMPANY
 DATE.        25-JUN-1980:   LOGDATE
 API .       490251081400:   API NUMBER
~CURVE INFORMATION
#MNEM.UNIT       API CODE    CURVE DESCRIPTION
#----------   ------------   ------------------------------
 DEPT.F                  :   
 SGRD.OHMM   07 220 05 00:   SHALLOW GUARD RESISTIVITY
 ILD .OHMM   07 120 46 00:   INDUCTION LOG DEEP RESISTIVITY
 ILM .OHMM   07 120 44 00:   INDUCTION LOG MEDIUM
 CALD.IN     45 280 60 00:   CALIPER
 GRD .GAPI   45 310 01 00:   GAMMA RAY FROM DENSITY LOG
 CORR.G/C3   45 356 01 00:   DENSITY CORRECTION
 NPHI.DEC    42 890 03 00:   NEUTRON POROSITY SANDSTONE
 DPHI.DEC    45 890 12 00:   DENSITY POROSITY SANDSTONE
 SPR .MV     07 010 01 00:   SPONTANEOUS POTENTIAL
 RHOB.G/C3   45 350 01 00:   BULK DENSITY
~PARAMETER INFORMATION
#MNEM.UNIT          VALUE    DESCRIPTION
#----------   ------------   ------------------------------
 PD  .                 GL:   PERMANENT DATUM
 EPD .F              5158:   ELEVATION PERMANENT DATUM
 LMF .                 KB:   LOG MEASURED FROM
 DAPD.F                 5:   FEET ABOVE PERMANENT DATUM
 DMF .                 KB:   DRILLING MEASURED FROM
 EKB .F              5163:   KELLING BUSHING
 EGL .F              5158:   GROUND LEVEL
 DATE.            6-25-80:   RUN DATE
 RUN .                  1:   RUN NUMBER
 DD  .F               516:   DEPTH DRILLER
 DL  .F               512:   DEPTH LOGGER
 BLI .F               510:   BOTTOM LOG INTERVAL
 TLI .F                30:   TOP LOG INTERVAL
 BS  .IN            9.875:   BIT SIZE
 BSD .F               516:   BIT SIZE AT DEPTH
 DFT .            KCL MUD:   DRILLING FLUID TYPE
 DFD .                9.2:   DRILLING FLUID DENSITY
 DFV .                 52:   DRILLING FLUID VISCOSITY
 DFPH.                 12:   DRILLING FLUID PH
 DFL .                  6:   DRILLING FLUID LOSS
 MSS .           FLOWLINE:   MUD SAMPLE SOURCE
 RMB .OHMM            .35:   RESISTIVITY MUD AT BHT
 BHT .F                75:   BOTTOM HOLE TEMPERATURE
 TCS .HRS               1:   TIME CURCULATED STOPPED
 MRT .F                75:   MAXIMUM RECORDED TEMPERATURE
 LUN .               1892:   LOGGING UNIT NUMBER
 LUL .             CASPER:   LOGGING UNIT LOCATION
 ENGI.            TOTHILL:   RECORDING ENGINEER
 WITN.              AMEND:   WITNESSED BY
 CLNT.            A2DTECH:   CLIENT CODE
 ORIG.           5" PRINT:   ORIGIN OF DATA
 UWI .       490251081400:   UNIQUE WELL ID
 DICO. A2D Technologies, Inc.:   DIGITIZING COMPANY
~OTHER INFORMATION
~A   DEPT       SGRD        ILD        ILM     CALD        GRD       CORR       NPHI       DPHI        SPR       RHOB   
# ...
  465.5000    10.1027     8.0436     8.4679    10.0211   102.8661     0.0685     0.2554     0.0858   -36.1554     2.5411
  466.0000    10.1476     8.0684     8.4870    10.0204   102.7707     0.0574     0.2522     0.0936   -36.2351     2.5164
  466.5000    10.1928     8.0933     8.5057    10.0198   100.5914     0.0572     0.2518     0.0970   -36.2492     2.5105
  467.0000    10.2381     8.1182     8.5244    10.0192    98.4288     0.0657     0.2578     0.0909   -36.2587     2.5328
  467.5000    10.2836     8.1432     8.5459    10.0185    96.2830     0.0746     0.2561     0.0878   -35.8326     2.5443
  468.0000    10.3294     8.1683     8.5420    10.0179    94.0760     0.0677     0.2530     0.0937   -35.3288     2.5224
  468.5000    10.3753     8.1935     8.5372    10.0173    94.2163     0.0543     0.2478     0.1017   -35.6793     2.5094
  469.0000    10.4214     8.2188     8.5323    10.0167    95.2101     0.0583     0.2402     0.0994   -36.0030     2.5134
  469.5000    10.4679     8.2377     8.5274    10.0160    96.0228     0.0646     0.2400     0.1006   -35.7399     2.5178
  470.0000    10.5143     8.2376     8.5226    10.0154    93.3704     0.0485     0.2424     0.1021   -35.4755     2.5143
  470.5000    10.5581     8.2376     8.5177    10.0147    91.9145     0.0481     0.2472     0.1039   -36.1743     2.5092
  471.0000    10.4782     8.2376     8.5129    10.0141    92.3791     0.0534     0.2490     0.1083   -36.5473     2.5040
  471.5000    10.3865     8.2376     8.5080    10.0135    94.7218     0.0543     0.2418     0.1114   -36.5493     2.5020
  472.0000    10.2956     8.2376     8.5032    10.0128    97.1025     0.0534     0.2402     0.1098   -36.3461     2.5017
  472.5000    10.2051     8.2376     8.4983    10.0122    99.5224     0.0487     0.2362     0.1117   -36.0002     2.4953
  473.0000    10.1524     8.2376     8.4935    10.0116   100.8894     0.0442     0.2312     0.1175   -35.4790     2.4846
  473.5000    10.1164     8.2376     8.4887    10.0110   101.9520     0.0393     0.2290     0.1174   -34.9609     2.4857
  474.0000    10.0838     8.2376     8.4838    10.0103   103.3663     0.0443     0.2270     0.1174   -34.4361     2.4927
  474.5000    10.0331     8.2376     8.4790    10.0097   113.8715     0.0523     0.2200     0.1128   -34.2380     2.4998
  475.0000     9.9870     8.2377     8.4741    10.0091   123.5500     0.0605     0.2176     0.1079   -34.1707     2.5069
  475.5000     9.9410     8.2347     8.4695    10.0084   138.7204     0.0679     0.2171     0.1042   -34.0953     2.5121
  476.0000     9.9001     8.2078     8.4320    10.0078   139.1236     0.0616     0.2158     0.1034   -34.4796     2.5099
  476.5000     9.6813     8.1807     8.3814    10.0072   159.2220     0.0549     0.2079     0.1115   -34.9437     2.5002
  477.0000     9.4459     8.1538     8.3312    10.0065   165.9748     0.0481     0.2014     0.1178   -35.1581     2.4908
  477.5000     9.1982     8.1269     8.2812    10.0059   170.2601     0.0391     0.2060     0.1222   -35.3793     2.4810
  478.0000     9.1042     8.1002     8.2142    10.0053   189.3348     0.0289     0.2185     0.1320   -35.6082     2.4652
  478.5000     9.0031     8.0735     8.0268    10.0046   217.5737     0.0187     0.2351     0.1386   -35.5730     2.4532
  479.0000     8.9032     8.0461     7.8437    10.0040   231.8112     0.0097     0.2516     0.1399   -35.4583     2.4502
  479.5000     8.8043     8.0205     7.6648    10.0034   223.9114     0.0028     0.2583     0.1406   -35.3451     2.4482
  480.0000     8.7066     7.9402     7.4900    10.0027   172.9769    -0.0018     0.2616     0.1375   -35.3905     2.4537
  480.5000     8.6100     7.8676     7.3098    10.0021   146.2476     0.0089     0.2650     0.1328   -35.7524     2.4663
  481.0000     8.5144     7.5650     7.3009    10.0015   142.8285     0.0242     0.2679     0.1224   -36.0188     2.4788
  481.5000     8.4198     7.2429     7.2916    10.0008   139.1363     0.0400     0.2708     0.1181   -36.2628     2.4918
  482.0000     8.3264     7.2047     7.2822    10.0002   124.5550     0.0243     0.2719     0.1158   -36.3195     2.4877
  482.5000     8.2339     7.1647     7.2729     9.9996   108.1509     0.0078     0.2768     0.1176   -36.3819     2.4778
  483.0000     8.1423     7.1250     7.2638     9.9989   102.8283     0.0149     0.2926     0.1219   -36.4370     2.4694
  483.5000     8.0527     7.0855     7.2501     9.9983    96.5243     0.0220  -999.2500     0.1266   -36.2262     2.4742
  484.0000     7.9977     7.0462     7.2431     9.9977    95.4736     0.0009  -999.2500     0.1287   -35.9974     2.4629
  484.5000     7.9574     7.0071     7.1616     9.9970    94.2610     0.0063  -999.2500     0.1309   -35.7694     2.4621
  485.0000     7.9167     6.9683     7.1356     9.9964    92.2955     0.0148  -999.2500     0.1268   -35.5414     2.4703
  485.5000     7.8762     6.9297     7.1097     9.9958    89.9177     0.0233  -999.2500     0.1231   -35.3099     2.4782
  486.0000     7.8360     6.8912     7.0838     9.9951    88.3153     0.0318  -999.2500     0.1183   -35.2167     2.4861
  486.5000     7.7960     6.8530     7.0580     9.9945    89.6168     0.0403  -999.2500     0.1091   -35.1552     2.4952
  487.0000     7.7559     6.8151     7.0324     9.9939    91.1370     0.0486  -999.2500     0.0984   -35.0910     2.5138
  487.5000     7.7012     6.7773     7.0068     9.9932    90.2140     0.0664  -999.2500     0.0882   -35.2680     2.5328
  488.0000     7.5831     6.7397     6.9814     9.9926    90.1625     0.0843  -999.2500     0.0835   -35.6007     2.5517
  488.5000     7.4674     6.7023     6.9325     9.9920    91.4839     0.0766  -999.2500     0.0843   -35.5034     2.5523
  489.0000     7.3534     6.6652     6.8723     9.9913    92.2521     0.0676  -999.2500     0.0896   -35.5014     2.5371
  489.5000     7.2411     6.6279     6.8126     9.9907    93.6408     0.0586  -999.2500     0.0928   -35.6479     2.5216
  490.0000     7.1404     6.5921     6.7533     9.9901    96.1962     0.0524  -999.2500     0.0956   -35.8405     2.5060
  490.5000     7.0545     6.5216     6.6947     9.9894    96.7057     0.0579  -999.2500     0.0994   -35.7594     2.5050
  491.0000     6.9696     6.4525     6.6365     9.9888    95.1369     0.0671  -999.2500     0.0960   -35.6980     2.5222
  491.5000     6.8858     6.3842     6.5788     9.9882    99.3967     0.0702  -999.2500     0.0926   -35.7838     2.5322
  492.0000     6.8029     6.3166     6.5233     9.9875    99.4261     0.0606  -999.2500     0.0977   -36.0803     2.5187
  492.5000     6.7211     6.2523     6.4703     9.9869    97.1115     0.0521  -999.2500     0.1030   -36.2203     2.5071
  493.0000     6.6402     6.2202     6.4179     9.9863    95.1922     0.0620  -999.2500     0.0957   -36.1501     2.5182
  493.5000     6.5603     6.1895     6.3658     9.9856    93.3777     0.0806  -999.2500     0.0918   -36.0821     2.5345
  494.0000     6.4814     6.1590     6.3142     9.9850    97.8138     0.0781  -999.2500     0.1002   -35.9136     2.5011
  494.5000     6.4035     6.1288     6.2630     9.9844    97.5765     0.0576  -999.2500     0.1062   -36.2637     2.5016
  495.0000     6.3264     6.0984     6.2122     9.9838  -999.2500     0.0555  -999.2500     0.1044   -36.4299     2.5086
  495.5000     6.2503     6.0607     6.1618     9.9831  -999.2500     0.0582  -999.2500     0.1022   -36.0776     2.5151
  496.0000     6.1384     5.9567     6.1118     9.9825  -999.2500     0.0785  -999.2500     0.0990   -35.7277     2.5210
  496.5000     5.8954     5.7019     6.0613     9.9818  -999.2500     0.0642  -999.2500     0.1112   -35.3728     2.5057
  497.0000     5.6292     5.4580     5.9597     9.9812  -999.2500     0.0412  -999.2500     0.1337   -35.3892     2.4772
  497.5000     5.3206     5.2245     5.7117     9.9806  -999.2500     0.0180  -999.2500     0.1446   -35.5639     2.4489
  498.0000     4.8765     5.0526     5.4973     9.9799  -999.2500     0.0029  -999.2500     0.1554   -35.6286     2.4388
  498.5000     4.7021     5.0235     5.4973     9.9793  -999.2500    -0.0010  -999.2500     0.1483   -35.5673     2.4296
