~VERSION INFORMATION
 VERS.                2.0:   CWLS LOG ASCII STANDARD - VERSION 2.0
 WRAP.                 NO:   ONE LINE PER DEPTH STEP
~WELL INFORMATION
#MNEM.UNIT      DATA TYPE    INFORMATION
#----------   ------------   ------------------------------
 STRT.F            2.0000:   START DEPTH
 STOP.F          592.0000:   STOP DEPTH
 STEP.F            0.1000:   STEP LENGTH
 NULL.          -999.2500:   NO VALUE
 COMP. BROWN JOHN E&C INC:   COMPANY
 WELL. NAVAL PETROLEUM RESERVE 3 SX-3 #73-3:   WELL
 FLD .             TEAPOT:   FIELD
 LOC .       S3 T38N R78W:   LOCATION
 CNTY.            NATRONA:   COUNTY
 STAT.            WYOMING:   STATE
 CTRY. UNITED STATES OF AMERICA:   COUNTRY
 SRVC.     Atlas Wireline:   SERVICE COMPANY
 DATE.        22-APR-1992:   LOGDATE
 API .       490252251000:   API NUMBER
~CURVE INFORMATION
#MNEM.UNIT       API CODE    CURVE DESCRIPTION
#----------   ------------   ------------------------------
 DEPT.F                  :   
 GRR .GAPI   07 310 01 00:   GAMMA RAY
 RILD.OHMM   07 120 46 00:   INDUCTION LOG DEEP RESISTIVITY
 RILM.OHMM   07 120 44 00:   INDUCTION LOG MEDIUM RESISTIVITY
~PARAMETER INFORMATION
#MNEM.UNIT          VALUE    DESCRIPTION
#----------   ------------   ------------------------------
 PD  .                 GL:   PERMANENT DATUM
 EPD .F              5148:   ELEVATION PERMANENT DATUM
 LMF .                 KB:   LOG MEASURED FROM
 DAPD.F                 5:   FEET ABOVE PERMANENT DATUM
 DMF .                 KB:   DRILLING MEASURED FROM
 EKB .F              5153:   KELLING BUSHING
 EDF .F              5152:   DRILLING FLOOR
 EGL .F              5148:   GROUND LEVEL
 DATE.        22-APR-1992:   RUN DATE
 RUN .                  1:   RUN NUMBER
 DD  .F               600:   DEPTH DRILLER
 DL  .F               601:   DEPTH LOGGER
 BLI .F               592:   BOTTOM LOG INTERVAL
 TLI .F                51:   TOP LOG INTERVAL
 CS  .IN            8.625:   CASING SIZE
 CBD .F                48:   CASING BOTTOM DRILLER
 CBL .F                51:   CASING BOTTOM LOGGER
 BS  .IN            7.875:   BIT SIZE
 BSD .F               600:   BIT SIZE AT DEPTH
 DFT .                AIR:   DRILLING FLUID TYPE
 LUN .            HL-5272:   LOGGING UNIT NUMBER
 LUL .             CASPER:   LOGGING UNIT LOCATION
 ENGI.       P. RAGMUSSEN:   RECORDING ENGINEER
 WITN.          G. STRONG:   WITNESSED BY
 CLNT.            A2DTECH:   CLIENT CODE
 ORIG.           5" PRINT:   ORIGIN OF DATA
 UWI .       490252251000:   UNIQUE WELL ID
 DICO. A2D Technologies, Inc.:   DIGITIZING COMPANY
~OTHER INFORMATION
~A    DEPT      GRR      RILD       RILM   
# ...
  111.2000   135.2076     9.7532    10.2243
  111.3000   134.2319     9.7652    10.2250
  111.4000   133.4970     9.8229    10.1746
  111.5000   132.5699     9.8238    10.1555
  111.6000   131.8608     9.8246    10.1562
  111.7000   131.3715     9.8539    10.1456
  111.8000   130.9039     9.8948    10.0871
  111.9000   130.6248     9.8956    10.0878
  112.0000   130.4165     9.8967    10.0465
  112.1000   130.3256     9.8974    10.0192
  112.2000   130.2319     9.9313    10.0199
  112.3000   130.0263     9.9681    10.0206
  112.4000   130.0286     9.9690    10.0214
  112.5000   129.8034     9.9699    10.0220
  112.6000   128.9140     9.9706    10.0227
  112.7000   127.7373     9.9714    10.0234
  112.8000   125.9035     9.9723    10.0316
  112.9000   124.3923     9.9732    10.0949
  113.0000   123.9030     9.9740    10.0956
  113.1000   123.3847    10.0300    10.1348
  113.2000   123.1557    10.0453    10.1931
  113.3000   122.9120    10.0462    10.2392
  113.4000   122.7848    10.0470    10.2399
  113.5000   122.7867    10.0478    10.2979
  113.6000   122.7934    10.0488    10.3129
  113.7000   123.2861    10.0495    10.3136
  113.8000   124.3515    10.0504    10.3316
  113.9000   125.7144    10.0512    10.3871
  114.0000   127.2655    10.0446    10.3880
  114.1000   129.0649     9.9832    10.3885
  114.2000   132.1794     9.9840    10.3892
  114.3000   133.2210     9.9848    10.3900
  114.4000   133.9975     9.9857    10.3907
  114.5000   134.3026     9.9865    10.3915
  114.6000   134.3412     9.9873    10.3922
  114.7000   134.6089     9.9882    10.3525
  114.8000   134.3855     9.9890    10.3215
  114.9000   133.8059     9.9898    10.3223
  115.0000   132.4057     9.9906    10.3230
  115.1000   130.3599     9.9915    10.3237
  115.2000   128.8690     9.9925    10.2795
  115.3000   127.9020     9.9932    10.2535
  115.4000   127.4772     9.9940    10.2362
  115.5000   127.3616     9.9948    10.1837
  115.6000   127.3634     9.9956    10.1846
  115.7000   127.3792     9.9966    10.1362
  115.8000   127.6699     9.9973    10.0797
  115.9000   128.0761     9.9981    10.0458
  116.0000   128.5689     9.9740    10.0371
  116.1000   129.2380     9.9305     9.9775
  116.2000   130.3156     9.9313     9.9781
  116.3000   132.2174     9.9321     9.9392
  116.4000   132.8772     9.9330     9.9103
  116.5000   133.4533     9.9338     9.9110
  116.6000   133.8409     9.9346     9.9117
  116.7000   134.0396     9.9354     9.9124
  116.8000   133.7392     9.9364     9.9131
  116.9000   133.0313     9.9371     9.9138
  117.0000   131.9375     9.9044     9.9144
  117.1000   130.8343     9.8698     9.9152
  117.2000   130.0503     9.8629     9.9159
  117.3000   129.7982     9.8031     9.9165
  117.4000   129.2119     9.8038     9.9172
  117.5000   129.0166     9.7672     9.9179
  117.6000   128.9126     9.7374     9.9186
  117.7000   128.8319     9.7263     9.9193
  117.8000   128.6134     9.6715     9.9200
  117.9000   128.6157     9.6723     9.9207
  118.0000   128.6173     9.6320     9.8938
  118.1000   128.4624     9.6068     9.8532
  118.2000   128.3183     9.5916     9.8521
  118.3000   128.3201     9.5417     9.7863
  118.4000   128.3221     9.5427     9.7869
  118.5000   128.3238     9.4985     9.7559
  118.6000   128.3256     9.4779     9.7203
  118.7000   128.3274     9.4787     9.7147
  118.8000   128.3292     9.4720     9.6543
  118.9000   128.3310     9.4146     9.6067
  119.0000   128.3328     9.4153     9.5886
  119.1000   128.3347     9.4161     9.5662
  119.2000   128.4705     9.4169     9.5233
  119.3000   128.6409     9.4177     9.5241
  119.4000   128.6623     9.4185     9.5247
  119.5000   128.9473     9.4192     9.4857
  119.6000   128.9489     9.4200     9.4600
  119.7000   129.2528     9.4491     9.4607
  119.8000   129.8396     9.4874     9.4613
  119.9000   130.5408     9.4882     9.4621
  120.0000   131.0743     9.4891     9.4626
  120.1000   131.3012     9.4898     9.4633
  120.2000   131.5486     9.4906     9.4639
  120.3000   131.7959     9.5116     9.4646
  120.4000   131.9891     9.5585     9.4653
  120.5000   131.9910     9.5594     9.4659
  120.6000   131.9928     9.5601     9.5027
  120.7000   131.9946     9.5979     9.5334
  120.8000   131.9964     9.6285     9.5340
  120.9000   131.9982     9.6414     9.5347
  121.0000   132.0000     9.6974     9.5886
  121.1000   132.0021     9.6982     9.6027
  121.2000   132.0036     9.7409     9.6320
  121.3000   132.0055     9.7675     9.6711
  121.4000   132.0073     9.7850     9.6754
  121.5000   132.0403     9.8375     9.7401
  121.6000   132.3136     9.8384     9.7406
  121.7000   132.3153     9.8859     9.7749
  121.8000   132.3171     9.9086     9.8101
  121.9000   132.4244     9.9308     9.8274
  122.0000   132.7684     9.9795     9.9491
  122.1000   133.5329     9.9804    10.0016
  122.2000   134.9555     9.9812    10.0199
  122.3000   136.2508     9.9821    10.0467
  122.4000   137.2347    10.0087    10.1045
  122.5000   137.9728    10.0535    10.1625
  122.6000   138.6943    10.0543    10.2210
  122.7000   138.9904    10.0551    10.2798
  122.8000   139.1886    10.0560    10.3072
  122.9000   139.1565    10.0568    10.3078
  123.0000   138.7473    10.0576    10.3086
  123.1000   137.9619    10.0543    10.3094
  123.2000   136.5788     9.9897    10.3100
  123.3000   135.2964     9.9904    10.3108
  123.4000   133.6681     9.9912    10.3115
  123.5000   131.8515     9.9920    10.3027
  123.6000   129.6764     9.9844    10.2414
  123.7000   126.3003     9.9244    10.1880
  123.8000   123.5281     9.9252    10.1313
  123.9000   120.9316     9.9261    10.1018
  124.0000   118.9467     9.9012    10.0886
  124.1000   117.5358     9.8588    10.0323
  124.2000   116.3125     9.8596     9.9763
  124.3000   115.3328     9.8605     9.9207
  124.4000   114.7354     9.8613     9.8965
  124.5000   114.5144     9.8323     9.8972
  124.6000   114.5932     9.7945     9.8979
  124.7000   114.8802     9.7912     9.8987
  124.8000   115.7304     9.7283     9.8507
  124.9000   116.7736     9.7290     9.8313
  125.0000   118.0031     9.6960     9.8320
  125.1000   119.1382     9.6631     9.8326
  125.2000   120.1588     9.6555     9.8334
  125.3000   121.4882     9.5978     9.7813
  125.4000   122.3920     9.5485     9.7665
  125.5000   123.3758     9.5327     9.7400
  125.6000   124.4710     9.5335     9.6857
  125.7000   125.7541     9.5218     9.6316
  125.8000   127.2460     9.4688     9.5674
  125.9000   128.7037     9.4162     9.5245
  126.0000   131.1058     9.4048     9.5022
  126.1000   133.9365     9.3769     9.4844
  126.2000   136.7420     9.3248     9.4254
  126.3000   139.2264     9.2770     9.3078
  126.4000   142.6884     9.2780     9.2619
  126.5000   143.9060     9.2342     9.2445
  126.6000   144.9440     9.1829     9.2229
  126.7000   145.6824     9.1519     9.1815
  126.8000   146.3576     9.1445     9.1823
  126.9000   146.6308     9.0900     9.1328
  127.0000   146.6324     9.0907     9.1198
  127.1000   146.4713     9.0557     9.1204
  127.2000   145.8045     9.0291     9.1211
  127.3000   144.5308     9.0299     9.1217
  127.4000   143.0089     9.0306     9.1225
  127.5000   141.8256     9.0314     9.0808
  127.6000   140.6002     9.0322     9.0604
  127.7000   139.4973     9.0329     9.0610
  127.8000   138.5827     9.0336     9.0616
  127.9000   137.8656     9.0344     9.0623
  128.0000   137.5737     9.0353     9.0629
  128.1000   137.5752     9.0359     9.0291
  128.2000   137.4370     9.0367     9.0013
  128.3000   137.2762     9.0374     9.0018
  128.4000   137.2781     9.0300     9.0025
  128.5000   137.2801     8.9763     9.0031
  128.6000   137.2817     8.9770     9.0038
  128.7000   137.2835     8.9777     8.9778
  128.8000   137.3855     8.9784     8.9426
  128.9000   137.5897     8.9792     8.9431
  129.0000   137.5916     8.9800     8.9439
  129.1000   137.8247     8.9807     8.9444
  129.2000   138.2462     8.9421     8.9450
  129.3000   138.7390     8.9199     8.9456
