~VERSION INFORMATION
 VERS.                2.0:   CWLS LOG ASCII STANDARD - VERSION 2.0
 WRAP.                 NO:   ONE LINE PER DEPTH STEP
~WELL INFORMATION
#MNEM.UNIT      DATA TYPE    INFORMATION
#----------   ------------   ------------------------------
 STRT.F          974.5000:   START DEPTH
 STOP.F         2805.0000:   STOP DEPTH
 STEP.F            0.5000:   STEP LENGTH
 NULL.          -999.2500:   NO VALUE
 COMP.   FLUOR DANIEL INC:   COMPANY
 WELL. NAVAL PETROLEUM RESERVE 3 SHX- #38-14:   WELL
 FLD .             TEAPOT:   FIELD
 LOC .      S14 T38N R78W:   LOCATION
 CNTY.            NATRONA:   COUNTY
 STAT.            WYOMING:   STATE
 CTRY. UNITED STATES OF AMERICA:   COUNTRY
 SRVC.            Unknown:   SERVICE COMPANY
 DATE.        20-AUG-1995:   LOGDATE
 API .       490252273400:   API NUMBER
~CURVE INFORMATION
#MNEM.UNIT       API CODE    CURVE DESCRIPTION
#----------   ------------   ------------------------------
 DEPT.F                  :   
 ROP .MIN/FT 91 810 01 00:   RAT OF DRILLING PENETRATION
 TGAS.UNITS  91 830 01 00:   TOTAL GAS FROM HOTWIRE
~PARAMETER INFORMATION
#MNEM.UNIT          VALUE    DESCRIPTION
#----------   ------------   ------------------------------
 EKB .F              5264:   KELLING BUSHING
 EGL .F              5254:   GROUND LEVEL
 DATE.            8-20-95:   RUN DATE
 DD  .F              2805:   DEPTH DRILLER
 CBD .F               980:   CASING BOTTOM DRILLER
 ENGI.              TOWER:   RECORDING ENGINEER
 WITN.               HUSK:   WITNESSED BY
 CLNT.            A2DTECH:   CLIENT CODE
 ORIG.           5" PRINT:   ORIGIN OF DATA
 UWI .       490252273400:   UNIQUE WELL ID
 DICO. A2D Technologies, Inc.:   DIGITIZING COMPANY
~OTHER INFORMATION
~A   DEPT      ROP         TGAS 
# ...
 1217.5000     0.5456    13.0121
 1218.0000     0.5463    13.0172
 1218.5000     0.5470    13.2431
 1219.0000     0.5476    13.2482
 1219.5000     0.5483    13.2525
 1220.0000     0.5489    13.2568
 1220.5000     0.5496    13.2611
 1221.0000     0.5503    13.2654
 1221.5000     0.5510    13.2697
 1222.0000     0.5518    13.0517
 1222.5000     0.5524    12.8343
 1223.0000     0.5531    12.8401
 1223.5000     0.5646    12.6227
 1224.0000     0.5542    12.4046
 1224.5000     0.5551    12.4097
 1225.0000     0.5557    12.4140
 1225.5000     0.5564    12.4190
 1226.0000     0.5571    12.4233
 1226.5000     0.5577    12.6493
 1227.0000     0.5584    12.8753
 1227.5000     0.5592    13.1013
 1228.0000     0.5599    12.8832
 1228.5000     0.5606    12.8890
 1229.0000     0.5612    13.1150
 1229.5000     0.5619    13.1193
 1230.0000     0.5625    13.1236
 1230.5000     0.5632    13.1279
 1231.0000     0.5639    12.9098
 1231.5000     0.5645    12.9156
 1232.0000     0.5652    12.9199
 1232.5000     0.5660    12.9242
 1233.0000     0.5667    12.9285
 1233.5000     0.5565    13.1545
 1234.0000     0.5571    13.1588
 1234.5000     0.6774    12.7198
 1235.0000     0.6670    12.7248
 1235.5000     0.6678    12.7291
 1236.0000     0.6685    12.9551
 1236.5000     0.6692    12.9594
 1237.0000     0.6698    13.1854
 1237.5000     0.6707    13.4121
 1238.0000     0.6713    13.1933
 1238.5000     0.6609    13.1991
 1239.0000     0.6618    13.2034
 1239.5000     0.6733    13.2077
 1240.0000     0.6740    13.4330
 1240.5000     0.6735    13.4387
 1241.0000     0.6622    13.4431
 1241.5000     0.6618    13.4474
 1242.0000     0.6614    13.2293
 1242.5000     0.6719    13.2343
 1243.0000     0.6714    13.4603
 1243.5000     0.6710    13.2422
 1244.0000     0.6706    13.2480
 1244.5000     0.6702    13.2523
 1245.0000     0.6698    13.2566
 1245.5000     0.6803    13.2609
 1246.0000     0.6581    12.5995
 1246.5000     0.5056    12.3822
 1247.0000     0.5051    12.1648
 1247.5000     0.5156    11.5055
 1248.0000     0.5152    11.0658
 1248.5000     0.5257    11.2925
 1249.0000     0.5252    11.2968
 1249.5000     0.5248    11.3018
 1250.0000     0.5353    11.3061
 1250.5000     0.5349    11.3013
 1251.0000     0.5345    11.2955
 1251.5000     0.5341    11.2897
 1252.0000     0.5336    11.2838
 1252.5000     0.5332    11.2780
 1253.0000     0.5328    11.2722
 1253.5000     0.5324    11.2664
 1254.0000     0.5320    11.2606
 1254.5000     0.5316    11.2548
 1255.0000     0.5312    11.2490
 1255.5000     0.5308    11.2432
 1256.0000     0.5413    11.2374
 1256.5000     0.5408    11.2316
 1257.0000     0.5514    11.2257
 1257.5000     0.5619    11.2199
 1258.0000     0.5614    11.2141
 1258.5000     0.5610    11.2083
 1259.0000     0.5606    11.2025
 1259.5000     0.5602    11.1967
 1260.0000     0.5598    11.1909
 1260.5000     0.5703    11.1851
 1261.0000     0.5698    11.1793
 1261.5000     0.5694    11.1735
 1262.0000     0.5690    11.1677
 1262.5000     0.5686    11.1618
 1263.0000     0.5682    11.1560
 1263.5000     0.5678    11.1502
 1264.0000     0.5674    11.1444
 1264.5000     0.5670    11.1386
 1265.0000     0.5666    11.1328
 1265.5000     0.5661    11.1270
 1266.0000     0.5657    11.1212
 1266.5000     0.5653    11.1154
 1267.0000     0.5649    11.1096
 1267.5000     0.5645    11.1038
 1268.0000     0.5641    11.0979
 1268.5000     0.5637    11.0921
 1269.0000     0.5524    11.0863
 1269.5000     0.5520    11.0805
 1270.0000     0.5516    11.0747
 1270.5000     0.5512    11.0689
 1271.0000     0.5508    11.0631
 1271.5000     0.5504    11.0573
 1272.0000     0.5500    11.0515
 1272.5000     0.5496    11.0457
 1273.0000     0.5492    11.0399
 1273.5000     0.5488    11.0340
 1274.0000     0.5484    11.0282
 1274.5000     0.5480    11.0224
 1275.0000     0.5475    11.0166
 1275.5000     0.5471    11.0108
 1276.0000     0.5358    11.0050
 1276.5000     0.5246    10.9992
 1277.0000     0.5242    10.9934
 1277.5000     0.5129    10.9876
 1278.0000     0.5125    10.9862
 1278.5000     0.5121    10.9884
 1279.0000     0.5008    10.9906
 1279.5000     0.5112    10.9929
 1280.0000     0.5217    10.9951
 1280.5000     0.5111    10.9973
 1281.0000     0.5114    10.9995
 1281.5000     0.5008    11.0017
 1282.0000     0.5011    11.0039
 1282.5000     0.5014    11.0062
 1283.0000     0.5017    11.0084
 1283.5000     0.5019    11.0106
 1284.0000     0.5022    11.0128
 1284.5000     0.4915    11.0150
 1285.0000     0.4919    11.0172
 1285.5000     0.4921    11.0195
 1286.0000     0.4924    11.0217
 1286.5000     0.4927    11.0239
 1287.0000     0.5039    11.0261
 1287.5000     0.5041    11.0283
 1288.0000     0.5044    11.0305
 1288.5000     0.4937    11.0328
 1289.0000     0.4940    11.0350
 1289.5000     0.4943    11.0372
 1290.0000     0.4946    11.0394
 1290.5000     0.4948    11.0416
 1291.0000     0.5060    11.0438
 1291.5000     0.5172    11.0461
 1292.0000     0.5174    11.0483
 1292.5000     0.5286    11.0505
 1293.0000     0.5288    11.0527
 1293.5000     0.5400    11.0549
 1294.0000     0.5402    11.0571
 1294.5000     0.5453    11.0594
 1295.0000     0.6495    11.0616
 1295.5000     0.6388    11.0638
 1296.0000     0.6392    11.0660
 1296.5000     0.6394    11.0682
 1297.0000     0.6397    11.0704
 1297.5000     0.6291    11.0727
 1298.0000     0.6294    11.0749
 1298.5000     0.6296    11.0771
 1299.0000     0.6299    11.0793
 1299.5000     0.6302    11.0815
 1300.0000     0.7283    11.0837
 1300.5000     0.8699    11.0943
 1301.0000     0.8701    11.1077
 1301.5000     0.8813    11.1210
 1302.0000     0.8923    11.1344
 1302.5000     0.6861    11.1477
 1303.0000     0.6864    11.1610
 1303.5000     0.6867    11.1744
 1304.0000     0.6870    11.1877
 1304.5000     0.6873    11.2010
 1305.0000     0.6875    11.2144
 1305.5000     0.6878    11.2277
 1306.0000     0.6771    11.2410
 1306.5000     0.6775    11.2544
 1307.0000     0.6777    11.2677
 1307.5000     0.6671    11.2810
 1308.0000     0.7544    11.2944
 1308.5000     0.7547    11.3077
 1309.0000     0.7658    11.3210
 1309.5000     0.7878    11.3344
 1310.0000     0.5489    11.3477
 1310.5000     0.4730    11.3610
 1311.0000     0.4625    11.3744
 1311.5000     0.4628    11.3877
 1312.0000     0.4630    11.4010
 1312.5000     0.4634    11.4144
 1313.0000     0.4745    11.4277
 1313.5000     0.4748    11.4411
 1314.0000     0.4750    11.4544
 1314.5000     0.4753    11.4677
 1315.0000     0.4864    11.4811
 1315.5000     0.4867    11.4944
 1316.0000     0.4870    11.5077
 1316.5000     0.4873    11.5211
 1317.0000     0.4875    11.5344
 1317.5000     0.4878    11.5477
 1318.0000     0.4881    11.5611
 1318.5000     0.4883    11.5744
 1319.0000     0.4995    11.5877
 1319.5000     0.5106    11.6011
 1320.0000     0.5217    11.6144
 1320.5000     0.4787    11.6277
 1321.0000     0.4792    11.6411
 1321.5000     0.4795    11.6544
 1322.0000     0.4799    11.6677
 1322.5000     0.4803    11.6811
 1323.0000     0.4916    11.6944
 1323.5000     0.4920    11.7077
 1324.0000     0.4924    11.7211
 1324.5000     0.5037    11.7344
 1325.0000     0.5041    11.7478
 1325.5000     0.5154    11.7611
 1326.0000     0.5158    11.7744
 1326.5000     0.5162    11.7878
 1327.0000     0.5166    11.8011
 1327.5000     0.5170    11.8144
 1328.0000     0.5174    11.8278
 1328.5000     0.5069    11.8411
 1329.0000     0.5073    11.8544
 1329.5000     0.5078    11.8678
 1330.0000     0.4973    11.8811
 1330.5000     0.4977    11.8944
 1331.0000     0.4981    11.9078
 1331.5000     0.4985    11.9211
 1332.0000     0.4880    11.9344
 1332.5000     0.4885    11.9478
 1333.0000     0.4889    11.9611
 1333.5000     0.5001    11.9744
 1334.0000     0.5006    11.9878
 1334.5000     0.5119    12.0011
 1335.0000     0.5123    12.0144
 1335.5000     0.5235    12.0278
 1336.0000     0.5239    12.0411
 1336.5000     0.5243    12.0544
 1337.0000     0.5356    12.0678
 1337.5000     0.5360    12.0811
 1338.0000     0.5365    12.0945
 1338.5000     0.5369    12.1078
