~VERSION INFORMATION
 VERS.                2.0:   CWLS LOG ASCII STANDARD - VERSION 2.0
 WRAP.                 NO:   ONE LINE PER DEPTH STEP
~WELL INFORMATION
#MNEM.UNIT      DATA TYPE    INFORMATION
#----------   ------------   ------------------------------
 STRT.F           34.0000:   START DEPTH
 STOP.F          555.0000:   STOP DEPTH
 STEP.F            0.5000:   STEP LENGTH
 NULL.          -999.2500:   NO VALUE
 COMP. FENIX & SCISSON-U.S. NAVY:   COMPANY
 WELL.    NPR #3 #17-S-11:   WELL
 FLD .             TEAPOT:   FIELD
 LOC .      S11 T38N R78W:   LOCATION
 CNTY.            NATRONA:   COUNTY
 STAT.            WYOMING:   STATE
 CTRY. UNITED STATES OF AMERICA:   COUNTRY
 SRVC.       Schlumberger:   SERVICE COMPANY
 DATE.        20-FEB-1977:   LOGDATE
 API .       490251028100:   API NUMBER
~CURVE INFORMATION
#MNEM.UNIT       API CODE    CURVE DESCRIPTION
#----------   ------------   ------------------------------
 DEPT.F                  :   
 SPR .MV     07 010 01 00:   SPONTANEOUS POTENTIAL
 ILD .OHMM   07 120 46 00:   INDUCTION LOG DEEP
 ILM .OHMM   07 120 44 00:   INDUCTION LOG MEDIUM
 LL8 .OHMM   07 220 08 00:   LATEROLOG-8 RES.
 CALD.IN     45 280 60 00:   CALIPER FROM DENSITY LOG
 GRD .GAPI   45 310 01 00:   GAMMA RAY FROM DENSITY LOG
 CORR.G/C3   45 356 01 00:   DENSITY CORRECTION
 RHOB.G/C3   45 350 01 00:   BULK DENSITY
 DPHI.DEC    45 890 12 00:   DENSITY POROSITY SANDSTONE
~PARAMETER INFORMATION
#MNEM.UNIT          VALUE    DESCRIPTION
#----------   ------------   ------------------------------
 PD  .                 GL:   PERMANENT DATUM
 EPD .F              5204:   ELEVATION PERMANENT DATUM
 LMF .                 GL:   LOG MEASURED FROM
 DMF .                 GL:   DRILLING MEASURED FROM
 EKB .F              5209:   KELLING BUSHING
 EGL .F              5204:   GROUND LEVEL
 DATE.        20-FEB-1977:   RUN DATE
 RUN .                  1:   RUN NUMBER
 DD  .F               556:   DEPTH DRILLER
 DL  .F               556:   DEPTH LOGGER
 BLI .F               555:   BOTTOM LOG INTERVAL
 TLI .F                42:   TOP LOG INTERVAL
 CS  .IN            8.625:   CASING SIZE
 CBD .F                42:   CASING BOTTOM DRILLER
 CBL .F                42:   CASING BOTTOM LOGGER
 BS  .IN            7.875:   BIT SIZE
 BSD .F               556:   BIT SIZE AT DEPTH
 DFT .            KCL MUD:   DRILLING FLUID TYPE
 DFD .                8.8:   DRILLING FLUID DENSITY
 DFV .                 33:   DRILLING FLUID VISCOSITY
 DFPH.                8.0:   DRILLING FLUID PH
 DFL .                7.6:   DRILLING FLUID LOSS
 MSS .           FLOWLINE:   MUD SAMPLE SOURCE
 RMS .OHMM            .44:   RESISTIVITY MUD SAMPLE
 MST .F                66:   MUD SAMPLE TEMPERATURE
 RMF .OHMM            .41:   RESISTIVITY MUD FILTRATE SAMPLE
 MFST.F                66:   MUD FILTRATE SAMPLE TEMPERATURE
 MFSS.               MEAS:   MUD FILTRATE SAMPLE SOURCE
 TCS .HRS               3:   TIME CURCULATED STOPPED
 LUN .               7680:   LOGGING UNIT NUMBER
 LUL .               CSPR:   LOGGING UNIT LOCATION
 ENGI.             TAYLOR:   RECORDING ENGINEER
 WITN.               JAPP:   WITNESSED BY
 CLNT.            A2DTECH:   CLIENT CODE
 ORIG.           5" PRINT:   ORIGIN OF DATA
 UWI .       490251028100:   UNIQUE WELL ID
 DICO. A2D Technologies, Inc.:   DIGITIZING COMPANY
~OTHER INFORMATION
~A   DEPT      SPR        ILD        ILM        LL8       CALD        GRD       CORR       RHOB       DPHI   
# ...
  143.5000   -60.1958    10.0425     9.5101    10.5424     8.2942   101.1312     0.0369     2.5049     0.1038
  144.0000   -60.2067    10.0481     9.5729    10.6865     8.2934   101.8100     0.0481     2.4725     0.0971
  144.5000   -60.2193    10.1068     9.7023    10.8331     8.2927   101.7783     0.0368     2.4680     0.1110
  145.0000   -60.2298    10.1743     9.7672    10.9817     8.2919    98.2956     0.0299     2.4982     0.1070
  145.5000   -60.2402    10.3127     9.8318    11.3977     8.2912    95.4751     0.0555     2.5208     0.0936
  146.0000   -60.2507    12.6029     9.8967    15.4931     8.2905    94.7964     0.0424     2.4999     0.0926
  146.5000   -60.2612    13.3181     9.9621    22.2171     8.2897    94.5701     0.0277     2.4749     0.1142
  147.0000   -60.2716    11.5916     9.9579    15.3971     8.2890    92.9864     0.0344     2.4666     0.1061
  147.5000   -60.1275    10.5177    10.0237    11.4346     8.2881    88.4615     0.0178     2.4493     0.1161
  148.0000   -59.9860    10.5149    10.0203    11.1976     8.2873    83.4842     0.0095     2.4667     0.1214
  148.5000   -59.8444    10.5120    10.0168    11.1182     8.3017    77.3756     0.0162     2.5188     0.0980
  149.0000   -59.7052    10.5823    10.0133    11.1159     8.3010    80.9955     0.0252     2.5218     0.0753
  149.5000   -59.7160    10.5793    10.0092    11.1136     8.3155    83.2579     0.0177     2.5022     0.0837
  150.0000   -59.7264    10.5764     9.9288    11.0165     8.3145    85.7466     0.0101     2.4789     0.1046
  150.5000   -59.7356    10.4889     9.8202    10.9013     8.3135    88.3877     0.0239     2.4646     0.1265
  151.0000   -59.7447    10.4262     9.7256    10.7862     8.3124    91.1718     0.0235     2.4548     0.1221
  151.5000   -59.7553    10.3521     9.7224    10.7250     8.3114    92.3009     0.0317     2.4510     0.1141
  152.0000   -59.7642    10.2786     9.7191    10.7221     8.3257    91.8461     0.0182     2.4494     0.1123
  152.5000   -59.6188    10.2056     9.7158    10.7185     8.3398    90.4713     0.0122     2.4510     0.1162
  153.0000   -59.7819    10.0632     9.6455    10.7156     8.3840    90.4842     0.0256     2.4555     0.1181
  153.5000   -59.6366     9.9917     9.5757    10.7128     8.4283    91.6127     0.0151     2.4592     0.1111
  154.0000   -59.6477     9.9897     9.4408    10.7099     8.4121    92.9679     0.0106     2.4637     0.1129
  154.5000   -59.6566     9.9877     9.3078    10.7070     8.3959    95.0019     0.0315     2.4683     0.1153
  155.0000   -59.6654     9.9167     9.2404    10.7041     8.3797    97.4884     0.0262     2.4735     0.1135
  155.5000   -59.5223     9.9147     9.2372    10.7012     8.3785   100.4274     0.0195     2.4788     0.1090
  156.0000   -59.5334     9.9122     9.2335    10.6983     8.3774   103.3663     0.0279     2.4856     0.1027
  156.5000   -59.5423     9.7739     9.1666    10.5478     8.3461   104.0434     0.0359     2.4916     0.0941
  157.0000   -59.7031     9.7045     9.2280    10.3291     8.3148   102.6831     0.0328     2.4984     0.0933
  157.5000   -59.7120     9.6356     9.2241    10.0440     8.2987    97.9298     0.0440     2.5052     0.1063
  158.0000   -59.7209     9.6336     9.2210     9.9728     8.2825    95.6651     0.0530     2.5097     0.0852
  158.5000   -59.7298     9.6317     9.2179    10.1784     8.2663    95.4367     0.0575     2.5104     0.0834
  159.0000   -59.5867     9.6297     9.1512    10.4610     8.2653    95.4585     0.0477     2.5051     0.0996
  159.5000   -59.6094     9.6278     9.1481    10.7515     8.2643    96.1104     0.0259     2.4983     0.1099
  160.0000   -59.7586     9.6258     9.1449    10.8990     8.2632    97.9181     0.0234     2.4908     0.1036
  160.5000   -59.6133     9.6234     9.1412    10.9711     8.2773   101.7621     0.0363     2.4795     0.1011
  161.0000   -59.6244     9.5551     9.1381    10.8924     8.2762   104.7010     0.0263     2.4749     0.1159
  161.5000   -59.4791     9.4872     9.0720    10.8112     8.2750   105.1519     0.0385     2.4734     0.1129
  162.0000   -59.3360     9.4198     9.0689    10.7261     8.2740   102.4342     0.0137     2.4742     0.1135
  162.5000   -59.3471     9.4179     9.0033    10.5860     8.2729   100.8482     0.0189     2.4772     0.1099
  163.0000   -59.2036     9.4160     8.8765    10.4378     8.2719    99.7148     0.0376     2.4832     0.0961
  163.5000   -59.0608     9.3491     8.8122    10.3631     8.2708    98.8076     0.0294     2.4885     0.0909
  164.0000   -59.0699     9.2187     8.6281    10.4329     8.2698    99.9366     0.0510     2.4923     0.0966
  164.5000   -59.0808     9.0841     8.5010    10.4294     8.2688   100.8394     0.0420     2.4930     0.1056
  165.0000   -59.0897     8.8395     8.3282    10.2833     8.2677   100.6109     0.0457     2.4892     0.0954
  165.5000   -59.2505     8.6560     8.2108     9.8628     8.2667    99.9299     0.0532     2.4832     0.0966
  166.0000   -59.2594     8.5352     8.0952     9.5911     8.2657   100.8321     0.0401     2.4749     0.1110
  166.5000   -59.4203     8.3003     7.7631     9.4568     8.2646   102.4142     0.0434     2.4651     0.1065
  167.0000   -59.4291     8.0162     7.3933     9.1958     8.2787   101.2802     0.0186     2.4537     0.1204
  167.5000   -59.5900     7.7956     7.1888     8.6986     8.2774    99.9205     0.0141     2.4560     0.1219
  168.0000   -59.9028     7.7403     7.1368     8.0593     8.2918   101.7283     0.0343     2.4681     0.1092
  168.5000   -59.9119     7.7925     7.1840     7.7302     8.2905   104.4410     0.0462     2.4809     0.1122
  169.0000   -60.0748     7.8479     7.1815     8.1108     8.2894   105.1180     0.0312     2.4876     0.1004
  169.5000   -60.0836     7.9616     7.2793     8.6892     8.2884   104.4365     0.0574     2.4899     0.1006
  170.0000   -60.2445     8.1177     7.6376     9.5698     8.2874   101.7194     0.0566     2.4871     0.1113
  170.5000   -60.2534     8.2865     8.0143     9.9725     8.2863   101.7051     0.0393     2.4710     0.1149
  171.0000   -60.1080     8.4587     8.2366    10.1793     8.2853   101.7149     0.0303     2.4695     0.1152
  171.5000   -60.1191     8.6345     8.2917    10.0906     8.2842   100.4607     0.0398     2.4733     0.1030
  172.0000   -59.9757     8.7532     8.2882     9.7599     8.2832    95.3751     0.0512     2.4831     0.0981
  172.5000   -59.8329     8.7514     8.2854    10.0309     8.2821    89.9430     0.0347     2.4929     0.1047
  173.0000   -59.6898     8.8105     8.2255    10.2384     8.2811    91.2983     0.0639     2.5012     0.1008
  173.5000   -59.5467     8.8087     8.1660    10.3782     8.2798    93.5585     0.0728     2.5072     0.0857
  174.0000   -59.4059     8.8068     8.1068    10.3747     8.2788    96.2712     0.0653     2.5087     0.0806
  174.5000   -59.4147     8.8047     8.0475    10.2294     8.2778    98.7577     0.0660     2.4959     0.0956
  175.0000   -59.2694     8.8645     7.9893     9.8791     8.2767    99.4348     0.0330     2.4536     0.1122
  175.5000   -59.1263     8.9243     7.9866     9.6737     8.2757    97.8483     0.0223     2.4498     0.1200
  176.0000   -59.1374     8.9220     7.9839     9.6711     8.2746    95.1311     0.0451     2.4783     0.1001
  176.5000   -59.1463     8.9822     8.0374     9.7356     8.2736    93.0927     0.0606     2.5041     0.0920
  177.0000   -59.1551     8.9804     8.0905     9.7323     8.2726    93.3167     0.0388     2.4981     0.0932
  177.5000   -59.1641     8.9786     8.1434     9.7978     8.2715    95.1395     0.0253     2.4928     0.1141
  178.0000   -59.1733     8.9768     8.1971     9.8625     8.2705    96.9322     0.0440     2.4875     0.1133
  178.5000   -59.0298     8.9749     8.2558     9.9289     8.2694    93.5358     0.0485     2.4815     0.0947
  179.0000   -59.1929     8.9727     8.3058     9.9951     8.2533    92.6291     0.0274     2.4709     0.1107
  179.5000   -59.2017     8.9709     8.3607    10.0611     8.2369    98.2825     0.0289     2.4626     0.1155
