~VERSION INFORMATION
 VERS.                2.0:   CWLS LOG ASCII STANDARD - VERSION 2.0
 WRAP.                 NO:   ONE LINE PER DEPTH STEP
~WELL INFORMATION
#MNEM.UNIT      DATA TYPE    INFORMATION
#----------   ------------   ------------------------------
 STRT.F         1420.5000:   START DEPTH
 STOP.F         2187.0000:   STOP DEPTH
 STEP.F            0.5000:   STEP LENGTH
 NULL.          -999.2500:   NO VALUE
 COMP. LAWRENCE/ALLISON INC:   COMPANY
 WELL.      22-2 STX #3-3:   WELL
 FLD .            WILDCAT:   FIELD
 LOC .       S3 T38N R78W:   LOCATION
 CNTY.            NATRONA:   COUNTY
 STAT.            WYOMING:   STATE
 CTRY. UNITED STATES OF AMERICA:   COUNTRY
 SRVC.            Unknown:   SERVICE COMPANY
 DATE.        10-JUN-1991:   LOGDATE
 API .       490251103400:   API NUMBER
~CURVE INFORMATION
#MNEM.UNIT       API CODE    CURVE DESCRIPTION
#----------   ------------   ------------------------------
 DEPT.F                  :   
 ROP .MIN/FT 91 810 01 00:   RATE OF DRILLING PENETRATION
 TGAS.UNITS  91 830 01 00:   TOTAL GAS
~PARAMETER INFORMATION
#MNEM.UNIT          VALUE    DESCRIPTION
#----------   ------------   ------------------------------
 EKB .F              5218:   KELLING BUSHING
 EGL .F              5208:   GROUND LEVEL
 DATE.            6-10-91:   RUN DATE
 BLI .F              2187:   BOTTOM LOG INTERVAL
 TLI .F              1420:   TOP LOG INTERVAL
 CS  .IN            8.625:   CASING SIZE
 CBD .F               562:   CASING BOTTOM DRILLER
 TLAB.HRS            0030:   TIME LOGGER AT BOTTOM
 ENGI.              TOWER:   RECORDING ENGINEER
 WITN.               HUSK:   WITNESSED BY
 CLNT.            A2DTECH:   CLIENT CODE
 ORIG.           5" PRINT:   ORIGIN OF DATA
 UWI .       490251103400:   UNIQUE WELL ID
 DICO. A2D Technologies, Inc.:   DIGITIZING COMPANY
~OTHER INFORMATION
~A  DEPT         ROP      TGAS  
# ...
 1542.0000     0.6991     0.0000
 1542.5000     0.6984     0.0000
 1543.0000     0.6976     0.0000
 1543.5000     0.6863     0.0000
 1544.0000     0.6750     0.0000
 1544.5000     0.6636     0.0000
 1545.0000     0.6585     0.0000
 1545.5000     0.6393     0.0000
 1546.0000     0.6195     0.0000
 1546.5000     0.6186     0.0000
 1547.0000     0.6179     0.0000
 1547.5000     0.6171     0.0000
 1548.0000     0.6163     0.0000
 1548.5000     0.6154     0.0000
 1549.0000     0.6253     0.0000
 1549.5000     0.6375     0.0000
 1550.0000     0.6551     0.0000
 1550.5000     0.6787     0.0000
 1551.0000     0.6955     0.0000
 1551.5000     0.7109     0.0000
 1552.0000     0.7359     0.0000
 1552.5000     0.7454     0.0000
 1553.0000     0.7714     0.0000
 1553.5000     0.7756     0.0000
 1554.0000     0.7740     0.0000
 1554.5000     0.7633     0.0000
 1555.0000     0.7461     0.0000
 1555.5000     0.7374     0.0000
 1556.0000     0.7287     0.0000
 1556.5000     0.6973     0.0000
 1557.0000     0.6902     0.0000
 1557.5000     0.6815     0.0000
 1558.0000     0.6740     0.0000
 1558.5000     0.6732     0.0000
 1559.0000     0.6619     0.0000
 1559.5000     0.6507     0.0000
 1560.0000     0.6500     0.0000
 1560.5000     0.6700     0.0000
 1561.0000     0.7006     0.0000
 1561.5000     0.7326     0.0000
 1562.0000     0.7322     0.0000
 1562.5000     0.7318     0.0000
 1563.0000     0.7419     0.0000
 1563.5000     0.7414     0.0000
 1564.0000     0.7456     0.0000
 1564.5000     0.7654     0.0000
 1565.0000     0.8137     0.0000
 1565.5000     0.9076     0.0000
 1566.0000     0.9671     0.0000
 1566.5000     0.8660     0.0000
 1567.0000     0.7702     0.0000
 1567.5000     0.7383     0.0000
 1568.0000     0.7379     0.0000
 1568.5000     0.7641     0.0000
 1569.0000     0.8420     0.0000
 1569.5000     0.9359     0.0000
 1570.0000     0.9415     0.0000
 1570.5000     0.9104     0.0000
 1571.0000     0.8614     0.0000
 1571.5000     0.8085     0.0000
 1572.0000     0.7633     0.0000
 1572.5000     0.7183     0.0000
 1573.0000     0.6711     0.0000
 1573.5000     0.6182     0.0000
 1574.0000     0.6030     0.0000
 1574.5000     0.5966     0.0000
 1575.0000     0.6066     0.0000
 1575.5000     0.6481     0.0000
 1576.0000     0.6972     0.0000
 1576.5000     0.7474     0.0000
 1577.0000     0.7937     0.0000
 1577.5000     0.8143     0.0000
 1578.0000     0.8139     0.0000
 1578.5000     0.8135     0.0000
 1579.0000     0.7922     0.0000
 1579.5000     0.7498     0.0000
 1580.0000     0.7105     0.0000
 1580.5000     0.6615     0.0000
 1581.0000     0.6439     0.0000
 1581.5000     0.6329     0.0000
 1582.0000     0.6326     0.0000
 1582.5000     0.6322     0.0000
 1583.0000     0.6318     0.0000
 1583.5000     0.6418     0.0000
 1584.0000     0.6505     0.0000
 1584.5000     0.6849     0.0000
 1585.0000     0.7141     0.0000
 1585.5000     0.7242     0.0000
 1586.0000     0.7283     0.0000
 1586.5000     0.7339     0.0000
 1587.0000     0.7335     0.0000
 1587.5000     0.7436     0.0000
 1588.0000     0.7582     0.0000
 1588.5000     0.7656     0.0000
 1589.0000     0.7738     0.0000
 1589.5000     0.8048     0.0000
 1590.0000     0.8090     0.0000
 1590.5000     0.8183     0.0000
 1591.0000     0.8352     0.0000
 1591.5000     0.8453     0.0000
 1592.0000     0.8598     0.0000
 1592.5000     0.8760     0.0000
 1593.0000     0.8755     0.0000
 1593.5000     0.8751     0.0000
 1594.0000     0.8747     0.0000
 1594.5000     0.8515     0.0000
 1595.0000     0.8320     0.0000
 1595.5000     0.7896     0.0000
 1596.0000     0.7639     0.0000
 1596.5000     0.7451     0.0000
 1597.0000     0.7361     0.0000
 1597.5000     0.7462     0.0000
 1598.0000     0.7503     0.0000
 1598.5000     0.7701     0.0000
 1599.0000     0.7974     0.0000
 1599.5000     0.8179     0.0000
 1600.0000     0.8368     0.0011
 1600.5000     0.8660     0.0000
 1601.0000     0.8700     0.0000
 1601.5000     0.8714     0.0000
 1602.0000     0.8805     0.0000
 1602.5000     0.8910     0.0000
 1603.0000     0.9015     0.0000
 1603.5000     0.9015     0.0000
 1604.0000     0.9119     0.0000
 1604.5000     0.9119     0.0000
 1605.0000     0.9119     0.0000
 1605.5000     0.9119     0.0000
 1606.0000     0.9119     0.0000
 1606.5000     0.9015     0.0000
 1607.0000     0.9015     0.0000
 1607.5000     0.9037     0.0000
 1608.0000     0.9119     0.0000
 1608.5000     0.8805     0.0000
 1609.0000     0.8494     0.0000
 1609.5000     0.8281     0.0000
 1610.0000     0.8281     0.0000
 1610.5000     0.8281     0.0000
 1611.0000     0.8335     0.0000
 1611.5000     0.8443     0.0000
 1612.0000     0.8595     0.0000
 1612.5000     0.8176     0.0000
 1613.0000     0.7805     0.0000
 1613.5000     0.7411     0.0000
 1614.0000     0.7128     0.0000
 1614.5000     0.7023     0.0000
 1615.0000     0.7083     0.0000
 1615.5000     0.7162     0.0000
 1616.0000     0.7347     0.0000
 1616.5000     0.7442     0.0000
 1617.0000     0.7778     0.0000
 1617.5000     0.7862     0.0000
 1618.0000     0.7862     0.0000
 1618.5000     0.7862     0.0000
 1619.0000     0.7901     0.0000
 1619.5000     0.7676     0.0000
 1620.0000     0.7442     0.0000
 1620.5000     0.7442     0.0000
 1621.0000     0.7862     0.0000
 1621.5000     0.7949     0.0000
 1622.0000     0.8299     0.0000
 1622.5000     0.8386     0.0000
 1623.0000     0.8386     0.0000
 1623.5000     0.8491     0.0000
 1624.0000     0.8491     0.0000
 1624.5000     0.8595     0.0000
 1625.0000     0.8595     0.0000
 1625.5000     0.8645     0.0000
 1626.0000     0.8700     0.0000
 1626.5000     0.8700     0.0000
 1627.0000     0.8700     0.0000
 1627.5000     0.8700     0.0000
 1628.0000     0.8700     0.0000
 1628.5000     0.8700     0.0000
 1629.0000     0.8700     0.0000
 1629.5000     0.8700     0.0000
 1630.0000     0.8700     0.0000
 1630.5000     0.8582     0.0000
 1631.0000     0.8176     0.0000
 1631.5000     0.7803     0.0000
 1632.0000     0.7514     0.0000
 1632.5000     0.7120     0.0000
 1633.0000     0.6918     0.0000
 1633.5000     0.6752     0.0000
 1634.0000     0.6673     0.0000
 1634.5000     0.6604     0.0000
 1635.0000     0.6604     0.0000
 1635.5000     0.6604     0.0000
 1636.0000     0.6604     0.0000
 1636.5000     0.6604     0.0000
 1637.0000     0.6604     0.0000
 1637.5000     0.6604     0.0000
 1638.0000     0.6604     0.0000
 1638.5000     0.6620     0.0000
 1639.0000     0.6918     0.0000
 1639.5000     0.7023     0.0000
 1640.0000     0.6970     0.0000
 1640.5000     0.6812     0.0000
 1641.0000     0.6934     0.0000
 1641.5000     0.7333     0.0000
 1642.0000     0.7898     0.0000
 1642.5000     0.8065     0.0000
 1643.0000     0.8063     0.0000
 1643.5000     0.7957     0.0000
 1644.0000     0.8022     0.0000
 1644.5000     0.8100     0.0000
 1645.0000     0.8492     0.0000
 1645.5000     0.8791     0.0000
 1646.0000     0.9313     0.0000
 1646.5000     0.9356     0.0000
 1647.0000     0.9521     0.0000
 1647.5000     0.9414     0.0000
 1648.0000     0.9413     0.0000
 1648.5000     0.9365     0.0000
 1649.0000     0.9306     0.0000
 1649.5000     0.9304     0.0000
 1650.0000     0.9303     0.0000
 1650.5000     0.9252     0.0000
 1651.0000     0.9148     0.0000
 1651.5000     0.8775     0.0000
 1652.0000     0.8459     0.0000
 1652.5000     0.8458     0.0000
 1653.0000     0.8352     0.0000
 1653.5000     0.8350     0.0000
 1654.0000     0.8349     0.0000
 1654.5000     0.8348     0.0000
 1655.0000     0.8346     0.0000
 1655.5000     0.8341     0.0000
 1656.0000     0.8134     0.0000
 1656.5000     0.7853     0.0000
 1657.0000     0.7404     0.0000
 1657.5000     0.6970     0.0000
 1658.0000     0.6871     0.0000
 1658.5000     0.6765     0.0000
 1659.0000     0.6764     0.0000
 1659.5000     0.6867     0.0000
 1660.0000     0.5922     0.0000
 1660.5000     0.5542     0.0000
 1661.0000     0.5396     0.0000
 1661.5000     0.5526     0.0000
 1662.0000     0.5917     0.0000
 1662.5000     0.6230     0.0000
 1663.0000     0.6229     0.0000
