~VERSION INFORMATION
 VERS.                2.0:   CWLS LOG ASCII STANDARD - VERSION 2.0
 WRAP.                 NO:   ONE LINE PER DEPTH STEP
~WELL INFORMATION
#MNEM.UNIT      DATA TYPE    INFORMATION
#----------   ------------   ------------------------------
 STRT.F           30.0000:   START DEPTH
 STOP.F          597.0000:   STOP DEPTH
 STEP.F            0.5000:   STEP LENGTH
 NULL.          -999.2500:   NO VALUE
 COMP. FENIX & SCISSON-U.S. NAVY:   COMPANY
 WELL.    NPR #3 #15-S-11:   WELL
 FLD .             TEAPOT:   FIELD
 LOC .      S11 T38N R78W:   LOCATION
 CNTY.            NATRONA:   COUNTY
 STAT.            WYOMING:   STATE
 CTRY. UNITED STATES OF AMERICA:   COUNTRY
 SRVC.       Schlumberger:   SERVICE COMPANY
 DATE.        22-FEB-1977:   LOGDATE
 API .       490251028000:   API NUMBER
~CURVE INFORMATION
#MNEM.UNIT       API CODE    CURVE DESCRIPTION
#----------   ------------   ------------------------------
 DEPT.F                  :   
 SPR .MV     07 010 01 00:   SPONTANEOUS POTENTIAL
 ILD .OHMM   07 120 46 00:   INDUCTION LOG DEEP RES
 ILM .OHMM   07 120 44 00:   INDUCTION LOG MEDIUM RES
 LL8 .OHMM   07 220 08 00:   LATEROLOG-8 RES
 CALD.IN     45 280 60 00:   CALIPER FROM DENSITY LOG
 GRD .GAPI   45 310 01 00:   GAMMA RAY FROM DENSITY LOG
 CORR.G/C3   45 356 01 00:   DENSITY CORRECTION
 RHOB.G/C3   45 350 01 00:   BULK DENSITY
 DPHI.DEC    45 890 12 00:   DENSITY POROSITY SANDSTONE
~PARAMETER INFORMATION
#MNEM.UNIT          VALUE    DESCRIPTION
#----------   ------------   ------------------------------
 PD  .                 GL:   PERMANENT DATUM
 EPD .F              5188:   ELEVATION PERMANENT DATUM
 LMF .                 KB:   LOG MEASURED FROM
 DAPD.F                 5:   FEET ABOVE PERMANENT DATUM
 DMF .                 KB:   DRILLING MEASURED FROM
 EKB .F              5193:   KELLING BUSHING
 EGL .F              5188:   GROUND LEVEL
 DATE.         22FEB-1977:   RUN DATE
 RUN .                  1:   RUN NUMBER
 DD  .F               598:   DEPTH DRILLER
 DL  .F               598:   DEPTH LOGGER
 BLI .F               597:   BOTTOM LOG INTERVAL
 TLI .F                35:   TOP LOG INTERVAL
 CS  .IN            8.625:   CASING SIZE
 CBD .F                42:   CASING BOTTOM DRILLER
 CBL .F                45:   CASING BOTTOM LOGGER
 BS  .IN            7.875:   BIT SIZE
 BSD .F               598:   BIT SIZE AT DEPTH
 DFT .                KCL:   DRILLING FLUID TYPE
 DFD .                8.7:   DRILLING FLUID DENSITY
 DFV .                 31:   DRILLING FLUID VISCOSITY
 DFPH.                  8:   DRILLING FLUID PH
 DFL .                7.2:   DRILLING FLUID LOSS
 MSS .           MUD TANK:   MUD SAMPLE SOURCE
 RMS .OHMM           .526:   RESISTIVITY MUD SAMPLE
 MST .F                70:   MUD SAMPLE TEMPERATURE
 RMF .OHMM           .515:   RESISTIVITY MUD FILTRATE SAMPLE
 MFST.F                71:   MUD FILTRATE SAMPLE TEMPERATURE
 RMC .OHMM            .77:   RESISTIVITY MUD CAKE
 MCST.F                70:   MUD CAKE SAMPLE TEMPERATURE
 MFSS.               MEAS:   MUD FILTRATE SAMPLE SOURCE
 MCSS.               CALC:   MUD CAKE SAMPLE SOURCE
 RMB .OHMM            .67:   RESISTIVITY MUD AT BHT
 BHT .F                55:   BOTTOM HOLE TEMPERATURE
 TCS .HRS            0600:   TIME CURCULATED STOPPED
 MRT .F                55:   MAXIMUM RECORDED TEMPERATURE
 LUN .               5642:   LOGGING UNIT NUMBER
 LUL .               CSPR:   LOGGING UNIT LOCATION
 ENGI.                FIX:   RECORDING ENGINEER
 WITN.         STUEBINGER:   WITNESSED BY
 CLNT.            A2DTECH:   CLIENT CODE
 ORIG.           5" PRINT:   ORIGIN OF DATA
 UWI .       490251028000:   UNIQUE WELL ID
 DICO. A2D Technologies, Inc.:   DIGITIZING COMPANY
~OTHER INFORMATION
~A   DEPT      SPR        ILD        ILM        LL8       CALD         GRD      CORR       RHOB       DPHI   
# ...
  103.0000   -72.1508     6.0314     6.2487   153.5137     8.1587   116.5811     0.0090     2.4358     0.1247
  103.5000   -71.5314     5.9495     6.0801   163.3905     8.1598   118.8438     0.0120     2.4418     0.1340
  104.0000   -71.2136     5.9917     6.1241   134.6983     8.1608   121.4068     0.0062     2.4200     0.1441
  104.5000   -70.8959     6.1607     6.2977   124.8737     8.1618   121.1170     0.0075     2.4125     0.1466
  105.0000   -70.5882     6.3344     6.4762   124.9007     8.1629   119.4758     0.0097     2.4171     0.1416
  105.5000   -70.5731     6.5131     6.6598    99.4736     8.1640   119.1833     0.0045     2.4216     0.1394
  106.0000   -70.4072     6.6968     6.8486    54.3011     8.1652   119.7970     0.0030     2.4298     0.1368
  106.5000   -70.2414     6.8382     7.0427    16.3037     8.1663   120.4081     0.0075     2.4381     0.1295
  107.0000   -70.0754     6.9345     7.2926     9.9882     8.1823   123.8720     0.0202     2.4404     0.1282
  107.5000   -70.2115     7.0810     7.5514     9.9903     8.1833   125.0837     0.0225     2.4374     0.1321
  108.0000   -69.8944     7.2306     7.7654    10.2723     8.1843   123.2923     0.0067     2.4329     0.1324
  108.5000   -70.0643     7.3324     7.9856     9.7224     8.1702   119.2487     0.0135     2.4389     0.1282
  109.0000   -71.8011     7.4357     8.2119     9.0757     8.1563   118.6560     0.0210     2.4449     0.1219
  109.5000   -74.8838     7.3856     8.3288     8.9532     8.1576   118.9694     0.0135     2.4404     0.1273
  110.0000   -76.4711     7.2853     8.2168     8.7715     8.1586   119.4303     0.0112     2.4329     0.1258
  110.5000   -76.6069     7.1863     7.9399     8.4757     8.1597   119.5909     0.0172     2.4419     0.1237
  111.0000   -76.3962     7.0399     7.7792     8.0775     8.1607   119.1509     0.0150     2.4314     0.1309
  111.5000   -75.3464     6.8489     7.5692     7.7514     8.1617   116.7590     0.0105     2.4352     0.1336
  112.0000   -74.9020     6.6631     7.2637     7.4900     8.1628   117.8205     0.0180     2.4337     0.1309
  112.5000   -75.2388     6.4377     7.0190     7.2374     8.1638   121.4346     0.0120     2.4292     0.1378
  113.0000   -76.5832     6.2631     6.7824     7.0418     8.1649   122.3460     0.0097     2.4291     0.1381
  113.5000   -77.5988     6.1780     6.5994     6.8514     8.1659   121.0051     0.0135     2.4322     0.1321
  114.0000   -78.3389     6.1364     6.6013     6.7124     8.1670   118.3102     0.0000     2.4375     0.1257
  114.5000   -78.2957     6.1799     6.6952     6.8544     8.1680   118.9239     0.0090     2.4367     0.1296
  115.0000   -78.2775     6.3105     6.8850     6.9993     8.1541   121.0365     0.0112     2.4322     0.1345
  115.5000   -78.7150     6.4437     7.0802     7.1969     8.1399   122.3983     0.0173     2.4314     0.1357
  116.0000   -79.3032     6.6255     7.1309     7.4512     8.1111   122.5786     0.0135     2.4345     0.1293
  116.5000   -79.5936     6.7188     7.0350     7.6615     8.1124   120.3171     0.0120     2.4346     0.1311
  117.0000   -79.4239     6.7665     7.0865     7.6632     8.0982   113.8711     0.0052     2.4330     0.1335
  117.5000   -78.3531     6.8145     7.2873     7.6648     8.0843   112.0798     0.0033     2.4405     0.1320
  118.0000   -78.0364     6.9104     7.6510     7.7196     8.0856   111.6396     0.0284     2.4533     0.1215
  118.5000   -78.0213     6.9115     7.7064     8.2732     8.0714   111.8004     0.0172     2.4503     0.1185
  119.0000   -78.3079     7.0089     7.6549     8.8055     8.0727   112.4115     0.0112     2.4338     0.1353
  119.5000   -78.2928     7.0586     7.5005     8.5675     8.0738   112.8724     0.0096     2.4218     0.1371
  120.0000   -77.9761     7.0597     7.5028     8.1088     8.0748   108.8288     0.0007     2.4150     0.1440
  120.5000   -77.6594     7.0608     7.6095     7.8353     8.0759   109.6002     0.0007     2.4105     0.1476
  121.0000   -77.1919     7.1109     7.7177     7.8913     8.0769   111.4176     0.0039     2.4113     0.1446
  121.5000   -76.7243     7.1120     7.7736     8.3412     8.0780   113.0795     0.0098     2.4218     0.1356
  122.0000   -76.1059     7.1131     7.8298     8.5176     8.0790   114.4365     0.0166     2.4414     0.1274
  122.5000   -75.9400     7.1142     7.8321     8.4025     8.0950   115.6507     0.0082     2.4391     0.1235
  123.0000   -75.9250     7.1153     7.7799     8.2891     8.0960   116.7449    -0.0037     2.4256     0.1295
  123.5000   -75.7591     7.1165     7.7827     8.2338     8.0971   119.6680     0.0052     2.4173     0.1353
  124.0000   -75.2916     7.0685     7.7850     8.3502     8.0981   117.7117    -0.0037     2.4136     0.1452
  124.5000   -74.9748     7.0696     7.7873     8.5268     8.0992   117.4816    -0.0082     2.4121     0.1470
  125.0000   -75.1106     7.0220     7.7354     8.4699     8.1002   119.5943     0.0082     2.4174     0.1416
  125.5000   -75.3972     6.9266     7.5271     8.2410     8.1012   122.3628     0.0142     2.4429     0.1283
  126.0000   -75.6838     6.8326     7.3748     7.9631     8.1172   120.8189     0.0112     2.4323     0.1247
  126.5000   -75.9742     6.7398     7.2756     7.8555     8.1183   120.3789     0.0052     2.4189     0.1373
  127.0000   -76.2608     6.7408     7.2778     7.7495     8.1193   120.6897     0.0015     2.4129     0.1449
  127.5000   -76.5436     6.6493     7.2292     7.6977     8.1353   120.5474     0.0150     2.4236     0.1370
  128.0000   -76.6794     6.5590     7.2319     7.6995     8.1363   123.4133     0.0269     2.4468     0.1265
  128.5000   -76.6643     6.5600     7.2842     7.7545     8.1374   126.2766     0.0292     2.4490     0.1207
  129.0000   -76.4984     6.5158     7.2862     7.8099     8.1384   127.4857     0.0037     2.4285     0.1283
  129.5000   -76.1817     6.5621     7.2883     7.8116     8.1245   124.3456     0.0015     2.4288     0.1376
  130.0000   -75.8650     6.6545     7.2907     7.8132     8.1256   121.3531     0.0195     2.4348     0.1415
  130.5000   -75.5483     6.7017     7.2928     7.7607     8.1266   118.0603     0.0277     2.4385     0.1322
  131.0000   -75.2316     6.7493     7.3456     7.7628     8.1276   116.1162     0.0195     2.4362     0.1311
  131.5000   -75.0657     6.8443     7.3987     7.8183     8.1287   118.3815     0.0075     2.4372     0.1328
  132.0000   -74.8998     6.8454     7.4523     7.9287     8.1148   119.4430     0.0112     2.4454     0.1276
  132.5000   -74.7339     6.8465     7.5062     7.9304     8.1158   119.4535     0.0112     2.4475     0.1231
  133.0000   -74.5680     6.8475     7.4567     7.9321     8.1019   120.5150     0.0037     2.4368     0.1246
  133.5000   -74.5530     6.8014     7.4589     7.8788     8.1030   120.5255    -0.0015     2.4255     0.1303
  134.0000   -74.5379     6.8025     7.4611     7.9355     8.1040   119.9353     0.0120     2.4235     0.1313
  134.5000   -74.5229     6.8507     7.4633     7.9372     8.1050   117.9645     0.0211     2.4413     0.1252
  135.0000   -74.5078     6.8518     7.5173     7.8843     8.1061   115.0002     0.0157     2.4446     0.1234
  135.5000   -74.4927     6.9004     7.5717     7.9956     8.1072   113.5085     0.0135     2.4385     0.1315
  136.0000   -74.6323     6.9494     7.5739     8.1647     8.1234   113.3715     0.0105     2.4416     0.1294
  136.5000   -74.7681     6.9505     7.5761     8.2800     8.1244   112.9289     0.0060     2.4299     0.1306
  137.0000   -75.0509     6.9998     7.6309     8.1682     8.1103   113.5425    -0.0007     2.4171     0.1441
  137.5000   -74.8850     7.0984     7.6332     7.9474     8.1116   119.7092    -0.0022     2.4138     0.1447
  138.0000   -74.8699     7.0995     7.6354     7.8397     8.1126   122.7226     0.0007     2.4203     0.1381
  138.5000   -74.8549     7.1499     7.6377     8.3445     8.1136   124.0845     0.0015     2.4273     0.1339
  139.0000   -74.5382     7.2505     7.6399     8.6395     8.1147   123.7946     0.0015     2.4250     0.1387
