~VERSION INFORMATION
 VERS.                2.0:   CWLS LOG ASCII STANDARD - VERSION 2.0
 WRAP.                 NO:   ONE LINE PER DEPTH STEP
~WELL INFORMATION
#MNEM.UNIT      DATA TYPE    INFORMATION
#----------   ------------   ------------------------------
 STRT.F           12.0000:   START DEPTH
 STOP.F          549.0000:   STOP DEPTH
 STEP.F            0.5000:   STEP LENGTH
 NULL.          -999.2500:   NO VALUE
 COMP. LAWRENCE/ALLISON INC:   COMPANY
 WELL.  58-64-1 SX 3 #3-3:   WELL
 FLD .             TEAPOT:   FIELD
 LOC .       S3 T38N R78W:   LOCATION
 CNTY.            NATRONA:   COUNTY
 STAT.            WYOMING:   STATE
 CTRY. UNITED STATES OF AMERICA:   COUNTRY
 SRVC.      Dresser Atlas:   SERVICE COMPANY
 DATE.        05-DEC-1984:   LOGDATE
 API .       490251117800:   API NUMBER
~CURVE INFORMATION
#MNEM.UNIT       API CODE    CURVE DESCRIPTION
#----------   ------------   ------------------------------
 DEPT.F                  :   
 RFOC.OHMM   07 220 04 00:   RESISTIVITY FOCUSED LOG
 RILD.OHMM   07 120 46 00:   INDUCTION LOG DEEP RESISTIVITY
 RILM.OHMM   07 120 44 00:   INDUCTION LOG MEDIUM RESISTIVITY
 SPR .MV     07 010 01 00:   SPONTANEOUS POTENTIAL
 CALD.IN     45 280 60 00:   CALIPER FROM DENSITY LOG
 CNC .DEC    42 890 03 00:   NEUTRON POROSITY SANDSTONE
 CORR.G/C3   45 356 01 00:   DENSITY CORRECTION
 DEN .G/C3   45 350 01 00:   COMPENSATED BULK DENSTIY
 GRD .GAPI   45 310 01 00:   GAMMA RAY FROM DENSITY LOG
 PORD.DEC    45 890 12 00:   POROSITY DENSITY SANDSTONE
 DT  .US/F   60 520 00 00:   INTERVAL TRANSIT TIME
~PARAMETER INFORMATION
#MNEM.UNIT          VALUE    DESCRIPTION
#----------   ------------   ------------------------------
 PD  .                 GL:   PERMANENT DATUM
 EPD .F              5188:   ELEVATION PERMANENT DATUM
 LMF .                 KB:   LOG MEASURED FROM
 DMF .                 KB:   DRILLING MEASURED FROM
 EGL .F              5188:   GROUND LEVEL
 DATE.         5-DEC-1984:   RUN DATE
 RUN .                  1:   RUN NUMBER
 DD  .F               556:   DEPTH DRILLER
 DL  .F               551:   DEPTH LOGGER
 BLI .F               549:   BOTTOM LOG INTERVAL
 CS  .IN            8.625:   CASING SIZE
 CBD .F                20:   CASING BOTTOM DRILLER
 CBL .F                20:   CASING BOTTOM LOGGER
 BS  .IN            7.875:   BIT SIZE
 BSD .F               556:   BIT SIZE AT DEPTH
 DFT .          KCL WATER:   DRILLING FLUID TYPE
 MSS .           FLOWLINE:   MUD SAMPLE SOURCE
 RMS .OHMM            .36:   RESISTIVITY MUD SAMPLE
 MST .F                70:   MUD SAMPLE TEMPERATURE
 RMF .OHMM            .26:   RESISTIVITY MUD FILTRATE SAMPLE
 MFST.F                70:   MUD FILTRATE SAMPLE TEMPERATURE
 RMC .OHMM            .46:   RESISTIVITY MUD CAKE
 MCST.F                70:   MUD CAKE SAMPLE TEMPERATURE
 MFSS.               CALC:   MUD FILTRATE SAMPLE SOURCE
 MCSS.               CALC:   MUD CAKE SAMPLE SOURCE
 RMB .OHMM            .29:   RESISTIVITY MUD AT BHT
 BHT .F                85:   BOTTOM HOLE TEMPERATURE
 TCS .HRS               3:   TIME CURCULATED STOPPED
 MRT .F               100:   MAXIMUM RECORDED TEMPERATURE
 LUN .               6274:   LOGGING UNIT NUMBER
 LUL .               GLTE:   LOGGING UNIT LOCATION
 ENGI.             RAUTIO:   RECORDING ENGINEER
 WITN.       GROOMS/LUERS:   WITNESSED BY
 CLNT.            A2DTECH:   CLIENT CODE
 ORIG.         2.5" PRINT:   ORIGIN OF DATA
 UWI .       490251117800:   UNIQUE WELL ID
 DICO. A2D Technologies, Inc.:   DIGITIZING COMPANY
~OTHER INFORMATION
~A   DEPT     RFOC       RILD       RILM        SPR       CALD        CNC       CORR        DEN         GRD      PORD         DT   
   12.0000  -999.2500  -999.2500  -999.2500  -999.2500  -999.2500  -999.2500  -999.2500  -999.2500    99.0149  -999.2500  -999.2500
   12.5000  -999.2500  -999.2500  -999.2500  -999.2500  -999.2500  -999.2500  -999.2500  -999.2500    99.0119  -999.2500  -999.2500
   13.0000  -999.2500  -999.2500  -999.2500  -999.2500  -999.2500  -999.2500  -999.2500  -999.2500    99.0089  -999.2500  -999.2500
   13.5000  -999.2500  -999.2500  -999.2500  -999.2500  -999.2500  -999.2500  -999.2500  -999.2500    97.7902  -999.2500  -999.2500
   14.0000  -999.2500  -999.2500  -999.2500  -999.2500  -999.2500     0.2459  -999.2500  -999.2500    96.5714  -999.2500  -999.2500
   14.5000  -999.2500  -999.2500  -999.2500  -999.2500  -999.2500     0.2560  -999.2500  -999.2500    92.8967  -999.2500  -999.2500
   15.0000  -999.2500  -999.2500  -999.2500  -999.2500  -999.2500     0.2613  -999.2500  -999.2500    90.4863  -999.2500  -999.2500
   15.5000  -999.2500  -999.2500  -999.2500  -999.2500  -999.2500     0.2734  -999.2500  -999.2500    89.8754  -999.2500  -999.2500
   16.0000  -999.2500  -999.2500  -999.2500  -999.2500  -999.2500     0.2825  -999.2500  -999.2500    89.7751  -999.2500  -999.2500
   16.5000  -999.2500  -999.2500  -999.2500  -999.2500  -999.2500     0.2885  -999.2500  -999.2500    89.2614  -999.2500  -999.2500
   17.0000  -999.2500  -999.2500  -999.2500  -999.2500  -999.2500     0.2934  -999.2500  -999.2500    87.8885  -999.2500  -999.2500
   17.5000  -999.2500  -999.2500  -999.2500  -999.2500  -999.2500     0.2933  -999.2500  -999.2500    86.6413  -999.2500  -999.2500
   18.0000  -999.2500  -999.2500  -999.2500  -999.2500  -999.2500     0.2914  -999.2500  -999.2500    87.2421  -999.2500  -999.2500
   18.5000  -999.2500  -999.2500  -999.2500  -999.2500  -999.2500     0.2898  -999.2500  -999.2500    95.2878  -999.2500  -999.2500
   19.0000  -999.2500  -999.2500  -999.2500  -999.2500  -999.2500     0.2968  -999.2500  -999.2500   105.1733  -999.2500  -999.2500
   19.5000  -999.2500  -999.2500  -999.2500  -999.2500  -999.2500     0.3103  -999.2500  -999.2500   108.0719  -999.2500  -999.2500
   20.0000     0.8254     5.2355     5.7405   -41.6211     8.1269     0.3182    -0.0420     2.3463   109.0172     0.1627  -999.2500
   20.5000     3.1563     6.1085     5.8089   -45.9367     8.1566     0.3137     0.0684     2.4175   110.6109     0.1248  -999.2500
   21.0000     4.2846     6.5627     6.2254   -49.2401     8.1561     0.3084     0.0693     2.4722   112.3343     0.1227  -999.2500
   21.5000     6.5921    10.1217    26.3717   -51.1986     8.1557     0.3026     0.0441     2.4727   111.1150     0.1233  -999.2500
   22.0000     7.5727  5586.4546  1960.6414   -52.9889     8.1552     0.3015     0.0319     2.4753   109.2883     0.1234  -999.2500
   22.5000     8.9445  9623.4160  1928.9404   -55.0380     8.1548     0.3002     0.0319     2.4749   108.6775     0.1232  -999.2500
   23.0000     9.1549  3818.4624    14.2217   -56.4600     8.1241     0.2948     0.0319     2.4738   109.2824     0.1221  -999.2500
   23.5000     7.5623    33.6497    10.6133   -58.0111     8.1237     0.2851     0.0198     2.4815   109.8875     0.1173  -999.2500
   24.0000     7.6647     7.4618    11.0602   -59.8784     8.1232     0.2828     0.0167     2.4887   107.4528     0.1129   182.9820
   24.5000     7.9878     8.6209    11.8512   -61.8891     8.1228     0.2853     0.0260     2.4920   108.0577     0.1098   182.3516
   25.0000     8.3244     9.7687    12.1797   -63.4499     8.1224     0.2864     0.0319     2.4920   111.0942     0.1077   181.6521
   25.5000     8.9201     8.9843    12.3450   -64.4522     8.1219     0.2833     0.0311     2.4905   113.5229     0.1096   178.2474
   26.0000     9.5583     6.5224     9.7394   -64.4641     8.1214     0.2809     0.0192     2.4890   114.1278     0.1120   138.6214
   26.5000     9.8235     7.0887     7.6634   -64.1721     8.1210     0.2784     0.0137     2.4875   110.7447     0.1132   126.9782
   27.0000     9.9576     7.2872     7.7881   -62.9683     8.1508     0.2801     0.0206     2.4905   108.6507     0.1134   114.8748
   27.5000    10.0966     7.3876     7.7843   -59.3329     8.1503     0.2849     0.0349     2.4936   112.3961     0.1115   109.6870
   28.0000    10.2376     7.1831     7.6730   -57.8251     8.1498     0.2898     0.0547     2.4997   117.8359     0.1085   108.2775
   28.5000    10.5259     7.0822     7.5632   -57.2291     8.1494     0.2905     0.0727     2.5057   120.7999     0.1042   106.9057
   29.0000    10.8036     7.2804     7.6654   -56.6332     8.1489     0.2883     0.0761     2.5103   116.6950     0.1000   106.1900
   29.5000    10.9500     7.6953     7.9882   -56.6452     8.1358     0.2818     0.0512     2.5118   115.9301     0.0969   106.4020
   30.0000    10.9445     7.9106     7.9843   -56.6571     8.1178     0.2764     0.0159     2.5149   115.9270     0.0939   108.5219
   30.5000    10.9395     7.9125     8.0922   -56.6691     8.1174     0.2746     0.0132     2.5149   114.3961     0.0942   110.8077
   31.0000    10.8975     8.0178     8.0881   -56.6811     8.1169     0.2842     0.0319     2.5119   111.8602     0.0968   111.7738
   31.5000    10.7783     8.0159     8.0841   -56.6930     8.1164     0.2927     0.0380     2.5121   107.4067     0.0989   111.6048
   32.0000    10.6245     8.0140     8.0674   -56.7052     8.1159     0.3036     0.0441     2.5149   106.1879     0.0977   110.6367
   32.5000    10.4246     8.1246     7.9645   -56.7173     8.1155     0.3078     0.0380     2.5111   108.6166     0.0986   109.8832
   33.0000    10.1807     8.0103     7.9606   -56.7295     8.1150     0.3054     0.0258     2.5049   112.8689     0.1009   109.4315
   33.5000     9.9809     8.0084     7.9566   -56.7416     8.1146     0.2939     0.0198     2.4987   117.7292     0.1050   108.9798
   34.0000     9.8921     8.0066     7.9527   -56.7538     8.1142     0.2854     0.0106     2.4925   121.9815     0.1087   108.8296
   34.5000     9.8258     8.0047     7.9487   -56.7660     8.1137     0.2831     0.0076     2.4863   122.6555     0.1128   109.1321
   35.0000     9.7464     8.0029     7.9448   -56.7781     8.1133     0.2872     0.0264     2.4831   117.1124     0.1160   109.4345
   35.5000     9.7419     8.0010     7.9408   -56.7903     8.1128     0.2919     0.0450     2.4792   109.8146     0.1173   109.7369
   36.0000     9.7374     7.9992     7.9369   -56.8875     8.1124     0.2951     0.0606     2.4755   111.7001     0.1185   110.0393
   36.5000     9.7329     7.8868     7.9329   -57.1185     8.1422     0.2981     0.0720     2.4755   115.9767     0.1209   109.8892
   37.0000     9.7275     7.8850     7.9290   -57.1307     8.1417     0.2972     0.0692     2.4751   118.3163     0.1216   109.4375
   37.5000     9.7230     7.7742     7.9250   -57.2568     8.1412     0.2878     0.0484     2.4755   116.2867     0.1186   109.1366
   38.0000     9.7186     7.7724     7.9211   -57.4590     8.1408     0.2809     0.0380     2.4786   113.7953     0.1125   109.4389
   38.5000     9.7141     7.8795     8.0281   -57.6044     8.1403     0.2803     0.0392     2.4847   111.4620     0.1077   110.1938
   39.0000     9.7097     7.8773     8.0241   -57.9301     8.1399     0.2818     0.0441     2.4877   108.9990     0.1028   110.0438
   39.5000     9.7053     7.8755     8.0201   -58.2558     8.1394     0.2845     0.0486     2.4968   106.5360     0.1068   109.5920
   40.0000     9.7008     7.9843     8.0161   -58.4195     8.1390     0.2882     0.0518     2.4938   106.1398     0.1141   109.4419
   40.5000     9.6964     7.9822     8.1244   -58.9073     8.1385     0.2906     0.0562     2.4845   108.4387     0.1177   110.0535
   41.0000     9.6920     7.8701     8.2334   -59.6620     8.1079     0.2930     0.0441     2.4786   114.0284     0.1193   110.6652
   41.5000     9.6875     7.7596     8.3446   -59.9779     8.1074     0.2900     0.0228     2.4786   114.2644     0.1173   111.2542
   42.0000     9.6831     7.7578     8.1117   -60.9017     8.1069     0.2858     0.0106     2.4789   109.1671     0.1163   110.9231
