~VERSION INFORMATION
 VERS.                2.0:   CWLS LOG ASCII STANDARD - VERSION 2.0
 WRAP.                 NO:   ONE LINE PER DEPTH STEP
~WELL INFORMATION
#MNEM.UNIT      DATA TYPE    INFORMATION
#----------   ------------   ------------------------------
 STRT.F          250.0000:   START DEPTH
 STOP.F         2527.0000:   STOP DEPTH
 STEP.F            0.5000:   STEP LENGTH
 NULL.          -999.2500:   NO VALUE
 COMP. FENIX & SCISSON INC:   COMPANY
 WELL.       NPR 3 #18-28:   WELL
 FLD .            WILDCAT:   FIELD
 LOC .      S28 T39N R78W:   LOCATION
 CNTY.            NATRONA:   COUNTY
 STAT.            WYOMING:   STATE
 CTRY. UNITED STATES OF AMERICA:   COUNTRY
 SRVC.            Unknown:   SERVICE COMPANY
 DATE.        01-MAY-1979:   LOGDATE
 API .       490251078000:   API NUMBER
~CURVE INFORMATION
#MNEM.UNIT       API CODE    CURVE DESCRIPTION
#----------   ------------   ------------------------------
 DEPT.F                  :   
 CORR.G/C3   45 356 01 00:   DENSITY CORRECTION
 DPHI.DEC    45 890 12 00:   DENSITY POROSITY SANDSTONE
 RHOB.G/C3   45 350 01 00:   BULK DENSITY
 CALD.IN     45 280 60 00:   CALIPER FROM DENSITY LOG
 GRD .GAPI   45 310 01 00:   GAMMA RAY FROM DENSITY LOG
~PARAMETER INFORMATION
#MNEM.UNIT          VALUE    DESCRIPTION
#----------   ------------   ------------------------------
 PD  .                 GL:   PERMANENT DATUM
 EPD .F              5079:   ELEVATION PERMANENT DATUM
 LMF .                 KB:   LOG MEASURED FROM
 DAPD.F                10:   FEET ABOVE PERMANENT DATUM
 DMF .                 KB:   DRILLING MEASURED FROM
 EKB .F              5089:   KELLING BUSHING
 EGL .F              5079:   GROUND LEVEL
 DATE.             5-1-79:   RUN DATE
 RUN .                  1:   RUN NUMBER
 DL  .F              2527:   DEPTH LOGGER
 BLI .F              2527:   BOTTOM LOG INTERVAL
 TLI .F               250:   TOP LOG INTERVAL
 CS  .IN            9.625:   CASING SIZE
 CBD .F               500:   CASING BOTTOM DRILLER
 CBL .F               495:   CASING BOTTOM LOGGER
 BS  .IN             8.75:   BIT SIZE
 DFT .                AIR:   DRILLING FLUID TYPE
 TCS .HRS              12:   TIME CURCULATED STOPPED
 LUL .             CASPER:   LOGGING UNIT LOCATION
 ENGI.         B. ROLLINS:   RECORDING ENGINEER
 WITN.           DINSMORE:   WITNESSED BY
 CLNT.            A2DTECH:   CLIENT CODE
 ORIG.           5" PRINT:   ORIGIN OF DATA
 UWI .       490251078000:   UNIQUE WELL ID
 DICO. A2D Technologies, Inc.:   DIGITIZING COMPANY
~OTHER INFORMATION
~A   DEPT     CORR       DPHI       RHOB       CALD         GRD  
# ...
  616.0000     0.0368     0.0521     2.4705     9.3925   110.4202
  616.5000     0.0367     0.0582     2.4573     9.4018   108.4336
  617.0000     0.0371     0.0601     2.4586     9.4111   109.2431
  617.5000     0.0467     0.0476     2.4746     9.4224   110.0819
  618.0000     0.0542     0.0441     2.4818     9.4561   110.6786
  618.5000     0.0613     0.0510     2.4782     9.4897   109.5799
  619.0000     0.0669     0.0514     2.4746     9.5164   108.2544
  619.5000     0.0754     0.0498     2.4716     9.5220   106.8664
  620.0000     0.1182     0.0389     2.4850     9.5280   106.5285
  620.5000     0.1734     0.0238     2.5247     9.5338   107.1699
  621.0000     0.2083     0.0088     2.5620     9.5340   108.0151
  621.5000     0.1509     0.0006     2.5612     9.5340   108.8639
  622.0000     0.0838     0.0532     2.4800     9.5340   109.7114
  622.5000     0.0640     0.0514     2.4624     9.5335   110.4667
  623.0000     0.1344     0.0265     2.5298     9.5288   109.9159
  623.5000     0.1988    -0.0012     2.5789     9.5242   108.2880
  624.0000     0.1968    -0.0176     2.5920     9.5196   106.6758
  624.5000     0.1562    -0.0044     2.5899     9.5149   105.1937
  625.0000     0.1298     0.0260     2.5347     9.5103   105.1692
  625.5000     0.1495     0.0268     2.5023     9.5057   105.5728
  626.0000     0.1874     0.0272     2.5192     9.5011   106.0194
  626.5000     0.2253     0.0122     2.5587     9.4965   106.4782
  627.0000     0.2637    -0.0164     2.5903     9.4918   106.1663
  627.5000     0.2763    -0.0004     2.5703     9.4872   105.6964
  628.0000     0.2745     0.0022     2.5449     9.4826   105.8066
  628.5000     0.2608    -0.0294     2.6170     9.4780   107.9094
  629.0000     0.2101    -0.0303     2.6037     9.4733   110.0721
  629.5000     0.1497     0.0245     2.5350     9.4687   110.0204
  630.0000     0.1010     0.0430     2.4825     9.4640   106.1392
  630.5000     0.1010     0.0331     2.4848     9.4597   103.5931
  631.0000     0.1191     0.0368     2.4982     9.4577   103.2097
  631.5000     0.1362     0.0415     2.5144     9.4376   103.5911
  632.0000     0.1613     0.0173     2.5332     9.4370   104.1349
  632.5000     0.0881     0.0514     2.4883     9.4368   104.6683
  633.0000     0.1277     0.0394     2.4706     9.4369   105.2002
  633.5000     0.1666     0.0168     2.5504     9.4369   105.5332
  634.0000     0.1699     0.0090     2.5300     9.4369   105.0562
  634.5000     0.1106     0.0406     2.4872     9.4369   104.6068
  635.0000     0.0629     0.0601     2.4520     9.4369   104.1623
  635.5000     0.0663     0.0494     2.4540     9.4369   103.5885
  636.0000     0.0703     0.0339     2.4859     9.4369   104.6025
  636.5000     0.0708     0.0345     2.5055     9.4369   105.1567
  637.0000     0.0585     0.0426     2.4931     9.4369   104.7337
  637.5000     0.0501     0.0427     2.4831     9.4369   104.2505
  638.0000     0.0532     0.0414     2.4848     9.4370   103.7663
  638.5000     0.0761     0.0304     2.5086     9.4306   103.4057
  639.0000     0.0995     0.0196     2.5350     9.4212   104.2743
  639.5000     0.1015     0.0125     2.5413     9.4117   105.9104
  640.0000     0.0987     0.0125     2.5181     9.4021   107.5291
  640.5000     0.0982     0.0133     2.5028     9.3926   109.1378
  641.0000     0.0983     0.0243     2.5347     9.3831   109.9354
  641.5000     0.0931     0.0296     2.5127     9.3735   109.6397
  642.0000     0.0924     0.0240     2.4996     9.3640   110.6963
  642.5000     0.1104     0.0153     2.5245     9.3545   111.8919
  643.0000     0.1111     0.0257     2.5315     9.3449   112.5839
  643.5000     0.1002     0.0359     2.5026     9.3354   111.2791
  644.0000     0.0956     0.0328     2.4986     9.3259   109.8664
  644.5000     0.0875     0.0268     2.5258     9.3164   108.4524
  645.0000     0.0741     0.0232     2.5244     9.3068   107.0518
  645.5000     0.0573     0.0378     2.4962     9.2973   106.1727
  646.0000     0.0412     0.0454     2.4750     9.2878   107.4433
  646.5000     0.0424     0.0470     2.4733     9.2782   108.7429
  647.0000     0.0509     0.0447     2.4834     9.2688   108.3129
  647.5000     0.0591     0.0411     2.4973     9.2620   105.7941
  648.0000     0.0645     0.0383     2.4891     9.2621   103.3166
  648.5000     0.0599     0.0432     2.4739     9.2622   103.3337
  649.0000     0.0551     0.0484     2.4697     9.2619   104.1036
  649.5000     0.0502     0.0536     2.4668     9.2607   108.4342
  650.0000     0.0488     0.0588     2.4583     9.2808   113.0684
  650.5000     0.0561     0.0605     2.4496     9.2836   115.7738
  651.0000     0.0608     0.0601     2.4493     9.3007   115.8487
  651.5000     0.0820     0.0512     2.4676     9.3176   112.6062
  652.0000     0.1046     0.0415     2.4871     9.3346   109.7856
  652.5000     0.0839     0.0532     2.4721     9.3516   110.1700
  653.0000     0.0580     0.0632     2.4536     9.3686   112.8102
  653.5000     0.0425     0.0569     2.4543     9.3856   115.4913
  654.0000     0.0700     0.0385     2.4872     9.4026   118.1662
  654.5000     0.1135     0.0156     2.5363     9.4195   117.8434
  655.0000     0.1572    -0.0069     2.5772     9.4366   114.0479
  655.5000     0.1289     0.0244     2.5361     9.4537   110.7433
  656.0000     0.0729     0.0403     2.4873     9.4563   107.4423
  656.5000     0.0796     0.0349     2.5006     9.4565   104.1841
  657.0000     0.0950     0.0306     2.5133     9.4589   103.1874
  657.5000     0.0901     0.0284     2.5095     9.4614   104.0360
  658.0000     0.0770     0.0466     2.4853     9.4638   105.3417
  658.5000     0.0808     0.0458     2.4825     9.4663   106.6389
  659.0000     0.0964     0.0379     2.4934     9.4687   107.9325
  659.5000     0.1118     0.0299     2.5111     9.4712   109.2274
  660.0000     0.1272     0.0219     2.5282     9.4736   110.5199
  660.5000     0.1146     0.0149     2.5386     9.4760   111.8034
  661.0000     0.0822     0.0300     2.5165     9.4785   112.3661
  661.5000     0.0504     0.0511     2.4668     9.4809   111.1639
  662.0000     0.0405     0.0440     2.4850     9.4833   109.8686
  662.5000     0.0953     0.0303     2.5175     9.4858   108.5676
  663.0000     0.0738     0.0260     2.5091     9.4882   107.2784
  663.5000     0.0531     0.0317     2.4945     9.4907   107.1575
  664.0000     0.0446     0.0379     2.4893     9.4931   107.2520
  664.5000     0.0477     0.0440     2.4910     9.4956   107.9106
  665.0000     0.0513     0.0454     2.4931     9.4980   108.9065
  665.5000     0.0567     0.0405     2.4921     9.5004   109.9697
  666.0000     0.0600     0.0363     2.4903     9.5029   113.1468
  666.5000     0.0645     0.0374     2.4906     9.5053   116.9284
  667.0000     0.0814     0.0387     2.4934     9.5077   120.0577
  667.5000     0.1205     0.0203     2.5181     9.5102   120.9366
  668.0000     0.1596     0.0018     2.5538     9.5126   121.8055
  668.5000     0.1948    -0.0063     2.5660     9.5156   123.6951
  669.0000     0.1933    -0.0091     2.5740     9.5211   128.5642
  669.5000     0.1584    -0.0078     2.5813     9.5265   133.3025
  670.0000     0.1203     0.0110     2.5794     9.5319   133.6807
  670.5000     0.0823     0.0298     2.5390     9.5373   124.9958
  671.0000     0.0621     0.0332     2.4946     9.5427   115.1742
  671.5000     0.0907     0.0327     2.5085     9.5482   110.7553
  672.0000     0.1265     0.0205     2.5311     9.5535   113.7003
  672.5000     0.1420     0.0133     2.5412     9.5521   119.7350
  673.0000     0.1379     0.0161     2.5363     9.5176   125.2434
  673.5000     0.1335     0.0161     2.5322     9.4830   125.6256
  674.0000     0.1320     0.0111     2.5385     9.4486   123.3230
  674.5000     0.1353     0.0061     2.5487     9.4142   120.5661
  675.0000     0.1361     0.0010     2.5590     9.3801   117.7839
  675.5000     0.1200    -0.0017     2.5630     9.3470   117.6979
  676.0000     0.0981     0.0103     2.5283     9.3163   123.7895
  676.5000     0.0842     0.0284     2.5032     9.3010   130.6104
