~VERSION INFORMATION
 VERS.                2.0:   CWLS LOG ASCII STANDARD - VERSION 2.0
 WRAP.                 NO:   ONE LINE PER DEPTH STEP
~WELL INFORMATION
#MNEM.UNIT      DATA TYPE    INFORMATION
#----------   ------------   ------------------------------
 STRT.F         1050.0000:   START DEPTH
 STOP.F         2592.5000:   STOP DEPTH
 STEP.F            0.5000:   STEP LENGTH
 NULL.          -999.2500:   NO VALUE
 COMP. LAWRENCE/ALLISON INC:   COMPANY
 WELL. NAVAL PETROLEUM RESERVE 3 X15 #34-15:   WELL
 FLD .            WILDCAT:   FIELD
 LOC .      S15 T38N R78W:   LOCATION
 CNTY.            NATRONA:   COUNTY
 STAT.            WYOMING:   STATE
 CTRY. UNITED STATES OF AMERICA:   COUNTRY
 SRVC.            Unknown:   SERVICE COMPANY
 DATE.        07-AUG-1988:   LOGDATE
 API .       490251125500:   API NUMBER
~CURVE INFORMATION
#MNEM.UNIT       API CODE    CURVE DESCRIPTION
#----------   ------------   ------------------------------
 DEPT.F                  :   
 ROP .MIN/FT 91 810 01 00:   RATE OF DRILLING PENETRATION
 TGAS.UNITS  91 830 01 00:   TOTAL GAS FROM HOTWIRE
~PARAMETER INFORMATION
#MNEM.UNIT          VALUE    DESCRIPTION
#----------   ------------   ------------------------------
 EKB .F              5286:   KELLING BUSHING
 EGL .F              5276:   GROUND LEVEL
 DATE.           9-7-1988:   RUN DATE
 RUN .                  1:   RUN NUMBER
 DD  .F              2592:   DEPTH DRILLER
 CBD .F              1044:   CASING BOTTOM DRILLER
 ENGI.               HUSK:   RECORDING ENGINEER
 CLNT.            A2DTECH:   CLIENT CODE
 ORIG.           5" PRINT:   ORIGIN OF DATA
 UWI .       490251125500:   UNIQUE WELL ID
 DICO. A2D Technologies, Inc.:   DIGITIZING COMPANY
~OTHER INFORMATION
~A  DEPT         ROP     TGAS   
# ...
 1293.0000     0.5723     5.7821
 1293.5000     0.5723     5.7821
 1294.0000     0.5713     5.7821
 1294.5000     0.5990     5.7821
 1295.0000     0.6305     5.7821
 1295.5000     0.6618     5.7821
 1296.0000     0.6849     5.7821
 1296.5000     0.6981     5.7822
 1297.0000     0.6980     5.7825
 1297.5000     0.6979     5.7803
 1298.0000     0.6880     5.7281
 1298.5000     0.6464     5.6757
 1299.0000     0.6060     5.6236
 1299.5000     0.5656     5.5717
 1300.0000     0.5251     5.5197
 1300.5000     0.4847     5.4677
 1301.0000     0.4444     5.4158
 1301.5000     0.4040     5.3638
 1302.0000     0.3850     5.3118
 1302.5000     0.3872     5.2599
 1303.0000     0.3894     5.2079
 1303.5000     0.3918     5.1559
 1304.0000     0.3941     5.1039
 1304.5000     0.3966     5.0520
 1305.0000     0.4054     5.0000
 1305.5000     0.4140     4.9480
 1306.0000     0.4204     4.8961
 1306.5000     0.4003     4.8441
 1307.0000     0.3806     4.7905
 1307.5000     0.3715     4.7768
 1308.0000     0.4275     4.7764
 1308.5000     0.4905     4.7765
 1309.0000     0.5541     4.7765
 1309.5000     0.6197     4.7765
 1310.0000     0.6021     4.7765
 1310.5000     0.5598     4.7765
 1311.0000     0.5173     4.7765
 1311.5000     0.4737     4.7765
 1312.0000     0.4726     4.7765
 1312.5000     0.4590     4.7765
 1313.0000     0.4594     4.7765
 1313.5000     0.4603     4.7765
 1314.0000     0.4365     4.7765
 1314.5000     0.4169     4.7764
 1315.0000     0.3970     4.7759
 1315.5000     0.3765     4.7793
 1316.0000     0.3870     4.8457
 1316.5000     0.4182     4.9099
 1317.0000     0.4497     4.9735
 1317.5000     0.4812     5.0370
 1318.0000     0.5092     5.1005
 1318.5000     0.5095     5.1640
 1319.0000     0.5094     5.2275
 1319.5000     0.5095     5.2910
 1320.0000     0.5145     5.3546
 1320.5000     0.5339     5.4181
 1321.0000     0.5527     5.4816
 1321.5000     0.5713     5.5451
 1322.0000     0.5821     5.6087
 1322.5000     0.5688     5.6722
 1323.0000     0.5564     5.7357
 1323.5000     0.5468     5.7992
 1324.0000     0.5562     5.8627
 1324.5000     0.5694     5.9262
 1325.0000     0.5813     5.9898
 1325.5000     0.6178     6.0533
 1326.0000     0.6491     6.1170
 1326.5000     0.6604     6.1805
 1327.0000     0.6647     6.2433
 1327.5000     0.6690     6.2557
 1328.0000     0.6737     6.1667
 1328.5000     0.6486     6.0794
 1329.0000     0.6191     5.9921
 1329.5000     0.5892     5.9047
 1330.0000     0.5605     5.8174
 1330.5000     0.5596     5.7301
 1331.0000     0.5597     5.6427
 1331.5000     0.5597     5.5554
 1332.0000     0.5506     5.4681
 1332.5000     0.5261     5.3805
 1333.0000     0.5018     5.2936
 1333.5000     0.4771     5.2617
 1334.0000     0.4784     5.2407
 1334.5000     0.4971     5.2198
 1335.0000     0.5053     5.1989
 1335.5000     0.4924     5.1779
 1336.0000     0.4844     5.1570
 1336.5000     0.4974     5.1360
 1337.0000     0.5429     5.1150
 1337.5000     0.5867     5.0941
 1338.0000     0.6303     5.0731
 1338.5000     0.6611     5.0522
 1339.0000     0.6605     5.0312
 1339.5000     0.6601     5.0103
 1340.0000     0.6343     4.9893
 1340.5000     0.6055     4.9683
 1341.0000     0.5845     4.9474
 1341.5000     0.5845     4.9264
 1342.0000     0.6013     4.9054
 1342.5000     0.6462     4.8845
 1343.0000     0.6883     4.8635
 1343.5000     0.7301     4.8426
 1344.0000     0.7728     4.8214
 1344.5000     0.8259     4.8009
 1345.0000     0.8864     4.7858
 1345.5000     0.9468     4.6125
 1346.0000     1.0073     4.4215
 1346.5000     1.0677     4.2284
 1347.0000     1.1271     4.0360
 1347.5000     1.1512     3.8412
 1348.0000     1.1291     3.8129
 1348.5000     1.0946     3.8777
 1349.0000     1.0600     3.9434
 1349.5000     1.0246     4.0094
 1350.0000     0.9697     4.0753
 1350.5000     0.9142     4.1411
 1351.0000     0.8588     4.2069
 1351.5000     0.8034     4.2737
 1352.0000     0.7472     4.3507
 1352.5000     0.7360     4.4289
 1353.0000     0.7357     4.5071
 1353.5000     0.7364     4.5853
 1354.0000     0.7166     4.6633
 1354.5000     0.6918     4.7416
 1355.0000     0.6667     4.7681
 1355.5000     0.6404     4.7540
 1356.0000     0.6596     4.7397
 1356.5000     0.6918     4.7252
 1357.0000     0.7244     4.7107
 1357.5000     0.7570     4.6962
 1358.0000     0.7904     4.6818
 1358.5000     0.7845     4.6673
 1359.0000     0.7580     4.6529
 1359.5000     0.7312     4.6384
 1360.0000     0.7044     4.6240
 1360.5000     0.6851     4.6095
 1361.0000     0.6856     4.5950
 1361.5000     0.6858     4.5806
 1362.0000     0.6844     4.5661
 1362.5000     0.6575     4.5517
 1363.0000     0.6316     4.5372
 1363.5000     0.6058     4.5227
 1364.0000     0.5788     4.5083
 1364.5000     0.5924     4.4938
 1365.0000     0.6203     4.4794
 1365.5000     0.6487     4.4649
 1366.0000     0.6780     4.4504
 1366.5000     0.6838     4.4360
 1367.0000     0.6818     4.4215
 1367.5000     0.6795     4.4071
 1368.0000     0.6772     4.3926
 1368.5000     0.6749     4.3781
 1369.0000     0.6730     4.3637
 1369.5000     0.6731     4.3492
 1370.0000     0.6899     4.3348
 1370.5000     0.7236     4.3203
 1371.0000     0.7571     4.3059
 1371.5000     0.7909     4.2913
 1372.0000     0.8250     4.2742
 1372.5000     0.8601     4.3537
 1373.0000     0.8549     4.4550
 1373.5000     0.8468     4.5574
 1374.0000     0.8388     4.6596
 1374.5000     0.8309     4.7617
 1375.0000     0.8240     4.8638
 1375.5000     0.8240     4.9658
 1376.0000     0.8420     5.0681
 1376.5000     0.8779     5.1715
 1377.0000     0.9138     5.2744
 1377.5000     0.9497     5.2065
 1378.0000     0.9746     5.1260
 1378.5000     0.9531     5.0461
 1379.0000     0.9329     4.9665
 1379.5000     0.9129     4.8868
 1380.0000     0.8922     4.8072
 1380.5000     0.8869     4.7276
 1381.0000     0.8867     4.6480
 1381.5000     0.8869     4.5683
 1382.0000     0.8792     4.4880
 1382.5000     0.8682     4.4044
 1383.0000     0.8572     4.3309
 1383.5000     0.8489     4.5278
 1384.0000     0.8492     4.9964
 1384.5000     0.8645     6.4375
 1385.0000     0.8982     8.0801
 1385.5000     0.9318     9.7249
 1386.0000     0.9655    11.3742
 1386.5000     0.9993    13.0357
 1387.0000     1.0330    14.7666
 1387.5000     1.0666    15.6017
 1388.0000     1.1006    16.3349
 1388.5000     1.1131    16.3558
 1389.0000     1.1132    16.6161
 1389.5000     1.1132    16.8401
 1390.0000     1.1133    16.8006
 1390.5000     1.1200    16.7586
 1391.0000     1.1569    16.7179
 1391.5000     1.1937    16.6773
 1392.0000     1.1756    16.6368
 1392.5000     1.1065    16.5962
 1393.0000     1.0377    16.5557
 1393.5000     0.9694    16.5151
 1394.0000     0.9122    16.4746
 1394.5000     0.9226    16.4341
 1395.0000     0.9197    16.3935
 1395.5000     0.9160    16.3526
 1396.0000     0.9116    16.2999
 1396.5000     0.8788    16.2414
 1397.0000     0.8432    16.1829
 1397.5000     0.8077    16.1245
 1398.0000     0.7723    16.0660
 1398.5000     0.7367    16.0075
 1399.0000     0.6973    15.9510
 1399.5000     0.6859    15.8998
 1400.0000     0.7051    15.7949
 1400.5000     0.7441    14.7662
 1401.0000     0.7831    13.7718
 1401.5000     0.8215    12.7899
 1402.0000     0.8408    11.8090
 1402.5000     0.8062    11.3417
 1403.0000     0.7731    11.3885
 1403.5000     0.7401    11.4350
 1404.0000     0.7119    11.4850
 1404.5000     0.7345    11.5347
 1405.0000     0.7570    11.5840
 1405.5000     0.7792    11.6333
 1406.0000     0.7975    11.6826
 1406.5000     0.7728    11.7318
 1407.0000     0.7484    11.7811
 1407.5000     0.7242    11.8304
 1408.0000     0.6992    11.8797
 1408.5000     0.7064    11.9290
 1409.0000     0.7160    11.9783
 1409.5000     0.7256    12.0276
 1410.0000     0.7354    12.0769
 1410.5000     0.7257    12.1262
 1411.0000     0.7141    12.1755
 1411.5000     0.6985    12.2253
 1412.0000     0.6809    12.2761
 1412.5000     0.6634    12.3092
 1413.0000     0.6481    12.0997
 1413.5000     0.6532    11.8962
 1414.0000     0.6584    11.6944
