~VERSION INFORMATION
 VERS.                2.0:   CWLS LOG ASCII STANDARD - VERSION 2.0
 WRAP.                 NO:   ONE LINE PER DEPTH STEP
~WELL INFORMATION
#MNEM.UNIT      DATA TYPE    INFORMATION
#----------   ------------   ------------------------------
 STRT.F           41.0000:   START DEPTH
 STOP.F          468.0000:   STOP DEPTH
 STEP.F            0.1000:   STEP LENGTH
 NULL.          -999.2500:   NO VALUE
 COMP.       F D SERV INC:   COMPANY
 WELL. NAVAL PETROLEUM RESERVE 3 SX-1 #53-1-10:   WELL
 FLD .             TEAPOT:   FIELD
 LOC .      S10 T38N R78W:   LOCATION
 CNTY.            NATRONA:   COUNTY
 STAT.            WYOMING:   STATE
 CTRY. UNITED STATES OF AMERICA:   COUNTRY
 SRVC.     Atlas Wireline:   SERVICE COMPANY
 DATE.        22-DEC-1992:   LOGDATE
 API .       490252256900:   API NUMBER
~CURVE INFORMATION
#MNEM.UNIT       API CODE    CURVE DESCRIPTION
#----------   ------------   ------------------------------
 DEPT.F                  :   
 GRR .GAPI   07 310 01 00:   GAMMA RAY
 RILD.OHMM   07 120 46 00:   INDUCTION LOG DEEP RESISTIVITY
 RILM.OHMM   07 120 44 00:   RESITIVITY LONG MEDIUM
~PARAMETER INFORMATION
#MNEM.UNIT          VALUE    DESCRIPTION
#----------   ------------   ------------------------------
 PD  .                 GL:   PERMANENT DATUM
 EPD .F              5185:   ELEVATION PERMANENT DATUM
 LMF .                 KB:   LOG MEASURED FROM
 DAPD.F                10:   FEET ABOVE PERMANENT DATUM
 DMF .                 KB:   DRILLING MEASURED FROM
 EKB .F              5195:   KELLING BUSHING
 EDF .F              5194:   DRILLING FLOOR
 EGL .F              5185:   GROUND LEVEL
 DATE.        22-DEC-1992:   RUN DATE
 RUN .                  1:   RUN NUMBER
 DD  .F               475:   DEPTH DRILLER
 DL  .F               472:   DEPTH LOGGER
 BLI .F               470:   BOTTOM LOG INTERVAL
 CS  .IN            8.625:   CASING SIZE
 CBL .F                80:   CASING BOTTOM LOGGER
 BS  .IN            7.875:   BIT SIZE
 BSD .F               475:   BIT SIZE AT DEPTH
 DFT .        AIR DRILLED:   DRILLING FLUID TYPE
 LUN .            HL 6321:   LOGGING UNIT NUMBER
 LUL .       RCK, SPRINGS:   LOGGING UNIT LOCATION
 ENGI.      JOHN THOMPSON:   RECORDING ENGINEER
 WITN.          G. STRONG:   WITNESSED BY
 CLNT.            A2DTECH:   CLIENT CODE
 ORIG.           5" PRINT:   ORIGIN OF DATA
 UWI .       490252256900:   UNIQUE WELL ID
 DICO. A2D Technologies, Inc.:   DIGITIZING COMPANY
~OTHER INFORMATION
~A   DEPT      GRR       RILD       RILM   
# ...
  368.6000   111.7077    12.9953    14.3997
  368.7000   112.3093    12.9958    14.3809
  368.8000   112.9140    12.9964    14.3363
  368.9000   113.5194    12.9969    14.2549
  369.0000   114.0222    12.9885    14.1740
  369.1000   114.5251    12.9078    14.0861
  369.2000   115.0572    12.9083    14.0136
  369.3000   115.5307    12.9089    13.9341
  369.4000   115.8525    12.9094    13.8930
  369.5000   116.2334    12.8905    13.8727
  369.6000   116.6626    12.8208    13.7977
  369.7000   116.9162    12.8215    13.7984
  369.8000   117.2042    12.8219    13.7332
  369.9000   116.9926    12.8224    13.6553
  370.0000   116.5859    12.8230    13.6093
  370.1000   116.0915    12.8096    13.5950
  370.2000   115.5972    12.7350    13.5160
  370.3000   115.1028    12.7356    13.5165
  370.4000   114.6085    12.6807    13.5171
  370.5000   114.3101    12.6482    13.4755
  370.6000   114.0651    12.6487    13.4244
  370.7000   113.9085    12.6493    13.4250
  370.8000   113.9127    12.6498    13.4256
  370.9000   113.9173    12.6503    13.4261
  371.0000   113.9212    12.6508    13.4267
  371.1000   113.9255    12.6342    13.3909
  371.2000   113.9297    12.5986    13.3347
  371.3000   114.0722    12.5646    13.3352
  371.4000   114.5750    12.5652    13.3359
  371.5000   115.1552    12.5656    13.3363
  371.6000   116.4241    12.5219    13.3369
  371.7000   118.5531    12.4794    13.3374
  371.8000   120.6366    12.4800    13.3380
  371.9000   122.1364    12.4805    13.3386
  372.0000   123.6607    12.4810    13.2651
  372.1000   125.8717    12.4815    13.2471
  372.2000   126.7794    12.4433    13.2477
  372.3000   127.2822    12.3959    13.2482
  372.4000   127.7010    12.3964    13.2488
  372.5000   127.9242    12.3970    13.2493
  372.6000   127.9289    12.3975    13.2499
  372.7000   127.7068    12.3495    13.2504
  372.8000   126.9454    12.3124    13.2510
  372.9000   125.8342    12.3129    13.2515
  373.0000   124.5921    12.3134    13.2521
  373.1000   123.3495    12.3140    13.2528
  373.2000   121.8941    12.3145    13.2532
  373.3000   119.8332    12.3150    13.2538
  373.4000   118.1078    12.3155    13.2543
  373.5000   117.1955    12.3160    13.2549
  373.6000   116.7843    12.3165    13.2554
  373.7000   116.3732    12.3170    13.2560
  373.8000   115.9620    12.3710    13.2565
  373.9000   115.8624    12.4042    13.2571
  374.0000   115.8667    12.4047    13.2576
  374.1000   115.9505    12.4052    13.2582
  374.2000   116.2557    12.4058    13.2588
  374.3000   117.0920    12.4702    13.2593
  374.4000   117.5386    12.4935    13.2599
  374.5000   118.2091    12.4940    13.2604
  374.6000   119.0751    12.4946    13.2610
  374.7000   120.0163    12.4951    13.2615
  374.8000   120.7686    12.4957    13.2622
  374.9000   121.6632    12.4961    13.3253
  375.0000   122.2727    12.4967    13.3558
  375.1000   122.7283    12.4972    13.3564
  375.2000   122.9818    12.4977    13.3569
  375.3000   123.2354    12.4982    13.3575
  375.4000   123.5020    12.4988    13.3581
  375.5000   124.2150    12.4993    13.3586
  375.6000   124.6020    12.4998    13.3592
  375.7000   124.8556    12.5003    13.3597
  375.8000   125.1843    12.5008    13.3603
  375.9000   125.6656    12.5014    13.3609
  376.0000   125.9521    12.5019    13.3614
  376.1000   125.0879    12.4541    13.3620
  376.2000   124.2582    12.4161    13.3625
  376.3000   123.5145    12.4166    13.3631
  376.4000   122.7709    12.4149    13.3636
  376.5000   122.0294    12.3316    13.3643
  376.6000   121.5349    12.3320    13.3648
  376.7000   121.2382    12.3325    13.3653
  376.8000   120.9931    12.3330    13.3659
  376.9000   120.7481    12.3335    13.3664
  377.0000   120.5388    12.3341    13.3670
  377.1000   120.5439    12.2669    13.3676
  377.2000   120.5479    12.2494    13.3681
  377.3000   120.7303    12.2500    13.3687
  377.4000   121.6060    12.2505    13.3451
  377.5000   123.0355    12.2510    13.2770
  377.6000   124.2351    12.2515    13.2777
  377.7000   124.8121    12.2520    13.2781
  377.8000   125.0283    12.2525    13.2787
  377.9000   125.2818    12.2530    13.2793
  378.0000   125.2202    12.2535    13.2614
  378.1000   124.6232    12.2540    13.1882
  378.2000   123.6206    12.2547    13.1889
  378.3000   122.3904    12.2551    13.1893
  378.4000   121.3414    12.2556    13.1447
  378.5000   120.3485    12.2561    13.0989
  378.6000   119.3556    12.2566    13.0995
  378.7000   118.3945    12.2571    13.1000
  378.8000   117.5858    12.2576    13.0291
  378.9000   117.3622    12.2581    12.9552
  379.0000   117.1172    12.2218    12.9205
  379.1000   116.9921    12.1741    12.9210
  379.2000   116.9301    12.1746    12.9144
  379.3000   116.6974    12.1751    12.8325
  379.4000   116.7025    12.1756    12.8330
  379.5000   116.4980    12.1296    12.8335
  379.6000   116.4073    12.0921    12.8341
  379.7000   116.5121    12.0761    12.8346
  379.8000   116.7657    12.0091    12.8352
  379.9000   117.0262    12.0097    12.8358
  380.0000   117.2728    12.0101    12.8362
  380.1000   118.0924    11.9698    12.8368
  380.2000   118.8238    11.9018    12.8373
  380.3000   119.4079    11.8453    12.8378
  380.4000   120.1875    11.8459    12.8384
  380.5000   121.2944    11.8464    12.8389
  380.6000   121.9673    11.7970    12.8394
  380.7000   122.8886    11.7651    12.8400
  380.8000   124.0055    11.7656    12.8405
  380.9000   125.2562    11.7661    12.8411
  381.0000   126.4909    11.7667    12.8417
  381.1000   127.3808    11.7671    12.8421
  381.2000   127.9952    11.7676    12.8427
  381.3000   128.5974    11.7681    12.8102
  381.4000   129.1964    11.7528    12.7546
  381.5000   129.9910    11.6874    12.7552
  381.6000   131.0378    11.6880    12.7558
  381.7000   131.9936    11.6883    12.6975
  381.8000   132.9953    11.6888    12.6255
  381.9000   133.8661    11.6893    12.5539
  382.0000   134.6949    11.6790    12.4826
  382.1000   135.6042    11.6092    12.4080
  382.2000   135.6090    11.6096    12.3414
  382.3000   135.8313    11.6101    12.2713
  382.4000   135.9200    11.6106    12.2017
  382.5000   135.9242    11.5909    12.1536
  382.6000   135.8711    11.5309    12.1479
  382.7000   135.6223    11.5315    12.0703
  382.8000   135.1281    11.5319    12.0708
  382.9000   134.6337    11.5324    12.0713
  383.0000   134.1394    11.5035    12.0718
  383.1000   133.6451    11.4533    12.0723
  383.2000   133.1127    11.4538    12.0728
  383.3000   132.3221    11.4543    12.0734
  383.4000   131.6255    11.4547    12.0738
  383.5000   130.7019    11.4552    12.1151
  383.6000   129.9611    11.4557    12.1591
  383.7000   129.3945    11.4562    12.1597
  383.8000   128.6881    11.4567    12.1602
  383.9000   128.4085    11.4571    12.2267
  384.0000   127.9838    11.5057    12.2461
  384.1000   127.6499    11.5382    12.2829
  384.2000   127.5115    11.5387    12.3327
  384.3000   127.5158    11.5448    12.3393
  384.4000   127.5200    11.6204    12.4200
  384.5000   127.5242    11.6208    12.4204
  384.6000   128.1127    11.6651    12.4209
  384.7000   128.7238    11.7030    12.4530
  384.8000   129.2266    11.7035    12.5088
  384.9000   129.6960    11.7048    12.5093
  385.0000   129.9700    11.7727    12.5098
  385.1000   130.2030    11.7868    12.5677
  385.2000   130.2812    11.7873    12.5983
  385.3000   130.4071    11.7878    12.5988
  385.4000   130.5927    11.7883    12.5993
  385.5000   130.5970    11.7888    12.5999
  385.6000   130.6019    11.7893    12.6004
  385.7000   130.6055    11.7898    12.6534
  385.8000   130.6097    11.7903    12.6894
  385.9000   130.6139    11.7708    12.6900
  386.0000   130.6182    11.7093    12.6905
  386.1000   130.6225    11.7099    12.6911
  386.2000   130.6267    11.7104    12.6916
  386.3000   130.6309    11.7108    12.6449
  386.4000   130.4986    11.6821    12.6046
  386.5000   130.2535    11.6305    12.6051
  386.6000   130.0085    11.6310    12.6056
  386.7000   129.7392    11.6315    12.5336
