~VERSION INFORMATION
 VERS.                2.0:   CWLS LOG ASCII STANDARD - VERSION 2.0
 WRAP.                 NO:   ONE LINE PER DEPTH STEP
~WELL INFORMATION
#MNEM.UNIT      DATA TYPE    INFORMATION
#----------   ------------   ------------------------------
 STRT.F           11.0000:   START DEPTH
 STOP.F          804.0000:   STOP DEPTH
 STEP.F            0.1000:   STEP LENGTH
 NULL.          -999.2500:   NO VALUE
 COMP. BROWN JOHN E&C INC:   COMPANY
 WELL. 72-1 STX-34 #72-34:   WELL
 FLD .             TEAPOT:   FIELD
 LOC .      S34 T39N R78W:   LOCATION
 CNTY.            NATRONA:   COUNTY
 STAT.            WYOMING:   STATE
 CTRY. UNITED STATES OF AMERICA:   COUNTRY
 SRVC.     Atlas Wireline:   SERVICE COMPANY
 DATE.        31-JAN-1992:   LOGDATE
 API .       490252250200:   API NUMBER
~CURVE INFORMATION
#MNEM.UNIT       API CODE    CURVE DESCRIPTION
#----------   ------------   ------------------------------
 DEPT.F                  :   
 GRR .GAPI   07 310 01 00:   GAMMA RAY
 RILD.OHMM   07 120 46 00:   INDUCTION LOG DEEP RESISTIVITY
 RILM.OHMM   07 120 44 00:   INDUCTION LOG MEDIUM RESISTIVITY
~PARAMETER INFORMATION
#MNEM.UNIT          VALUE    DESCRIPTION
#----------   ------------   ------------------------------
 PD  .                 GL:   PERMANENT DATUM
 EPD .F              5069:   ELEVATION PERMANENT DATUM
 LMF .                 KB:   LOG MEASURED FROM
 DAPD.F                10:   FEET ABOVE PERMANENT DATUM
 DMF .                 KB:   DRILLING MEASURED FROM
 EKB .F              5079:   KELLING BUSHING
 EDF .F              5078:   DRILLING FLOOR
 EGL .F              5069:   GROUND LEVEL
 DATE.        31-JAN-1992:   RUN DATE
 RUN .                  1:   RUN NUMBER
 DD  .F               814:   DEPTH DRILLER
 DL  .F               813:   DEPTH LOGGER
 BLI .F               804:   BOTTOM LOG INTERVAL
 CS  .IN            9.625:   CASING SIZE
 CBD .F               100:   CASING BOTTOM DRILLER
 CBL .F               104:   CASING BOTTOM LOGGER
 BS  .IN             8.75:   BIT SIZE
 BSD .F               814:   BIT SIZE AT DEPTH
 DFT .                AIR:   DRILLING FLUID TYPE
 MRT .F                90:   MAXIMUM RECORDED TEMPERATURE
 LUN .           HL- 6274:   LOGGING UNIT NUMBER
 LUL .             CASPER:   LOGGING UNIT LOCATION
 ENGI.             RAUTIO:   RECORDING ENGINEER
 WITN.        GARY STRONG:   WITNESSED BY
 CLNT.            A2DTECH:   CLIENT CODE
 ORIG.           5" PRINT:   ORIGIN OF DATA
 UWI .       490252250200:   UNIQUE WELL ID
 DICO. A2D Technologies, Inc.:   DIGITIZING COMPANY
~OTHER INFORMATION
~A   DEPT       GRR      RILD       RILM   
# ...
  520.6000   125.7634     6.7413     6.6766
  520.7000   125.7508     6.7413     6.6763
  520.8000   125.4661     6.7413     6.6761
  520.9000   124.8478     6.7413     6.6758
  521.0000   124.4115     6.7413     6.6755
  521.1000   124.1668     6.7413     6.6752
  521.2000   123.8820     6.7413     6.6749
  521.3000   123.3599     6.7413     6.6747
  521.4000   123.3622     6.7413     6.6744
  521.5000   123.1882     6.7413     6.6742
  521.6000   122.8225     6.7413     6.6738
  521.7000   122.3963     6.7413     6.6736
  521.8000   122.1615     6.7413     6.6733
  521.9000   122.1644     6.7413     6.6730
  522.0000   121.9646     6.7413     6.6727
  522.1000   121.8662     6.7413     6.6723
  522.2000   121.8687     6.7413     6.6342
  522.3000   121.9065     6.7307     6.6255
  522.4000   122.1763     6.6926     6.6252
  522.5000   122.8597     6.6477     6.6126
  522.6000   123.4316     6.6477     6.5748
  522.7000   124.0441     6.6257     6.5325
  522.8000   124.8486     6.6014     6.4999
  522.9000   125.8347     6.6014     6.4866
  523.0000   126.5781     6.6014     6.4707
  523.1000   127.5182     6.5679     6.4410
  523.2000   128.3678     6.5553     6.4407
  523.3000   129.0258     6.5233     6.3694
  523.4000   129.4921     6.4569     6.3239
  523.5000   129.7673     6.4192     6.3065
  523.6000   130.2133     6.4192     6.2956
  523.7000   130.5434     6.3923     6.2621
  523.8000   130.6820     6.3745     6.2618
  523.9000   130.6844     6.3544     6.2017
  524.0000   130.6868     6.2843     6.1528
  524.1000   130.4420     6.2422     6.1176
  524.2000   129.6222     6.2422     6.0767
  524.3000   128.7728     6.2008     6.0038
  524.4000   127.9534     6.1307     5.9714
  524.5000   126.9672     6.0656     5.9373
  524.6000   125.8605     6.0277     5.8869
  524.7000   125.6457     5.9365     5.8288
  524.8000   125.5625     5.8362     5.7954
  524.9000   125.5649     5.7516     5.7562
  525.0000   125.5673     5.6800     5.6765
  525.1000   125.5698     5.5814     5.5988
  525.2000   125.8142     5.4594     5.5352
  525.3000   125.8772     5.4045     5.4636
  525.4000   126.0107     5.3429     5.3298
  525.5000   126.3356     5.2692     5.2745
  525.6000   126.8121     5.2362     5.1943
  525.7000   127.0975     5.1321     5.1061
  525.8000   127.3115     5.1082     5.0193
  525.9000   127.7172     5.0454     4.9339
  526.0000   128.1129     4.9803     4.8503
  526.1000   128.3171     4.9484     4.7681
  526.2000   128.3196     4.8869     4.7170
  526.3000   128.3219     4.8620     4.6812
  526.4000   128.3243     4.8344     4.6337
  526.5000   128.4529     4.8190     4.6335
  526.6000   128.5611     4.8190     4.6333
  526.7000   128.3315     4.8190     4.6157
  526.8000   128.3344     4.7923     4.6007
  526.9000   128.3365     4.7854     4.6060
  527.0000   128.1876     4.7854     4.6325
  527.1000   127.7513     4.7854     4.6323
  527.2000   127.0931     4.7869     4.6321
  527.3000   126.8334     4.8190     4.6319
  527.4000   126.3718     4.8190     4.6399
  527.5000   126.0565     4.8353     4.6684
  527.6000   125.8118     4.8528     4.7293
  527.7000   125.5017     4.8565     4.7523
  527.8000   125.0199     4.8869     4.7620
  527.9000   124.7302     4.9121     4.7840
  528.0000   124.1269     4.9401     4.8335
  528.1000   123.5345     4.9682     4.8622
  528.2000   122.9522     4.9965     4.8885
  528.3000   122.2483     5.0255     4.9574
  528.4000   121.7164     5.0820     5.0135
  528.5000   121.2645     5.1181     5.0581
  528.6000   120.9444     5.1781     5.1433
  528.7000   120.6998     5.2496     5.2122
  528.8000   120.3945     5.2830     5.2865
  528.9000   119.9128     5.3896     5.3773
  529.0000   119.9153     5.4407     5.4578
  529.1000   119.9177     5.5218     5.5248
  529.2000   120.0613     5.6049     5.6268
  529.3000   120.4821     5.6689     5.6863
  529.4000   121.1954     5.7397     5.7512
  529.5000   121.7431     5.8596     5.8169
  529.6000   122.1891     5.9712     5.8832
  529.7000   122.8520     6.0430     5.9508
  529.8000   123.8171     6.0925     6.0534
  529.9000   125.2208     6.1987     6.1017
  530.0000   127.2012     6.2335     6.1766
  530.1000   129.1817     6.2961     6.2577
  530.2000   130.3936     6.3490     6.2889
  530.3000   130.9755     6.3851     6.2885
  530.4000   131.3056     6.4215     6.3204
  530.5000   131.7518     6.4643     6.3807
  530.6000   131.7546     6.5258     6.4371
  530.7000   131.3229     6.5778     6.4654
  530.8000   130.9926     6.6014     6.4652
  530.9000   130.6420     6.6067     6.5385
  531.0000   130.0497     6.6477     6.5843
  531.1000   129.0433     6.7169     6.6216
  531.2000   127.8355     6.7674     6.6471
  531.3000   127.1620     6.7886     6.6503
  531.4000   126.5392     6.8056     6.6930
  531.5000   125.8762     6.8842     6.7259
  531.6000   125.3845     6.8842     6.7640
  531.7000   124.8221     6.8842     6.7863
  531.8000   124.8242     6.9049     6.7933
  531.9000   125.2957     6.9326     6.8332
  532.0000   126.1400     6.9326     6.8329
  532.1000   127.0403     6.9326     6.8326
  532.2000   127.5571     6.9656     6.8524
  532.3000   128.0336     6.9812     6.8799
  532.4000   128.1670     6.9812     6.8796
  532.5000   128.2955     6.9869     6.8793
  532.6000   128.4744     7.0302     6.8790
  532.7000   128.4615     7.0302     6.8788
  532.8000   128.1771     7.0575     6.8936
  532.9000   127.7655     7.0978     6.9264
  533.0000   127.4251     7.1292     6.9260
  533.1000   126.9889     7.1292     6.9628
  533.2000   126.2905     7.1292     6.9740
  533.3000   125.7684     7.1292     6.9736
  533.4000   125.3067     7.1508     6.9836
  533.5000   124.9915     7.1793     7.0219
  533.6000   124.7468     7.1793     7.0215
  533.7000   124.5676     7.1793     7.0213
  533.8000   124.5700     7.1793     7.0210
  533.9000   124.5729     7.1793     7.0350
  534.0000   124.5749     7.1947     7.0696
  534.1000   124.7235     7.2296     7.0693
  534.2000   124.8823     7.2296     7.1056
  534.3000   124.8847     7.2296     7.1458
  534.4000   124.8873     7.2296     7.1678
  534.5000   124.8895     7.2296     7.1674
  534.6000   124.8920     7.2296     7.1671
  534.7000   125.1264     7.2296     7.1669
  534.8000   125.5625     7.2706     7.1984
  534.9000   125.8070     7.2804     7.2164
  535.0000   125.8094     7.2804     7.2161
  535.1000   125.8118     7.2930     7.2158
  535.2000   125.6730     7.3315     7.2155
  535.3000   125.4284     7.3315     7.2152
  535.4000   125.1838     7.3315     7.2417
  535.5000   124.9140     7.3315     7.2651
  535.6000   124.9162     7.3315     7.2648
  535.7000   124.9186     7.3315     7.2645
  535.8000   124.9210     7.3315     7.2642
  535.9000   125.0894     7.3315     7.2639
  536.0000   125.8336     7.3315     7.2852
  536.1000   126.0832     7.3315     7.3141
  536.2000   126.7162     7.3410     7.3169
  536.3000   127.3236     7.3829     7.3647
  536.4000   127.8202     7.3829     7.3644
  536.5000   128.2915     7.3829     7.3641
  536.6000   128.5715     7.3829     7.3804
  536.7000   128.5737     7.3829     7.4151
  536.8000   128.2534     7.3861     7.4147
  536.9000   127.7617     7.4347     7.4145
  537.0000   127.3707     7.4705     7.4142
  537.1000   127.3731     7.5132     7.4347
  537.2000   127.1335     7.5395     7.4654
  537.3000   127.0753     7.5395     7.4651
  537.4000   127.0778     7.5395     7.4647
  537.5000   127.0046     7.5395     7.4993
  537.6000   126.7798     7.5395     7.5164
  537.7000   126.7828     7.5395     7.5161
  537.8000   126.9968     7.5494     7.5158
  537.9000   127.2462     7.5924     7.5155
  538.0000   127.5963     7.5924     7.5152
  538.1000   128.0928     7.5924     7.5149
  538.2000   128.6101     7.5924     7.5145
  538.3000   130.2721     7.5924     7.5142
  538.4000   131.4592     7.5958     7.5139
  538.5000   132.4499     7.6456     7.5136
  538.6000   133.2995     7.6456     7.5132
  538.7000   133.8110     7.6456     7.5130
