~VERSION INFORMATION
 VERS.                2.0:   CWLS LOG ASCII STANDARD - VERSION 2.0
 WRAP.                 NO:   ONE LINE PER DEPTH STEP
~WELL INFORMATION
#MNEM.UNIT      DATA TYPE    INFORMATION
#----------   ------------   ------------------------------
 STRT.F            0.0000:   START DEPTH
 STOP.F          479.0000:   STOP DEPTH
 STEP.F            0.5000:   STEP LENGTH
 NULL.          -999.2500:   NO VALUE
 COMP. BROWN JOHN E&C INC:   COMPANY
 WELL.  63-3 SX-10 #63-10:   WELL
 FLD .             TEAPOT:   FIELD
 LOC .      S10 T38N R78W:   LOCATION
 CNTY.            NATRONA:   COUNTY
 STAT.            WYOMING:   STATE
 CTRY. UNITED STATES OF AMERICA:   COUNTRY
 SRVC.     Atlas Wireline:   SERVICE COMPANY
 DATE.        25-APR-1992:   LOGDATE
 API .       490252252900:   API NUMBER
~CURVE INFORMATION
#MNEM.UNIT       API CODE    CURVE DESCRIPTION
#----------   ------------   ------------------------------
 DEPT.F                  :   
 GRR .GAPI   07 310 01 00:   GAMMA RAY
 SPR .MV     07 010 01 00:   SPONTANEOUS POTENTIAL
 RILD.OHMM   07 120 46 00:   INDUCTION LOG DEEP RESISTIVITY
 RILM.OHMM   07 120 44 00:   INDUCTION LOG MEDIUM RESISTIVITY
 RFOC.OHMM   07 220 04 00:   RESISTIVITY FOCUSED LOG
 PORD.DEC    45 890 12 00:   POROSITY DENSITY SANDSTONE
 CNC .DEC    42 890 03 00:   NEUTRON POROSITY SANDSTONE
 CALD.IN     45 280 60 00:   CALIPER FROM DENSITY
 CORR.G/C3   45 356 01 00:   DENSITY CORRECTION
 DEN .G/C3   45 350 01 00:   COMPENSATED BULK DENSTIY
~PARAMETER INFORMATION
#MNEM.UNIT          VALUE    DESCRIPTION
#----------   ------------   ------------------------------
 PD  .                 GL:   PERMANENT DATUM
 EPD .F              5189:   ELEVATION PERMANENT DATUM
 LMF .                 KB:   LOG MEASURED FROM
 DAPD.F                10:   FEET ABOVE PERMANENT DATUM
 DMF .                 KB:   DRILLING MEASURED FROM
 EKB .F              5199:   KELLING BUSHING
 EGL .F              5189:   GROUND LEVEL
 DATE.        25-APR-1992:   RUN DATE
 RUN .                  1:   RUN NUMBER
 DD  .F               480:   DEPTH DRILLER
 DL  .F               482:   DEPTH LOGGER
 BLI .F               480:   BOTTOM LOG INTERVAL
 CS  .IN            8.625:   CASING SIZE
 CBD .F               130:   CASING BOTTOM DRILLER
 CBL .F               143:   CASING BOTTOM LOGGER
 BS  .IN            7.875:   BIT SIZE
 BSD .F               480:   BIT SIZE AT DEPTH
 DFT .     DISP. WEIGHTED:   DRILLING FLUID TYPE
 DFD .               15.1:   DRILLING FLUID DENSITY
 DFV .                 44:   DRILLING FLUID VISCOSITY
 DFPH.                8.4:   DRILLING FLUID PH
 DFL .                  7:   DRILLING FLUID LOSS
 MSS .           FLOWLINE:   MUD SAMPLE SOURCE
 TCS .HRS            0230:   TIME CURCULATED STOPPED
 LUN .           HL- 6272:   LOGGING UNIT NUMBER
 LUL .             CASPER:   LOGGING UNIT LOCATION
 ENGI.       P. RASMUSSEN:   RECORDING ENGINEER
 WITN.          G. STRONG:   WITNESSED BY
 CLNT.            A2DTECH:   CLIENT CODE
 ORIG.           5" PRINT:   ORIGIN OF DATA
 UWI .       490252252900:   UNIQUE WELL ID
 DICO. A2D Technologies, Inc.:   DIGITIZING COMPANY
~OTHER INFORMATION
~A    DEPT      GRR       SPR       RILD       RILM       RFOC       PORD        CNC       CALD       CORR        DEN   
# ...
  234.5000    94.8743   -69.9270     7.7169     7.5529     7.5760     0.0758     0.3351     7.8321     0.0071     2.5255
  235.0000    93.3428   -69.9239     7.8247     7.6046     7.5584     0.0733     0.3339     7.8313     0.0085     2.5300
  235.5000    91.5124   -69.9215     7.9339     7.6608     7.5408     0.0728     0.3321     7.8154     0.0130     2.5315
  236.0000    89.9846   -69.9190     7.9888     7.7155     7.5324     0.0740     0.3330     7.8146     0.0145     2.5299
  236.5000    93.2980   -69.7650     8.0441     7.7707     7.4785     0.0749     0.3340     7.8139     0.0114     2.5261
  237.0000    96.3388   -69.7625     8.0998     7.7605     7.4770     0.0755     0.3343     7.8131     0.0068     2.5238
  237.5000    99.3444   -69.6085     8.1557     7.6522     7.5281     0.0752     0.3343     7.8098     0.0038     2.5246
  238.0000    97.7510   -69.7576     8.1552     7.5980     7.5261     0.0749     0.3337     7.7964     0.0022     2.5260
  238.5000    96.5658   -69.7424     8.1546     7.5970     7.6302     0.0756     0.3328     7.7954     0.0022     2.5245
  239.0000    96.2452   -69.6010     8.1541     7.6493     7.6823     0.0771     0.3319     7.7947     0.0021     2.5207
  239.5000    96.5329   -69.1435     8.1535     7.8094     7.7344     0.0783     0.3307     7.7939     0.0036     2.5184
  240.0000    97.7320   -68.3834     8.2101     7.9731     7.7324     0.0780     0.3304     7.7932     0.0051     2.5206
  240.5000    96.5030   -67.1688     8.2094     7.8619     7.7308     0.0768     0.3313     7.7924     0.0065     2.5236
  241.0000    95.5803   -65.8027     8.2088     7.8061     7.7292     0.0762     0.3301     7.7917     0.0125     2.5236
  241.5000    95.2628   -64.8912     8.2082     7.8598     7.5153     0.0768     0.3247     7.7909     0.0140     2.5228
  242.0000    96.4582   -64.7372     8.2077     7.9133     7.3072     0.0762     0.3171     7.7902     0.0155     2.5235
  242.5000    95.5355   -64.5832     8.1501     8.0792     7.2046     0.0732     0.3174     7.8046     0.0154     2.5250
  243.0000    94.0077   -64.2777     8.2067     8.2486     7.3049     0.0708     0.3171     7.8038     0.0139     2.5280
  243.5000    93.6939   -64.4267     8.6763     8.3634     7.6208     0.0696     0.3150     7.8031     0.0123     2.5319
  244.0000    95.4907   -64.5758     9.1730     8.3619     8.0612     0.0702     0.3132     7.8177     0.0077     2.5355
  244.5000    93.0552   -64.7248     8.8584     8.3608     8.2750     0.0723     0.3159     7.8168     0.0047     2.5317
  245.0000    88.8042   -64.8738     8.2043     8.1301     8.3307     0.0799     0.3365     7.8160     0.0001     2.5294
  245.5000    85.1584   -64.7192     7.1866     7.0724     8.5048     0.0974     0.3639     7.8153    -0.0045     2.5075
  246.0000    85.1435   -64.7168     6.2237     5.8289     8.9285     0.1464     0.4126     7.8145    -0.0061     2.4432
  246.5000    86.9440   -64.7143     5.7096     4.3512     7.8742     0.1844     0.4310     7.8137     0.0060     2.3479
  247.0000    92.7381   -65.1664     5.7092     4.4738     5.0757     0.1799     0.4132     7.8130     0.0226     2.3411
  247.5000   100.0759   -65.6184     5.6692     4.9663     4.0137     0.1391     0.3811     7.8122     0.0255     2.3955
  248.0000   105.3535   -66.3735     5.6688     5.5516     3.5813     0.0917     0.3356     7.7962     0.0195     2.4793
  248.5000    99.5897   -66.8256     5.7082     6.1199     5.3140     0.0739     0.3211     7.7955     0.0134     2.5315
  249.0000    90.1951   -66.9746     5.9100     6.7464     7.4066     0.0636     0.3112     7.7948     0.0103     2.5428
  249.5000    87.4570   -66.9722     6.5150     7.1825     8.7308     0.0642     0.3066     7.7940     0.0042     2.5450
  250.0000    87.1395   -66.9697     7.3850     7.7541     8.9761     0.0653     0.3069     7.7921     0.0087     2.5404
  250.5000    87.7297   -67.1333     8.3095     8.6678     8.8985     0.0664     0.3078     7.7845     0.0086     2.5389
  251.0000    89.5301   -67.2969     9.6849     9.3576     8.8491     0.0679     0.3084     7.7769     0.0101     2.5374
  251.5000    91.9358   -67.4445    10.1668     9.4882     8.9777     0.0723     0.3090     7.7611     0.0115     2.5336
  252.0000    92.8291   -67.6028    10.1633     9.4217     9.1043     0.0757     0.3108     7.7453     0.0129     2.5245
  252.5000    92.2085   -67.7611     9.9504     9.3557     9.0954     0.0766     0.3133     7.7447     0.0105     2.5230
  253.0000    92.1935   -67.9194     9.8786     9.1615     9.0197     0.0759     0.3163     7.7441     0.0052     2.5230
  253.5000    93.7017   -68.0777     9.8758     9.1609     8.8427     0.0753     0.3132     7.7435     0.0066     2.5245
  254.0000    94.6323   -67.6327     9.9422     9.5028     8.5985     0.0762     0.3020     7.7429     0.0051     2.5123
  254.5000    93.4050   -67.0368    10.7311    10.5550     8.5376     0.0931     0.2818     7.7400     0.0050     2.4942
  255.0000    90.9232   -66.5899    11.9932    11.4205     8.7167     0.1146     0.2749     7.7265    -0.0057     2.4549
  255.5000    86.8473   -67.0518    13.7826    13.0654    11.2000     0.1468     0.2833     7.7259    -0.0254     2.3989
  256.0000    73.4873   -67.8134    15.4659    15.2285    15.0051     0.1713     0.2872     7.7251    -0.0134     2.3732
  256.5000    59.4721   -68.2734    17.2323    16.3262    16.7722     0.1554     0.2661     7.7399     0.0001     2.4133
  257.0000    49.4930   -68.8841    18.9986    17.8727    19.2773     0.1124     0.2501     7.7391     0.0001     2.4593
  257.5000    47.3660   -69.3441    20.7649    19.8402    21.5475     0.1076     0.2468     7.7385    -0.0106     2.4714
  258.0000    46.7518   -69.6532    22.1050    22.1783    23.7518     0.1456     0.2646     7.7379    -0.0152     2.4366
  258.5000    46.0342   -69.9624    22.4090    22.3322    24.7623     0.1740     0.2833     7.7373    -0.0092     2.3565
  259.0000    44.9184   -70.4223    22.0913    20.6829    24.1293     0.1933     0.2982     7.7520    -0.0032     2.3346
  259.5000    46.7249   -70.8869    21.6284    19.1557    20.9437     0.1857     0.3147     7.7665     0.0027     2.3527
  260.0000    50.3468   -71.4932    21.1752    18.4986    18.4727     0.1724     0.3177     7.7659     0.0057     2.3738
  260.5000    53.6661   -71.6514    20.8764    18.4974    17.1075     0.1673     0.3276     7.7653    -0.0126     2.3701
  261.0000    57.2879   -71.3364    20.4390    18.8867    16.0656     0.1830     0.3370     7.7646    -0.0277     2.3406
  261.5000    61.2124   -71.1875    20.2915    19.4192    15.5134     0.2020     0.3412     7.7640    -0.0308     2.2975
  262.0000    63.6240   -70.9197    20.1450    19.5536    16.1734     0.2195     0.3448     7.7482    -0.0203     2.2793
  262.5000    63.3124   -70.7763    20.2817    19.5522    18.3318     0.2234     0.3478     7.7476    -0.0113     2.2831
  263.0000    59.3700   -71.0873    20.2747    19.2803    20.3484     0.2192     0.3469     7.7470    -0.0069     2.2967
  263.5000    54.5199   -71.3964    20.2691    18.8802    19.9248     0.2034     0.3445     7.7464    -0.0039     2.3178
  264.0000    50.8800   -71.5547    20.4054    18.8789    19.2400     0.2004     0.3442     7.7458    -0.0055     2.3216
  264.5000    50.5684   -71.4114    20.8305    18.8776    18.1944     0.2019     0.3416     7.7452    -0.0086     2.3117
  265.0000    52.0723   -71.2662    21.5629    19.2974    17.2057     0.2025     0.3357     7.7446    -0.0072     2.3215
  265.5000    56.6019   -71.1228    22.0122    19.8184    17.6895     0.1968     0.3303     7.7440    -0.0103     2.3253
  266.0000    60.5264   -70.8305    22.1600    20.9525    18.8316     0.1980     0.3237     7.7434    -0.0179     2.3192
  266.5000    63.8457   -70.6853    21.9851    21.5432    19.9082     0.2019     0.3221     7.7428    -0.0225     2.3117
  267.0000    62.9128   -71.1471    21.6895    21.8443    21.1996     0.2037     0.3224     7.7574    -0.0228     2.3192
  267.5000    60.1364   -71.3035    21.8630    22.1489    22.2574     0.1998     0.3191     7.7568    -0.0197     2.3389
