~VERSION INFORMATION
 VERS.                2.0:   CWLS LOG ASCII STANDARD - VERSION 2.0
 WRAP.                 NO:   ONE LINE PER DEPTH STEP
~WELL INFORMATION
#MNEM.UNIT      DATA TYPE    INFORMATION
#----------   ------------   ------------------------------
 STRT.F          436.0000:   START DEPTH
 STOP.F         2160.0000:   STOP DEPTH
 STEP.F            0.5000:   STEP LENGTH
 NULL.          -999.2500:   NO VALUE
 COMP.   FLUOR DANIEL INC:   COMPANY
 WELL. NAVAL PETROLEUM RESERVE 3 X-29 #31-29:   WELL
 FLD .            WILDCAT:   FIELD
 LOC .      S29 T39N R78W:   LOCATION
 CNTY.            NATRONA:   COUNTY
 STAT.            WYOMING:   STATE
 CTRY. UNITED STATES OF AMERICA:   COUNTRY
 SRVC.            Unknown:   SERVICE COMPANY
 DATE.        25-JUN-1995:   LOGDATE
 API .       490252272300:   API NUMBER
~CURVE INFORMATION
#MNEM.UNIT       API CODE    CURVE DESCRIPTION
#----------   ------------   ------------------------------
 DEPT.F                  :   
 ROP .FT/HR  91 810 01 00:   RAT OF DRILLING PENETRATION
 TGAS.TC/CC  91 830 01 00:   TOTAL GAS UNIT
~PARAMETER INFORMATION
#MNEM.UNIT          VALUE    DESCRIPTION
#----------   ------------   ------------------------------
 EPD .F              5058:   ELEVATION PERMANENT DATUM
 EKB .F              5068:   KELLING BUSHING
 EGL .F              5058:   GROUND LEVEL
 DATE.        25-JUN-1995:   RUN DATE
 RUN .                  1:   RUN NUMBER
 ENGI.     C.TOWER/R.HUSK:   RECORDING ENGINEER
 CLNT.            A2DTECH:   CLIENT CODE
 ORIG.           5" PRINT:   ORIGIN OF DATA
 UWI .       490252272300:   UNIQUE WELL ID
 DICO. A2D Technologies, Inc.:   DIGITIZING COMPANY
~OTHER INFORMATION
~A   DEPT        ROP     TGAS   
# ...
 1286.5000     0.7569     1.3208
 1287.0000     0.7568     1.3208
 1287.5000     0.7566     1.5094
 1288.0000     0.7564     1.3208
 1288.5000     0.7562     1.3208
 1289.0000     0.7654     1.3208
 1289.5000     0.7746     1.3208
 1290.0000     0.7744     1.3208
 1290.5000     0.7742     1.3208
 1291.0000     0.7740     1.3208
 1291.5000     0.7645     1.5094
 1292.0000     0.7549     1.3208
 1292.5000     0.7547     1.3208
 1293.0000     0.7545     1.3208
 1293.5000     0.7543     1.3208
 1294.0000     0.7541     1.3208
 1294.5000     0.7634     1.3208
 1295.0000     0.7631     1.3208
 1295.5000     0.7630     1.5094
 1296.0000     0.7534     1.3208
 1296.5000     0.7532     1.3208
 1297.0000     0.7530     1.3208
 1297.5000     0.7528     1.3208
 1298.0000     0.7432     1.3208
 1298.5000     0.7336     1.3208
 1299.0000     0.7334     1.3208
 1299.5000     0.7333     1.3208
 1300.0000     0.7331     1.1321
 1300.5000     0.7439     1.1097
 1301.0000     0.7515     1.0766
 1301.5000     0.6949     1.0435
 1302.0000     0.6571     1.0104
 1302.5000     0.6664     0.9773
 1303.0000     0.6756     0.9375
 1303.5000     0.6754     0.9366
 1304.0000     0.6846     0.7470
 1304.5000     0.6750     0.9349
 1305.0000     0.6748     1.1228
 1305.5000     0.6840     1.1216
 1306.0000     0.6838     1.1207
 1306.5000     0.6836     1.1198
 1307.0000     0.6929     1.1189
 1307.5000     0.6833     1.4953
 1308.0000     0.6831     1.6930
 1308.5000     0.6829     1.8708
 1309.0000     0.6827     1.8696
 1309.5000     0.6825     1.8687
 1310.0000     0.4849     1.4904
 1310.5000     0.4848     1.4895
 1311.0000     0.4846     1.4886
 1311.5000     0.4844     1.4877
 1312.0000     0.4842     1.4867
 1312.5000     0.4840     1.1085
 1313.0000     0.4838     0.9188
 1313.5000     0.4836     0.7292
 1314.0000     0.5023     0.9170
 1314.5000     0.5020     0.8820
 1315.0000     0.5113     0.9152
 1315.5000     0.5111     0.9142
 1316.0000     0.5109     0.9132
 1316.5000     0.5107     0.9122
 1317.0000     0.5105     0.7226
 1317.5000     0.5009     0.5329
 1318.0000     0.5007     0.3434
 1318.5000     0.5005     0.3424
 1319.0000     0.5004     0.3415
 1319.5000     0.5002     0.3406
 1320.0000     0.5000     0.3396
 1320.5000     0.4998     0.3387
 1321.0000     0.5090     0.3376
 1321.5000     0.5088     0.6131
 1322.0000     0.5086     0.7133
 1322.5000     0.5178     0.7122
 1323.0000     0.5177     0.7112
 1323.5000     0.5175     0.7103
 1324.0000     0.5173     0.7094
 1324.5000     0.5171     0.7085
 1325.0000     0.5169     0.5189
 1325.5000     0.5167     0.5179
 1326.0000     0.5165     0.5170
 1326.5000     0.5163     0.5160
 1327.0000     0.5161     0.3263
 1327.5000     0.5160     0.3253
 1328.0000     0.5158     0.5131
 1328.5000     0.5156     0.5695
 1329.0000     0.5154     0.7002
 1329.5000     0.5152     0.8877
 1330.0000     0.5150     0.6981
 1330.5000     0.5148     0.6972
 1331.0000     0.5146     0.6962
 1331.5000     0.5145     0.5890
 1332.0000     0.5237     0.4956
 1332.5000     0.5235     0.3160
 1333.0000     0.5327     0.3151
 1333.5000     0.5325     0.3140
 1334.0000     0.5323     0.3132
 1334.5000     0.5321     0.3122
 1335.0000     0.5319     0.3113
 1335.5000     0.5412     0.3104
 1336.0000     0.5410     0.3094
 1336.5000     0.5408     0.3085
 1337.0000     0.5406     0.1189
 1337.5000     0.5310     0.1179
 1338.0000     0.5308     0.1023
 1338.5000     0.5306     0.0000
 1339.0000     0.5304     0.0000
 1339.5000     0.5021     0.0000
 1340.0000     0.4737     0.0000
 1340.5000     0.4641     0.1122
 1341.0000     0.4650     0.1113
 1341.5000     0.4731     0.1103
 1342.0000     0.4729     0.1094
 1342.5000     0.4633     0.1085
 1343.0000     0.4631     0.1301
 1343.5000     0.4630     0.2953
 1344.0000     0.4628     0.2942
 1344.5000     0.4626     0.1047
 1345.0000     0.4624     0.1037
 1345.5000     0.4622     0.1027
 1346.0000     0.4620     0.1018
 1346.5000     0.4618     0.1009
 1347.0000     0.4616     0.1000
 1347.5000     0.4709     0.0991
 1348.0000     0.4801     0.0981
 1348.5000     0.4987     0.0972
 1349.0000     0.5267     0.0962
 1349.5000     0.5265     0.0951
 1350.0000     0.5263     0.0943
 1350.5000     0.5261     0.0934
 1351.0000     0.5259     0.0923
 1351.5000     0.5257     0.0915
 1352.0000     0.5256     0.0906
 1352.5000     0.5254     0.0896
 1353.0000     0.5346     0.0886
 1353.5000     0.5344     0.0877
 1354.0000     0.5342     0.0868
 1354.5000     0.5340     0.0858
 1355.0000     0.5338     0.0849
 1355.5000     0.5336     0.0838
 1356.0000     0.5241     0.0829
 1356.5000     0.5239     0.0820
 1357.0000     0.5331     0.0810
 1357.5000     0.5329     0.0802
 1358.0000     0.5327     0.2679
 1358.5000     0.5325     0.2670
 1359.0000     0.5418     0.2660
 1359.5000     0.5386     0.3896
 1360.0000     0.5319     0.6415
 1360.5000     0.5318     0.6695
 1361.0000     0.5316     0.8284
 1361.5000     0.5220     1.0161
 1362.0000     0.5218     1.0150
 1362.5000     0.5122     1.0140
 1363.0000     0.5120     1.0131
 1363.5000     0.5118     1.0122
 1364.0000     0.5117     1.0113
 1364.5000     0.5115     0.8217
 1365.0000     0.5018     0.8207
 1365.5000     0.5017     0.6311
 1366.0000     0.5109     0.6302
 1366.5000     0.5107     0.6292
 1367.0000     0.5105     0.6283
 1367.5000     0.5291     0.4385
 1368.0000     0.5289     0.2489
 1368.5000     0.5287     0.0594
 1369.0000     0.5286     0.0000
 1369.5000     0.5190     0.0000
 1370.0000     0.5188     0.0000
 1370.5000     0.5280     0.0000
 1371.0000     0.5278     0.0547
 1371.5000     0.4842     0.0538
 1372.0000     0.3677     0.0528
 1372.5000     0.3675     0.0517
 1373.0000     0.3767     0.0508
 1373.5000     0.3765     0.0499
 1374.0000     0.3763     0.0489
 1374.5000     0.3855     0.0481
 1375.0000     0.3948     0.1100
 1375.5000     0.4039     0.2351
 1376.0000     0.4132     0.4226
 1376.5000     0.4130     0.6104
 1377.0000     0.4128     0.6094
 1377.5000     0.4032     0.7972
 1378.0000     0.3936     0.7960
 1378.5000     0.3934     0.9840
 1379.0000     0.3838     0.9829
 1379.5000     0.3742     0.9819
 1380.0000     0.3741     0.9810
 1380.5000     0.3739     0.9801
 1381.0000     0.3736     0.9792
 1381.5000     0.3829     1.3558
 1382.0000     0.3827     1.5434
 1382.5000     0.3919     1.5424
 1383.0000     0.3917     1.5415
 1383.5000     0.4010     1.7293
 1384.0000     0.3913     1.7281
 1384.5000     0.3912     1.7272
 1385.0000     0.4004     1.7263
 1385.5000     0.4002     1.7254
 1386.0000     0.4000     1.7244
 1386.5000     0.3998     1.7235
 1387.0000     0.3902     1.7226
 1387.5000     0.3900     1.7217
 1388.0000     0.3898     1.7207
 1388.5000     0.3896     1.7198
 1389.0000     0.3800     1.5302
 1389.5000     0.3799     1.3406
 1390.0000     0.3797     1.3395
 1390.5000     0.3795     1.5272
 1391.0000     0.3793     1.5263
 1391.5000     0.3791     1.7143
 1392.0000     0.3789     1.7131
 1392.5000     0.3787     1.9009
 1393.0000     0.3880     2.0886
 1393.5000     0.3878     2.0877
 1394.0000     0.3876     2.0868
 1394.5000     0.3968     2.0858
 1395.0000     0.3872     1.8710
 1395.5000     0.3870     1.7064
 1396.0000     0.3868     1.5168
 1396.5000     0.3961     1.5159
 1397.0000     0.3958     1.5150
 1397.5000     0.4051     1.7027
 1398.0000     0.4049     1.7018
 1398.5000     0.4047     1.7009
 1399.0000     0.4045     1.8886
 1399.5000     0.3855     2.0764
 1400.0000     0.3853     2.0755
 1400.5000     0.3852     2.0745
 1401.0000     0.3850     1.8849
 1401.5000     0.3848     1.8882
 1402.0000     0.3846     1.8907
 1402.5000     0.3844     1.8916
 1403.0000     0.4030     1.8926
 1403.5000     0.4404     1.8935
 1404.0000     0.5342     1.8944
 1404.5000     0.5246     1.3293
 1405.0000     0.5244     1.3302
 1405.5000     0.5242     1.1424
 1406.0000     0.5147     1.1434
 1406.5000     0.5145     1.1445
 1407.0000     0.5143     1.3341
 1407.5000     0.5141     1.5237
