~VERSION INFORMATION
 VERS.                2.0:   CWLS LOG ASCII STANDARD - VERSION 2.0
 WRAP.                 NO:   ONE LINE PER DEPTH STEP
~WELL INFORMATION
#MNEM.UNIT      DATA TYPE    INFORMATION
#----------   ------------   ------------------------------
 STRT.F           50.0000:   START DEPTH
 STOP.F         1152.0000:   STOP DEPTH
 STEP.F            0.5000:   STEP LENGTH
 NULL.          -999.2500:   NO VALUE
 COMP. FENIX & SCISSON INC:   COMPANY
 WELL.  NPR 3 #65 SX14-14:   WELL
 FLD .             TEAPOT:   FIELD
 LOC .      S14 T38N R78W:   LOCATION
 CNTY.            NATRONA:   COUNTY
 STAT.            WYOMING:   STATE
 CTRY. UNITED STATES OF AMERICA:   COUNTRY
 SRVC.              Welex:   SERVICE COMPANY
 DATE.        13-JAN-1979:   LOGDATE
 API .       490251073800:   API NUMBER
~CURVE INFORMATION
#MNEM.UNIT       API CODE    CURVE DESCRIPTION
#----------   ------------   ------------------------------
 DEPT.F                  :   
 SPR .MV     07 010 01 00:   SPONTANEOUS POTENTIAL
 SGRD.OHMM   07 220 05 00:   SHALLOW GUARD RESISTIVITY
 ILD .OHMM   07 120 46 00:   INDUCTION LOG DEEP
 ILM .OHMM   07 120 44 00:   INDUCTION LOG MEDIUM
 CALD.IN     45 280 60 00:   CALIPER
 GRD .GAPI   45 310 01 00:   GAMMA RAY FROM DENSITY LOG
 RHOB.G/C3   45 350 01 00:   BULK DENSITY
 DPHI.DEC    45 890 12 00:   DENSITY POROSITY SANDSTONE
 CORR.G/C3   45 356 01 00:   DENSITY CORRECTION
~PARAMETER INFORMATION
#MNEM.UNIT          VALUE    DESCRIPTION
#----------   ------------   ------------------------------
 PD  .                 GL:   PERMANENT DATUM
 EPD .F              5312:   ELEVATION PERMANENT DATUM
 LMF .                 KB:   LOG MEASURED FROM
 DAPD.F                 4:   FEET ABOVE PERMANENT DATUM
 DMF .                 KB:   DRILLING MEASURED FROM
 EKB .F              5316:   KELLING BUSHING
 EGL .F              5312:   GROUND LEVEL
 DATE.            1-13-79:   RUN DATE
 RUN .                  1:   RUN NUMBER
 DD  .F              1167:   DEPTH DRILLER
 DL  .F              1154:   DEPTH LOGGER
 BLI .F              1152:   BOTTOM LOG INTERVAL
 TLI .F                50:   TOP LOG INTERVAL
 CS  .IN            8.625:   CASING SIZE
 CBD .F                40:   CASING BOTTOM DRILLER
 CBL .F                60:   CASING BOTTOM LOGGER
 BS  .IN            7.875:   BIT SIZE
 BSD .F              1167:   BIT SIZE AT DEPTH
 DFT .            KCL MUD:   DRILLING FLUID TYPE
 DFD .                8.8:   DRILLING FLUID DENSITY
 DFV .                 42:   DRILLING FLUID VISCOSITY
 DFPH.                8.2:   DRILLING FLUID PH
 DFL .                7.7:   DRILLING FLUID LOSS
 MSS .                PIT:   MUD SAMPLE SOURCE
 RMS .OHMM            .29:   RESISTIVITY MUD SAMPLE
 MST .F                40:   MUD SAMPLE TEMPERATURE
 RMF .OHMM            .19:   RESISTIVITY MUD FILTRATE SAMPLE
 MFST.F                40:   MUD FILTRATE SAMPLE TEMPERATURE
 RMC .OHMM            .87:   RESISTIVITY MUD CAKE
 MCST.F                40:   MUD CAKE SAMPLE TEMPERATURE
 MFSS.           MEASURED:   MUD FILTRATE SAMPLE SOURCE
 MCSS.           MEASURED:   MUD CAKE SAMPLE SOURCE
 RMB .OHMM           .119:   RESISTIVITY MUD AT BHT
 BHT .F                97:   BOTTOM HOLE TEMPERATURE
 TCS .HRS              30:   TIME CURCULATED STOPPED
 MRT .F                97:   MAXIMUM RECORDED TEMPERATURE
 LUN .               8611:   LOGGING UNIT NUMBER
 LUL .             CASPER:   LOGGING UNIT LOCATION
 ENGI.            BENTSEN:   RECORDING ENGINEER
 WITN.              AMEND:   WITNESSED BY
 CLNT.            A2DTECH:   CLIENT CODE
 ORIG.       2", 5" PRINT:   ORIGIN OF DATA
 UWI .       490251073800:   UNIQUE WELL ID
 DICO. A2D Technologies, Inc.:   DIGITIZING COMPANY
~OTHER INFORMATION
~A   DEPT      SPR       SGRD        ILD        ILM       CALD        GRD       RHOB       DPHI       CORR   
# ...
  816.5000   -22.0540    10.4343     8.7034    10.0562     7.8245   108.9591     2.5859     0.0711     0.0215
  817.0000   -22.1946    10.4343     8.6814    10.0120     7.8245   110.3933     2.5317     0.0926     0.0117
  817.5000   -22.3352    10.4982     8.6595     9.9819     7.8245   112.6768     2.4881     0.1134     0.0021
  818.0000   -22.4755    10.6800     8.6376     9.9638     7.8245   114.9676     2.4843     0.1157    -0.0022
  818.5000   -22.6152    10.8650     8.6158    10.1902     7.8245   117.2731     2.4889     0.1130     0.0018
  819.0000   -22.7287    10.9271     8.5960    10.3373     7.8245   119.5345     2.4935     0.1103     0.0054
  819.5000   -22.8797    10.6663     8.4696    10.1196     7.8245   119.2329     2.4940     0.1086     0.0091
  820.0000   -23.0286    10.4675     8.3555     9.9234     7.8245   116.6447     2.4917     0.1118     0.0127
  820.5000   -23.1771    10.2724     8.2430     9.7309     7.8245   114.0615     2.4956     0.1081     0.0154
  821.0000   -23.3257    10.0809     8.1320     9.5409     7.8245   111.4142     2.4980     0.1062     0.0116
  821.5000   -23.4743     9.9638     8.0224     9.3420     7.8245   111.2963     2.4858     0.1131     0.0077
  822.0000   -23.6229    10.1669     7.9144     9.2790     7.8245   114.3007     2.4863     0.1178     0.0039
  822.5000   -23.7714    10.3548     7.8078     9.1969     7.8245   115.6674     2.4846     0.1155     0.0000
  823.0000   -23.9201    10.5468     7.7662     9.1144     7.8245   113.8017     2.4823     0.1154    -0.0038
  823.5000   -24.0700    10.7303     7.7532     9.0854     7.8245   111.4434     2.4852     0.1144    -0.0060
  824.0000   -24.1821    10.7309     7.7376     9.8964     7.8245   107.2793     2.4787     0.1186    -0.0060
  824.5000   -24.2861    10.2910     7.7221    10.0562     7.8245   107.2775     2.4720     0.1228    -0.0060
  825.0000   -24.3900    10.0075     7.7068     9.5145     7.8245   112.0736     2.4653     0.1269    -0.0060
  825.5000   -24.4940     9.7318     7.6833     9.0678     7.8245   113.9064     2.4671     0.1253    -0.0049
  826.0000   -24.5980     9.6917     7.6300     8.7561     7.8245   113.6212     2.4744     0.1196    -0.0023
  826.5000   -24.7021     9.8723     7.5778     8.9071     7.8245   114.8232     2.4819     0.1146     0.0007
  827.0000   -24.8061     9.5598     7.5259     9.0854     7.8245   114.7291     2.4835     0.1156     0.0044
  827.5000   -24.9015     9.3577     7.4744     8.9938     7.8245   116.2271     2.4836     0.1167     0.0082
  828.0000   -24.9423     9.1599     7.4231     8.8395     7.8245   116.8521     2.4877     0.1143     0.0178
  828.5000   -24.9808     8.9662     7.3727     8.6878     7.8245   115.9387     2.4955     0.1093     0.0325
  829.0000   -25.0193     8.8373     7.3313     8.5387     7.8246   117.6229     2.5021     0.1059     0.0459
  829.5000   -25.0578     8.8373     7.3005     8.3922     7.8149   114.9368     2.4897     0.1124     0.0437
  830.0000   -25.0963     8.8373     7.2693     8.2845     7.8011   113.6197     2.4761     0.1215     0.0429
  830.5000   -25.1348     8.8373     7.2383     8.4016     7.7872   116.4456     2.4620     0.1301     0.0420
  831.0000   -25.1733     8.8373     7.2074     8.5174     7.7735   108.1712     2.4678     0.1219     0.0411
  831.5000   -25.2119     8.8373     7.1767     8.6355     7.7672   105.0559     2.4791     0.1174     0.0403
  832.0000   -25.2505     9.5119     7.1461     8.7548     7.7761   110.2358     2.4709     0.1253     0.0395
  832.5000   -25.2928     9.3258     7.1156     8.8758     7.7849   114.4436     2.4794     0.1185     0.0386
  833.0000   -25.1859     9.0102     7.0853     8.9193     7.7938   118.7255     2.4902     0.1117     0.0380
  833.5000   -25.0266     8.7101     6.9479     8.3789     7.8026   119.6499     2.5011     0.1049     0.0438
  834.0000   -24.8662     8.4367     6.7987     8.2050     7.8115   117.6626     2.5132     0.0981     0.0498
  834.5000   -24.7061     8.4370     6.6527     8.2469     7.8201   115.1361     2.5323     0.0894     0.0558
  835.0000   -24.5381     8.5170     6.5098     8.2845     7.8191   113.7624     2.5159     0.0936     0.0590
  835.5000   -24.5742     8.4074     6.3699     8.1252     7.8003   116.9882     2.5050     0.1022     0.0559
  836.0000   -24.6810     8.2426     6.2331     7.9746     7.7824   120.2165     2.5115     0.1003     0.0559
  836.5000   -24.5632     8.0810     6.0992     7.8269     7.7636   123.1273     2.5162     0.0966     0.0567
  837.0000   -24.3376     7.9109     5.9682     7.6819     7.7166   119.3101     2.5107     0.0950     0.0575
  837.5000   -24.1096     7.9842     5.8400     7.5395     7.6708   113.5355     2.5010     0.1031     0.0570
  838.0000   -23.8815     7.1869     5.7145     7.4000     7.6283   115.0583     2.4925     0.1094     0.0550
  838.5000   -23.6538     6.6022     5.5913     7.2804     7.6412   115.1951     2.4895     0.1130     0.0530
  839.0000   -23.4289     6.0533     5.4693     7.2135     7.6750   115.6249     2.4785     0.1182     0.0447
  839.5000   -23.3797     6.4452     5.4549     7.4843     7.7084   119.5670     2.4666     0.1271     0.0270
  840.0000   -23.5639     5.6788     5.4415     7.4511     7.7418   121.5285     2.4553     0.1333     0.0094
  840.5000   -23.7469     4.8183     5.4278     7.3448     7.7753   120.5893     2.4555     0.1309     0.0036
  841.0000   -24.0075     6.4855     5.4185     7.4735     7.8088   119.6730     2.4658     0.1249     0.0129
  841.5000   -24.6640     7.4090     5.4850     7.6569     7.8427   118.7654     2.4843     0.1121     0.0223
  842.0000   -25.1251     8.0597     5.5439     7.7662     7.8289   118.3801     2.5078     0.1035     0.0316
  842.5000   -25.4810     8.0049     5.6035     7.6212     7.8000   119.3064     2.5036     0.1050     0.0405
  843.0000   -25.8358     7.9468     5.6637     7.5197     7.7712   120.1523     2.5059     0.1022     0.0462
  843.5000   -26.1907     7.9109     5.7272     7.4154     7.7424   120.0457     2.5092     0.0983     0.0518
  844.0000   -26.5459     8.1698     5.7272     7.5309     7.7135   117.4484     2.5126     0.0988     0.0560
  844.5000   -26.9010     8.2845     5.5631     7.6827     7.6869   118.6245     2.5122     0.0998     0.0556
  845.0000   -27.2563     7.9157     5.4467     7.7662     7.6873   120.8989     2.5073     0.0958     0.0490
  845.5000   -27.6220     7.4336     5.3328     6.9798     7.6898   123.1877     2.5045     0.1002     0.0424
  846.0000   -27.7437     6.8861     5.2214     6.4166     7.6922   124.3120     2.5101     0.1017     0.0358
  846.5000   -27.8027     6.3790     5.1124     5.8987     7.6946   123.1749     2.5121     0.0970     0.0291
  847.0000   -27.8589     5.9093     5.0056     5.6225     7.6969   122.0070     2.5078     0.0999     0.0306
  847.5000   -27.8673     4.9175     4.9010     5.7439     7.6993   120.8363     2.5102     0.1001     0.0338
  848.0000   -27.7245     4.7619     4.8506     5.8815     7.7017   119.6673     2.5063     0.1012     0.0371
  848.5000   -27.5883     6.4558     4.8657     6.2772     7.7041   118.4976     2.5007     0.1054     0.0404
  849.0000   -27.4521     7.4342     4.9559     6.6995     7.7064   117.3175     2.5029     0.1027     0.0437
  849.5000   -27.3159     7.5018     5.0500     7.2135     7.7088   116.0916     2.5075     0.0999     0.0396
  850.0000   -27.1797     7.5585     5.2038     7.1599     7.7112   116.8029     2.5123     0.0974     0.0349
  850.5000   -27.0435     7.9537     5.3977     7.0816     7.7135   117.8598     2.5102     0.1008     0.0302
  851.0000   -26.9073     8.2845     5.5974     7.1738     7.7159   118.9263     2.5056     0.1038     0.0264
  851.5000   -26.7709     8.2845     5.8044     7.3033     7.7183   119.8948     2.5009     0.1058     0.0355
  852.0000   -26.6338     8.0033     6.0191     7.4352     7.7207   118.0361     2.4968     0.1054     0.0448
  852.5000   -26.5042     7.8382     6.2418     7.6242     7.7231   115.8305     2.5024     0.1037     0.0478
