~VERSION INFORMATION
 VERS.                2.0:   CWLS LOG ASCII STANDARD - VERSION 2.0
 WRAP.                 NO:   ONE LINE PER DEPTH STEP
~WELL INFORMATION
#MNEM.UNIT      DATA TYPE    INFORMATION
#----------   ------------   ------------------------------
 STRT.F           40.0000:   START DEPTH
 STOP.F          821.0000:   STOP DEPTH
 STEP.F            0.5000:   STEP LENGTH
 NULL.          -999.2500:   NO VALUE
 COMP. FENIX & SCISSON INC:   COMPANY
 WELL. NPR 3 -68 SX #68-27:   WELL
 FLD .             TEAPOT:   FIELD
 LOC .      S27 T39N R78W:   LOCATION
 CNTY.            NATRONA:   COUNTY
 STAT.            WYOMING:   STATE
 CTRY. UNITED STATES OF AMERICA:   COUNTRY
 SRVC.           BIRDWELL:   SERVICE COMPANY
 DATE.        11-SEP-1978:   LOGDATE
 API .       490251069500:   API NUMBER
~CURVE INFORMATION
#MNEM.UNIT       API CODE    CURVE DESCRIPTION
#----------   ------------   ------------------------------
 DEPT.F                  :   
 SPR .MV     05 010 01 00:   SPONTANEOUS POTENTIAL FROM RES.
 SN  .OHMM   05 040 16 00:   SHORT NORMAL 16"
 ILD .OHMM   05 120 46 00:   INDUCTION LOG DEEP
 GRD .GAPI   45 310 01 00:   GAMMA RAY FROM DENSITY LOG
 CALD.IN     45 280 60 00:   CALIPER
 RHOB.G/C3   45 350 01 00:   BULK DENSITY
 CORR.G/C3   45 356 01 00:   DENSITY CORRECTION
 DPHI.DEC    45 890 12 00:   DENSITY POROSITY SANDSTONE
~PARAMETER INFORMATION
#MNEM.UNIT          VALUE    DESCRIPTION
#----------   ------------   ------------------------------
 PD  .                 GL:   PERMANENT DATUM
 EPD .F              5032:   ELEVATION PERMANENT DATUM
 LMF .                 GL:   LOG MEASURED FROM
 DAPD.F                 4:   FEET ABOVE PERMANENT DATUM
 DMF .                 GL:   DRILLING MEASURED FROM
 EKB .F              5036:   KELLING BUSHING
 EGL .F              5032:   GROUND LEVEL
 DATE.            9-11-78:   RUN DATE
 RUN .                  1:   RUN NUMBER
 DD  .F               820:   DEPTH DRILLER
 DL  .F               822:   DEPTH LOGGER
 BLI .F               818:   BOTTOM LOG INTERVAL
 TLI .F                40:   TOP LOG INTERVAL
 CS  .IN            8.625:   CASING SIZE
 CBD .F                40:   CASING BOTTOM DRILLER
 CBL .F                40:   CASING BOTTOM LOGGER
 BS  .IN            7.875:   BIT SIZE
 BSD .F               820:   BIT SIZE AT DEPTH
 DFT .                KCL:   DRILLING FLUID TYPE
 DFD .                8.6:   DRILLING FLUID DENSITY
 DFV .                 34:   DRILLING FLUID VISCOSITY
 DFPH.                  9:   DRILLING FLUID PH
 DFL .                  8:   DRILLING FLUID LOSS
 MSS .           FLOWLINE:   MUD SAMPLE SOURCE
 RMS .OHMM            .24:   RESISTIVITY MUD SAMPLE
 MST .F                62:   MUD SAMPLE TEMPERATURE
 RMF .OHMM            .18:   RESISTIVITY MUD FILTRATE SAMPLE
 MFST.F                64:   MUD FILTRATE SAMPLE TEMPERATURE
 RMC .OHMM             .3:   RESISTIVITY MUD CAKE
 MCST.F                66:   MUD CAKE SAMPLE TEMPERATURE
 MFSS.               MEAS:   MUD FILTRATE SAMPLE SOURCE
 MCSS.               MEAS:   MUD CAKE SAMPLE SOURCE
 RMB .OHMM            .22:   RESISTIVITY MUD AT BHT
 BHT .F                68:   BOTTOM HOLE TEMPERATURE
 TCS .HRS               1:   TIME CURCULATED STOPPED
 MRT .F                68:   MAXIMUM RECORDED TEMPERATURE
 LUN .               3006:   LOGGING UNIT NUMBER
 LUL .               CASP:   LOGGING UNIT LOCATION
 ENGI.            POINTER:   RECORDING ENGINEER
 WITN.              AMEND:   WITNESSED BY
 CLNT.            A2DTECH:   CLIENT CODE
 ORIG.           5" PRINT:   ORIGIN OF DATA
 UWI .       490251069500:   UNIQUE WELL ID
 DICO. A2D Technologies, Inc.:   DIGITIZING COMPANY
~OTHER INFORMATION
~A   DEPT       SPR        SN        ILD         GRD        CALD     RHOB       CORR       DPHI   
# ...
  607.0000   -37.6745     7.5762     6.2955   107.3748     7.7644     2.5049     0.0490     0.1079
  607.5000   -38.0121     7.8965     6.8233   111.5580     7.7319     2.5115     0.0596     0.1106
  608.0000   -38.3399     8.0431     7.3699   113.3501     7.7663     2.5181     0.0702     0.1111
  608.5000   -37.9920     8.0431     7.5414   114.6087     7.8014     2.5240     0.0771     0.1098
  609.0000   -37.5608     7.9695     7.3803   115.8743     7.8294     2.5240     0.0779     0.1065
  609.5000   -37.1764     8.0163     7.2042   115.6331     7.8456     2.5214     0.0789     0.0998
  610.0000   -37.1814     8.0836     7.0324   114.5787     7.8254     2.5126     0.0794     0.1046
  610.5000   -37.1930     8.1175     6.8650   116.1690     7.8056     2.5012     0.0808     0.1139
  611.0000   -37.2034     7.9800     6.7531   119.6483     7.7895     2.4762     0.0856     0.1231
  611.5000   -37.2134     7.8756     6.7614   117.0393     7.7968     2.4862     0.0903     0.1306
  612.0000   -37.2234     7.7727     6.7734   111.7334     7.8073     2.5023     0.0950     0.1312
  612.5000   -37.2335     7.6803     6.7854   110.5237     7.8179     2.5182     0.0976     0.1164
  613.0000   -37.2435     7.7871     6.7974   110.4635     7.8285     2.5215     0.0993     0.1050
  613.5000   -37.2535     7.8956     6.8095   110.3848     7.8300     2.5230     0.0983     0.0999
  614.0000   -37.2635     8.1496     6.9724   110.3354     7.8300     2.5272     0.0976     0.0976
  614.5000   -37.2735     8.4403     7.2830   113.2691     7.8300     2.5332     0.0921     0.0952
  615.0000   -37.2836     8.7414     7.6075   116.0958     7.8300     2.5362     0.0809     0.0937
  615.5000   -37.2936     9.0532     7.9464   116.5648     7.8300     2.5387     0.0694     0.0942
  616.0000   -37.3036     9.1885     8.3064   117.0305     7.8300     2.5412     0.0580     0.0948
  616.5000   -37.3136     9.3215     8.3850   118.9000     7.8300     2.5437     0.0466     0.0948
  617.0000   -37.3237     9.4565     8.4423   121.9654     7.8300     2.5466     0.0371     0.0910
  617.5000   -37.3337     9.5934     8.4997   124.2741     7.8300     2.5438     0.0277     0.0868
  618.0000   -37.3437     9.7324     8.5578   121.2582     7.8300     2.5393     0.0184     0.0873
  618.5000   -37.3537     9.8733     8.6163   117.1519     7.8299     2.5375     0.0174     0.0898
  619.0000   -37.3638    10.0280     8.6575   116.7269     7.8301     2.5368     0.0175     0.0917
  619.5000   -37.3737    10.0033     8.6575   116.2011     7.8414     2.5365     0.0175     0.0926
  620.0000   -37.3748     9.9726     8.6576   115.4048     7.8773     2.5363     0.0175     0.0936
  620.5000   -37.3748     9.9419     8.6575   114.3179     7.9131     2.5361     0.0175     0.0943
  621.0000   -37.3747     9.9114     8.6575   115.5701     7.9487     2.5341     0.0175     0.0926
  621.5000   -37.3747     9.8811     8.6575   117.3340     7.9418     2.5305     0.0175     0.0915
  622.0000   -37.3747     9.8508     8.6575   116.3566     7.9304     2.5279     0.0175     0.0940
  622.5000   -37.3747     9.8206     8.6574   114.1365     7.9192     2.5291     0.0175     0.0966
  623.0000   -37.3747     9.7906     8.6574   112.8360     7.9123     2.5303     0.0175     0.0990
  623.5000   -37.3747     9.7606     8.6572   116.5694     7.9281     2.5310     0.0175     0.0979
  624.0000   -37.3747     9.7307     8.6994   117.3006     7.9438     2.5298     0.0175     0.0954
  624.5000   -37.3747     9.7008     8.8422   114.0336     7.9497     2.5273     0.0175     0.0936
  625.0000   -37.3747     9.6711     8.9870   111.2324     7.9434     2.5249     0.0185     0.0946
  625.5000   -37.3761     9.6682     9.1341   109.4752     7.9366     2.5226     0.0199     0.0966
  626.0000   -37.3813     9.6684     9.2335   112.1161     7.9302     2.5202     0.0213     0.0986
  626.5000   -37.3510     9.6689     8.7437   116.1148     7.9299     2.5148     0.0228     0.1103
  627.0000   -36.6773     9.6691     8.3211   114.7176     7.9292     2.4847     0.0216     0.1244
  627.5000   -34.8736     9.4052     7.9189   113.5424     7.9586     2.4543     0.0180     0.1396
  628.0000   -34.3079     9.1895     7.5361   118.4068     7.9932     2.4272     0.0143     0.1498
  628.5000   -34.2063     8.7532     7.1364   118.9281     8.0280     2.4453     0.0105     0.1577
  629.0000   -34.1142     8.3383     7.2756   114.9844     8.0627     2.4822     0.0113     0.1637
  629.5000   -34.0211     7.9430     7.4792   109.7251     8.0975     2.5154     0.0137     0.1643
  630.0000   -33.9268     7.7525     7.5414   103.6000     8.1295     2.5394     0.0162     0.1083
  630.5000   -33.8330     8.4017     7.5414   104.5442     8.1305     2.5609     0.0171     0.0850
  631.0000   -33.7824     9.0935     7.5414   105.7497     8.1204     2.5610     0.0163     0.0826
  631.5000   -33.9370     9.8423     8.1175   106.3768     8.1092     2.5584     0.0156     0.0824
  632.0000   -34.0961    10.6528     9.4634   105.8709     8.0980     2.5493     0.0161     0.0845
  632.5000   -34.1583    11.5300    11.0338   101.6867     8.0868     2.5419     0.0174     0.0869
  633.0000   -33.6367    12.1012    11.7764    95.4123     8.0756     2.5394     0.0186     0.0892
  633.5000   -32.3744    12.3750    12.0605   102.9922     8.0646     2.5372     0.0194     0.0908
  634.0000   -30.7418    12.1200    11.6082   110.4749     8.0535     2.5355     0.0189     0.0919
  634.5000   -29.5552    12.0573    11.2145   108.1765     8.0069     2.5324     0.0184     0.0932
  635.0000   -28.3847    12.2624    11.0990   104.3091     7.9863     2.5286     0.0180     0.0945
  635.5000   -27.5645    12.4519    11.0968   100.4462     7.9652     2.5238     0.0175     0.0994
  636.0000   -27.6585    12.6443    11.2511    96.5855     7.9441     2.5000     0.0206     0.1108
  636.5000   -26.1131    12.9527    11.5661    94.8072     7.9229     2.4687     0.0233     0.1214
  637.0000   -24.3374    13.3855    12.2690    96.2421     7.9017     2.4373     0.0320     0.1332
  637.5000   -22.7482    13.8326    13.0851    97.2299     7.8804     2.4060     0.0414     0.1481
  638.0000   -22.6798    14.6098    13.9552    90.9629     7.8587     2.3747     0.0509     0.1639
  638.5000   -22.6333    15.5755    15.3467    83.2695     7.8539     2.3435     0.0593     0.1881
  639.0000   -22.5822    16.6056    17.0972    75.2996     7.9207     2.3350     0.0582     0.2123
  639.5000   -22.5443    17.7043    19.0473    79.2484     7.9885     2.3313     0.0569     0.2188
  640.0000   -22.5559    18.8406    21.2199    84.4770     8.0552     2.3321     0.0557     0.2201
  640.5000   -22.5777    19.2749    23.4762    89.7217     8.1101     2.3497     0.0571     0.2138
  641.0000   -22.5995    19.7848    24.3937    93.2172     8.1207     2.3705     0.0698     0.2085
  641.5000   -22.6213    20.3082    25.6446    92.0015     8.0686     2.4662     0.0818     0.1952
  642.0000   -22.6431    20.8455    25.4231    95.7270     8.0172     2.5711     0.0939     0.1643
  642.5000   -22.6649    21.3971    24.9868    99.3986     7.9656     2.5852     0.0995     0.0945
  643.0000   -22.6871    21.9636    24.5579    96.1568     7.9141     2.5824     0.0994     0.0666
  643.5000   -22.7097    22.5454    24.1378    95.1040     7.8625     2.5733     0.0991     0.0628
  644.0000   -22.7276    22.9599    23.7250    98.1262     7.8109     2.5617     0.0960     0.0831
  644.5000   -22.5377    22.9599    23.6018    85.2330     7.7592     2.5436     0.0706     0.1052
  645.0000   -21.8188    22.9599    23.6029    83.5790     7.7110     2.4726     0.0406     0.1273
  645.5000   -21.7414    22.9599    23.6033    93.4832     7.7099     2.4013     0.0303     0.1577
  646.0000   -21.7422    22.6473    23.3624   100.8201     7.7043     2.3517     0.0235     0.1876
  646.5000   -21.7437    22.2081    22.8896    93.6095     7.6976     2.3112     0.0216     0.2134
  647.0000   -21.7432    21.7775    22.4263    84.3507     7.6909     2.2986     0.0243     0.2244
