~VERSION INFORMATION
 VERS.                2.0:   CWLS LOG ASCII STANDARD - VERSION 2.0
 WRAP.                 NO:   ONE LINE PER DEPTH STEP
~WELL INFORMATION
#MNEM.UNIT      DATA TYPE    INFORMATION
#----------   ------------   ------------------------------
 STRT.F           10.0000:   START DEPTH
 STOP.F          833.5000:   STOP DEPTH
 STEP.F            0.5000:   STEP LENGTH
 NULL.          -999.2500:   NO VALUE
 COMP. FENIX & SCISSON INC:   COMPANY
 WELL.       NPR 3 #46-11:   WELL
 FLD .             TEAPOT:   FIELD
 LOC .      S11 T38N R78W:   LOCATION
 CNTY.            NATRONA:   COUNTY
 STAT.            WYOMING:   STATE
 CTRY. UNITED STATES OF AMERICA:   COUNTRY
 SRVC.           BIRDWELL:   SERVICE COMPANY
 DATE.        17-DEC-1978:   LOGDATE
 API .       490251075600:   API NUMBER
~CURVE INFORMATION
#MNEM.UNIT       API CODE    CURVE DESCRIPTION
#----------   ------------   ------------------------------
 DEPT.F                  :   
 GRD .GAPI   45 310 01 00:   GAMMA RAY FROM DENSITY LOG
 CALD.IN     45 280 60 00:   CALIPER
 CORR.G/C3   45 356 01 00:   DENSITY CORRECTION
 DPHI.DEC    45 890 12 00:   DENSITY POROSITY SANDSTONE
 RHOB.G/C3   45 350 01 00:   BULK DENSITY
 SPR .MV     05 010 01 00:   SPONTANEOUS POTENTIAL FROM RES.
 SN  .OHMM   05 040 16 00:   SHORT NORMAL 16"
 IL  .OHMM   05 120 00 00:   INDUCTION LOG
~PARAMETER INFORMATION
#MNEM.UNIT          VALUE    DESCRIPTION
#----------   ------------   ------------------------------
 PD  .                 GL:   PERMANENT DATUM
 EPD .F              5193:   ELEVATION PERMANENT DATUM
 LMF .                 KB:   LOG MEASURED FROM
 DAPD.F                 4:   FEET ABOVE PERMANENT DATUM
 DMF .                 KB:   DRILLING MEASURED FROM
 EKB .F              5197:   KELLING BUSHING
 EGL .F              5193:   GROUND LEVEL
 DATE.           12-17-78:   RUN DATE
 RUN .                  1:   RUN NUMBER
 DD  .F               845:   DEPTH DRILLER
 DL  .F               834:   DEPTH LOGGER
 BLI .F               827:   BOTTOM LOG INTERVAL
 TLI .F                60:   TOP LOG INTERVAL
 CS  .IN            8.625:   CASING SIZE
 CBD .F                40:   CASING BOTTOM DRILLER
 CBL .F                42:   CASING BOTTOM LOGGER
 BS  .IN            7.875:   BIT SIZE
 BSD .F               845:   BIT SIZE AT DEPTH
 DFT .                KCL:   DRILLING FLUID TYPE
 DFD .                8.8:   DRILLING FLUID DENSITY
 DFV .                 36:   DRILLING FLUID VISCOSITY
 DFPH.               10.5:   DRILLING FLUID PH
 MSS .          FLOW LINE:   MUD SAMPLE SOURCE
 RMS .OHMM            .34:   RESISTIVITY MUD SAMPLE
 MST .F                62:   MUD SAMPLE TEMPERATURE
 RMF .OHMM            .26:   RESISTIVITY MUD FILTRATE SAMPLE
 MFST.F                66:   MUD FILTRATE SAMPLE TEMPERATURE
 RMC .OHMM            .42:   RESISTIVITY MUD CAKE
 MCST.F                68:   MUD CAKE SAMPLE TEMPERATURE
 MFSS.           MEASURED:   MUD FILTRATE SAMPLE SOURCE
 MCSS.           MEASURED:   MUD CAKE SAMPLE SOURCE
 RMB .OHMM           .288:   RESISTIVITY MUD AT BHT
 BHT .F                73:   BOTTOM HOLE TEMPERATURE
 TCS .HRS               4:   TIME CURCULATED STOPPED
 MRT .F                73:   MAXIMUM RECORDED TEMPERATURE
 LUN .               3006:   LOGGING UNIT NUMBER
 LUL .             CASPER:   LOGGING UNIT LOCATION
 ENGI.         B. ROLLINS:   RECORDING ENGINEER
 WITN.         RICHARDSON:   WITNESSED BY
 CLNT.            A2DTECH:   CLIENT CODE
 ORIG.           5" PRINT:   ORIGIN OF DATA
 UWI .       490251075600:   UNIQUE WELL ID
 DICO. A2D Technologies, Inc.:   DIGITIZING COMPANY
~OTHER INFORMATION
~A   DEPT      GRD       CALD       CORR       DPHI       RHOB        SPR         SN         IL   
# ...
  577.0000   112.7630     8.1650     0.0040     0.1120     2.4870   -23.8960     5.8230     5.6800
  577.5000   113.6950     8.2470     0.0040     0.1100     2.4880   -23.8960     6.1250     5.8630
  578.0000   114.3790     8.2820     0.0040     0.1080     2.4890   -23.8960     6.4270     6.0460
  578.5000   116.3540     8.1600     0.0040     0.1060     2.4910   -23.8960     6.7280     6.2280
  579.0000   118.2700     8.0520     0.0040     0.1040     2.4940   -23.8960     7.0300     6.4110
  579.5000   119.6820     8.0580     0.0050     0.1050     2.4960   -23.8950     7.3320     6.5940
  580.0000   118.5700     8.0680     0.0050     0.1050     2.4980   -23.8960     7.6460     6.7100
  580.5000   117.5030     8.0780     0.0050     0.1050     2.4980   -23.8960     7.9360     6.7040
  581.0000   116.6430     8.0870     0.0050     0.1060     2.4970   -23.8950     7.9210     6.6970
  581.5000   116.5140     8.0970     0.0050     0.1060     2.4960   -23.8990     7.8780     6.6900
  582.0000   116.3730     8.1070     0.0060     0.1060     2.4960   -23.8600     7.8360     6.6830
  582.5000   115.5020     8.1160     0.0060     0.1060     2.4960   -23.7880     7.7930     6.6760
  583.0000   113.6920     8.1260     0.0060     0.1050     2.4970   -23.7210     7.7510     6.6700
  583.5000   112.3430     8.1360     0.0070     0.1050     2.4980   -23.6550     7.7080     6.6630
  584.0000   114.5070     8.1460     0.0100     0.1040     2.4980   -23.5880     7.6660     6.6560
  584.5000   115.3210     8.1550     0.0120     0.1040     2.4990   -23.5210     7.6460     6.6490
  585.0000   115.3840     8.1650     0.0150     0.1030     2.5000   -23.4540     7.6460     6.6420
  585.5000   115.4340     8.1740     0.0170     0.1040     2.5000   -23.3870     7.6460     6.6350
  586.0000   115.4520     8.1840     0.0200     0.1070     2.4960   -23.3200     7.5410     6.6280
  586.5000   116.8330     8.1820     0.0180     0.1090     2.4910   -23.2530     7.3940     6.6220
  587.0000   118.4390     8.1620     0.0140     0.1120     2.4860   -23.1870     7.2480     6.6150
  587.5000   120.0730     8.1430     0.0100     0.1150     2.4820   -23.1170     7.1010     6.6080
  588.0000   121.6230     8.1240     0.0050     0.1180     2.4770   -23.0900     6.9550     6.6010
  588.5000   119.7240     8.1040     0.0000     0.1220     2.4720   -23.0930     6.8080     6.5950
  589.0000   117.2870     8.0850     0.0020     0.1270     2.4670   -23.0920     6.6620     6.5880
  589.5000   114.8270     8.0650     0.0040     0.1220     2.4630   -23.0920     6.5870     6.6090
  590.0000   113.4590     8.0460     0.0070     0.1180     2.4690   -23.0930     6.6450     6.6330
  590.5000   112.3670     8.0310     0.0090     0.1130     2.4760   -23.0900     6.7310     6.6590
  591.0000   111.2810     8.0370     0.0110     0.1090     2.4820   -23.0930     6.8170     6.6830
  591.5000   110.2200     8.0430     0.0120     0.1080     2.4870   -23.0990     6.9020     6.7080
  592.0000   109.7280     8.0490     0.0100     0.1070     2.4890   -23.2320     7.0220     6.7330
  592.5000   112.5150     8.0550     0.0080     0.1060     2.4910   -23.3670     7.2370     6.7580
  593.0000   115.2830     8.0610     0.0060     0.1050     2.4940   -23.5080     7.4510     6.7830
  593.5000   118.0480     8.0670     0.0020     0.1030     2.4960   -23.6460     7.6660     6.8070
  594.0000   119.2470     8.0730    -0.0010     0.1010     2.4990   -23.7850     7.8800     6.8350
  594.5000   119.1580     8.0790    -0.0050     0.0990     2.5020   -23.9240     8.0850     6.8360
  595.0000   118.0330     8.0850    -0.0080     0.0970     2.5040   -24.0610     8.0700     6.8370
  595.5000   116.9650     8.0910    -0.0080     0.0950     2.5070   -24.2010     8.0550     6.8370
  596.0000   117.7620     8.0980    -0.0080     0.0930     2.5090   -24.3390     8.0400     6.8370
  596.5000   118.6870     8.1060    -0.0080     0.0950     2.5080   -24.4760     8.0250     6.8370
  597.0000   119.5450     8.1130    -0.0080     0.0980     2.5030   -24.6250     8.0100     6.8370
  597.5000   119.8500     8.1210    -0.0070     0.1010     2.4980   -24.7040     7.9950     6.8370
  598.0000   119.4910     8.1280    -0.0050     0.1030     2.4940   -24.6870     7.9810     6.8370
  598.5000   119.1370     8.1230    -0.0030     0.1060     2.4890   -24.6820     7.9660     6.8370
  599.0000   120.2110     8.1140    -0.0010     0.1090     2.4880   -24.6750     7.9510     6.8370
  599.5000   121.4240     8.1050    -0.0020     0.1110     2.4860   -24.6670     7.9360     6.8370
  600.0000   122.6190     8.0960    -0.0080     0.1140     2.4850   -24.6600     7.9110     6.8370
  600.5000   123.0430     8.0880    -0.0130     0.1130     2.4840   -24.6530     7.8870     6.8370
  601.0000   121.1900     8.0830    -0.0160     0.1110     2.4850   -24.6450     7.8630     6.8370
  601.5000   120.6420     8.0780    -0.0150     0.1100     2.4910   -24.6380     7.8390     6.8370
  602.0000   121.3190     8.0730    -0.0150     0.1080     2.4980   -24.6310     7.8150     6.8370
  602.5000   121.8550     8.0670    -0.0140     0.1060     2.5030   -24.6240     7.7900     6.8370
  603.0000   119.3260     8.0620    -0.0110     0.1060     2.5000   -24.6160     7.7900     6.8370
  603.5000   116.4000     8.0570    -0.0080     0.1100     2.4960   -24.6090     7.7890     6.8370
  604.0000   115.8320     8.0510    -0.0040     0.1150     2.4810   -24.6020     7.7900     6.8370
  604.5000   118.1490     8.0570    -0.0010     0.1170     2.4750   -24.5950     7.7900     6.8370
  605.0000   118.6150     8.0660     0.0020     0.1170     2.4760   -24.5880     7.7890     6.8370
  605.5000   118.1370     8.0750     0.0030     0.1140     2.4770   -24.5800     7.7910     6.7380
  606.0000   117.6170     8.0850     0.0000     0.1130     2.4780   -24.5730     7.7950     6.6010
  606.5000   117.2620     8.0940    -0.0030     0.1140     2.4780   -24.5660     7.7850     6.4640
  607.0000   124.6230     8.1030    -0.0070     0.1160     2.4770   -24.5590     7.6480     6.3270
  607.5000   131.1520     8.1130    -0.0080     0.1170     2.4750   -24.5510     7.4910     6.2220
  608.0000   134.4650     8.1220    -0.0080     0.1150     2.4750   -24.5440     7.3330     6.2010
  608.5000   137.0140     8.1290    -0.0080     0.1110     2.4820   -24.5370     7.1760     6.1800
  609.0000   135.8780     8.1190    -0.0080     0.1070     2.4900   -24.5300     7.0180     6.1590
  609.5000   131.0270     8.1090    -0.0080     0.1040     2.4970   -24.5230     6.8370     6.1380
  610.0000   126.3240     8.0990    -0.0080     0.1120     2.4950   -24.5150     6.8190     6.1180
  610.5000   121.6290     8.0890    -0.0080     0.1230     2.4860   -24.5080     6.7980     6.0970
  611.0000   116.9420     8.0790    -0.0080     0.1340     2.4720   -24.5010     6.7770     6.0760
  611.5000   115.8130     8.0710    -0.0080     0.1450     2.4500   -24.4940     6.7560     6.0550
  612.0000   115.3360     8.0810    -0.0080     0.1560     2.4280   -24.4860     6.7360     6.0340
  612.5000   116.0580     8.0900    -0.0080     0.1600     2.4070   -24.4790     6.7150     6.0130
  613.0000   118.6070     8.1000    -0.0080     0.1470     2.4020   -24.4720     6.6590     5.9920
  613.5000   119.6930     8.1090    -0.0080     0.1370     2.4150   -24.4650     6.5300     5.9710
  614.0000   119.6670     8.1180    -0.0080     0.1270     2.4420   -24.4580     6.4010     5.9500
  614.5000   118.6680     8.1280    -0.0080     0.1160     2.4690   -24.4500     6.3460     5.9290
  615.0000   117.5800     8.1360    -0.0080     0.1110     2.4850   -24.4430     6.4860     5.9080
  615.5000   117.6060     8.1450    -0.0080     0.1080     2.4880   -24.4360     6.6680     5.8900
  616.0000   118.4710     8.1530    -0.0080     0.1060     2.4910   -24.4290     6.8510     6.0850
  616.5000   119.3350     8.1610    -0.0080     0.1040     2.4940   -24.4210     7.0340     6.2550
  617.0000   120.2050     8.1700    -0.0010     0.1030     2.4980   -24.4140     7.2300     6.4250
