~VERSION INFORMATION
 VERS.                2.0:   CWLS LOG ASCII STANDARD - VERSION 2.0
 WRAP.                 NO:   ONE LINE PER DEPTH STEP
~WELL INFORMATION
#MNEM.UNIT      DATA TYPE    INFORMATION
#----------   ------------   ------------------------------
 STRT.F           10.5000:   START DEPTH
 STOP.F          604.0000:   STOP DEPTH
 STEP.F            0.5000:   STEP LENGTH
 NULL.          -999.2500:   NO VALUE
 COMP. FENIX & SCISSON INC:   COMPANY
 WELL.  NPR 3 #87 S 10-10:   WELL
 FLD .             TEAPOT:   FIELD
 LOC .      S10 T38N R78W:   LOCATION
 CNTY.            NATRONA:   COUNTY
 STAT.            WYOMING:   STATE
 CTRY. UNITED STATES OF AMERICA:   COUNTRY
 SRVC.           BIRDWELL:   SERVICE COMPANY
 DATE.        11-DEC-1978:   LOGDATE
 API .       490251075400:   API NUMBER
~CURVE INFORMATION
#MNEM.UNIT       API CODE    CURVE DESCRIPTION
#----------   ------------   ------------------------------
 DEPT.F                  :   
 SPR .MV     05 010 01 00:   SPONTANEOUS POTENTIAL FROM RES.
 SN  .OHMM   05 040 16 00:   SHORT NORMAL 16"
 IL  .OHMM   05 120 00 00:   INDUCTION LOG
 CALD.IN     45 280 60 00:   CALIPER
 GRD .GAPI   45 310 01 00:   GAMMA RAY FROM DENSITY LOG
 RHOB.G/C3   45 350 01 00:   BULK DENSITY
 DPHI.DEC    45 890 12 00:   DENSITY POROSITY SANDSTONE
 CORR.G/C3   45 356 01 00:   DENSITY CORRECTION
~PARAMETER INFORMATION
#MNEM.UNIT          VALUE    DESCRIPTION
#----------   ------------   ------------------------------
 PD  .                 GL:   PERMANENT DATUM
 LMF .                 KB:   LOG MEASURED FROM
 DAPD.F                 4:   FEET ABOVE PERMANENT DATUM
 DMF .                 KB:   DRILLING MEASURED FROM
 DATE.           12-11-78:   RUN DATE
 RUN .                  1:   RUN NUMBER
 DD  .F               600:   DEPTH DRILLER
 DL  .F               602:   DEPTH LOGGER
 BLI .F               596:   BOTTOM LOG INTERVAL
 TLI .F                60:   TOP LOG INTERVAL
 CBD .F                40:   CASING BOTTOM DRILLER
 CBL .F                35:   CASING BOTTOM LOGGER
 BS  .IN            7.875:   BIT SIZE
 BSD .F               600:   BIT SIZE AT DEPTH
 DFT .                KCC:   DRILLING FLUID TYPE
 DFD .                8.7:   DRILLING FLUID DENSITY
 DFV .                 39:   DRILLING FLUID VISCOSITY
 DFPH.               10.5:   DRILLING FLUID PH
 DFL .                 10:   DRILLING FLUID LOSS
 MSS .           FLOWLINE:   MUD SAMPLE SOURCE
 RMS .OHMM              1:   RESISTIVITY MUD SAMPLE
 MST .F                62:   MUD SAMPLE TEMPERATURE
 RMF .OHMM            .85:   RESISTIVITY MUD FILTRATE SAMPLE
 MFST.F                58:   MUD FILTRATE SAMPLE TEMPERATURE
 RMC .OHMM             .8:   RESISTIVITY MUD CAKE
 MCST.F                66:   MUD CAKE SAMPLE TEMPERATURE
 MFSS.           MEASURED:   MUD FILTRATE SAMPLE SOURCE
 MCSS.           MEASURED:   MUD CAKE SAMPLE SOURCE
 BHT .F                72:   BOTTOM HOLE TEMPERATURE
 TCS .HRS               3:   TIME CURCULATED STOPPED
 MRT .F                72:   MAXIMUM RECORDED TEMPERATURE
 LUN .               2958:   LOGGING UNIT NUMBER
 LUL .             CASPER:   LOGGING UNIT LOCATION
 ENGI.            ROLLINS:   RECORDING ENGINEER
 WITN.           DINSMORE:   WITNESSED BY
 CLNT.            A2DTECH:   CLIENT CODE
 ORIG.       2", 5" PRINT:   ORIGIN OF DATA
 UWI .       490251075400:   UNIQUE WELL ID
 DICO. A2D Technologies, Inc.:   DIGITIZING COMPANY
~OTHER INFORMATION
~A   DEPT      SPR         SN         IL       CALD        GRD       RHOB       DPHI       CORR   
# ...
  415.5000   -21.5440    14.5740    17.0140     8.5830    70.2350     2.3080     0.2270     0.2340
  416.0000   -21.5420    16.0350    18.1300     8.4360    65.8380     2.3030     0.2380     0.2790
  416.5000   -22.4920    17.4960    19.2450     8.2450    64.8430     2.3560     0.2210     0.2070
  417.0000   -23.8960    19.0100    20.3600     8.2590    72.0580     2.4160     0.1800     0.0990
  417.5000   -25.5500    19.8970    21.1770     8.2770    81.5490     2.3750     0.1720     0.0390
  418.0000   -27.4430    20.8160    21.7610     8.2940    84.2570     2.3130     0.2150     0.0120
  418.5000   -27.6880    21.5820    22.3450     8.3130    77.3080     2.2730     0.2550     0.0270
  419.0000   -26.5070    22.2970    22.9300     8.4020    75.6060     2.2730     0.2510     0.0380
  419.5000   -24.6460    23.0130    23.5140     8.5550    76.4920     2.2910     0.2450     0.0530
  420.0000   -23.8980    23.7280    24.0980     8.5790    78.1920     2.3070     0.2340     0.0870
  420.5000   -24.1310    24.4440    24.6820     8.5740    80.3510     2.3100     0.2320     0.1180
  421.0000   -24.3570    25.1600    25.5410     8.5680    81.7070     2.3120     0.2310     0.1390
  421.5000   -24.5820    25.8750    25.4330     8.5560    80.8420     2.3140     0.2290     0.1600
  422.0000   -24.8250    26.5180    25.2280     8.3400    76.2040     2.3160     0.2270     0.1630
  422.5000   -24.0310    26.6490    25.0230     8.2350    75.4750     2.3470     0.2220     0.1450
  423.0000   -22.7630    26.7790    24.8180     8.1970    77.1140     2.3810     0.2040     0.1020
  423.5000   -22.8300    26.9100    24.6130     8.1260    78.9170     2.4000     0.1810     0.0600
  424.0000   -23.0260    27.0400    24.3890     8.0810    80.7750     2.3720     0.1950     0.0310
  424.5000   -24.0210    27.1710    24.4960     8.0770    82.6410     2.3490     0.2060     0.0200
  425.0000   -24.5190    27.3020    24.6130     8.0740    83.1970     2.3250     0.2170     0.0230
  425.5000   -24.1920    27.4980    24.7300     8.0700    79.1280     2.3130     0.2290     0.0250
  426.0000   -23.0280    27.3760    24.8470     8.0650    76.0920     2.3140     0.2300     0.0220
  426.5000   -22.8910    27.1290    24.9640     8.0680    74.6840     2.3260     0.2250     0.0200
  427.0000   -22.9570    26.8820    25.0810     8.2100    75.0400     2.3400     0.2190     0.0260
  427.5000   -23.0150    26.6350    25.1980     8.3560    78.1390     2.3450     0.2120     0.0450
  428.0000   -23.0710    26.3880    25.3070     8.3880    83.6360     2.3320     0.2060     0.1080
  428.5000   -23.4360    26.2580    25.2490     8.3970    85.6850     2.3030     0.2110     0.2310
  429.0000   -24.3350    26.6700    25.1950     8.4060    80.2340     2.2750     0.2470     0.2990
  429.5000   -24.9060    26.9940    25.1420     8.4140    75.5880     2.3290     0.2310     0.2440
  430.0000   -24.2410    27.3180    25.0880     8.1380    74.1970     2.4090     0.2060     0.1460
  430.5000   -23.1250    27.7530    25.0350     8.0000    77.7840     2.4110     0.1690     0.0680
  431.0000   -22.8160    27.6270    24.9810     8.1060    78.2830     2.3860     0.1780     0.0200
  431.5000   -22.7410    27.4350    24.9270     8.3220    78.3950     2.3790     0.1870     0.0160
  432.0000   -23.9530    27.2420    24.8740     8.4600    79.0540     2.3830     0.1850     0.0180
  432.5000   -24.5020    27.0490    24.8000     8.4570    81.5740     2.3800     0.1910     0.0370
  433.0000   -24.5220    26.8570    24.7010     8.4570    83.7760     2.3620     0.1980     0.0410
  433.5000   -24.5410    26.7470    24.6010     8.4550    83.7160     2.3520     0.2040     0.0360
  434.0000   -24.5600    26.7470    24.5020     8.4540    83.6290     2.3490     0.2060     0.0320
  434.5000   -24.5770    26.7470    24.4020     8.4520    84.3220     2.3480     0.2080     0.0330
  435.0000   -24.5940    26.7470    24.3030     8.4510    85.1000     2.3470     0.2090     0.0410
  435.5000   -24.6110    26.7470    24.2040     8.4490    85.8720     2.3470     0.2090     0.0510
  436.0000   -24.6280    26.7470    23.8550     8.4480    86.3160     2.3520     0.2080     0.0540
  436.5000   -24.6450    26.0620    23.3500     8.4460    85.9590     2.3630     0.2000     0.0470
  437.0000   -24.6610    25.3850    22.8460     8.4450    85.6780     2.3770     0.1910     0.0370
  437.5000   -24.6800    24.7660    22.3410     8.4430    86.6930     2.3870     0.1820     0.0260
  438.0000   -24.7080    24.3770    21.8450     8.4410    88.1250     2.3890     0.1810     0.0160
  438.5000   -24.2450    23.9890    21.3510     8.4420    88.0770     2.3890     0.1820     0.0090
  439.0000   -23.6410    23.6000    20.8570     8.4440    88.7290     2.3850     0.1840     0.0090
  439.5000   -23.4630    23.2120    20.3640     8.4450    88.1260     2.3770     0.1860     0.0090
  440.0000   -23.4020    22.8230    19.8700     8.4460    86.7000     2.3700     0.1910     0.0090
  440.5000   -23.3440    22.4350    19.3640     8.4480    87.4610     2.3700     0.1920     0.0090
  441.0000   -23.2870    22.0350    19.3760     8.4490    88.6150     2.3700     0.1920     0.0090
  441.5000   -23.2310    21.7680    19.3880     8.4510    90.1430     2.3690     0.1920     0.0080
  442.0000   -23.1720    21.4930    19.4000     8.4520    91.7040     2.3660     0.1930     0.0080
  442.5000   -23.1010    21.2180    19.4120     8.4540    92.0160     2.3620     0.1970     0.0080
  443.0000   -23.6130    21.0180    19.4240     8.4550    90.6700     2.3590     0.2000     0.0080
  443.5000   -24.3080    20.9510    19.4370     8.4560    88.8750     2.3610     0.2000     0.0080
  444.0000   -24.6550    20.8850    19.4490     8.4580    88.0810     2.3710     0.1970     0.0070
  444.5000   -24.5740    20.8180    19.4610     8.4590    89.3160     2.3760     0.1890     0.0040
  445.0000   -24.4980    20.7510    19.4730     8.4610    90.0550     2.3680     0.1900     0.0000
  445.5000   -24.4210    20.6850    19.4850     8.4620    89.2810     2.3580     0.1980    -0.0040
  446.0000   -24.3400    20.6180    19.4970     8.4640    88.7810     2.3480     0.2040    -0.0070
  446.5000   -24.5350    20.5520    19.5090     8.4650    94.1690     2.3440     0.2100    -0.0080
  447.0000   -24.9860    20.4850    19.5220     8.4660    94.1040     2.3430     0.2100    -0.0050
  447.5000   -25.3070    20.4660    19.5330     8.4680    93.1030     2.3430     0.2110     0.0020
  448.0000   -25.3000    20.4670    19.5420     8.4690    92.7070     2.3440     0.2100     0.0050
  448.5000   -25.2990    20.4670    18.9990     8.4710    92.9680     2.3520     0.2050     0.0040
  449.0000   -25.3000    20.4670    18.6630     8.4720    93.2130     2.3590     0.2000    -0.0020
  449.5000   -25.3000    20.3720    18.6630     8.4730    93.4620     2.3530     0.1990    -0.0050
  450.0000   -25.3000    20.1830    18.6630     8.4750    93.2000     2.3470     0.2080    -0.0070
  450.5000   -25.3000    19.9950    18.6630     8.4760    92.4170     2.3430     0.2090    -0.0080
  451.0000   -25.3000    19.8070    18.6630     8.4780    91.5970     2.3410     0.2100    -0.0070
  451.5000   -25.3000    19.6190    18.3920     8.4790    90.6940     2.3400     0.2120    -0.0050
  452.0000   -25.3010    19.4310    18.0090     8.4810    88.3550     2.3420     0.2130    -0.0030
  452.5000   -25.3020    19.2430    17.8210     8.4810    87.5040     2.3450     0.2110    -0.0010
  453.0000   -25.3450    19.0550    17.8210     8.4810    90.0510     2.3490     0.2080     0.0000
  453.5000   -25.5160    18.8660    17.8210     8.4810    91.8230     2.3510     0.2040     0.0000
  454.0000   -25.6840    18.6630    17.8210     8.4810    91.0380     2.3500     0.2040     0.0010
  454.5000   -25.8550    18.6140    17.8210     8.4810    88.6690     2.3490     0.2040     0.0020
  455.0000   -25.8980    18.5620    17.8210     8.4810    85.9550     2.3470     0.2070     0.0020
  455.5000   -25.8990    18.5090    17.8230     8.4810    83.7550     2.3440     0.2090     0.0030
