~VERSION INFORMATION
 VERS.                2.0:   CWLS LOG ASCII STANDARD - VERSION 2.0
 WRAP.                 NO:   ONE LINE PER DEPTH STEP
~WELL INFORMATION
#MNEM.UNIT      DATA TYPE    INFORMATION
#----------   ------------   ------------------------------
 STRT.F           39.0000:   START DEPTH
 STOP.F          590.0000:   STOP DEPTH
 STEP.F            0.5000:   STEP LENGTH
 NULL.          -999.2500:   NO VALUE
 COMP. FENIX & SCISSON INC:   COMPANY
 WELL.    NPR-3 SX #41-34:   WELL
 FLD .             TEAPOT:   FIELD
 LOC .      S34 T39N R78W:   LOCATION
 CNTY.            NATRONA:   COUNTY
 STAT.            WYOMING:   STATE
 CTRY. UNITED STATES OF AMERICA:   COUNTRY
 SRVC.           BIRDWELL:   SERVICE COMPANY
 DATE.        28-AUG-1978:   LOGDATE
 API .       490251069800:   API NUMBER
~CURVE INFORMATION
#MNEM.UNIT       API CODE    CURVE DESCRIPTION
#----------   ------------   ------------------------------
 DEPT.F                  :   
 SPR .MV     05 010 01 00:   SPONTANEOUS POTENTIAL FROM RES.
 SN  .OHMM   05 040 16 00:   SHORT NORMAL 16"
 ILD .OHMM   05 120 46 00:   INDUCTION LOG DEEP
 CALD.IN     45 280 60 00:   CALIPER
 GRD .GAPI   45 310 01 00:   GAMMA RAY FROM DENSITY LOG
 RHOB.G/C3   45 350 01 00:   BULK DENSITY
 DPHI.DEC    45 890 12 00:   DENSITY POROSITY SANDSTONE
 CORR.G/C3   45 356 01 00:   DENSITY CORRECTION
~PARAMETER INFORMATION
#MNEM.UNIT          VALUE    DESCRIPTION
#----------   ------------   ------------------------------
 PD  .                 GL:   PERMANENT DATUM
 EPD .F              5064:   ELEVATION PERMANENT DATUM
 LMF .                 KB:   LOG MEASURED FROM
 DAPD.F                 4:   FEET ABOVE PERMANENT DATUM
 DMF .                 KB:   DRILLING MEASURED FROM
 EKB .F              5068:   KELLING BUSHING
 EGL .F              5064:   GROUND LEVEL
 DATE.          8-28-1978:   RUN DATE
 RUN .                  1:   RUN NUMBER
 DD  .F               600:   DEPTH DRILLER
 DL  .F               596:   DEPTH LOGGER
 BLI .F               590:   BOTTOM LOG INTERVAL
 TLI .F                50:   TOP LOG INTERVAL
 CS  .IN            8.625:   CASING SIZE
 CBD .F                40:   CASING BOTTOM DRILLER
 BS  .IN            7.875:   BIT SIZE
 BSD .F               600:   BIT SIZE AT DEPTH
 DFT .                KCL:   DRILLING FLUID TYPE
 DFD .                8.7:   DRILLING FLUID DENSITY
 DFV .                 35:   DRILLING FLUID VISCOSITY
 DFPH.                  9:   DRILLING FLUID PH
 DFL .                 10:   DRILLING FLUID LOSS
 MSS .          FLOW LINE:   MUD SAMPLE SOURCE
 RMS .OHMM             .4:   RESISTIVITY MUD SAMPLE
 MST .F                76:   MUD SAMPLE TEMPERATURE
 RMF .OHMM             .3:   RESISTIVITY MUD FILTRATE SAMPLE
 MFST.F                80:   MUD FILTRATE SAMPLE TEMPERATURE
 RMC .OHMM             .4:   RESISTIVITY MUD CAKE
 MCST.F                80:   MUD CAKE SAMPLE TEMPERATURE
 MFSS.               MEAS:   MUD FILTRATE SAMPLE SOURCE
 MCSS.               MEAS:   MUD CAKE SAMPLE SOURCE
 TCS .HRS               3:   TIME CURCULATED STOPPED
 LUN .               2958:   LOGGING UNIT NUMBER
 LUL .               CASP:   LOGGING UNIT LOCATION
 ENGI.             MILLER:   RECORDING ENGINEER
 WITN.              AMEND:   WITNESSED BY
 CLNT.            A2DTECH:   CLIENT CODE
 ORIG.           5" PRINT:   ORIGIN OF DATA
 UWI .       490251069800:   UNIQUE WELL ID
 DICO. A2D Technologies, Inc.:   DIGITIZING COMPANY
~OTHER INFORMATION
~A   DEPT      SPR         SN        ILD       CALD        GRD         RHOB       DPHI      CORR  
# ...
  201.0000   -27.9363     9.5135    10.1200     7.1826    85.3371     2.4721     0.1255     0.0130
  201.5000   -27.9845     9.4709    10.0559     7.1798    85.0055     2.4734     0.1266     0.0122
  202.0000   -28.0326     9.4285     9.9922     7.1769    85.2733     2.4688     0.1311     0.0135
  202.5000   -28.0807     9.3863     9.9289     7.1740    83.8955     2.4638     0.1345     0.0148
  203.0000   -28.1290     9.3442     9.8660     7.1711    80.4448     2.4589     0.1359     0.0161
  203.5000   -28.1772     9.3024     9.8035     7.1684    76.9779     2.4544     0.1370     0.0173
  204.0000   -28.2249     9.2608     9.7414     7.1662    76.8082     2.4540     0.1365     0.0187
  204.5000   -28.2036     9.2193     9.6797     7.1847    80.3829     2.4546     0.1341     0.0200
  205.0000   -28.1092     9.1780     9.6184     7.1983    83.7032     2.4574     0.1341     0.0188
  205.5000   -28.0152     9.1369     9.5575     7.2161    81.8596     2.4596     0.1354     0.0172
  206.0000   -27.9209     9.0960     9.4970     7.2344    78.7808     2.4578     0.1361     0.0156
  206.5000   -27.8267     9.0553     9.4368     7.2526    76.7977     2.4561     0.1361     0.0141
  207.0000   -27.7325     9.0148     9.3770     7.2709    76.7764     2.4544     0.1370     0.0125
  207.5000   -27.6383     8.9744     9.3176     7.2898    79.3559     2.4525     0.1415     0.0110
  208.0000   -27.5432     8.9342     9.2586     7.2999    82.0763     2.4457     0.1459     0.0104
  208.5000   -27.4494     8.8942     9.2000     7.1767    78.5826     2.4384     0.1454     0.0128
  209.0000   -27.4805     8.8544     9.1417     7.0663    72.8621     2.4367     0.1414     0.0153
  209.5000   -27.5197     8.8148     9.0838     7.0481    68.1025     2.4473     0.1385     0.0178
  210.0000   -27.5582     8.7753     9.0262     7.0441    69.6387     2.4518     0.1404     0.0196
  210.5000   -27.5966     8.7360     8.9964     7.0506    78.6120     2.4503     0.1421     0.0168
  211.0000   -27.6350     8.6969     8.9935     7.0567    86.0065     2.4520     0.1364     0.0138
  211.5000   -27.6733     8.6720     8.9714     7.0627    85.0959     2.4562     0.1337     0.0109
  212.0000   -27.7117     8.7520     8.9493     7.0687    82.9136     2.4591     0.1352     0.0082
  212.5000   -27.7500     8.7196     8.9273     7.0747    81.8034     2.4562     0.1389     0.0061
  213.0000   -27.7884     8.6877     8.9053     7.0806    82.4932     2.4471     0.1478     0.0070
  213.5000   -27.8264     8.6559     8.8834     7.0866    83.2595     2.4371     0.1546     0.0079
  214.0000   -27.9409     8.6242     8.8615     7.0926    83.9669     2.4269     0.1512     0.0088
  214.5000   -28.1182     8.5927     8.8397     7.0986    83.3973     2.4264     0.1454     0.0097
  215.0000   -28.2959     8.5612     8.8179     7.1046    84.8702     2.4399     0.1396     0.0137
  215.5000   -28.4736     8.5299     8.7962     7.1106    86.5770     2.4511     0.1329     0.0184
  216.0000   -28.6512     8.4539     8.7746     7.1166    87.4518     2.4613     0.1365     0.0210
  216.5000   -28.8291     8.3339     8.7520     7.1226    83.1940     2.4557     0.1420     0.0159
  217.0000   -29.0101     8.2156     8.6510     7.1286    79.7191     2.4485     0.1469     0.0112
  217.5000   -29.0424     8.0989     8.6236     7.1346    77.4030     2.4412     0.1475     0.0082
  218.0000   -29.0417     7.9840     8.5962     7.1405    78.7932     2.4368     0.1451     0.0091
  218.5000   -29.0247     7.8706     8.5689     7.1448    80.9027     2.4418     0.1391     0.0098
  219.0000   -29.0082     7.7589     8.5417     7.1472    83.5334     2.4487     0.1361     0.0106
  219.5000   -28.9919     7.6487     8.5146     7.1496    87.2943     2.4558     0.1377     0.0114
  220.0000   -28.9756     7.5402     8.4876     7.1520    91.0399     2.4531     0.1409     0.0101
  220.5000   -28.9593     7.4331     8.4607     7.1544    94.2424     2.4480     0.1440     0.0064
  221.0000   -28.9430     7.4186     8.4364     7.1568    94.0785     2.4428     0.1469     0.0032
  221.5000   -28.9266     7.4904     8.4364     7.1592    90.9980     2.4385     0.1472    -0.0001
  222.0000   -28.9103     7.5709     8.4460     7.1616    88.8756     2.4386     0.1473    -0.0015
  222.5000   -28.8940     7.6524     8.4590     7.1640    90.0124     2.4386     0.1453     0.0015
  223.0000   -28.8777     7.7347     8.4720     7.1664    87.8727     2.4409     0.1398     0.0052
  223.5000   -28.8614     7.8179     8.4851     7.1688    85.3342     2.4495     0.1326     0.0087
  224.0000   -28.8451     7.9020     8.4981     7.1712    85.8590     2.4606     0.1254     0.0123
  224.5000   -28.8288     7.9870     8.5112     7.1736    89.9632     2.4718     0.1214     0.0158
  225.0000   -28.8125     8.0730     8.5243     7.1760    93.5238     2.4776     0.1240     0.0159
  225.5000   -28.7961     8.1601     8.5374     7.1784    93.0499     2.4739     0.1275     0.0155
  226.0000   -28.7798     8.2071     8.5505     7.1808    93.0092     2.4694     0.1309     0.0152
  226.5000   -28.7635     8.1959     8.5637     7.1832    93.4169     2.4648     0.1337     0.0148
  227.0000   -28.7472     8.1855     8.5768     7.1836    93.5381     2.4609     0.1335     0.0145
  227.5000   -28.7309     8.1751     8.5900     7.1836    93.5953     2.4612     0.1329     0.0142
  228.0000   -28.7146     8.1647     8.6033     7.1836    91.8485     2.4624     0.1332     0.0137
  228.5000   -28.6983     8.1544     8.6165     7.1836    84.0910     2.4636     0.1337     0.0129
  229.0000   -28.6819     8.1440     8.6298     7.1836    81.8831     2.4648     0.1308     0.0121
  229.5000   -28.6657     8.1337     8.6430     7.1836    81.6649     2.4659     0.1285     0.0154
  230.0000   -28.6489     8.1233     8.6563     7.1836    81.7896     2.4648     0.1291     0.0199
  230.5000   -28.6766     8.1130     8.6699     7.1835    81.8854     2.4610     0.1348     0.0186
  231.0000   -28.7324     8.1027     8.6724     7.1841    82.1538     2.4573     0.1387     0.0170
  231.5000   -28.7888     8.0924     8.6427     7.1985    85.1958     2.4538     0.1381     0.0158
  232.0000   -28.8451     8.0822     8.5982     7.2179    88.1734     2.4568     0.1354     0.0148
  232.5000   -28.9014     8.0719     8.5542     7.2365    90.4328     2.4602     0.1329     0.0138
  233.0000   -28.9577     8.0616     8.5105     7.2556    88.8896     2.4629     0.1325     0.0128
  233.5000   -29.0140     8.0547     8.4670     7.2747    87.4031     2.4639     0.1314     0.0119
  234.0000   -29.0703     8.0497     8.4237     7.2936    87.3240     2.4649     0.1293     0.0109
  234.5000   -29.1266     8.0447     8.3806     7.2993    89.8355     2.4659     0.1309     0.0099
  235.0000   -29.1829     8.0397     8.3378     7.2909    90.4990     2.4648     0.1329     0.0089
  235.5000   -29.2392     8.0347     8.2952     7.2826    91.1004     2.4601     0.1337     0.0081
  236.0000   -29.2955     8.0298     8.2528     7.2742    95.5667     2.4587     0.1289     0.0120
  236.5000   -29.3518     8.0248     8.2106     7.2659    93.5301     2.4660     0.1253     0.0160
  237.0000   -29.4081     8.0198     8.1686     7.2574    90.2413     2.4738     0.1258     0.0180
  237.5000   -29.4644     8.0149     8.1269     7.2494    86.8960     2.4736     0.1273     0.0182
  238.0000   -29.5208     8.0099     8.0853     7.2595    86.4236     2.4700     0.1289     0.0185
  238.5000   -29.5774     8.0050     8.0440     7.3117    88.9097     2.4664     0.1305     0.0187
  239.0000   -29.6350     8.0000     8.0029     7.3625    91.4644     2.4634     0.1305     0.0189
  239.5000   -29.5950     7.9950     7.9620     7.3447    94.0033     2.4629     0.1305     0.0191
  240.0000   -29.5417     7.9902     7.9213     7.2933    93.8204     2.4623     0.1305     0.0193
  240.5000   -29.4883     7.9852     7.8287     7.2451    89.9444     2.4618     0.1317     0.0195
  241.0000   -29.4352     7.9841     7.7200     7.1948    86.6538     2.4597     0.1341     0.0198
