~VERSION INFORMATION
 VERS.                2.0:   CWLS LOG ASCII STANDARD - VERSION 2.0
 WRAP.                 NO:   ONE LINE PER DEPTH STEP
~WELL INFORMATION
#MNEM.UNIT      DATA TYPE    INFORMATION
#----------   ------------   ------------------------------
 STRT.F           32.0000:   START DEPTH
 STOP.F          738.0000:   STOP DEPTH
 STEP.F            0.5000:   STEP LENGTH
 NULL.          -999.2500:   NO VALUE
 COMP. FENIX & SCISSON INC:   COMPANY
 WELL.       NPR-3 #43-34:   WELL
 FLD .             TEAPOT:   FIELD
 LOC .      S34 T39N R78W:   LOCATION
 CNTY.            NATRONA:   COUNTY
 STAT.            WYOMING:   STATE
 CTRY. UNITED STATES OF AMERICA:   COUNTRY
 SRVC.            Unknown:   SERVICE COMPANY
 DATE.        26-AUG-1978:   LOGDATE
 API .       490251069900:   API NUMBER
~CURVE INFORMATION
#MNEM.UNIT       API CODE    CURVE DESCRIPTION
#----------   ------------   ------------------------------
 DEPT.F                  :   
 GRD .GAPI   45 310 01 00:   GAMMA RAY FROM DENSITY LOG
 CALD.IN     45 280 60 00:   CALIPER
 RHOB.G/C3   45 350 01 00:   BULK DENSITY
 DPHI.DEC    45 890 12 00:   DENSITY POROSITY SANDSTONE
 CORR.G/C3   45 356 01 00:   DENSITY CORRECTION
 SPR .MV     05 010 01 00:   SPONTANEOUS POTENTIAL FROM RES.
 SN  .OHMM   05 040 16 00:   SHORT NORMAL 16"
 ILD .OHMM   05 120 46 00:   INDUCTION LOG DEEP
~PARAMETER INFORMATION
#MNEM.UNIT          VALUE    DESCRIPTION
#----------   ------------   ------------------------------
 PD  .                 GL:   PERMANENT DATUM
 EPD .F              5110:   ELEVATION PERMANENT DATUM
 LMF .                 KB:   LOG MEASURED FROM
 DAPD.F                 4:   FEET ABOVE PERMANENT DATUM
 DMF .                 KB:   DRILLING MEASURED FROM
 EKB .F              5114:   KELLING BUSHING
 EGL .F              5110:   GROUND LEVEL
 DATE.            8-26-78:   RUN DATE
 RUN .                  1:   RUN NUMBER
 DD  .F               748:   DEPTH DRILLER
 DL  .F               738:   DEPTH LOGGER
 BLI .F               732:   BOTTOM LOG INTERVAL
 TLI .F                40:   TOP LOG INTERVAL
 CS  .IN            8.625:   CASING SIZE
 CBD .F                40:   CASING BOTTOM DRILLER
 CBL .F                40:   CASING BOTTOM LOGGER
 BS  .IN            7.875:   BIT SIZE
 BSD .F               748:   BIT SIZE AT DEPTH
 DFT .                KCL:   DRILLING FLUID TYPE
 DFD .                8.7:   DRILLING FLUID DENSITY
 DFV .                 33:   DRILLING FLUID VISCOSITY
 DFPH.                  9:   DRILLING FLUID PH
 DFL .                 10:   DRILLING FLUID LOSS
 MSS .          FLOW LINE:   MUD SAMPLE SOURCE
 RMS .OHMM            .36:   RESISTIVITY MUD SAMPLE
 MST .F                80:   MUD SAMPLE TEMPERATURE
 RMF .OHMM             .3:   RESISTIVITY MUD FILTRATE SAMPLE
 MFST.F                80:   MUD FILTRATE SAMPLE TEMPERATURE
 RMC .OHMM            .48:   RESISTIVITY MUD CAKE
 MCST.F                82:   MUD CAKE SAMPLE TEMPERATURE
 MFSS.               MEAS:   MUD FILTRATE SAMPLE SOURCE
 MCSS.               MEAS:   MUD CAKE SAMPLE SOURCE
 TCS .HRS               2:   TIME CURCULATED STOPPED
 LUN .               2958:   LOGGING UNIT NUMBER
 LUL .               CASP:   LOGGING UNIT LOCATION
 ENGI.             MILLER:   RECORDING ENGINEER
 WITN.              AMEND:   WITNESSED BY
 CLNT.            A2DTECH:   CLIENT CODE
 ORIG.           5" PRINT:   ORIGIN OF DATA
 UWI .       490251069900:   UNIQUE WELL ID
 DICO. A2D Technologies, Inc.:   DIGITIZING COMPANY
~OTHER INFORMATION
~A   DEPT       GRD      CALD       RHOB       DPHI       CORR        SPR         SN        ILD   
# ...
  639.5000    58.5662     6.9158     2.3503     0.2075     0.0462   -26.8345    14.0390    15.8889
  640.0000    63.7757     6.9159     2.3368     0.2083     0.0486   -26.8200    13.9376    15.6952
  640.5000    65.4489     6.9230     2.3360     0.2083     0.0510   -26.5389    13.9106    15.5039
  641.0000    64.3797     6.9515     2.3363     0.2056     0.0534   -26.2595    13.9106    15.2467
  641.5000    63.7249     6.9022     2.3403     0.2031     0.0535   -25.9801    13.9106    15.2429
  642.0000    63.8750     6.8625     2.3438     0.2058     0.0534   -25.8441    13.9106    15.3902
  642.5000    63.3965     6.8499     2.3367     0.2107     0.0534   -25.8415    13.9106    15.4006
  643.0000    62.6363     6.8830     2.3293     0.2083     0.0535   -25.8413    13.9106    15.4384
  643.5000    59.5581     6.9169     2.3314     0.2053     0.0576   -25.8416    13.9106    15.4599
  644.0000    56.3836     6.9343     2.3416     0.1863     0.0686   -25.8416    13.9105    15.4811
  644.5000    56.0634     6.8698     2.3687     0.1629     0.0838   -25.8416    13.9024    15.5027
  645.0000    59.0090     6.7806     2.4152     0.1328     0.0997   -25.8416    13.8784    15.5347
  645.5000    61.4984     6.8195     2.4552     0.1413     0.1031   -25.8416    13.8545    15.5349
  646.0000    63.7802     6.8860     2.4404     0.1577     0.0864   -25.8416    13.8306    15.1586
  646.5000    63.1803     6.9522     2.4121     0.1699     0.0732   -25.8416    13.8067    14.7800
  647.0000    62.3934     6.9595     2.3995     0.1737     0.0744   -25.8416    13.7833    14.5662
  647.5000    61.6936     6.9635     2.3979     0.1782     0.0757   -25.8416    13.4157    14.6969
  648.0000    62.7556     6.9679     2.3909     0.1928     0.0728   -25.8416    13.1450    14.3750
  648.5000    64.0273     6.9724     2.3664     0.2078     0.0487   -25.8418    12.8797    14.1333
  649.0000    62.3450     6.9760     2.3419     0.2235     0.0432   -25.8417    12.6889    14.0538
  649.5000    62.1139     6.9936     2.3174     0.2214     0.0456   -25.8398    12.6889    13.9757
  650.0000    61.7353     7.0375     2.3116     0.2156     0.0653   -25.7317    12.8061    13.8978
  650.5000    60.7615     7.2418     2.3228     0.2075     0.0861   -25.4996    12.6241    13.8205
  651.0000    62.1849     7.3857     2.3336     0.2042     0.1059   -25.3521    12.3698    13.7419
  651.5000    71.8538     7.3918     2.3438     0.1994     0.1088   -25.1713    12.1206    13.6572
  652.0000    71.9792     7.3662     2.3515     0.1971     0.1123   -25.0475    11.8765    13.6572
  652.5000    67.8763     7.2937     2.3524     0.2015     0.1153   -25.0498    11.6372    13.6572
  653.0000    64.2162     7.2007     2.3496     0.2055     0.1137   -25.0494    11.4028    13.4817
  653.5000    64.4905     7.1960     2.3468     0.2104     0.1120   -25.0493    11.1117    13.1879
  654.0000    68.4766     7.1947     2.3252     0.2159     0.1105   -25.0498    10.7308    12.9005
  654.5000    71.4135     7.1443     2.3250     0.2151     0.1041   -25.0465    10.3658    12.6194
  655.0000    70.8551     7.0966     2.3251     0.2143     0.0907   -25.2705    10.2050    12.4578
  655.5000    70.3319     7.0961     2.3261     0.2118     0.0686   -25.6490    10.1441    12.4702
  656.0000    70.1444     7.1089     2.3368     0.1698     0.0639   -26.3379    10.0838    12.4992
  656.5000    71.8560     7.1229     2.3814     0.1504     0.0796   -27.8688    10.2035    12.5283
  657.0000    74.9490     7.1360     2.4262     0.1381     0.1055   -29.0508    10.3426    12.5575
  657.5000    76.2308     7.1309     2.4590     0.1266     0.1256   -30.0516    10.5621    12.5867
  658.0000    74.2042     7.1120     2.4702     0.1195     0.1226   -31.0402    10.9330    12.6161
  658.5000    73.8539     7.0966     2.4816     0.1141     0.1110   -31.7202    11.2045    12.6457
  659.0000    69.2373     7.0987     2.4931     0.1115     0.0972   -32.3325    11.4815    12.6889
  659.5000    68.5518     7.1061     2.4977     0.1152     0.0785   -32.7814    11.7612    12.6213
  660.0000    73.1010     7.1151     2.4909     0.1180     0.0598   -32.7729    11.8919    12.4909
  660.5000    72.7629     7.0950     2.4842     0.1180     0.0457   -32.7725    12.0070    12.3625
  661.0000    72.4886     7.0832     2.4851     0.1187     0.0464   -32.7723    12.0181    12.2309
  661.5000    72.6618     7.0525     2.4851     0.1215     0.0477   -32.7723    12.0582    12.3493
  662.0000    72.9723     7.0096     2.4797     0.1274     0.0489   -32.7723    12.0825    12.3387
  662.5000    73.1643     6.9669     2.4724     0.1356     0.0494   -32.7723    12.1029    12.3447
  663.0000    73.5595     6.9352     2.4670     0.1484     0.0494   -32.7720    12.1238    12.3438
  663.5000    74.8094     6.9360     2.4360     0.1409     0.0493   -32.7756    11.8509    12.3438
  664.0000    76.7056     6.8848     2.4360     0.1338     0.0645   -32.7860    11.6608    12.3437
  664.5000    76.4616     6.7907     2.4512     0.1288     0.0957   -32.5551    11.4733    12.3354
  665.0000    75.6560     6.7564     2.4636     0.1225     0.1268   -32.5069    11.2883    12.2961
  665.5000    75.8424     6.7696     2.4756     0.1141     0.1543   -32.4615    11.1527    12.2582
  666.0000    78.1776     6.8064     2.4870     0.1057     0.1659   -32.4179    11.2654    12.2307
  666.5000    79.7971     6.8404     2.4984     0.0973     0.1674   -32.3782    11.2856    12.2308
  667.0000    78.1617     6.8758     2.5098     0.0924     0.1674   -32.3713    11.3058    12.2319
  667.5000    76.4885     6.9135     2.5212     0.0931     0.1658   -32.7008    11.3260    12.2323
  668.0000    76.7379     7.1702     2.5242     0.1002     0.1411   -32.9694    11.3462    11.7767
  668.5000    79.1358     7.1405     2.5145     0.1020     0.1092   -32.9725    11.3644    11.3637
  669.0000    79.7372     7.0590     2.5119     0.1030     0.0775   -33.1375    11.2769    11.2811
  669.5000    81.7128     7.0608     2.5107     0.1052     0.0636   -33.5669    11.1207    11.1567
  670.0000    83.8926     7.0682     2.5081     0.1072     0.0620   -33.9356    11.0547    11.6636
  670.5000    84.0911     7.0752     2.5055     0.1072     0.0608   -34.2988    11.2395    12.2309
  671.0000    82.4045     7.0822     2.5031     0.1045     0.0595   -34.5572    11.4698    12.1927
  671.5000    80.7130     7.0892     2.5053     0.1008     0.0589   -34.6562    11.4470    12.0051
  672.0000    78.9959     7.0971     2.5115     0.0970     0.0584   -34.7860    11.4119    11.7883
  672.5000    79.8539     7.0489     2.5179     0.0935     0.0579   -35.2382    11.3764    11.7898
  673.0000    82.4159     6.9883     2.5210     0.0932     0.0574   -35.8216    11.3413    11.7866
  673.5000    82.4469     6.9563     2.5230     0.1006     0.0568   -36.4132    11.3069    11.7934
  674.0000    81.5900     6.9688     2.5185     0.1052     0.0563   -37.0120    11.2709    11.6815
  674.5000    82.9905     7.0059     2.5097     0.1045     0.0558   -37.3189    11.0943    11.4687
  675.0000    82.4513     7.0620     2.5069     0.1004     0.0578   -37.3378    10.9661    11.3300
  675.5000    81.8853     7.1158     2.5111     0.0960     0.0676   -37.3841    10.8393    11.1761
  676.0000    82.6351     7.0916     2.5167     0.0993     0.0756   -37.4315    10.7140    11.0242
  676.5000    82.8154     7.0616     2.5162     0.1084     0.0770   -37.4797    10.6556    10.9535
  677.0000    84.2096     7.0317     2.5105     0.1092     0.0789   -37.5237    10.6923    11.0547
  677.5000    84.8779     7.0014     2.5020     0.1236     0.0809   -37.4931    10.7540    10.9828
  678.0000    85.0210     6.9959     2.4885     0.1142     0.0827   -37.3402    10.5917    10.8687
  678.5000    83.8187     6.9959     2.4769     0.0962     0.0915   -37.1918    10.3827    10.6417
  679.0000    82.0219     6.9960     2.4812     0.0783     0.1152   -37.0435    10.1777    10.4187
  679.5000    85.4660     6.9960     2.5263     0.0680     0.1405   -36.8939     9.9769    10.2001
