~VERSION INFORMATION
 VERS.                2.0:   CWLS LOG ASCII STANDARD - VERSION 2.0
 WRAP.                 NO:   ONE LINE PER DEPTH STEP
~WELL INFORMATION
#MNEM.UNIT      DATA TYPE    INFORMATION
#----------   ------------   ------------------------------
 STRT.F            2.0000:   START DEPTH
 STOP.F          500.0000:   STOP DEPTH
 STEP.F            0.1000:   STEP LENGTH
 NULL.          -999.2500:   NO VALUE
 COMP.   FLUOR DANIEL INC:   COMPANY
 WELL.   73-5 X 10 #73-10:   WELL
 FLD .             TEAPOT:   FIELD
 LOC .      S10 T38N R78W:   LOCATION
 CNTY.            NATRONA:   COUNTY
 STAT.            WYOMING:   STATE
 CTRY. UNITED STATES OF AMERICA:   COUNTRY
 SRVC.      Western Atlas:   SERVICE COMPANY
 DATE.        07-JUN-1995:   LOGDATE
 API .       490252271400:   API NUMBER
~CURVE INFORMATION
#MNEM.UNIT       API CODE    CURVE DESCRIPTION
#----------   ------------   ------------------------------
 DEPT.F                  :   
 GRR .GAPI   07 310 01 00:   GAMMA RAY
 RILD.OHMM   07 120 46 00:   INDUCTION LOG DEEP RESISTIVITY
 RILM.OHMM   07 120 44 00:   RESITIVITY LONG MEDIUM
~PARAMETER INFORMATION
#MNEM.UNIT          VALUE    DESCRIPTION
#----------   ------------   ------------------------------
 PD  .                 GL:   PERMANENT DATUM
 EPD .F              5175:   ELEVATION PERMANENT DATUM
 LMF .                 KB:   LOG MEASURED FROM
 DAPD.F                10:   FEET ABOVE PERMANENT DATUM
 DMF .                 KB:   DRILLING MEASURED FROM
 EKB .F              5185:   KELLING BUSHING
 EDF .F              5184:   DRILLING FLOOR
 EGL .F              5175:   GROUND LEVEL
 DATE.        07-JUN-1995:   RUN DATE
 RUN .                  1:   RUN NUMBER
 DD  .F               511:   DEPTH DRILLER
 DL  .F               508:   DEPTH LOGGER
 BLI .F               500:   BOTTOM LOG INTERVAL
 TLI .F                96:   TOP LOG INTERVAL
 CS  .IN            9.625:   CASING SIZE
 CBD .F                96:   CASING BOTTOM DRILLER
 CBL .F                96:   CASING BOTTOM LOGGER
 BS  .IN             8.75:   BIT SIZE
 BSD .F               511:   BIT SIZE AT DEPTH
 DFT .                AIR:   DRILLING FLUID TYPE
 MRT .F               116:   MAXIMUM RECORDED TEMPERATURE
 LUN .            HL 6530:   LOGGING UNIT NUMBER
 LUL .             CASPER:   LOGGING UNIT LOCATION
 ENGI.        VERN RAUTIO:   RECORDING ENGINEER
 WITN.        GARY STRONG:   WITNESSED BY
 CLNT.            A2DTECH:   CLIENT CODE
 ORIG.           5" PRINT:   ORIGIN OF DATA
 UWI .       490252271400:   UNIQUE WELL ID
 DICO. A2D Technologies, Inc.:   DIGITIZING COMPANY
~OTHER INFORMATION
~A    DEPT       GRR     RILD       RILM   
# ...
  202.2000   116.0653     2.6439     2.7761
  202.3000   116.0677     2.6352     2.7896
  202.4000   116.0701     2.6352     2.8159
  202.5000   116.0727     2.6352     2.8484
  202.6000   116.3090     2.6353     2.8813
  202.7000   116.5605     2.6473     2.9146
  202.8000   116.8121     2.6537     2.9483
  202.9000   117.2139     2.6594     2.9962
  203.0000   117.9416     2.6747     3.0276
  203.1000   118.5042     2.6908     3.0585
  203.2000   119.3796     2.7056     3.1085
  203.3000   121.0401     2.7212     3.1457
  203.4000   122.8109     2.7452     3.1807
  203.5000   124.1299     2.7769     3.2175
  203.6000   124.8862     2.8108     3.2547
  203.7000   126.0717     2.8642     3.2923
  203.8000   131.3418     2.9092     3.3328
  203.9000   135.7269     2.9597     3.3954
  204.0000   137.6556     3.0281     3.4679
  204.1000   137.8634     3.1210     3.5485
  204.2000   137.8660     3.2299     3.6415
  204.3000   137.8683     3.3595     3.7537
  204.4000   137.6838     3.4603     3.8827
  204.5000   137.4371     3.5950     4.0098
  204.6000   137.1094     3.7325     4.1330
  204.7000   136.5855     3.8629     4.2612
  204.8000   135.7658     3.9971     4.3851
  204.9000   134.8712     4.1362     4.5059
  205.0000   134.0483     4.2335     4.6102
  205.1000   133.5398     4.3415     4.7354
  205.2000   133.3583     4.4422     4.8039
  205.3000   133.3607     4.5450     4.9050
  205.4000   133.3635     4.6537     5.0067
  205.5000   133.5740     4.7584     5.0936
  205.6000   133.8256     4.8689     5.1822
  205.7000   134.1796     4.9819     5.2720
  205.8000   134.7299     5.0873     5.3637
  205.9000   135.4901     5.1754     5.4386
  206.0000   136.4753     5.2724     5.5015
  206.1000   137.2816     5.3566     5.5650
  206.2000   137.8916     5.4497     5.6323
  206.3000   138.3923     5.5282     5.6944
  206.4000   138.8931     5.5919     5.7357
  206.5000   139.4322     5.6564     5.8046
  206.6000   139.8944     5.7301     5.8830
  206.7000   140.2181     5.7589     5.9211
  206.8000   140.4697     5.8141     5.9957
  206.9000   140.7924     5.8812     6.0588
  207.0000   141.2749     5.9490     6.1042
  207.1000   141.5617     6.0176     6.1395
  207.2000   141.7780     6.0994     6.1851
  207.3000   142.1909     6.1574     6.2538
  207.4000   142.8000     6.2065     6.2949
  207.5000   143.5499     6.2422     6.3264
  207.6000   144.3070     6.2782     6.3630
  207.7000   145.8042     6.3149     6.3998
  207.8000   146.3086     6.3150     6.4279
  207.9000   146.4145     6.3432     6.4282
  208.0000   146.5096     6.3591     6.4285
  208.1000   146.7214     6.3591     6.4591
  208.2000   146.7240     6.3592     6.4736
  208.3000   146.7263     6.3593     6.4739
  208.4000   146.7287     6.3594     6.4742
  208.5000   146.6012     6.3595     6.4745
  208.6000   146.4314     6.3596     6.4382
  208.7000   146.4338     6.3485     6.4303
  208.8000   146.4365     6.3158     6.4306
  208.9000   146.4387     6.3159     6.4176
  209.0000   146.2739     6.2840     6.3812
  209.1000   146.0272     6.2482     6.3430
  209.2000   145.7192     6.2292     6.3091
  209.3000   145.2233     6.2202     6.2471
  209.4000   144.6385     6.1847     6.1762
  209.5000   144.2317     6.1438     6.1061
  209.6000   143.8872     6.0852     6.0368
  209.7000   143.6405     6.0376     5.9615
  209.8000   143.4388     5.9889     5.9007
  209.9000   143.7439     5.9277     5.8109
  210.0000   143.9879     5.8939     5.7436
  210.1000   144.0508     5.8604     5.6933
  210.2000   144.3247     5.8008     5.6006
  210.3000   144.7426     5.7348     5.5643
  210.4000   145.0239     5.6576     5.5103
  210.5000   145.5712     5.5662     5.4478
  210.6000   146.9294     5.4998     5.3860
  210.7000   148.4266     5.4108     5.3319
  210.8000   150.2841     5.3188     5.3009
  210.9000   152.1263     5.2440     5.2297
  211.0000   152.8479     5.1843     5.1815
  211.1000   153.1387     5.1220     5.1404
  211.2000   153.1408     5.0264     5.0997
  211.3000   153.1432     5.0005     5.0472
  211.4000   153.1456     4.9524     5.0180
  211.5000   153.0967     4.8960     4.9902
  211.6000   152.8483     4.8478     4.9619
  211.7000   152.6032     4.8202     4.9338
  211.8000   152.5511     4.7887     4.9058
  211.9000   152.4119     4.7654     4.8820
  212.0000   152.0766     4.7558     4.8822
  212.1000   151.6163     4.7440     4.8824
  212.2000   151.3524     4.7231     4.8624
  212.3000   150.8910     4.7227     4.8492
  212.4000   150.2163     4.6906     4.8494
  212.5000   149.4713     4.6907     4.8496
  212.6000   148.6534     4.6907     4.8498
  212.7000   147.6393     4.6908     4.8500
  212.8000   146.2311     4.6908     4.8692
  212.9000   144.7205     4.6909     4.8841
  213.0000   142.9790     4.6910     4.8843
  213.1000   141.1271     4.6910     4.8861
  213.2000   138.9646     4.6911     4.9186
  213.3000   136.2647     4.7003     4.9188
  213.4000   135.6718     4.7239     4.9371
  213.5000   135.6737     4.7239     4.9656
  213.6000   135.6761     4.7490     4.9943
  213.7000   135.6785     4.7763     5.0228
  213.8000   135.7225     4.8038     5.0230
  213.9000   135.9856     4.8315     5.0464
  214.0000   136.2256     4.8570     5.0931
  214.1000   136.4771     4.8571     5.1404
  214.2000   136.7287     4.8815     5.1701
  214.3000   137.1378     4.9096     5.2009
  214.4000   137.8618     4.9379     5.2593
  214.5000   138.4172     4.9733     5.2969
  214.6000   139.0852     5.0297     5.3616
  214.7000   139.6661     5.0638     5.4330
  214.8000   140.1668     5.1119     5.4687
  214.9000   140.7305     5.1527     5.5365
  215.0000   141.4602     5.1944     5.5959
  215.1000   141.7551     5.2543     5.6606
  215.2000   142.1696     5.3158     5.7260
  215.3000   142.5170     5.3763     5.8023
  215.4000   142.7686     5.4383     5.8997
  215.5000   142.9728     5.5011     5.9759
  215.6000   142.9753     5.5645     6.0370
  215.7000   142.9776     5.6240     6.1068
  215.8000   143.1706     5.6584     6.1774
  215.9000   143.2846     5.7196     6.2395
  216.0000   143.2870     5.7856     6.2773
  216.1000   143.2894     5.8524     6.3615
  216.2000   143.2920     5.9199     6.4233
  216.3000   143.2943     5.9881     6.5213
  216.4000   143.2967     6.0650     6.6022
  216.5000   143.2991     6.1271     6.6486
  216.6000   143.3015     6.1979     6.7253
  216.7000   143.3039     6.2525     6.8032
  216.8000   143.3067     6.2979     6.8504
  216.9000   143.0967     6.3687     6.9134
  217.0000   143.0091     6.4113     6.9780
  217.1000   142.9053     6.4734     7.0253
  217.2000   142.6586     6.5244     7.1095
  217.3000   142.4117     6.5779     7.1491
  217.4000   141.9158     6.6457     7.1904
  217.5000   141.6163     6.6839     7.2547
  217.6000   141.2262     6.7612     7.3243
  217.7000   140.8208     6.8082     7.3667
  217.8000   140.5740     6.8474     7.4128
  217.9000   140.3119     6.8869     7.4521
  218.0000   140.3142     6.9265     7.4953
  218.1000   140.3166     6.9683     7.5386
  218.2000   140.3190     7.0449     7.5695
  218.3000   140.3214     7.0959     7.5734
  218.4000   140.3239     7.1368     7.6227
  218.5000   140.3266     7.1779     7.6230
  218.6000   140.3287     7.2192     7.6233
  218.7000   140.4961     7.2648     7.6437
  218.8000   140.6357     7.3026     7.6879
  218.9000   140.7560     7.3447     7.7305
  219.0000   141.2508     7.3870     7.7309
  219.1000   141.5497     7.4295     7.7681
  219.2000   141.9561     7.4723     7.7852
  219.3000   142.1583     7.5216     7.7855
  219.4000   142.1607     7.5217     7.7858
  219.5000   142.0191     7.5497     7.7862
  219.6000   141.7724     7.5742     7.8310
  219.7000   141.5257     7.5841     7.8409
  219.8000   141.2642     7.6271     7.8412
  219.9000   140.7980     7.6272     7.8250
  220.0000   140.3021     7.6273     7.7877
  220.1000   139.2930     7.6274     7.7881
  220.2000   137.3484     7.6275     7.7884
  220.3000   134.5626     7.6199     7.7887
