~VERSION INFORMATION
 VERS.                2.0:   CWLS LOG ASCII STANDARD - VERSION 2.0
 WRAP.                 NO:   ONE LINE PER DEPTH STEP
~WELL INFORMATION
#MNEM.UNIT      DATA TYPE    INFORMATION
#----------   ------------   ------------------------------
 STRT.F           19.0000:   START DEPTH
 STOP.F          600.0000:   STOP DEPTH
 STEP.F            0.5000:   STEP LENGTH
 NULL.          -999.2500:   NO VALUE
 COMP. FENIX & SCISSON INC:   COMPANY
 WELL.       NPR-3 #18-34:   WELL
 FLD .             TEAPOT:   FIELD
 LOC .      S34 T39N R78W:   LOCATION
 CNTY.            NATRONA:   COUNTY
 STAT.            WYOMING:   STATE
 CTRY. UNITED STATES OF AMERICA:   COUNTRY
 SRVC.           BIRDWELL:   SERVICE COMPANY
 DATE.        10-AUG-1978:   LOGDATE
 API .       490251068100:   API NUMBER
~CURVE INFORMATION
#MNEM.UNIT       API CODE    CURVE DESCRIPTION
#----------   ------------   ------------------------------
 DEPT.F                  :   
 SPR .MV     05 010 01 00:   SPONTANEOUS POTENTIAL FROM RES.
 SN  .OHMM   05 040 16 00:   SHORT NORMAL 16"
 ILD .OHMM   05 120 46 00:   INDUCTION LOG DEEP
 GRD .GAPI   45 310 01 00:   GAMMA RAY FROM DENSITY LOG
 CALD.IN     45 280 60 00:   CALIPER
 CORR.G/C3   45 356 01 00:   DENSITY CORRECTION
 DPHI.DEC    45 890 12 00:   DENSITY POROSITY SANDSTONE
 DEN .G/C3   45 350 01 00:   COMPENSATED BULK DENSTIY
~PARAMETER INFORMATION
#MNEM.UNIT          VALUE    DESCRIPTION
#----------   ------------   ------------------------------
 PD  .                 GL:   PERMANENT DATUM
 EPD .F              5159:   ELEVATION PERMANENT DATUM
 LMF .                 KB:   LOG MEASURED FROM
 DAPD.F                 4:   FEET ABOVE PERMANENT DATUM
 DMF .                 KB:   DRILLING MEASURED FROM
 EKB .F              5163:   KELLING BUSHING
 EGL .F              5159:   GROUND LEVEL
 DATE.            8-10-78:   RUN DATE
 RUN .                  1:   RUN NUMBER
 DD  .F               605:   DEPTH DRILLER
 DL  .F               606:   DEPTH LOGGER
 BLI .F               600:   BOTTOM LOG INTERVAL
 TLI .F                35:   TOP LOG INTERVAL
 CS  .IN            8.625:   CASING SIZE
 CBD .F                40:   CASING BOTTOM DRILLER
 BS  .IN            7.875:   BIT SIZE
 BSD .F               605:   BIT SIZE AT DEPTH
 DFT .                KCL:   DRILLING FLUID TYPE
 DFD .                8.7:   DRILLING FLUID DENSITY
 DFV .                 33:   DRILLING FLUID VISCOSITY
 DFPH.                  9:   DRILLING FLUID PH
 MSS .          FLOW LINE:   MUD SAMPLE SOURCE
 RMS .OHMM            .14:   RESISTIVITY MUD SAMPLE
 MST .F                88:   MUD SAMPLE TEMPERATURE
 MFSS.               MEAS:   MUD FILTRATE SAMPLE SOURCE
 MCSS.               MEAS:   MUD CAKE SAMPLE SOURCE
 TCS .HRS               1:   TIME CURCULATED STOPPED
 LUN .               3006:   LOGGING UNIT NUMBER
 LUL .               CASP:   LOGGING UNIT LOCATION
 ENGI.             MILLER:   RECORDING ENGINEER
 WITN.           MCGINLEY:   WITNESSED BY
 CLNT.            A2DTECH:   CLIENT CODE
 ORIG.           5" PRINT:   ORIGIN OF DATA
 UWI .       490251068100:   UNIQUE WELL ID
 DICO. A2D Technologies, Inc.:   DIGITIZING COMPANY
~OTHER INFORMATION
~A   DEPT      SPR         SN        ILD         GRD      CALD       CORR       DPHI        DEN   
# ...
  545.5000   -33.9961     8.0176     7.7240    88.5368     8.0933     0.0149     0.1201     2.4795
  546.0000   -33.9123     8.1841     7.8675    93.4311     8.1045     0.0151     0.1180     2.4810
  546.5000   -33.9755     8.2911     8.0136    89.5852     8.1156     0.0196     0.1118     2.4874
  547.0000   -34.0346     8.3370     8.1287    88.3351     8.1161     0.0240     0.1104     2.4948
  547.5000   -34.0948     8.3832     8.1662    88.2990     8.1045     0.0284     0.1086     2.4999
  548.0000   -34.0219     8.4296     8.1925    88.4645     8.0929     0.0289     0.1029     2.5038
  548.5000   -33.9120     8.4762     7.9695    88.6940     8.0813     0.0283     0.1002     2.5031
  549.0000   -33.8008     8.5736     8.0889    88.9105     8.0700     0.0271     0.1081     2.5011
  549.5000   -33.6966     8.7182     8.2627    89.0677     8.0716     0.0259     0.1048     2.5005
  550.0000   -33.6186     8.8673     8.4402    89.2197     8.1135     0.0247     0.1034     2.5005
  550.5000   -33.5440     9.0195     8.6221    89.3707     8.1531     0.0235     0.1074     2.5014
  551.0000   -33.4697     9.0936     8.8053    89.3971     8.1742     0.0236     0.1063     2.5052
  551.5000   -33.3953     9.1342     8.9011    88.3997     8.1467     0.0249     0.1028     2.5089
  552.0000   -33.3182     9.1751     8.9314    88.0722     8.1203     0.0262     0.0994     2.5115
  552.5000   -33.2882     9.2161     8.9556    87.6960     8.1034     0.0275     0.0997     2.5110
  553.0000   -33.2711     9.2573     8.9800    86.7366     8.1115     0.0289     0.1022     2.5101
  553.5000   -33.2545     9.3188     9.0043    85.2080     8.1194     0.0302     0.1014     2.5094
  554.0000   -33.2378     9.3144     9.0287    84.3919     8.1141     0.0311     0.1011     2.5095
  554.5000   -33.2211     9.3058     9.0647    85.3761     8.1037     0.0318     0.0974     2.5097
  555.0000   -33.2043     9.2972     9.0555    87.7104     8.0931     0.0327     0.0962     2.5101
  555.5000   -33.1876     9.2887     9.0364    89.9355     8.0828     0.0315     0.1015     2.5103
  556.0000   -33.1709     9.2801     9.0174    88.0468     8.0928     0.0295     0.1063     2.5045
  556.5000   -33.1541     9.2716     8.9985    84.7464     8.1053     0.0295     0.1112     2.4921
  557.0000   -33.1374     9.2630     8.9797    84.4001     8.1179     0.0307     0.1157     2.4894
  557.5000   -33.1203     9.2545     8.9609    81.5671     8.1242     0.0320     0.1125     2.4893
  558.0000   -33.1008     9.2460     8.9421    79.5176     8.1280     0.0332     0.1124     2.4928
  558.5000   -33.2131     9.2374     8.9234    81.2085     8.1319     0.0344     0.1123     2.4942
  559.0000   -33.3602     9.2289     8.9047    82.5489     8.1357     0.0355     0.1119     2.4934
  559.5000   -33.5082     9.2204     8.8861    81.2129     8.1395     0.0367     0.1111     2.4926
  560.0000   -33.6559     9.2119     8.8675    78.4302     8.1388     0.0365     0.1103     2.4930
  560.5000   -33.8037     9.2034     8.8490    79.9936     8.1293     0.0360     0.1104     2.4936
  561.0000   -33.9521     9.1950     8.8302    82.8760     8.1200     0.0355     0.1107     2.4943
  561.5000   -34.0953     9.1865     8.8187    84.9859     8.1106     0.0350     0.1112     2.4943
  562.0000   -34.1009     9.1780     8.8472    85.2961     8.1013     0.0345     0.1123     2.4939
  562.5000   -34.0997     9.1696     8.8688    85.8670     8.0918     0.0340     0.1134     2.4935
  563.0000   -34.0959     9.1611     8.8997    85.5414     8.0827     0.0336     0.1137     2.4931
  563.5000   -34.2616     9.1527     8.8680    82.0417     8.0965     0.0330     0.1138     2.4926
  564.0000   -34.4620     9.1130     8.8093    79.4873     8.1132     0.0347     0.1087     2.4945
  564.5000   -34.6637     9.0486     8.7515    79.9898     8.1299     0.0375     0.1076     2.4975
  565.0000   -34.8670     8.9846     8.6343    83.3025     8.1465     0.0404     0.1073     2.4991
  565.5000   -34.9001     8.9212     8.4525    84.1400     8.1613     0.0432     0.1071     2.5004
  566.0000   -34.9005     8.8581     8.2683    87.9013     8.1559     0.0444     0.1051     2.5047
  566.5000   -34.9001     8.7955     8.2418    88.3090     8.1496     0.0424     0.1021     2.5093
  567.0000   -34.8999     8.7333     8.2073    86.7820     8.1433     0.0408     0.1023     2.5098
  567.5000   -34.9003     8.6716     8.1369    85.5304     8.1371     0.0404     0.1021     2.5101
  568.0000   -34.8979     8.6103     7.9883    84.7458     8.1308     0.0384     0.0981     2.5104
  568.5000   -35.0383     8.5495     7.8965    84.5277     8.1246     0.0365     0.0981     2.5091
  569.0000   -35.2477     8.4916     7.9695    85.6741     8.1270     0.0347     0.1011     2.5059
  569.5000   -35.4598     8.4457     7.9126    86.3108     8.1381     0.0285     0.1042     2.5025
  570.0000   -35.6716     8.4000     7.8400    89.5253     8.1492     0.0233     0.1078     2.4977
  570.5000   -35.7004     8.3545     7.8242    94.9201     8.1602     0.0195     0.1113     2.4930
  571.0000   -35.7004     8.3093     7.8242    95.1514     8.1684     0.0189     0.1149     2.4883
  571.5000   -35.7001     8.2644     7.8242    94.2212     8.1761     0.0190     0.1173     2.4834
  572.0000   -35.7000     8.2197     7.8242    91.8615     8.1761     0.0216     0.1140     2.4835
  572.5000   -35.7000     8.1860     7.7180    90.6979     8.1265     0.0283     0.1086     2.4893
  573.0000   -35.7000     8.1692     7.6120    90.4914     8.0820     0.0310     0.1096     2.4971
  573.5000   -35.7000     8.1525     7.5074    89.6502     8.0843     0.0322     0.1072     2.4989
  574.0000   -35.7000     8.1358     7.4039    91.1615     8.0877     0.0326     0.1030     2.5076
  574.5000   -35.7000     8.1192     7.3878    92.5139     8.0910     0.0319     0.1028     2.5099
  575.0000   -35.7000     8.1026     7.3715    92.0936     8.0942     0.0312     0.1026     2.5064
  575.5000   -35.6996     8.0860     7.3554    91.2953     8.0974     0.0309     0.1046     2.5034
  576.0000   -35.7178     8.0695     7.3398    90.9595     8.1005     0.0307     0.1046     2.5040
  576.5000   -35.7428     8.0537     7.2684    91.0948     8.1109     0.0371     0.1033     2.5127
  577.0000   -35.7679     7.9853     7.1851    90.3921     8.1242     0.0449     0.0964     2.5232
  577.5000   -35.7930     7.8450     7.1028    89.6554     8.1379     0.0531     0.0896     2.5273
  578.0000   -35.8181     7.7071     7.0214    89.7443     8.1281     0.0549     0.0826     2.5297
  578.5000   -35.8432     7.6808     6.9410    97.2580     8.1092     0.0547     0.0827     2.5326
  579.0000   -35.8682     7.6813     6.8614    99.5903     8.0902     0.0351     0.1002     2.5122
  579.5000   -35.8928     7.6821     6.8155   101.4259     8.0712     0.0290     0.1110     2.4976
  580.0000   -35.9674     7.6159     6.8559   102.2734     8.0617     0.0254     0.1112     2.4961
  580.5000   -36.0584     7.5365     6.8824   100.3986     8.0618     0.0276     0.1112     2.4943
  581.0000   -36.1498     7.4580     6.9002    97.4321     8.0617     0.0294     0.1103     2.4936
  581.5000   -36.2412     7.3803     6.9181    95.5838     8.0618     0.0313     0.1094     2.4948
  582.0000   -36.3329     7.3236     6.9416    93.7194     8.0618     0.0328     0.1094     2.4962
  582.5000   -36.4239     7.2943     6.8729    91.1948     8.0618     0.0318     0.1096     2.4972
  583.0000   -36.4802     7.2651     6.7620    90.3656     8.0620     0.0309     0.1102     2.4956
  583.5000   -36.3339     7.2360     6.6535    89.7016     8.0486     0.0300     0.1109     2.4939
  584.0000   -36.1898     7.2071     6.5090    91.1175     8.0300     0.0291     0.1120     2.4923
  584.5000   -36.0462     7.0921     6.5374    93.9709     8.0113     0.0282     0.1138     2.4912
  585.0000   -35.9030     6.9421     6.5822    96.7633     8.0020     0.0273     0.1161     2.4859
  585.5000   -35.7585     6.9870     6.6273    96.7459     8.0021     0.0264     0.1198     2.4741
