~VERSION INFORMATION
 VERS.                2.0:   CWLS LOG ASCII STANDARD - VERSION 2.0
 WRAP.                 NO:   ONE LINE PER DEPTH STEP
~WELL INFORMATION
#MNEM.UNIT      DATA TYPE    INFORMATION
#----------   ------------   ------------------------------
 STRT.F            2.0000:   START DEPTH
 STOP.F          592.0000:   STOP DEPTH
 STEP.F            0.1000:   STEP LENGTH
 NULL.          -999.2500:   NO VALUE
 COMP. BROWN JOHN E&C INC:   COMPANY
 WELL. NAVAL PETROLEUM RESERVE 3 SX-3 #73-3:   WELL
 FLD .             TEAPOT:   FIELD
 LOC .       S3 T38N R78W:   LOCATION
 CNTY.            NATRONA:   COUNTY
 STAT.            WYOMING:   STATE
 CTRY. UNITED STATES OF AMERICA:   COUNTRY
 SRVC.     Atlas Wireline:   SERVICE COMPANY
 DATE.        22-APR-1992:   LOGDATE
 API .       490252251000:   API NUMBER
~CURVE INFORMATION
#MNEM.UNIT       API CODE    CURVE DESCRIPTION
#----------   ------------   ------------------------------
 DEPT.F                  :   
 GRR .GAPI   07 310 01 00:   GAMMA RAY
 RILD.OHMM   07 120 46 00:   INDUCTION LOG DEEP RESISTIVITY
 RILM.OHMM   07 120 44 00:   INDUCTION LOG MEDIUM RESISTIVITY
~PARAMETER INFORMATION
#MNEM.UNIT          VALUE    DESCRIPTION
#----------   ------------   ------------------------------
 PD  .                 GL:   PERMANENT DATUM
 EPD .F              5148:   ELEVATION PERMANENT DATUM
 LMF .                 KB:   LOG MEASURED FROM
 DAPD.F                 5:   FEET ABOVE PERMANENT DATUM
 DMF .                 KB:   DRILLING MEASURED FROM
 EKB .F              5153:   KELLING BUSHING
 EDF .F              5152:   DRILLING FLOOR
 EGL .F              5148:   GROUND LEVEL
 DATE.        22-APR-1992:   RUN DATE
 RUN .                  1:   RUN NUMBER
 DD  .F               600:   DEPTH DRILLER
 DL  .F               601:   DEPTH LOGGER
 BLI .F               592:   BOTTOM LOG INTERVAL
 TLI .F                51:   TOP LOG INTERVAL
 CS  .IN            8.625:   CASING SIZE
 CBD .F                48:   CASING BOTTOM DRILLER
 CBL .F                51:   CASING BOTTOM LOGGER
 BS  .IN            7.875:   BIT SIZE
 BSD .F               600:   BIT SIZE AT DEPTH
 DFT .                AIR:   DRILLING FLUID TYPE
 LUN .            HL-5272:   LOGGING UNIT NUMBER
 LUL .             CASPER:   LOGGING UNIT LOCATION
 ENGI.       P. RAGMUSSEN:   RECORDING ENGINEER
 WITN.          G. STRONG:   WITNESSED BY
 CLNT.            A2DTECH:   CLIENT CODE
 ORIG.           5" PRINT:   ORIGIN OF DATA
 UWI .       490252251000:   UNIQUE WELL ID
 DICO. A2D Technologies, Inc.:   DIGITIZING COMPANY
~OTHER INFORMATION
~A    DEPT      GRR      RILD       RILM   
# ...
  493.4000    88.7107    17.8227    17.8136
  493.5000    88.7149    17.8247    17.7170
  493.6000    88.7192    17.8269    17.7188
  493.7000    88.7234    17.8287    17.6423
  493.8000    88.7279    17.7652    17.5993
  493.9000    88.7318    17.7089    17.5697
  494.0000    88.9049    17.6929    17.4726
  494.1000    89.0419    17.5901    17.3613
  494.2000    89.1514    17.4987    17.3627
  494.3000    89.6538    17.4719    17.3046
  494.4000    90.1342    17.4276    17.2089
  494.5000    90.9853    17.3317    17.1138
  494.6000    91.9637    17.2360    17.0107
  494.7000    92.8786    17.1414    16.9253
  494.8000    93.6188    17.0471    16.8317
  494.9000    94.5969    16.9533    16.7387
  495.0000    95.3846    16.8600    16.6462
  495.1000    96.1194    16.7671    16.5515
  495.2000    96.8540    16.6579    16.4627
  495.3000    97.5722    16.6594    16.3717
  495.4000    98.1473    16.6072    16.2812
  495.5000    98.3529    16.5157    16.2156
  495.6000    98.6006    16.4247    16.2173
  495.7000    98.7626    16.3226    16.2188
  495.8000    98.7390    16.2446    16.2204
  495.9000    98.4699    16.2127    16.1706
  496.0000    97.1942    16.1785    16.1110
  496.1000    95.7372    16.1035    16.1125
  496.2000    94.4744    16.1057    16.1143
  496.3000    93.5435    16.1074    16.1157
  496.4000    92.7593    16.1092    16.1743
  496.5000    92.3147    16.1110    16.2314
  496.6000    91.6660    16.1322    16.2330
  496.7000    91.2634    16.2272    16.2347
  496.8000    91.2676    16.2289    16.2362
  496.9000    91.2719    16.2986    16.2378
  497.0000    91.5111    16.3460    16.2393
  497.1000    92.1133    16.3478    16.2410
  497.2000    93.2055    16.3497    16.2426
  497.3000    94.6097    16.3514    16.2441
  497.4000    95.8312    16.3533    16.2457
  497.5000    97.0537    16.3551    16.2473
  497.6000    98.0873    16.3569    16.2489
  497.7000    98.9358    16.3587    16.2505
  497.8000    99.4546    16.3608    16.2523
  497.9000    99.4588    16.3624    16.2536
  498.0000    99.4638    16.3642    16.2552
  498.1000    99.0686    16.3660    16.2568
  498.2000    98.8682    16.3678    16.2584
  498.3000    98.7894    16.3698    16.2602
  498.4000    98.5501    16.3715    16.2615
  498.5000    98.2781    16.3733    16.2631
  498.6000    97.8611    16.3752    16.2647
  498.7000    97.5305    16.3770    16.2663
  498.8000    97.2912    16.3789    16.2680
  498.9000    97.0872    16.3806    16.2694
  499.0000    97.0924    16.3824    16.2710
  499.1000    96.8749    16.3843    16.2727
  499.2000    96.7988    16.3636    16.2743
  499.3000    96.9082    16.2742    16.2758
  499.4000    97.1089    16.2760    16.2774
  499.5000    97.1133    16.2778    16.2790
  499.6000    97.1173    16.2309    16.2323
  499.7000    97.2959    16.1685    16.1692
  499.8000    97.4274    16.1648    16.1708
  499.9000    97.4899    16.0602    16.1726
  500.0000    97.7376    15.9870    16.1262
  500.1000    98.0918    15.8984    16.0698
  500.2000    98.4459    15.8097    16.0135
  500.3000    98.8000    15.7210    15.9571
  500.4000    99.1542    15.6323    15.9008
  500.5000    99.5083    15.5436    15.8444
  500.6000    99.8625    15.4549    15.7880
  500.7000   100.2166    15.3662    15.7317
  500.8000   100.5708    15.2775    15.6753
  500.9000   100.9249    15.1889    15.6189
  501.0000   101.0799    15.1002    15.5626
  501.1000   101.0823    15.0115    15.4956
  501.2000   101.0848    14.9228    15.4093
  501.3000   101.0875    14.8341    15.3145
  501.4000   100.8753    14.7454    15.2382
  501.5000   100.4747    14.6567    15.1534
  501.6000    99.8855    14.5680    15.0690
  501.7000    99.1971    14.4794    14.9851
  501.8000    98.6861    14.3903    14.9001
  501.9000    97.2871    14.2300    14.8187
  502.0000    96.7039    14.1320    14.7361
  502.1000    96.4612    14.0533    14.6541
  502.2000    96.2183    13.9749    14.5725
  502.3000    95.9830    13.8970    14.4913
  502.4000    95.9855    13.8087    14.3977
  502.5000    96.1840    13.7426    14.3305
  502.6000    96.4316    13.6660    14.2016
  502.7000    96.7622    13.5590    14.0730
  502.8000    97.3340    13.4204    13.9946
  502.9000    98.7128    13.3418    13.9109
  503.0000   100.2209    13.3428    13.8393
  503.1000   101.7810    13.2895    13.7083
  503.2000   103.3567    13.1787    13.5907
  503.3000   104.8466    13.0703    13.5149
  503.4000   105.3612    13.0685    13.4396
  503.5000   105.5978    12.9820    13.3648
  503.6000   105.8454    12.9233    13.2905
  503.7000   105.9717    12.8513    13.2165
  503.8000   105.9093    12.7797    13.1429
  503.9000   105.6665    12.7085    13.0768
  504.0000   105.3760    12.6307    13.0781
  504.1000   105.1812    12.5672    13.0149
  504.2000   104.5176    12.5450    12.9424
  504.3000   103.6231    12.5144    12.8703
  504.4000   102.8902    12.4447    12.8117
  504.5000   102.0697    12.3747    12.8131
  504.6000   101.2075    12.3758    12.7450
  504.7000   100.0698    12.3233    12.6740
  504.8000    98.5383    12.2919    12.6390
  504.9000    96.7191    12.2714    12.6208
  505.0000    95.4450    12.2086    12.5505
  505.1000    94.5073    12.2098    12.4676
  505.2000    93.7076    12.1518    12.4113
  505.3000    93.0965    12.1270    12.3830
  505.4000    92.4777    12.1280    12.3591
  505.5000    91.5083    12.1291    12.2990
  505.6000    90.6333    12.1301    12.3002
  505.7000    90.2399    12.0663    12.2388
  505.8000    89.8932    12.0479    12.2169
  505.9000    89.8197    12.0489    12.2179
  506.0000    90.0674    12.0321    12.2042
  506.1000    90.3436    11.9673    12.1351
  506.2000    91.4298    11.9685    12.1361
  506.3000    92.4975    11.9694    12.1371
  506.4000    93.2729    11.9704    12.1382
  506.5000    93.7657    11.9476    12.1392
  506.6000    94.2770    11.8892    12.1402
  506.7000    94.5152    11.8904    12.1414
  506.8000    94.7628    11.8913    12.1422
  506.9000    95.0103    11.8473    12.1432
  507.0000    95.1916    11.8107    12.1443
  507.1000    95.1744    11.8117    12.1453
  507.2000    94.5935    11.8127    12.1464
  507.3000    94.3969    11.8137    12.1473
  507.4000    94.1542    11.7640    12.1483
  507.5000    93.9114    11.7337    12.1494
  507.6000    93.6974    11.7347    12.1503
  507.7000    93.7004    11.7357    12.1513
  507.8000    93.7026    11.7368    12.1524
  507.9000    93.7050    11.7376    12.1534
  508.0000    93.7074    11.7386    12.1544
  508.1000    93.7098    11.7134    12.1554
  508.2000    93.7123    11.6590    12.1495
  508.3000    93.7147    11.6602    12.0732
  508.4000    93.7170    11.6610    12.0741
  508.5000    93.7194    11.6620    12.0313
  508.6000    93.9907    11.6630    11.9923
  508.7000    94.9633    11.6640    11.9808
  508.8000    95.8388    11.6649    11.9112
  508.9000    96.2395    11.6661    11.9121
  509.0000    96.8751    11.6669    11.8641
  509.1000    97.5265    11.6679    11.8315
  509.2000    98.0791    11.6688    11.8325
  509.3000    99.1689    11.6698    11.8334
  509.4000   101.1362    11.6709    11.8346
  509.5000   102.5359    11.6718    11.8354
  509.6000   103.7295    11.6727    11.8364
  509.7000   105.0561    11.6737    11.8375
  509.8000   105.8173    11.6747    11.8384
  509.9000   106.2950    11.6757    11.8395
  510.0000   106.6065    11.6767    11.8404
  510.1000   106.8539    11.6776    11.8414
  510.2000   107.0335    11.6786    11.8423
  510.3000   107.0359    11.6796    11.8433
  510.4000   107.0388    11.6806    11.8443
  510.5000   107.0407    11.6817    11.8453
  510.6000   106.7559    11.6825    11.8463
  510.7000   106.2681    11.6835    11.8473
  510.8000   105.7188    11.6845    11.8483
  510.9000   104.6374    11.6855    11.8493
  511.0000   103.3241    11.6865    11.8504
  511.1000   101.5304    11.6257    11.8512
  511.2000    99.8906    11.6073    11.8523
  511.3000    98.7169    11.5768    11.8533
  511.4000    97.7111    11.5286    11.8543
  511.5000    97.2366    11.5296    11.8553
