~VERSION INFORMATION
 VERS.                2.0:   CWLS LOG ASCII STANDARD - VERSION 2.0
 WRAP.                 NO:   ONE LINE PER DEPTH STEP
~WELL INFORMATION
#MNEM.UNIT      DATA TYPE    INFORMATION
#----------   ------------   ------------------------------
 STRT.F            0.0000:   START DEPTH
 STOP.F          890.0000:   STOP DEPTH
 STEP.F            0.1000:   STEP LENGTH
 NULL.          -999.2500:   NO VALUE
 COMP.   FLUOR DANIEL INC:   COMPANY
 WELL.   35-1 X 14 #35-14:   WELL
 FLD .             TEAPOT:   FIELD
 LOC .      S14 T38N R78W:   LOCATION
 CNTY.            NATRONA:   COUNTY
 STAT.            WYOMING:   STATE
 CTRY. UNITED STATES OF AMERICA:   COUNTRY
 SRVC.      Western Atlas:   SERVICE COMPANY
 DATE.        23-JUL-1995:   LOGDATE
 API .       490252273300:   API NUMBER
~CURVE INFORMATION
#MNEM.UNIT       API CODE    CURVE DESCRIPTION
#----------   ------------   ------------------------------
 DEPT.F                  :   
 RILM.OHMM   07 120 44 00:   RESITIVITY LONG MEDIUM
 RILD.OHMM   07 120 46 00:   INDUCTION LOG DEEP RESISTIVITY
 GRR .GAPI   07 310 01 00:   GAMMA RAY
~PARAMETER INFORMATION
#MNEM.UNIT          VALUE    DESCRIPTION
#----------   ------------   ------------------------------
 PD  .                 GL:   PERMANENT DATUM
 EPD .F              5238:   ELEVATION PERMANENT DATUM
 LMF .                 KB:   LOG MEASURED FROM
 DAPD.F                10:   FEET ABOVE PERMANENT DATUM
 DMF .                 KB:   DRILLING MEASURED FROM
 EKB .F              5248:   KELLING BUSHING
 EDF .F              5247:   DRILLING FLOOR
 EGL .F              5238:   GROUND LEVEL
 DATE.        23-JUL-1995:   RUN DATE
 RUN .                  1:   RUN NUMBER
 DD  .F               898:   DEPTH DRILLER
 DL  .F               898:   DEPTH LOGGER
 BLI .F               890:   BOTTOM LOG INTERVAL
 CS  .IN            9.625:   CASING SIZE
 CBD .F                78:   CASING BOTTOM DRILLER
 CBL .F                80:   CASING BOTTOM LOGGER
 BS  .IN             8.75:   BIT SIZE
 BSD .F               898:   BIT SIZE AT DEPTH
 DFT .                AIR:   DRILLING FLUID TYPE
 MRT .F                94:   MAXIMUM RECORDED TEMPERATURE
 LUN .            HL 6530:   LOGGING UNIT NUMBER
 LUL .             CASPER:   LOGGING UNIT LOCATION
 ENGI.       VERRN RAUTIO:   RECORDING ENGINEER
 WITN.        GARY STRONG:   WITNESSED BY
 CLNT.            A2DTECH:   CLIENT CODE
 ORIG.           5" PRINT:   ORIGIN OF DATA
 UWI .       490252273300:   UNIQUE WELL ID
 DICO. A2D Technologies, Inc.:   DIGITIZING COMPANY
~OTHER INFORMATION
~A    DEPT    RILM       RILD         GRR  
# ...
  600.6000     5.1673     4.7196   140.0951
  600.7000     5.2282     4.7854   141.3060
  600.8000     5.2905     4.8546   142.3155
  600.9000     5.4010     4.9224   143.0729
  601.0000     5.4274     5.0052   143.6294
  601.1000     5.4597     5.1094   143.9844
  601.2000     5.5060     5.1686   144.0370
  601.3000     5.5634     5.2044   143.7375
  601.4000     5.5976     5.2553   143.2363
  601.5000     5.6745     5.3172   143.2387
  601.6000     5.7306     5.3661   143.0396
  601.7000     5.7767     5.3978   142.9414
  601.8000     5.8111     5.4297   142.9438
  601.9000     5.8457     5.4668   142.9966
  602.0000     5.8804     5.5213   143.2508
  602.1000     5.9206     5.5653   143.2537
  602.2000     5.9213     5.5982   143.8599
  602.3000     5.9220     5.6397   144.3154
  602.4000     5.9227     5.7022   144.6703
  602.5000     5.9235     5.7028   145.1258
  602.6000     5.9242     5.7319   145.3801
  602.7000     5.9251     5.7436   145.6342
  602.8000     5.9257     5.7442   145.6870
  602.9000     5.9264     5.7447   145.6894
  603.0000     5.9110     5.7453   145.6918
  603.1000     5.8869     5.7459   145.6943
  603.2000     5.8876     5.7464   145.6967
  603.3000     5.8884     5.7469   145.4473
  603.4000     5.8891     5.7475   145.3994
  603.5000     5.8666     5.7481   145.2507
  603.6000     5.8497     5.7486   145.0014
  603.7000     5.8407     5.7492   144.7520
  603.8000     5.8076     5.7202   144.5027
  603.9000     5.7712     5.7105   143.9014
  604.0000     5.7420     5.6785   143.5006
  604.1000     5.7095     5.6231   142.9994
  604.2000     5.6608     5.5879   142.3975
  604.3000     5.5961     5.5178   141.6449
  604.4000     5.5288     5.4894   140.8916
  604.5000     5.4253     5.4360   140.1391
  604.6000     5.3974     5.3896   139.5876
  604.7000     5.3229     5.3493   138.9354
  604.8000     5.2471     5.2881   138.1825
  604.9000     5.1778     5.2226   137.4296
  605.0000     5.0924     5.1678   136.6767
  605.1000     5.0297     5.1087   136.0754
  605.2000     4.9503     5.0503   135.4799
  605.3000     4.8655     4.9963   134.7355
  605.4000     4.7821     4.9508   134.2369
  605.5000     4.7179     4.9053   134.2014
  605.6000     4.6876     4.8598   133.9384
  605.7000     4.6306     4.8143   133.6946
  605.8000     4.6061     4.7689   133.8386
  605.9000     4.5501     4.7234   134.0955
  606.0000     4.4837     4.6779   134.4572
  606.1000     4.4265     4.6324   135.0851
  606.2000     4.4009     4.5869   136.1293
  606.3000     4.3720     4.5553   137.8788
  606.4000     4.3503     4.5526   139.1949
  606.5000     4.3423     4.5248   140.7279
  606.6000     4.3427     4.5253   142.1357
  606.7000     4.3431     4.5258   143.4135
  606.8000     4.3434     4.5263   144.6600
  606.9000     4.3438     4.5268   145.7445
  607.0000     4.3682     4.5219   146.4651
  607.1000     4.3748     4.4965   147.2325
  607.2000     4.3752     4.4971   147.8541
  607.3000     4.3756     4.4975   148.3664
  607.4000     4.3759     4.4980   148.8266
  607.5000     4.3763     4.4985   149.0785
  607.6000     4.3767     4.5067   149.0807
  607.7000     4.3770     4.5308   148.0156
  607.8000     4.3942     4.5314   146.4084
  607.9000     4.4204     4.5565   144.7436
  608.0000     4.4468     4.5839   143.2873
  608.1000     4.4707     4.5963   142.0384
  608.2000     4.4711     4.6069   140.9343
  608.3000     4.4956     4.6346   140.0004
  608.4000     4.5421     4.6626   139.7293
  608.5000     4.5961     4.7280   139.5912
  608.6000     4.6508     4.7514   139.4308
  608.7000     4.7060     4.7981   139.4787
  608.8000     4.7621     4.8421   139.7366
  608.9000     4.8293     4.8792   140.9472
  609.0000     4.8761     4.9346   142.4003
  609.1000     4.9158     4.9668   144.0285
  609.2000     4.9582     4.9940   145.4480
  609.3000     5.0171     5.0456   146.5923
  609.4000     5.0768     5.0893   147.3599
  609.5000     5.1436     5.1198   148.2086
  609.6000     5.1983     5.1560   148.4383
  609.7000     5.2602     5.2177   148.6953
  609.8000     5.3063     5.2914   148.6839
  609.9000     5.3488     5.3428   148.0815
  610.0000     5.4124     5.4065   146.6875
  610.1000     5.4784     5.4710   144.5940
  610.2000     5.5419     5.5275   143.1047
  610.3000     5.6079     5.5634   141.3734
  610.4000     5.6950     5.6364   139.8986
  610.5000     5.7678     5.6668   138.5172
  610.6000     5.8104     5.7250   137.1091
  610.7000     5.8794     5.7750   136.1180
  610.8000     5.9585     5.8217   135.5434
  610.9000     6.0203     5.8852   135.1007
  611.0000     6.0919     5.9211   134.4170
  611.1000     6.1644     6.0047   133.7815
  611.2000     6.2377     6.0622   133.2728
  611.3000     6.3118     6.1121   132.7643
  611.4000     6.3906     6.1530   132.2309
  611.5000     6.4630     6.1995   131.9900
  611.6000     6.5104     6.2460   131.5408
  611.7000     6.5719     6.2926   131.1811
  611.8000     6.6343     6.3391   130.9277
  611.9000     6.6825     6.3797   130.6743
  612.0000     6.7606     6.4180   130.4211
  612.1000     6.8072     6.4694   130.1290
  612.2000     6.8417     6.5405   130.1305
  612.3000     6.8825     6.5808   130.1323
  612.4000     6.9236     6.6192   130.2566
  612.5000     6.9650     6.6281   130.4381
  612.6000     7.0019     6.6525   130.4685
  612.7000     7.0025     6.6925   130.7439
  612.8000     7.0414     6.7326   130.7456
  612.9000     7.0525     6.7707   130.9375
  613.0000     7.0531     6.7716   131.1944
  613.1000     7.0693     6.8071   131.5474
  613.2000     7.1035     6.8202   132.1581
  613.3000     7.1041     6.8414   133.1760
  613.4000     7.1047     6.8824   133.7780
  613.5000     7.1053     6.9179   134.8316
  613.6000     7.1059     6.9187   136.1094
  613.7000     7.1065     6.9194   137.5039
  613.8000     7.1071     6.9518   138.8278
  613.9000     7.1076     6.9692   139.5953
  614.0000     7.1082     6.9700   140.4352
  614.1000     7.1088     6.9708   140.8988
  614.2000     7.1094     6.9715   141.0429
  614.3000     7.1100     6.9724   141.0447
  614.4000     7.1106     7.0085   141.0465
  614.5000     7.1112     7.0225   141.0050
  614.6000     7.1118     7.0233   140.7481
  614.7000     7.1124     7.0240   140.4481
  614.8000     7.1130     7.0248   140.0402
  614.9000     7.1137     7.0256   139.5316
  615.0000     7.1142     7.0264   138.9122
  615.1000     7.1148     7.0272   138.1488
  615.2000     7.1154     7.0279   137.3848
  615.3000     7.1160     7.0452   136.5313
  615.4000     7.1165     7.0785   135.8572
  615.5000     7.1172     7.0793   135.2720
  615.6000     7.1177     7.0801   134.5010
  615.7000     7.1183     7.0809   133.4818
  615.8000     7.1189     7.0816   132.4256
  615.9000     7.1195     7.0824   131.1040
  616.0000     7.1201     7.0833   129.8777
  616.1000     7.1207     7.0840   128.8021
  616.2000     7.1214     7.0848   128.0866
  616.3000     7.1219     7.1081   127.6829
  616.4000     7.1225     7.1358   127.4296
  616.5000     7.1231     7.1366   127.1872
  616.6000     7.1237     7.1374   127.4915
  616.7000     7.1243     7.1383   127.7124
  616.8000     7.1249     7.1389   128.3142
  616.9000     7.1255     7.1397   129.0817
  617.0000     7.1260     7.1405   129.9277
  617.1000     7.1266     7.1413   130.9812
  617.2000     7.1133     7.1389   132.3361
  617.3000     7.0784     7.0935   133.2972
  617.4000     7.0791     7.0942   134.3200
  617.5000     7.0796     7.0950   134.9043
  617.6000     7.0802     7.0958   135.2602
  617.7000     7.0808     7.0966   135.7204
  617.8000     7.0814     7.0974   135.9722
  617.9000     7.0820     7.0982   135.9743
  618.0000     7.0826     7.0990   135.9758
  618.1000     7.0833     7.0998   135.9776
  618.2000     7.0838     7.0751   135.8598
  618.3000     7.0844     7.0522   135.6064
  618.4000     7.0850     7.0530   135.3531
  618.5000     7.0855     7.0538   135.0787
  618.6000     7.0915     7.0546   135.0804
  618.7000     7.1362     7.0553   135.0822
