~VERSION INFORMATION
 VERS.                2.0:   CWLS LOG ASCII STANDARD - VERSION 2.0
 WRAP.                 NO:   ONE LINE PER DEPTH STEP
~WELL INFORMATION
#MNEM.UNIT      DATA TYPE    INFORMATION
#----------   ------------   ------------------------------
 STRT.F           42.0000:   START DEPTH
 STOP.F         3140.0000:   STOP DEPTH
 STEP.F            0.5000:   STEP LENGTH
 NULL.          -999.2500:   NO VALUE
 COMP. LAWRENCE-ALLISON & AS:   COMPANY
 WELL.     88 X 33 #88-33:   WELL
 FLD .             NPR #3:   FIELD
 LOC .      S33 T39N R78W:   LOCATION
 CNTY.            NATRONA:   COUNTY
 STAT.            WYOMING:   STATE
 CTRY. UNITED STATES OF AMERICA:   COUNTRY
 SRVC.       Schlumberger:   SERVICE COMPANY
 DATE.        13-DEC-1987:   LOGDATE
 API .       490251120300:   API NUMBER
~CURVE INFORMATION
#MNEM.UNIT       API CODE    CURVE DESCRIPTION
#----------   ------------   ------------------------------
 DEPT.F                  :   
 GRR .GAPI   07 310 01 00:   GAMMA RAY FROM RES
 SPR .MV     07 010 01 00:   SPONTANEOUS POTENTIAL
 ILD .OHMM   07 120 46 00:   INDUCTION LOG DEEP RES
 ILM .OHMM   07 120 44 00:   INDUCTION LOG MEDIUM RES
 SFLU.OHMM   07 220 01 00:   SPHERICALLY FOCUSED LOG UNAVERAGED RES
 DPHI.DEC    45 890 12 00:   DENSITY POROSITY SANDSTONE
 NPHI.DEC    42 890 03 00:   NEUTRON POROSITY SANDSTONE
 CALD.IN     45 280 60 00:   CALIPER FROM DENSITY LOG
 DRHO.G/C3   45 356 01 00:   DENSITY CORRECTION
 RHOB.G/C3   45 350 01 00:   BULK DENSITY
~PARAMETER INFORMATION
#MNEM.UNIT          VALUE    DESCRIPTION
#----------   ------------   ------------------------------
 PD  .                 GL:   PERMANENT DATUM
 EPD .F              5746:   ELEVATION PERMANENT DATUM
 LMF .                 KB:   LOG MEASURED FROM
 DAPD.F                11:   FEET ABOVE PERMANENT DATUM
 DMF .                 KB:   DRILLING MEASURED FROM
 EKB .F              5157:   KELLING BUSHING
 EGL .F              5146:   GROUND LEVEL
 DATE.        13-DEC-1987:   RUN DATE
 RUN .                  1:   RUN NUMBER
 DD  .F              3155:   DEPTH DRILLER
 DL  .F              3140:   DEPTH LOGGER
 BLI .F              3132:   BOTTOM LOG INTERVAL
 TLI .F               614:   TOP LOG INTERVAL
 CS  .IN            9.625:   CASING SIZE
 CBD .F               608:   CASING BOTTOM DRILLER
 CBL .F               614:   CASING BOTTOM LOGGER
 BS  .IN            7.875:   BIT SIZE
 BSD .F              3155:   BIT SIZE AT DEPTH
 DFT .       KCL DIS. PAC:   DRILLING FLUID TYPE
 DFD .                  9:   DRILLING FLUID DENSITY
 DFV .                 41:   DRILLING FLUID VISCOSITY
 DFPH.                9.5:   DRILLING FLUID PH
 DFL .                8.4:   DRILLING FLUID LOSS
 MSS .           FLOWLINE:   MUD SAMPLE SOURCE
 RMS .OHMM          0.523:   RESISTIVITY MUD SAMPLE
 MST .F                63:   MUD SAMPLE TEMPERATURE
 RMF .OHMM          0.435:   RESISTIVITY MUD FILTRATE SAMPLE
 MFST.F                63:   MUD FILTRATE SAMPLE TEMPERATURE
 RMC .OHMM          0.489:   RESISTIVITY MUD CAKE
 MCST.F                63:   MUD CAKE SAMPLE TEMPERATURE
 MFSS.              PRESS:   MUD FILTRATE SAMPLE SOURCE
 MCSS.               CALC:   MUD CAKE SAMPLE SOURCE
 RMB .OHMM          0.288:   RESISTIVITY MUD AT BHT
 BHT .F               120:   BOTTOM HOLE TEMPERATURE
 TCS .HRS            0600:   TIME CURCULATED STOPPED
 TLAB.HRS            1430:   TIME LOGGER AT BOTTOM
 MRT .F               120:   MAXIMUM RECORDED TEMPERATURE
 LUN .               8198:   LOGGING UNIT NUMBER
 LUL .             CASPER:   LOGGING UNIT LOCATION
 ENGI.          W. BENSON:   RECORDING ENGINEER
 WITN.        GARY STRONG:   WITNESSED BY
 CLNT.            A2DTECH:   CLIENT CODE
 ORIG.           5" PRINT:   ORIGIN OF DATA
 UWI .       490251120300:   UNIQUE WELL ID
 DICO. A2D Technologies, Inc.:   DIGITIZING COMPANY
~OTHER INFORMATION
~A   DEPT      GRR        SPR        ILD        ILM       SFLU       DPHI       NPHI       CALD       DRHO       RHOB   
# ...
  980.0000   106.4908   -63.7951     8.4628     8.0621     9.9648  -999.2500  -999.2500  -999.2500  -999.2500  -999.2500
  980.5000   105.5849   -63.4953     8.4623     8.0606     9.8271  -999.2500  -999.2500  -999.2500  -999.2500  -999.2500
  981.0000   104.6790   -63.3462     8.4617     7.8951     9.4920  -999.2500  -999.2500  -999.2500  -999.2500  -999.2500
  981.5000   104.2255   -63.3481     8.4611     7.7859     9.1050  -999.2500  -999.2500  -999.2500  -999.2500  -999.2500
  982.0000   109.6444   -63.1986     8.4605     7.7854     8.7946  -999.2500  -999.2500  -999.2500  -999.2500  -999.2500
  982.5000   112.8048   -63.2005     8.4599     7.7848     8.9166  -999.2500  -999.2500  -999.2500  -999.2500  -999.2500
  983.0000   113.7067   -63.3526     8.4593     7.7305     9.0405  -999.2500  -999.2500  -999.2500  -999.2500  -999.2500
  983.5000   112.1226   -63.3541     8.5176     7.7300     9.0397  -999.2500  -999.2500  -999.2500  -999.2500  -999.2500
  984.0000   110.9908   -63.5062     8.5762     7.7832     9.0391  -999.2500  -999.2500  -999.2500  -999.2500  -999.2500
  984.5000   109.6331   -63.5077     8.6353     7.7908     9.3569  -999.2500  -999.2500  -999.2500  -999.2500  -999.2500
  985.0000   108.2754   -63.5092     8.6947     7.8908     9.5528  -999.2500  -999.2500  -999.2500  -999.2500  -999.2500
  985.5000   105.7882   -63.5105     8.7052     7.9002     9.5520  -999.2500  -999.2500  -999.2500  -999.2500  -999.2500
  986.0000   104.8823   -63.5122     8.8762     7.9996     9.6177  -999.2500  -999.2500  -999.2500  -999.2500  -999.2500
  986.5000   106.6873   -63.5137     8.9373     8.1671     9.6839  -999.2500  -999.2500  -999.2500  -999.2500  -999.2500
  987.0000   108.0405   -63.5151     8.9988     8.4545     9.8865  -999.2500  -999.2500  -999.2500  -999.2500  -999.2500
  987.5000   110.9750   -63.3659     9.1236     8.6916    10.0237  -999.2500  -999.2500  -999.2500  -999.2500  -999.2500
  988.0000   113.4576   -63.3676     9.1866     8.8737    10.1628  -999.2500  -999.2500  -999.2500  -999.2500  -999.2500
  988.5000   114.8114   -63.2181     9.3140     8.8729    10.2327  -999.2500  -999.2500  -999.2500  -999.2500  -999.2500
  989.0000   114.1308   -63.2200     9.4433     8.8723    10.3747  -999.2500  -999.2500  -999.2500  -999.2500  -999.2500
  989.5000   107.5774   -63.2215     9.5746     8.8717    10.4462  -999.2500  -999.2500  -999.2500  -999.2500  -999.2500
  990.0000   105.5420   -63.2230     9.7750     8.8098    10.3733  -999.2500  -999.2500  -999.2500  -999.2500  -999.2500
  990.5000   106.4433   -63.2245     9.9107     8.7484    10.3010  -999.2500  -999.2500  -999.2500  -999.2500  -999.2500
  991.0000   110.0555   -63.2261     9.9100     8.6874    10.3003  -999.2500  -999.2500  -999.2500  -999.2500  -999.2500
  991.5000   112.3123   -63.2275     9.7729     8.6268    10.2995  -999.2500  -999.2500  -999.2500  -999.2500  -999.2500
  992.0000   112.9883   -63.2290     9.5712     8.5666    10.2278  -999.2500  -999.2500  -999.2500  -999.2500  -999.2500
  992.5000   112.9855   -63.2305     9.4388     8.6257    10.0864  -999.2500  -999.2500  -999.2500  -999.2500  -999.2500
  993.0000   114.3387   -63.2320     9.4381     8.6850     9.8783  -999.2500  -999.2500  -999.2500  -999.2500  -999.2500
  993.5000   115.0141   -63.3841     9.4375     8.7449     9.9463  -999.2500  -999.2500  -999.2500  -999.2500  -999.2500
  994.0000   115.9155   -63.3856     9.4368     8.8050    10.0843  -999.2500  -999.2500  -999.2500  -999.2500  -999.2500
  994.5000   109.8138   -63.3871     9.5680     8.8044    10.2953  -999.2500  -999.2500  -999.2500  -999.2500  -999.2500
  995.0000   104.6158   -63.3886     9.7007     8.8651    10.4382  -999.2500  -999.2500  -999.2500  -999.2500  -999.2500
  995.5000   103.7099   -63.2395     9.7001     8.9260    10.5830  -999.2500  -999.2500  -999.2500  -999.2500  -999.2500
  996.0000   103.7076   -63.2410     9.6994     8.9254    10.5823  -999.2500  -999.2500  -999.2500  -999.2500  -999.2500
  996.5000   104.0547   -63.2425     9.6987     8.9870    10.5815  -999.2500  -999.2500  -999.2500  -999.2500  -999.2500
  997.0000   105.9623   -63.0934     9.6981     8.9242    10.5078  -999.2500  -999.2500  -999.2500  -999.2500  -999.2500
  997.5000   111.1559   -62.9443     9.6974     8.9236    10.5070  -999.2500  -999.2500  -999.2500  -999.2500  -999.2500
  998.0000   112.2831   -62.9458     9.6967     8.8613    10.5063  -999.2500  -999.2500  -999.2500  -999.2500  -999.2500
  998.5000   109.1182   -62.9474     9.4966     8.8607    10.4331  -999.2500  -999.2500  -999.2500  -999.2500  -999.2500
  999.0000   109.3419   -62.7982     9.3652     8.6778    10.1474  -999.2500  -999.2500  -999.2500  -999.2500  -999.2500
  999.5000   109.3396   -62.7997     9.1085     8.5577    10.0071  -999.2500  -999.2500  -999.2500  -999.2500  -999.2500
 1000.0000   109.3373   -62.8012     8.9827     8.4982     9.9374  -999.2500  -999.2500  -999.2500  -999.2500  -999.2500
 1000.5000   106.3938   -63.0507     8.9826     8.5852    10.0057  -999.2500  -999.2500  -999.2500  -999.2500  -999.2500
 1001.0000   112.9506   -63.1225     8.8589     8.4968    10.0050  -999.2500  -999.2500  -999.2500  -999.2500  -999.2500
 1001.5000   115.4208   -63.4262     8.8589     8.4962    10.0043  -999.2500  -999.2500  -999.2500  -999.2500  -999.2500
 1002.0000   113.7985   -63.4337     8.9205     8.4957     9.9346  -999.2500  -999.2500  -999.2500  -999.2500  -999.2500
 1002.5000   109.0175   -63.2905     8.9826     8.4364     9.8654  -999.2500  -999.2500  -999.2500  -999.2500  -999.2500
 1003.0000   105.6822   -63.2982     8.9205     8.3776     9.8647  -999.2500  -999.2500  -999.2500  -999.2500  -999.2500
 1003.5000   105.4389   -63.3057     8.9205     8.4354     9.8640  -999.2500  -999.2500  -999.2500  -999.2500  -999.2500
 1004.0000   104.7652   -63.3133     8.9826     8.4347     9.8633  -999.2500  -999.2500  -999.2500  -999.2500  -999.2500
 1004.5000   107.0308   -63.3208     8.9826     8.3758     9.8626  -999.2500  -999.2500  -999.2500  -999.2500  -999.2500
 1005.0000   109.0737   -63.3283     8.9826     8.3752     9.8619  -999.2500  -999.2500  -999.2500  -999.2500  -999.2500
 1005.5000   109.2629   -63.4864     8.9205     8.3747     9.7932  -999.2500  -999.2500  -999.2500  -999.2500  -999.2500
 1006.0000   107.6747   -63.4955     8.9205     8.3741     9.7925  -999.2500  -999.2500  -999.2500  -999.2500  -999.2500
 1006.5000   109.0429   -63.3524     8.9826     8.4904     9.8599  -999.2500  -999.2500  -999.2500  -999.2500  -999.2500
 1007.0000   109.7154   -63.3599     9.0450     8.5488    10.0000  -999.2500  -999.2500  -999.2500  -999.2500  -999.2500
 1007.5000   109.4391   -63.2168     9.1713     8.5482    10.2094  -999.2500  -999.2500  -999.2500  -999.2500  -999.2500
 1008.0000   108.5271   -63.0737     9.2351     8.5477    10.4232  -999.2500  -999.2500  -999.2500  -999.2500  -999.2500
 1008.5000   108.3185   -63.0812     9.1713     8.5471    10.4911  -999.2500  -999.2500  -999.2500  -999.2500  -999.2500
 1009.0000   109.2425   -62.7856     9.1713     8.4875    10.3460  -999.2500  -999.2500  -999.2500  -999.2500  -999.2500
 1009.5000   110.6213   -62.9456     9.1713     8.4869    10.1941  -999.2500  -999.2500  -999.2500  -999.2500  -999.2500
 1010.0000   111.9728   -63.1037     9.1713     8.4277     9.9190  -999.2500  -999.2500  -999.2500  -999.2500  -999.2500
 1010.5000   112.8411   -63.2618     9.1713     8.3689     9.7817  -999.2500  -999.2500  -999.2500  -999.2500  -999.2500
 1011.0000   113.4807   -63.1187     9.1713     8.3683     9.7182  -999.2500  -999.2500  -999.2500  -999.2500  -999.2500
 1011.5000   112.7266   -63.1262     9.1713     8.3677     9.7851  -999.2500  -999.2500  -999.2500  -999.2500  -999.2500
 1012.0000   110.9458   -63.1337     9.1713     8.3672     9.7844  -999.2500  -999.2500  -999.2500  -999.2500  -999.2500
 1012.5000   109.9962   -62.9887     9.1713     8.3666     9.8517  -999.2500  -999.2500  -999.2500  -999.2500  -999.2500
 1013.0000   108.8961   -62.9981     9.1713     8.3660     9.9195  -999.2500  -999.2500  -999.2500  -999.2500  -999.2500
