~VERSION INFORMATION
 VERS.                2.0:   CWLS LOG ASCII STANDARD - VERSION 2.0
 WRAP.                 NO:   ONE LINE PER DEPTH STEP
~WELL INFORMATION
#MNEM.UNIT      DATA TYPE    INFORMATION
#----------   ------------   ------------------------------
 STRT.F           26.0000:   START DEPTH
 STOP.F         1071.0000:   STOP DEPTH
 STEP.F            0.5000:   STEP LENGTH
 NULL.          -999.2500:   NO VALUE
 COMP. FENIX & SCISSON INC:   COMPANY
 WELL.       NRP 3 #61-14:   WELL
 FLD .        TEAPOT DOME:   FIELD
 LOC .      S14 T38N R78W:   LOCATION
 CNTY.            NATRONA:   COUNTY
 STAT.            WYOMING:   STATE
 CTRY. UNITED STATES OF AMERICA:   COUNTRY
 SRVC.            Unknown:   SERVICE COMPANY
 DATE.        09-JAN-1979:   LOGDATE
 API .       490251076300:   API NUMBER
~CURVE INFORMATION
#MNEM.UNIT       API CODE    CURVE DESCRIPTION
#----------   ------------   ------------------------------
 DEPT.F                  :   
 SPR .MV     05 010 01 00:   SPONTANEOUS POTENTIAL FROM RES.
 SN  .OHMM   05 040 16 00:   SHORT NORMAL 16"
 IL  .OHMM   05 120 00 00:   INDUCTION LOG
 CALD.IN     45 280 60 00:   CALIPER
 GRD .GAPI   45 310 01 00:   GAMMA RAY FROM DENSITY LOG
 RHOB.G/C3   45 350 01 00:   BULK DENSITY
 DPHI.DEC    45 890 12 00:   DENSITY POROSITY SANDSTONE
 CORR.G/C3   45 356 01 00:   DENSITY CORRECTION
~PARAMETER INFORMATION
#MNEM.UNIT          VALUE    DESCRIPTION
#----------   ------------   ------------------------------
 PD  .                 GL:   PERMANENT DATUM
 EPD .F              5240:   ELEVATION PERMANENT DATUM
 LMF .                 KB:   LOG MEASURED FROM
 DAPD.F                 4:   FEET ABOVE PERMANENT DATUM
 DMF .                 KB:   DRILLING MEASURED FROM
 EKB .F              5244:   KELLING BUSHING
 EGL .F              5240:   GROUND LEVEL
 DATE.             1-9-79:   RUN DATE
 RUN .                  1:   RUN NUMBER
 DD  .F              1061:   DEPTH DRILLER
 DL  .F              1071:   DEPTH LOGGER
 BLI .F              1064:   BOTTOM LOG INTERVAL
 TLI .F                50:   TOP LOG INTERVAL
 CS  .IN            8.625:   CASING SIZE
 CBD .F                40:   CASING BOTTOM DRILLER
 CBL .F                38:   CASING BOTTOM LOGGER
 BS  .IN            7.875:   BIT SIZE
 BSD .F              1061:   BIT SIZE AT DEPTH
 DFT .                KCL:   DRILLING FLUID TYPE
 DFD .                8.8:   DRILLING FLUID DENSITY
 DFV .                 36:   DRILLING FLUID VISCOSITY
 DFPH.                9.2:   DRILLING FLUID PH
 MSS .           FLOWLINE:   MUD SAMPLE SOURCE
 RMS .OHMM             .3:   RESISTIVITY MUD SAMPLE
 MST .F                58:   MUD SAMPLE TEMPERATURE
 RMF .OHMM             .3:   RESISTIVITY MUD FILTRATE SAMPLE
 MFST.F                58:   MUD FILTRATE SAMPLE TEMPERATURE
 RMC .OHMM            .34:   RESISTIVITY MUD CAKE
 MCST.F                62:   MUD CAKE SAMPLE TEMPERATURE
 MFSS.           MEASURED:   MUD FILTRATE SAMPLE SOURCE
 MCSS.           MEASURED:   MUD CAKE SAMPLE SOURCE
 RMB .OHMM            .29:   RESISTIVITY MUD AT BHT
 BHT .F                61:   BOTTOM HOLE TEMPERATURE
 TCS .HRS               4:   TIME CURCULATED STOPPED
 MRT .F                61:   MAXIMUM RECORDED TEMPERATURE
 LUN .               3006:   LOGGING UNIT NUMBER
 LUL .             CASPER:   LOGGING UNIT LOCATION
 ENGI.            ROLLINS:   RECORDING ENGINEER
 WITN.           DINSMORE:   WITNESSED BY
 CLNT.            A2DTECH:   CLIENT CODE
 ORIG.           5" PRINT:   ORIGIN OF DATA
 UWI .       490251076300:   UNIQUE WELL ID
 DICO. A2D Technologies, Inc.:   DIGITIZING COMPANY
~OTHER INFORMATION
~A   DEPT      SPR         SN         IL       CALD         GRD      RHOB       DPHI       CORR   
# ...
  836.0000   -72.3620     6.7500     6.5920     7.9620   121.5380     2.4810     0.1170     0.1020
  836.5000   -72.4210     6.7070     6.5280     7.9600   122.4140     2.4820     0.1190     0.0990
  837.0000   -72.4800     6.6640     6.4630     7.9580   122.2040     2.4820     0.1250     0.1010
  837.5000   -72.5380     6.6050     6.3980     7.9550   121.9770     2.4780     0.1320     0.1030
  838.0000   -72.5970     6.5230     6.3330     7.9530   122.0620     2.4650     0.1370     0.1060
  838.5000   -72.6090     6.4400     6.2680     7.9510   122.5500     2.4520     0.1400     0.1080
  839.0000   -72.6150     6.3580     6.2040     7.9490   123.0560     2.4470     0.1430     0.1060
  839.5000   -72.4010     6.2750     6.1390     7.9470   124.1620     2.4430     0.1480     0.1030
  840.0000   -72.1430     6.1930     6.0740     7.9450   124.6100     2.4390     0.1500     0.1000
  840.5000   -71.8830     6.1100     6.0090     7.9430   124.4120     2.4380     0.1410     0.0980
  841.0000   -71.6090     6.0280     5.9430     7.9410   123.8520     2.4450     0.1330     0.0950
  841.5000   -71.0160     5.9430     5.6680     7.9390   123.8950     2.4530     0.1290     0.0950
  842.0000   -70.6040     5.7760     5.3850     7.9370   123.9700     2.4600     0.1330     0.0960
  842.5000   -70.5850     5.6040     5.1020     7.9340   124.0500     2.4560     0.1390     0.1020
  843.0000   -70.5600     5.4320     4.8060     7.9320   124.8580     2.4510     0.1450     0.1090
  843.5000   -70.5340     5.2610     4.8060     7.9300   127.1230     2.4440     0.1530     0.1160
  844.0000   -70.5090     5.0800     4.8490     7.9280   127.1480     2.4340     0.1600     0.1140
  844.5000   -70.4840     5.0800     4.9060     7.9270   127.2180     2.4210     0.1680     0.1110
  845.0000   -70.4600     5.0800     4.9620     7.9270   127.8530     2.4080     0.1760     0.1070
  845.5000   -70.4350     5.1740     5.0190     7.9260   129.8430     2.3950     0.1820     0.1050
  846.0000   -70.4100     5.3200     5.0800     7.9260   130.1020     2.3820     0.1760     0.1040
  846.5000   -70.3850     5.5130     5.3520     7.9250   128.2180     2.3850     0.1590     0.1030
  847.0000   -70.3600     5.8510     5.7250     7.9240   126.8130     2.4110     0.1410     0.1020
  847.5000   -70.3360     6.1900     6.0980     7.9230   127.9650     2.4340     0.1330     0.1010
  848.0000   -70.3110     6.5290     6.4710     7.9230   129.1380     2.4510     0.1360     0.1000
  848.5000   -70.2860     6.8250     6.6400     7.9220   129.0900     2.4510     0.1380     0.0990
  849.0000   -70.2620     6.8880     6.7000     7.9210   129.0370     2.4490     0.1410     0.0990
  849.5000   -70.2380     6.8770     6.6970     7.9200   129.3810     2.4480     0.1440     0.0980
  850.0000   -70.2520     6.8690     6.6940     7.9200   129.7240     2.4480     0.1440     0.0970
  850.5000   -70.3790     6.8610     6.6910     7.9190   129.9120     2.4500     0.1320     0.0960
  851.0000   -70.5020     6.8520     6.6880     7.9180   129.6790     2.4590     0.1260     0.0950
  851.5000   -70.6240     6.8440     6.6860     7.9170   128.7390     2.4670     0.1250     0.0940
  852.0000   -70.7470     6.8350     6.6830     7.9170   124.8000     2.4680     0.1230     0.0930
  852.5000   -70.8520     6.8270     6.6800     7.9160   119.8880     2.4690     0.1270     0.0920
  853.0000   -70.9340     6.8190     6.6780     7.9150   116.9080     2.4680     0.1300     0.0910
  853.5000   -71.0160     6.8100     6.6750     7.9140   116.8500     2.4630     0.1300     0.0890
  854.0000   -71.0980     6.8020     6.6720     7.9140   120.6510     2.4590     0.1290     0.0910
  854.5000   -71.1800     6.7940     6.6690     7.9130   124.3720     2.4600     0.1280     0.0970
  855.0000   -71.2620     6.7850     6.6670     7.9120   126.5050     2.4610     0.1290     0.1040
  855.5000   -71.3430     6.7770     6.6640     7.9110   126.7470     2.4600     0.1320     0.1100
  856.0000   -71.4250     6.7690     6.6610     7.9110   127.0010     2.4590     0.1350     0.1100
  856.5000   -71.5070     6.7600     6.6590     7.9100   127.0500     2.4580     0.1380     0.1090
  857.0000   -71.5890     6.7520     6.6560     7.9090   126.3580     2.4570     0.1360     0.1090
  857.5000   -71.6710     6.7430     6.6530     7.9080   125.6830     2.4590     0.1300     0.1060
  858.0000   -71.7530     6.7350     6.6500     7.9080   125.0110     2.4660     0.1250     0.1030
  858.5000   -71.8340     6.7270     6.6480     7.9070   124.4380     2.4730     0.1220     0.1000
  859.0000   -71.9160     6.7180     6.6450     7.9170   123.9940     2.4740     0.1210     0.0960
  859.5000   -71.9980     6.7100     6.6420     7.9280   123.8830     2.4740     0.1220     0.0950
  860.0000   -72.0800     6.7030     6.6400     7.9400   123.9510     2.4740     0.1280     0.0950
  860.5000   -72.1620     6.6420     6.5760     7.9470   124.0250     2.4680     0.1330     0.0960
  861.0000   -72.2440     6.5720     6.4730     7.9490   124.8530     2.4590     0.1350     0.0960
  861.5000   -72.3260     6.5020     6.3710     7.9500   126.4610     2.4520     0.1340     0.0970
  862.0000   -72.4030     6.4310     6.2680     7.9520   130.5680     2.4520     0.1350     0.0980
  862.5000   -72.2840     6.3610     6.2070     7.9540   134.7170     2.4530     0.1380     0.0980
  863.0000   -72.1530     6.2900     6.1770     7.9550   138.8600     2.4510     0.1400     0.0980
  863.5000   -72.0220     6.2200     6.1480     7.9570   140.3340     2.4470     0.1420     0.0970
  864.0000   -71.8920     6.1490     6.1180     7.9590   140.6890     2.4450     0.1460     0.0960
  864.5000   -71.7600     6.0790     6.1090     7.9600   140.6420     2.4440     0.1440     0.0950
  865.0000   -71.6310     6.0080     5.8360     7.9620   139.6640     2.4440     0.1400     0.0960
  865.5000   -71.6730     5.9430     5.5220     7.9640   136.0730     2.4450     0.1380     0.1000
  866.0000   -71.7390     5.8010     5.0330     7.9650   130.7400     2.4460     0.1390     0.1040
  866.5000   -71.8060     5.6690     5.0790     7.9670   130.0040     2.4460     0.1410     0.1080
  867.0000   -71.8730     5.5360     5.2200     7.9690   129.5450     2.4430     0.1500     0.1060
  867.5000   -71.9400     5.4040     5.2080     7.9700   129.2140     2.4350     0.1610     0.1040
  868.0000   -72.0070     5.2710     5.1840     7.9720   129.4490     2.4170     0.1720     0.1020
  868.5000   -72.0740     5.2710     5.1610     7.9740   129.6800     2.3990     0.1760     0.1010
  869.0000   -72.1420     5.2710     5.1270     7.9750   129.7120     2.3990     0.1610     0.1020
  869.5000   -72.2080     5.4130     5.3040     7.9770   129.5890     2.4180     0.1470     0.1030
  870.0000   -72.1680     5.6940     5.6210     7.9790   129.4720     2.4400     0.1330     0.1050
  870.5000   -71.8440     5.9740     5.9370     7.9800   129.4820     2.4530     0.1310     0.1060
  871.0000   -71.5090     6.2230     6.2810     7.9820   129.8220     2.4540     0.1320     0.1060
  871.5000   -71.1820     6.1870     6.3800     7.9840   130.1500     2.4550     0.1320     0.1060
  872.0000   -70.8550     6.1470     6.4570     7.9850   130.5000     2.4550     0.1330     0.1050
  872.5000   -70.5290     6.1080     6.1720     7.9730   129.5930     2.4560     0.1340     0.1040
  873.0000   -70.2160     6.0680     5.8490     7.9480   127.2370     2.4560     0.1340     0.1030
  873.5000   -69.9610     6.0280     5.5250     7.9260   123.9060     2.4570     0.1320     0.1030
  874.0000   -69.7130     5.9550     5.2020     7.9200   120.5900     2.4570     0.1310     0.1020
  874.5000   -69.6240     5.7680     5.0800     7.9140   117.2640     2.4560     0.1330     0.1010
  875.0000   -69.6220     5.5810     5.1080     7.9070   114.9550     2.4550     0.1370     0.1000
  875.5000   -69.6220     5.3950     5.1780     7.9010   116.4260     2.4530     0.1480     0.1020
  876.0000   -69.6220     5.2080     5.2470     7.8950   128.8790     2.4370     0.1610     0.1050
