~VERSION INFORMATION
 VERS.                2.0:   CWLS LOG ASCII STANDARD - VERSION 2.0
 WRAP.                 NO:   ONE LINE PER DEPTH STEP
~WELL INFORMATION
#MNEM.UNIT      DATA TYPE    INFORMATION
#----------   ------------   ------------------------------
 STRT.F           12.0000:   START DEPTH
 STOP.F          551.0000:   STOP DEPTH
 STEP.F            0.5000:   STEP LENGTH
 NULL.          -999.2500:   NO VALUE
 COMP. LAWRENCE-ALLISON &AS:   COMPANY
 WELL. NPR 3 #58-46SX3LP4:   WELL
 FLD .             TEAPOT:   FIELD
 LOC .       S3 T38N R78W:   LOCATION
 CNTY.            NATRONA:   COUNTY
 STAT.            WYOMING:   STATE
 CTRY. UNITED STATES OF AMERICA:   COUNTRY
 SRVC.      Dresser Atlas:   SERVICE COMPANY
 DATE.        14-DEC-1984:   LOGDATE
 API .       490251099900:   API NUMBER
~CURVE INFORMATION
#MNEM.UNIT       API CODE    CURVE DESCRIPTION
#----------   ------------   ------------------------------
 DEPT.F                  :   
 RD  .OHMM   11 220 10 00:   RESISTIVITY DEEP
 RS  .OHMM   11 220 09 00:   RESISTIVITY SHALLOW
 SPR .MV     11 010 01 00:   SPONTANEOUS POTENTIAL FROM RES.
 AC  .US/F   60 520 00 00:   ACOUSTIC SONIC
 CALD.IN     45 280 60 00:   CALIPER FROM DENSITY
 CORR.G/C3   45 356 01 00:   DENSITY CORRECTION
 DEN .G/C3   45 350 01 00:   COMPENSATED BULK DENSTIY
 GRD .GAPI   45 310 01 00:   GAMMA RAY FROM DENSITY LOG
 PORD.DEC    45 890 12 00:   POROSITY DENSITY SANDSTONE
 CNC .DEC    42 890 03 00:   NEUTRON POROSITY SANDSTONE
~PARAMETER INFORMATION
#MNEM.UNIT          VALUE    DESCRIPTION
#----------   ------------   ------------------------------
 PD  .                 GL:   PERMANENT DATUM
 EPD .F              5201:   ELEVATION PERMANENT DATUM
 LMF .                 GL:   LOG MEASURED FROM
 DMF .                 GL:   DRILLING MEASURED FROM
 EGL .F              5201:   GROUND LEVEL
 DATE.        14-DEC-1984:   RUN DATE
 RUN .                  1:   RUN NUMBER
 DD  .F               552:   DEPTH DRILLER
 DL  .F               552:   DEPTH LOGGER
 BLI .F               550:   BOTTOM LOG INTERVAL
 TLI .F                20:   TOP LOG INTERVAL
 CS  .IN            8.625:   CASING SIZE
 CBD .F                20:   CASING BOTTOM DRILLER
 CBL .F                20:   CASING BOTTOM LOGGER
 BS  .IN            7.875:   BIT SIZE
 BSD .F               552:   BIT SIZE AT DEPTH
 DFT .          KCL WATER:   DRILLING FLUID TYPE
 MSS .            MUDTANK:   MUD SAMPLE SOURCE
 RMS .OHMM          0.152:   RESISTIVITY MUD SAMPLE
 MST .F                76:   MUD SAMPLE TEMPERATURE
 RMF .OHMM           0.11:   RESISTIVITY MUD FILTRATE SAMPLE
 MFST.F                76:   MUD FILTRATE SAMPLE TEMPERATURE
 RMC .OHMM           0.19:   RESISTIVITY MUD CAKE
 MCST.F                76:   MUD CAKE SAMPLE TEMPERATURE
 MFSS.               CALC:   MUD FILTRATE SAMPLE SOURCE
 MCSS.               CALC:   MUD CAKE SAMPLE SOURCE
 TCS .HRS               5:   TIME CURCULATED STOPPED
 MRT .F               100:   MAXIMUM RECORDED TEMPERATURE
 LUN .               6270:   LOGGING UNIT NUMBER
 ENGI.            LEBSOCK:   RECORDING ENGINEER
 WITN.        GREG GROOMS:   WITNESSED BY
 CLNT.            A2DTECH:   CLIENT CODE
 ORIG.           5" PRINT:   ORIGIN OF DATA
 UWI .       490251099900:   UNIQUE WELL ID
 DICO. A2D Technologies, Inc.:   DIGITIZING COMPANY
~OTHER INFORMATION
~A   DEPT       RD         RS        SPR         AC       CALD       CORR        DEN        GRD       PORD          CNC 
# ...
  280.0000    29.4272    29.8679   -45.4870   116.3632     7.7895     0.0182     2.3230    67.9699     0.2035     0.2608
  280.5000    29.0413    29.6757   -45.4737   117.3354     7.7895     0.0348     2.2972    64.3609     0.2263     0.2780
  281.0000    28.4674    29.0930   -45.3121   117.2558     7.7895     0.0377     2.2829    64.9624     0.2332     0.2886
  281.5000    28.4850    28.5152   -45.1505   116.8757     7.7895     0.0120     2.2791    68.7218     0.2371     0.2892
  282.0000    28.7002    28.5354   -44.9889   115.7442     7.7744    -0.0046     2.2775    69.4737     0.2391     0.2862
  282.5000    29.9335    29.4586   -45.2724   113.3355     7.7744     0.0240     2.2820    67.6692     0.2378     0.2810
  283.0000    31.6542    32.8174   -45.4109   110.0253     7.7744     0.0360     2.2880    67.6692     0.2358     0.2768
  283.5000    33.9396    35.4352   -45.6911   108.2176     7.7726     0.0314     2.3122    67.3684     0.2312     0.2705
  284.0000    35.8906    38.2619   -45.8295   108.2883     7.7444     0.0193     2.3514    66.7669     0.2203     0.2675
  284.5000    37.1751    40.1870   -45.8130   111.2139     7.7444     0.0162     2.3725    63.4586     0.1915     0.2637
  285.0000    35.4417    38.5802   -45.7998   114.3288     7.7143     0.0282     2.3702    63.0075     0.1845     0.2585
  285.5000    31.9721    35.0446   -45.4898   117.2151     7.7143     0.0402     2.3408    63.4586     0.1833     0.2523
  286.0000    30.2668    32.7257   -45.1798   116.4593     7.7444     0.0492     2.2879    61.0526     0.2160     0.2496
  286.5000    32.4570    33.6665   -45.1666   113.2993     7.7444     0.0507     2.2720    59.2481     0.2348     0.2530
  287.0000    34.5607    36.1016   -45.3050   109.3129     7.7744     0.0476     2.2712    59.6992     0.2402     0.2530
  287.5000    35.5511    39.7984   -45.7369   107.4301     7.8195     0.0369     2.3082    66.1654     0.2393     0.2539
  288.0000    35.8197    40.9426   -46.1655   106.8997     7.8346     0.0188     2.3504    69.1729     0.2257     0.2593
  288.5000    36.5925    40.1296   -46.5973   106.4445     7.8346     0.0036     2.3557    69.4737     0.2011     0.2850
  289.0000    37.1246    40.4357   -47.0292   104.8622     7.8195     0.0368     2.3413    66.9173     0.1935     0.2820
  289.5000    38.1885    42.1775   -47.3127   102.4535     7.8045     0.0608     2.3262    62.8571     0.1990     0.2604
  290.0000    40.1057    44.6070   -47.5962    96.2132     7.8045     0.0547     2.3193    58.0451     0.2123     0.2422
  290.5000    41.8390    45.8895   -47.8797    95.4574     7.8045     0.0336     2.3505    61.5038     0.2126     0.2342
  291.0000    40.3604    45.6045   -48.0158    96.4296     7.8045     0.0154     2.3869    62.5564     0.1932     0.2316
  291.5000    35.6302    42.0020   -48.3047    99.4304     7.8045     0.0244     2.3951    61.9549     0.1750     0.2379
  292.0000    32.1419    37.1119   -48.7302   103.3327     7.8045     0.0364     2.3710    62.7068     0.1704     0.2479
  292.5000    30.2021    33.0187   -49.1621   105.8827     7.8045     0.0303     2.3559    66.7669     0.1829     0.2479
  293.0000    28.6974    31.2632   -49.3195   105.5026     7.8045     0.0288     2.3545    70.6767     0.1919     0.2479
  293.5000    28.1260    30.4307   -49.7291   104.4463     7.8045     0.0332     2.3530    71.8797     0.1947     0.2479
  294.0000    28.1434    29.6214   -50.0126   103.3859     7.8045     0.0301     2.3417    72.4812     0.1986     0.2476
  294.5000    28.3560    29.6417   -50.2961   102.4087     7.8045     0.0271     2.3319    72.7820     0.2046     0.2473
  295.0000    28.7683    29.6621   -50.5763   102.4944     7.8045     0.0149     2.3335    71.2782     0.2068     0.2467
  295.5000    28.9856    29.6826   -50.7148   103.0760     7.8195     0.0088     2.3426    69.4737     0.2055     0.2452
  296.0000    29.2046    29.7031   -50.6982   102.7438     7.8346     0.0208     2.3456    70.3759     0.2013     0.2368
  296.5000    29.4252    29.7236   -50.8367   101.5414     7.8496     0.0178     2.3457    72.7820     0.1997     0.2337
  297.0000    29.2361    29.5386   -50.8201   100.0848     7.8647     0.0237     2.3408    70.6767     0.2010     0.2319
  297.5000    29.0527    29.1202   -50.9586    98.1742     7.8647     0.0297     2.3276    69.4737     0.2073     0.2304
  298.0000    28.6761    28.5788   -51.2388    96.7422     7.8647     0.0297     2.3390    69.4496     0.2094     0.2238
  298.5000    28.2957    28.0113   -51.3772    96.6626     7.8947     0.0266     2.3655    72.6316     0.2061     0.2096
  299.0000    27.5456    27.4550   -51.3607    97.4845     7.8947     0.0265     2.3806    78.7970     0.1888     0.2117
  299.5000    26.6266    26.7198   -51.3474    98.1562     7.8947     0.0325     2.3889    81.5038     0.1803     0.2238
  300.0000    25.7383    25.3007   -51.1871    98.7523     7.8947     0.0445     2.3920    82.1053     0.1752     0.2296
  300.5000    24.5363    24.6151   -50.8791    98.7455     7.8798     0.0408     2.3912    80.1404     0.1709     0.2290
  301.0000    24.2095    24.2990   -50.8688    98.6635     7.8650     0.0353     2.3758    76.9785     0.1715     0.2275
  301.5000    24.2260    24.1447   -50.8585    98.5816     7.8952     0.0224     2.3644    75.1759     0.1830     0.2256
  302.0000    24.5765    24.3289   -50.8483    98.6499     7.9254    -0.0057     2.3594    74.8752     0.1903     0.2232
  302.5000    24.7604    24.6811   -50.8380    98.7934     7.9556    -0.0101     2.3619    76.9974     0.1912     0.2214
  303.0000    25.2928    24.8659   -51.1244    99.0871     7.9408    -0.0008     2.3669    78.4842     0.1902     0.2248
  303.5000    25.4851    25.2260   -51.1142    99.6063     7.9409     0.0331     2.3729    79.2341     0.1893     0.2456
  304.0000    25.8630    25.4149   -51.2523   100.0503     7.9561     0.0380     2.3774    79.6832     0.1869     0.2510
  304.5000    26.2252    25.4288   -51.5470   100.4942     7.9562     0.0319     2.3782    80.1234     0.1811     0.2432
  305.0000    26.2397    25.4426   -51.8398   100.7145     7.9875     0.0457     2.3706    78.1254     0.1802     0.2347
  305.5000    26.4391    25.4565   -52.2600   100.7060     7.9866     0.0469     2.3623    76.0351     0.1810     0.2380
  306.0000    26.4535    25.2915   -52.3981   100.9246     7.9717     0.0438     2.3562    75.1519     0.1879     0.2407
  306.5000    26.4680    25.3087   -52.5362   101.2184     7.9568     0.0377     2.3599    76.2406     0.1918     0.2371
  307.0000    26.3001    25.3226   -52.6717   101.5872     7.9871     0.0286     2.3652    76.9784     0.1923     0.2344
  307.5000    26.1333    25.3364   -52.2163   101.5053     7.9872     0.0134     2.3629    77.5789     0.1886     0.2338
  308.0000    25.7852    25.3502   -52.0577   101.0477     7.9874     0.0043     2.3432    77.1810     0.1883     0.2347
  308.5000    25.6216    25.0154   -51.8991   100.6653     7.9875    -0.0018     2.3334    75.7383     0.1995     0.2359
  309.0000    25.2838    24.3466   -52.0372   100.3579     7.9877     0.0132     2.3409    75.7353     0.2064     0.2410
  309.5000    25.1234    23.8597   -52.1778   100.1258     7.9878     0.0313     2.3522    79.3053     0.2055     0.2462
  310.0000    25.1405    24.2054   -52.3133   100.1190     7.9579     0.0433     2.3552    81.7445     0.1979     0.2504
  310.5000    25.1543    24.2188   -52.4540   100.1122     7.9559     0.0281     2.3560    79.9368     0.1928     0.2576
  311.0000    24.9913    24.2322   -52.7405   100.1054     7.9432     0.0145     2.3567    79.6331     0.1940     0.2610
  311.5000    24.8362    24.0778   -52.8786   100.0234     7.9433     0.0039     2.3567    79.9539     0.1934     0.2543
  312.0000    24.5087    23.7601   -52.8657   100.0180     7.9585     0.0129     2.3566    80.2287     0.1927     0.2410
  312.5000    24.3529    23.6093   -53.0064    99.9236     7.9586     0.0143     2.3476    79.0226     0.1936     0.2356
  313.0000    23.8666    23.1403   -53.2928    99.7681     7.9588     0.0173     2.3474    79.3204     0.1982     0.2405
