~VERSION INFORMATION
 VERS.                2.0:   CWLS LOG ASCII STANDARD - VERSION 2.0
 WRAP.                 NO:   ONE LINE PER DEPTH STEP
~WELL INFORMATION
#MNEM.UNIT      DATA TYPE    INFORMATION
#----------   ------------   ------------------------------
 STRT.F            6.0000:   START DEPTH
 STOP.F          765.0000:   STOP DEPTH
 STEP.F            0.5000:   STEP LENGTH
 NULL.          -999.2500:   NO VALUE
 COMP. FENIX & SCISSON INC:   COMPANY
 WELL.      24 SX 2 #24-2:   WELL
 FLD .        TEAPOT DOME:   FIELD
 LOC .       S2 T38N R78W:   LOCATION
 CNTY.            NATRONA:   COUNTY
 STAT.            WYOMING:   STATE
 CTRY. UNITED STATES OF AMERICA:   COUNTRY
 SRVC.           BIRDWELL:   SERVICE COMPANY
 DATE.        20-JAN-1978:   LOGDATE
 API .       490251055700:   API NUMBER
~CURVE INFORMATION
#MNEM.UNIT       API CODE    CURVE DESCRIPTION
#----------   ------------   ------------------------------
 DEPT.F                  :   
 SPR .MV     05 010 01 00:   SPONTANEOUS POTENTIAL FROM RES.
 SN  .OHMM   05 040 16 00:   SHORT NORMAL 16"
 ILD .OHMM   05 120 46 00:   INDUCTION LOG DEEP
 CALD.IN     45 280 60 00:   CALIPER FROM DENSITY LOG
 CORR.G/C3   45 356 01 00:   DENSITY CORRECTION
 DEN .G/C3   45 350 01 00:   COMPENSATED BULK DENSTIY
 DPHI.DEC    45 890 12 00:   DENSITY POROSITY SANDSTONE
 GRD .GAPI   45 310 01 00:   GAMMA RAY FROM DENSITY LOG
~PARAMETER INFORMATION
#MNEM.UNIT          VALUE    DESCRIPTION
#----------   ------------   ------------------------------
 PD  .                 GL:   PERMANENT DATUM
 EPD .F              5131:   ELEVATION PERMANENT DATUM
 LMF .                 KB:   LOG MEASURED FROM
 DMF .                 KB:   DRILLING MEASURED FROM
 EKB .F              5134:   KELLING BUSHING
 EGL .F              5131:   GROUND LEVEL
 DATE.        20-JAN-1978:   RUN DATE
 RUN .                  1:   RUN NUMBER
 DD  .F               775:   DEPTH DRILLER
 DL  .F               770:   DEPTH LOGGER
 BLI .F               770:   BOTTOM LOG INTERVAL
 TLI .F                40:   TOP LOG INTERVAL
 CS  .IN            8.625:   CASING SIZE
 CBD .F                39:   CASING BOTTOM DRILLER
 CBL .F                39:   CASING BOTTOM LOGGER
 BS  .IN            7.875:   BIT SIZE
 BSD .F               775:   BIT SIZE AT DEPTH
 DFT .                KCL:   DRILLING FLUID TYPE
 DFD .                8.6:   DRILLING FLUID DENSITY
 DFV .                 33:   DRILLING FLUID VISCOSITY
 DFPH.                9.5:   DRILLING FLUID PH
 DFL .                  8:   DRILLING FLUID LOSS
 MSS .           FLOWLINE:   MUD SAMPLE SOURCE
 RMS .OHMM            .31:   RESISTIVITY MUD SAMPLE
 MST .F                54:   MUD SAMPLE TEMPERATURE
 RMF .OHMM            .28:   RESISTIVITY MUD FILTRATE SAMPLE
 MFST.F                64:   MUD FILTRATE SAMPLE TEMPERATURE
 RMC .OHMM             .8:   RESISTIVITY MUD CAKE
 MCST.F                64:   MUD CAKE SAMPLE TEMPERATURE
 MFSS.               MEAS:   MUD FILTRATE SAMPLE SOURCE
 MCSS.               MEAS:   MUD CAKE SAMPLE SOURCE
 RMB .OHMM            .22:   RESISTIVITY MUD AT BHT
 BHT .F                76:   BOTTOM HOLE TEMPERATURE
 TCS .HRS            0400:   TIME CURCULATED STOPPED
 MRT .F                76:   MAXIMUM RECORDED TEMPERATURE
 LUN .               2958:   LOGGING UNIT NUMBER
 LUL .             CASPER:   LOGGING UNIT LOCATION
 ENGI.            POINTER:   RECORDING ENGINEER
 WITN.           MCGINLEY:   WITNESSED BY
 CLNT.            A2DTECH:   CLIENT CODE
 ORIG.           5" PRINT:   ORIGIN OF DATA
 UWI .       490251055700:   UNIQUE WELL ID
 DICO. A2D Technologies, Inc.:   DIGITIZING COMPANY
~OTHER INFORMATION
~A    DEPT     SPR         SN        ILD       CALD       CORR        DEN       DPHI         GRD  
# ...
  411.0000   -43.7566     9.4991     9.2924     8.0159     0.0832     2.3981     0.1567    75.0361
  411.5000   -43.7670     9.4939     9.2892     8.0156     0.0801     2.4041     0.1549    74.4218
  412.0000   -43.7775     9.4887     9.2860     8.0153     0.0786     2.4048     0.1522    79.0081
  412.5000   -43.6370     9.4834     9.2828     8.0451     0.0763     2.4056     0.1528    82.8316
  413.0000   -43.6477     9.4782     9.2797     8.0598     0.0747     2.4040     0.1522    81.5462
  413.5000   -43.5075     9.4075     9.2124     8.0746     0.0762     2.4010     0.1586    76.4819
  414.0000   -43.5181     9.3373     9.2092     8.0893     0.0776     2.3949     0.1631    76.7716
  414.5000   -43.5286     9.2676     9.2061     8.1191     0.0798     2.3942     0.1619    75.5518
  415.0000   -43.3881     9.2625     9.2029     8.1338     0.0805     2.3979     0.1583    74.3351
  415.5000   -43.4011     9.1934     9.1998     8.1335     0.0812     2.4054     0.1535    72.8171
  416.0000   -43.5622     9.0617     9.0700     8.1332     0.0820     2.4061     0.1514    69.7931
  416.5000   -43.5726     8.9318     8.8190     8.1480     0.0842     2.4046     0.1547    74.2992
  417.0000   -44.0348     8.8038     8.6946     8.1477     0.0855     2.4060     0.1535    76.6969
  417.5000   -44.1958     8.7381     8.5128     8.1474     0.0871     2.4167     0.1472    79.3957
  418.0000   -44.3568     8.6729     8.3348     8.1471     0.0877     2.4218     0.1439    83.9019
  418.5000   -44.5178     8.6082     8.2159     8.1468     0.0884     2.4217     0.1449    85.7001
  419.0000   -44.5282     8.5439     8.1013     8.1465     0.0906     2.4210     0.1467    83.8779
  419.5000   -44.5387     8.5335     7.9870     8.1462     0.0935     2.4217     0.1470    76.6371
  420.0000   -44.5491     8.4754     7.9291     8.1459     0.0972     2.4247     0.1461    71.8058
  420.5000   -44.5595     8.4707     7.9264     8.1456     0.1017     2.4224     0.1449    70.2878
  421.0000   -44.5699     8.4650     7.9231     8.1453     0.1039     2.4239     0.1443    70.2759
  421.5000   -44.5803     8.4604     7.9761     8.1450     0.1076     2.4246     0.1440    70.5651
  422.0000   -44.5907     8.4566     8.0288     8.1296     0.1128     2.4246     0.1428    75.9749
  422.5000   -44.6011     8.4511     8.0819     8.1293     0.1179     2.4245     0.1428    80.1798
  423.0000   -44.7621     8.5064     8.0784     8.0989     0.1201     2.4230     0.1434    80.1678
  423.5000   -44.7726     8.5598     8.1325     8.0685     0.1209     2.4184     0.1465    80.1559
  424.0000   -44.7831     8.6147     8.1290     8.0682     0.1208     2.4154     0.1507    80.1439
  424.5000   -44.7937     8.6099     8.1827     8.0679     0.1215     2.4154     0.1495    86.7584
  425.0000   -44.6532     8.6052     8.1799     8.0676     0.1207     2.4146     0.1504    92.1682
  425.5000   -44.3624     8.6615     8.1771     8.0523     0.1206     2.4146     0.1516    96.6743
  426.0000   -44.0716     8.7171     8.2319     8.0369     0.1198     2.4145     0.1513    95.1563
  426.5000   -43.9314     8.8329     8.2863     8.0066     0.1175     2.4243     0.1405    90.9275
  427.0000   -43.9444     8.8895     8.2827     8.0063     0.1160     2.4265     0.1393    88.2047
  427.5000   -43.9548     8.9477     8.2799     8.0060     0.1137     2.4318     0.1369    88.7951
  428.0000   -43.9652     9.0051     8.2770     8.0057     0.1114     2.4370     0.1397    91.2168
  428.5000   -43.9757     9.0628     8.2742     8.0054     0.1106     2.4294     0.1430    97.8203
  429.0000   -43.9861     9.1192     8.2142     8.0051     0.1068     2.4271     0.1405    94.6506
  429.5000   -43.9965     9.1777     8.1547     7.9897     0.1022     2.4324     0.1369    85.8490
  430.0000   -44.0069     9.1726     8.1519     7.9894     0.0962     2.4361     0.1339    81.0844
  430.5000   -44.1679     9.1676     8.1491     7.9891     0.0931     2.4376     0.1412    86.4056
  431.0000   -44.1783     9.1625     8.1463     8.0040     0.0923     2.4315     0.1457    92.7430
  431.5000   -44.1887     9.0313     8.1435     8.0036     0.0923     2.4217     0.1518    94.4224
  432.0000   -44.1991     8.8403     8.1407     8.0033     0.0921     2.4134     0.1515    93.8050
  432.5000   -44.2096     8.8354     8.0817     8.0030     0.0929     2.4111     0.1509    90.7810
  433.0000   -44.2200     8.8306     8.0789     8.0177     0.0929     2.4119     0.1527    88.3594
  433.5000   -44.2304     8.8257     8.0761     8.0475     0.0943     2.4118     0.1539    87.1426
  434.0000   -44.2410     8.7598     8.0733     8.0472     0.0950     2.4118     0.1524    85.9258
  434.5000   -44.2515     8.7550     8.0699     8.0620     0.0957     2.4117     0.1491    84.7091
  435.0000   -44.2621     8.6897     8.0671     8.0466     0.0972     2.4110     0.1437    83.4923
  435.5000   -44.2746     8.6248     8.1205     8.0463     0.0978     2.4138     0.1416    83.4803
  436.0000   -44.2850     8.5605     8.1177     8.0460     0.0985     2.4260     0.1459    84.6732
  436.5000   -44.2955     8.5552     8.1149     8.0307     0.0985     2.4220     0.1471    88.2757
  437.0000   -44.3059     8.4918     8.0561     8.0153     0.0984     2.4214     0.1456    90.0739
  437.5000   -44.4669     8.4284     7.8331     8.0000     0.0984     2.4229     0.1444    89.7608
  438.0000   -44.4773     8.4238     7.7764     7.9997     0.1006     2.4198     0.1480    90.3512
  438.5000   -44.6383     8.4779     7.7737     7.9994     0.1014     2.4175     0.1507    91.5411
  439.0000   -44.6487     8.5323     7.7710     7.9991     0.1035     2.4183     0.1474    93.0352
  439.5000   -44.6591     8.5671     7.7684     7.9988     0.1034     2.4212     0.1432    95.1316
  440.0000   -44.6695     8.6412     7.7657     7.9835     0.1004     2.4257     0.1405    97.8305
  440.5000   -44.5267     8.5767     7.7630     7.9681     0.0966     2.4265     0.1384    92.9993
  441.0000   -44.3866     8.5720     7.7068     7.9528     0.0950     2.4264     0.1439    87.5656
  441.5000   -44.3996     8.4492     7.6361     7.9675     0.0935     2.4174     0.1541    83.0356
  442.0000   -44.4100     8.3281     7.5483     7.9672     0.0912     2.4053     0.1587    81.9880
  442.5000   -44.4204     8.2088     7.4604     7.9669     0.0904     2.4023     0.1614    85.1201
  443.0000   -44.5814     8.2043     7.3315     7.9817     0.0888     2.4022     0.1578    86.9157
  443.5000   -44.7425     8.1431     7.0794     7.9814     0.0880     2.4022     0.1554    86.6022
  444.0000   -45.0643     8.0823     6.8359     7.9961     0.0857     2.4022     0.1581    84.4818
  444.5000   -45.3835     8.0220     6.6468     7.9958     0.0857     2.3901     0.1650    82.3605
  445.0000   -45.9789     7.9621     6.1996     7.9955     0.0849     2.3840     0.1650    77.1089
  445.5000   -46.5939     7.7935     6.0699     7.9952     0.0848     2.3840     0.1644    69.3857
  446.0000   -46.9055     7.5741     6.1101     8.0099     0.0840     2.3802     0.1699    78.7466
  446.5000   -46.9159     7.2554     6.1080     8.0247     0.0824     2.3734     0.1744    93.0039
  447.0000   -46.9263     6.9575     6.1489     8.0243     0.0824     2.3696     0.1747    96.1571
  447.5000   -46.7836     6.9109     6.1462     8.0391     0.0816     2.3688     0.1726    92.0633
  448.0000   -46.6434     6.9071     6.1869     8.0387     0.0808     2.3869     0.1606    87.9976
  448.5000   -46.0514     6.9990     6.2710     8.0384     0.0792     2.3959     0.1591    94.0098
  449.0000   -45.0102     7.0939     6.4006     8.0533     0.0792     2.3943     0.1603   100.0219
  449.5000   -44.7194     7.4938     6.9052     8.0529     0.0791     2.3921     0.1615   101.2178
  450.0000   -44.5766     7.6573     7.1462     8.0545     0.0791     2.3928     0.1612   101.1815
  450.5000   -44.6760     7.7660     7.1211     8.0767     0.0791     2.3957     0.1586   100.8795
  451.0000   -44.7475     7.8544     7.0960     8.0989     0.0790     2.3987     0.1553    93.8920
