~VERSION INFORMATION
 VERS.                2.0:   CWLS LOG ASCII STANDARD - VERSION 2.0
 WRAP.                 NO:   ONE LINE PER DEPTH STEP
~WELL INFORMATION
#MNEM.UNIT      DATA TYPE    INFORMATION
#----------   ------------   ------------------------------
 STRT.F           20.0000:   START DEPTH
 STOP.F          565.0000:   STOP DEPTH
 STEP.F            0.5000:   STEP LENGTH
 NULL.          -999.2500:   NO VALUE
 COMP. FENIX & SCISSON INC:   COMPANY
 WELL.     NPR-3 #12-SX-3:   WELL
 FLD .        TEAPOT DOME:   FIELD
 LOC .       S3 T38N R78W:   LOCATION
 CNTY.            NATRONA:   COUNTY
 STAT.            WYOMING:   STATE
 CTRY. UNITED STATES OF AMERICA:   COUNTRY
 SRVC.           BIRDWELL:   SERVICE COMPANY
 DATE.        29-JUL-1978:   LOGDATE
 API .       490251067000:   API NUMBER
~CURVE INFORMATION
#MNEM.UNIT       API CODE    CURVE DESCRIPTION
#----------   ------------   ------------------------------
 DEPT.F                  :   
 SPR .MV     05 010 01 00:   SPONTANEOUS POTENTIAL FROM RES.
 SN  .OHMM   05 040 16 00:   SHORT NORMAL 16"
 IL  .OHMM   05 120 00 00:   INDUCTION LOG
 GRD .GAPI   45 310 01 00:   GAMMA RAY FROM DENSITY LOG
 CALD.IN     45 280 60 00:   CALIPER
 CORR.G/C3   45 356 01 00:   DENSITY CORRECTION
 RHOB.G/C3   45 350 01 00:   BULK DENSITY
 DPHI.DEC    45 890 12 00:   DENSITY POROSITY SANDSTONE
~PARAMETER INFORMATION
#MNEM.UNIT          VALUE    DESCRIPTION
#----------   ------------   ------------------------------
 PD  .                 GL:   PERMANENT DATUM
 EPD .F              5191:   ELEVATION PERMANENT DATUM
 LMF .                 KB:   LOG MEASURED FROM
 DAPD.F                 4:   FEET ABOVE PERMANENT DATUM
 DMF .                 KB:   DRILLING MEASURED FROM
 EKB .F              5195:   KELLING BUSHING
 EGL .F              5191:   GROUND LEVEL
 DATE.            7-29-78:   RUN DATE
 RUN .                  1:   RUN NUMBER
 DD  .F               565:   DEPTH DRILLER
 DL  .F               571:   DEPTH LOGGER
 BLI .F               565:   BOTTOM LOG INTERVAL
 TLI .F                40:   TOP LOG INTERVAL
 CS  .IN            8.625:   CASING SIZE
 CBD .F                40:   CASING BOTTOM DRILLER
 CBL .F                40:   CASING BOTTOM LOGGER
 BS  .IN            7.875:   BIT SIZE
 BSD .F               565:   BIT SIZE AT DEPTH
 DFT .                KCL:   DRILLING FLUID TYPE
 DFD .                8.6:   DRILLING FLUID DENSITY
 DFV .                 31:   DRILLING FLUID VISCOSITY
 DFPH.                  9:   DRILLING FLUID PH
 RMS .OHMM            .32:   RESISTIVITY MUD SAMPLE
 MST .F                70:   MUD SAMPLE TEMPERATURE
 TCS .HRS               1:   TIME CURCULATED STOPPED
 LUN .               2958:   LOGGING UNIT NUMBER
 LUL .               CASP:   LOGGING UNIT LOCATION
 ENGI.              HONEA:   RECORDING ENGINEER
 WITN.              AMEND:   WITNESSED BY
 CLNT.            A2DTECH:   CLIENT CODE
 ORIG.           5" PRINT:   ORIGIN OF DATA
 UWI .       490251067000:   UNIQUE WELL ID
 DICO. A2D Technologies, Inc.:   DIGITIZING COMPANY
~OTHER INFORMATION
~A   DEPT      SPR         SN         IL         GRD      CALD       CORR       RHOB       DPHI   
# ...
  141.5000   -39.8294    11.1163    10.1424    80.6958     7.6569     0.0115     2.4660     0.1320
  142.0000   -39.7864    11.0654     9.9883    83.5314     7.6551     0.0079     2.4630     0.1320
  142.5000   -39.8032    11.0146     9.8363    84.2294     7.6532     0.0045     2.4601     0.1316
  143.0000   -39.8186    10.9641     9.6867    82.7582     7.6492     0.0026     2.4610     0.1304
  143.5000   -39.8329    10.9138     9.5394    81.2791     7.6453     0.0051     2.4635     0.1292
  144.0000   -39.8472    10.8638     9.4383    82.2930     7.6414     0.0075     2.4655     0.1291
  144.5000   -39.8615    10.8140     9.4293    82.8990     7.6375     0.0097     2.4636     0.1289
  145.0000   -39.8758    10.7644     9.4203    81.5428     7.6337     0.0120     2.4675     0.1287
  145.5000   -39.8900    10.7406     9.4113    82.7738     7.6298     0.0105     2.4691     0.1285
  146.0000   -39.9043    10.7224     9.4023    85.6299     7.6259     0.0090     2.4677     0.1282
  146.5000   -39.9186    10.7028     9.3933    85.6977     7.6220     0.0074     2.4687     0.1280
  147.0000   -39.9329    10.6832     9.3843    85.4742     7.6180     0.0060     2.4704     0.1289
  147.5000   -39.9475    10.6635     9.3752    85.3649     7.6150     0.0074     2.4717     0.1300
  148.0000   -39.9595    10.6439     9.3671    87.1469     7.6293     0.0110     2.4696     0.1313
  148.5000   -39.9697    10.6244     9.3646    88.9157     7.6346     0.0146     2.4649     0.1313
  149.0000   -39.7836    10.6048     9.1840    89.5303     7.6343     0.0183     2.4603     0.1307
  149.5000   -39.5113    10.5854     9.1444    88.7426     7.6342     0.0218     2.4619     0.1307
  150.0000   -39.2953    10.5660     9.0884    87.9730     7.6342     0.0247     2.4676     0.1312
  150.5000   -38.9628    10.5452     9.0328    87.5654     7.6342     0.0277     2.4614     0.1305
  151.0000   -38.6433    10.5447     9.0163    87.2048     7.6342     0.0337     2.4615     0.1296
  151.5000   -38.3200    10.5445     9.0932    86.8432     7.6341     0.0401     2.4669     0.1301
  152.0000   -38.0061    10.5373     9.0839    86.4771     7.6294     0.0513     2.4687     0.1307
  152.5000   -37.7599    10.4680     9.0746    86.0932     7.6243     0.0643     2.4626     0.1301
  153.0000   -37.7711    10.3991     9.0653    87.2858     7.6191     0.0771     2.4587     0.1287
  153.5000   -37.7215    10.3308     9.0560    88.8574     7.6140     0.0776     2.4628     0.1280
  154.0000   -37.6722    10.2629     9.0467    88.2213     7.6088     0.0768     2.4705     0.1283
  154.5000   -37.6231    10.1955     9.0373    86.6814     7.6037     0.0759     2.4715     0.1289
  155.0000   -37.5742    10.1521     9.0281    89.4839     7.5985     0.0751     2.4714     0.1296
  155.5000   -37.5252    10.1175     9.0189    93.0904     7.5934     0.0743     2.4710     0.1320
  156.0000   -37.4762    10.0829     8.9309    93.1747     7.5882     0.0734     2.4710     0.1367
  156.5000   -37.4272    10.0485     8.8139    93.2966     7.5831     0.0799     2.4609     0.1411
  157.0000   -37.3783    10.0142     8.6985    93.4415     7.5779     0.0875     2.4411     0.1443
  157.5000   -37.3293     9.9801     8.5845    93.3054     7.5728     0.0951     2.4310     0.1395
  158.0000   -37.2803     9.9460     8.4726    89.5320     7.5676     0.1026     2.4556     0.1377
  158.5000   -37.2313     9.9121     8.3561    88.6266     7.5626     0.1033     2.4456     0.1368
  159.0000   -37.1824     9.8784     8.2100    89.4892     7.5580     0.1020     2.4474     0.1370
  159.5000   -37.1334     9.8446     8.0664    94.7786     7.5757     0.0992     2.4497     0.1371
  160.0000   -37.0844     9.8110     7.9254    96.9598     7.5700     0.0935     2.4497     0.1365
  160.5000   -37.0354     9.6168     7.7867    95.0295     7.5650     0.0802     2.4486     0.1311
  161.0000   -36.9848     9.5286     7.6506    96.4011     7.5605     0.0667     2.4719     0.1339
  161.5000   -36.9740     9.5715     7.5168    98.1369     7.5558     0.0556     2.4650     0.1403
  162.0000   -36.9738     9.6050     7.4307    97.8170     7.5544     0.0662     2.4526     0.1367
  162.5000   -36.9739     9.6381     7.4576    94.8237     7.5364     0.0770     2.4440     0.1324
  163.0000   -36.9739     9.6711     7.5065    91.0674     7.5168     0.0836     2.4525     0.1323
  163.5000   -36.9739     9.7043     7.5571    87.3080     7.4973     0.0850     2.4605     0.1321
  164.0000   -36.9739     9.7375     7.6390    83.5947     7.4777     0.0867     2.4657     0.1320
  164.5000   -36.9739     9.7708     7.7689    83.2984     7.4582     0.0926     2.4597     0.1348
  165.0000   -36.9739     9.8043     7.9004    83.3605     7.4387     0.0984     2.4539     0.1334
  165.5000   -36.9739     9.8380     8.0341    83.4258     7.4188     0.1045     2.4503     0.1273
  166.0000   -36.9739     9.8835     8.1472    83.4846     7.4155     0.0888     2.4731     0.1205
  166.5000   -36.9739     9.9862     8.2001    83.4966     7.4155     0.0698     2.4945     0.1238
  167.0000   -36.9739    10.0778     8.2689    83.3798     7.4155     0.0510     2.4947     0.1298
  167.5000   -36.9739    10.0731     8.2997    83.3006     7.4155     0.0375     2.4733     0.1388
  168.0000   -36.9739    10.0881     8.3018    83.9924     7.4155     0.0373     2.4549     0.1396
  168.5000   -36.9739    10.0957     8.3053    84.7821     7.4155     0.0367     2.4477     0.1396
  169.0000   -36.9739    10.1033     8.3087    85.4875     7.4155     0.0360     2.4444     0.1396
  169.5000   -36.9739    10.1110     8.3122    84.8886     7.4155     0.0386     2.4487     0.1396
  170.0000   -36.9739    10.1186     8.3157    83.6869     7.4155     0.0437     2.4455     0.1373
  170.5000   -36.9739    10.1263     8.3192    82.7025     7.4155     0.0442     2.4443     0.1293
  171.0000   -36.9739    10.1340     8.3227    81.4462     7.4155     0.0417     2.4587     0.1268
  171.5000   -36.9739    10.1416     8.3262    80.1871     7.4155     0.0396     2.4688     0.1258
  172.0000   -36.9743    10.1493     8.3297    80.3407     7.4155     0.0432     2.4696     0.1227
  172.5000   -36.9751    10.1570     8.3332    82.8808     7.4155     0.0445     2.4763     0.1193
  173.0000   -36.9676    10.1647     8.3367    85.5685     7.4155     0.0416     2.4848     0.1202
  173.5000   -36.8243    10.1723     8.3402    87.1258     7.4155     0.0386     2.4846     0.1237
  174.0000   -36.7053    10.1800     8.3437    84.4265     7.4155     0.0410     2.4834     0.1273
  174.5000   -36.6010    10.1878     8.3472    84.1098     7.4155     0.0455     2.4733     0.1308
  175.0000   -36.4945    10.1955     8.3507    84.6007     7.4155     0.0498     2.4635     0.1274
  175.5000   -36.3867    10.2032     8.3542    83.9088     7.4155     0.0419     2.4600     0.1236
  176.0000   -36.2786    10.2109     8.3577    82.6363     7.4128     0.0304     2.4785     0.1279
  176.5000   -36.1754    10.2186     8.3612    86.0691     7.4060     0.0278     2.4840     0.1363
  177.0000   -36.1716    10.2264     8.3647    86.9213     7.3993     0.0290     2.4616     0.1391
  177.5000   -36.1775    10.2341     8.3681    86.5597     7.3926     0.0306     2.4465     0.1375
  178.0000   -36.1841    10.2424     8.3737    85.8012     7.3860     0.0322     2.4449     0.1335
  178.5000   -36.1907    10.2558     8.3759    82.5512     7.3791     0.0338     2.4512     0.1296
  179.0000   -36.1972    10.2640     8.2991    79.3079     7.3745     0.0338     2.4659     0.1296
  179.5000   -36.2037    10.1551     8.3473    78.6888     7.3829     0.0338     2.4696     0.1257
  180.0000   -36.2102    10.1646     8.4068    81.1188     7.5032     0.0339     2.4609     0.1263
  180.5000   -36.2167    10.1276     8.4534    81.9153     7.6054     0.0318     2.4746     0.1272
  181.0000   -36.2233    10.0983     8.4153    80.6072     7.6519     0.0361     2.4715     0.1272
  181.5000   -36.2298    10.0693     8.3692    79.2488     7.6502     0.0404     2.4684     0.1243
