~VERSION INFORMATION
 VERS.                2.0:   CWLS LOG ASCII STANDARD - VERSION 2.0
 WRAP.                 NO:   ONE LINE PER DEPTH STEP
~WELL INFORMATION
#MNEM.UNIT      DATA TYPE    INFORMATION
#----------   ------------   ------------------------------
 STRT.F           24.0000:   START DEPTH
 STOP.F          472.0000:   STOP DEPTH
 STEP.F            0.5000:   STEP LENGTH
 NULL.          -999.2500:   NO VALUE
 COMP. FENIX & SCISSON INC:   COMPANY
 WELL. 55-66 SX-3-FP #55-3:   WELL
 FLD .             WLDCAT:   FIELD
 LOC .       S3 T38N R78W:   LOCATION
 CNTY.            NATRONA:   COUNTY
 STAT.            WYOMING:   STATE
 CTRY. UNITED STATES OF AMERICA:   COUNTRY
 SRVC.              Welex:   SERVICE COMPANY
 DATE.        11-JUN-1980:   LOGDATE
 API .       490251082200:   API NUMBER
~CURVE INFORMATION
#MNEM.UNIT       API CODE    CURVE DESCRIPTION
#----------   ------------   ------------------------------
 DEPT.F                  :   
 SPR .MV     07 010 01 00:   SPONTANEOUS POTENTIAL
 GURD.OHMM   07 220 05 00:   GUARD RESISTIVITY
 ILD .OHMM   07 120 46 00:   INDUCTION LOG DEEP RESISTIVITY
 ILM .OHMM   07 120 44 00:   INDUCTION LOG MEDIUM
 DPHI.DEC    45 890 12 00:   DENSITY POROSITY SANDSTONE
 NPHI.DEC    42 890 03 00:   NEUTRON POROSITY SANDSTONE
 CORR.G/C3   45 356 01 00:   DENSITY CORRECTION
 RHOB.G/C3   45 350 01 00:   BULK DENSITY
 CALD.IN     45 280 60 00:   CALIPER
 GRD .GAPI   45 310 01 00:   GAMMA RAY FROM DENSITY LOG
~PARAMETER INFORMATION
#MNEM.UNIT          VALUE    DESCRIPTION
#----------   ------------   ------------------------------
 PD  .                 GL:   PERMANENT DATUM
 EPD .F              5169:   ELEVATION PERMANENT DATUM
 LMF .                 KB:   LOG MEASURED FROM
 DAPD.F                 5:   FEET ABOVE PERMANENT DATUM
 DMF .                 KB:   DRILLING MEASURED FROM
 EKB .F              5174:   KELLING BUSHING
 EGL .F              5169:   GROUND LEVEL
 DATE.            6-11-80:   RUN DATE
 RUN .                  1:   RUN NUMBER
 DD  .F               472:   DEPTH DRILLER
 DL  .F               472:   DEPTH LOGGER
 BLI .F               470:   BOTTOM LOG INTERVAL
 TLI .F                30:   TOP LOG INTERVAL
 BS  .IN            9.875:   BIT SIZE
 BSD .F               472:   BIT SIZE AT DEPTH
 DFT .                KCL:   DRILLING FLUID TYPE
 DFD .                9.5:   DRILLING FLUID DENSITY
 DFV .                 47:   DRILLING FLUID VISCOSITY
 DFPH.                 12:   DRILLING FLUID PH
 DFL .                7.2:   DRILLING FLUID LOSS
 MSS .           MUD TANK:   MUD SAMPLE SOURCE
 RMS .OHMM            .26:   RESISTIVITY MUD SAMPLE
 MST .F                75:   MUD SAMPLE TEMPERATURE
 RMF .OHMM            .21:   RESISTIVITY MUD FILTRATE SAMPLE
 MFST.F                75:   MUD FILTRATE SAMPLE TEMPERATURE
 RMC .OHMM            .31:   RESISTIVITY MUD CAKE
 MCST.F                75:   MUD CAKE SAMPLE TEMPERATURE
 MFSS.           MEASURED:   MUD FILTRATE SAMPLE SOURCE
 MCSS.           MEASURED:   MUD CAKE SAMPLE SOURCE
 RMB .OHMM            .26:   RESISTIVITY MUD AT BHT
 BHT .F                75:   BOTTOM HOLE TEMPERATURE
 TCS .HRS             1.5:   TIME CURCULATED STOPPED
 MRT .F                75:   MAXIMUM RECORDED TEMPERATURE
 LUN .               9685:   LOGGING UNIT NUMBER
 LUL .             CASPER:   LOGGING UNIT LOCATION
 ENGI.               REIN:   RECORDING ENGINEER
 WITN.          DINSMOORE:   WITNESSED BY
 CLNT.            A2DTECH:   CLIENT CODE
 ORIG.           5" PRINT:   ORIGIN OF DATA
 UWI .       490251082200:   UNIQUE WELL ID
 DICO. A2D Technologies, Inc.:   DIGITIZING COMPANY
~OTHER INFORMATION
~A   DEPT      SPR       GURD        ILD        ILM         DPHI       NPHI     CORR       RHOB        CALD       GRD   
# ...
  124.5000   -56.0759     9.0650     5.6699     6.6300     0.1278     0.2980     0.0837     2.4399    10.0945   101.0231
  125.0000   -56.0769     8.8072     5.7261     6.6299     0.1068     0.2966     0.1040     2.4667    10.0944    99.6462
  125.5000   -56.0741     8.6372     5.7640     6.6300     0.0981     0.2947     0.1159     2.4824    10.0958    98.2782
  126.0000   -55.8294     8.4696     5.8669     6.6294     0.1005     0.2946     0.1107     2.4770    10.0972    97.5276
  126.5000   -55.5460     8.3447     5.9933     6.6299     0.1000     0.2964     0.1094     2.4747    10.0987    97.9704
  127.0000   -55.5344     8.6884     6.1224     6.6912     0.0966     0.2966     0.1209     2.4864    10.1001    98.4547
  127.5000   -55.7166     8.9601     6.1811     6.7440     0.0966     0.2964     0.1214     2.4907    10.1015    98.9415
  128.0000   -55.8814     9.1489     6.2234     6.8183     0.1054     0.2962     0.1136     2.4660    10.1029    99.4259
  128.5000   -55.7643     8.7870     6.2657     6.8935     0.1148     0.2995     0.0959     2.4492    10.1044    99.8667
  129.0000   -55.5493     8.4997     6.3084     6.9695     0.1151     0.3049     0.0920     2.4545    10.1058    99.9680
  129.5000   -55.3276     8.8355     6.3514     7.0463     0.1156     0.3040     0.0974     2.4526    10.1072   100.0493
  130.0000   -55.2895     9.4050     6.3947     7.1239     0.1191     0.3030     0.0740     2.4311    10.1086    99.7924
  130.5000   -55.3076     9.2454     6.4383     7.2024     0.1223     0.3022     0.0834     2.4435    10.1100    99.5365
  131.0000   -55.3271     9.1489     6.4847     7.2818     0.1208     0.3036     0.0715     2.4306    10.1115    98.6775
  131.5000   -55.3463     9.2550     6.5509     7.3621     0.1177     0.3045     0.0809     2.4342    10.1129    97.7635
  132.0000   -55.3653     9.3682     6.6175     7.4432     0.1146     0.3010     0.1095     2.4470    10.1143    97.1465
  132.5000   -55.3844     9.4827     6.6847     7.5257     0.1116     0.2962     0.0915     2.4593    10.1157    97.7947
  133.0000   -55.4034     9.5796     6.7527     7.6118     0.1050     0.2935     0.0870     2.4716    10.1171    98.8285
  133.5000   -55.4225     9.5796     6.8213     7.5323     0.1037     0.2908     0.1122     2.4745    10.1186    99.8747
  134.0000   -55.4415     9.5796     6.8785     7.4295     0.1131     0.2891     0.0993     2.4633    10.1200   100.9209
  134.5000   -55.4606     9.4590     6.7833     7.3285     0.1211     0.2912     0.0841     2.4496    10.1214   101.9577
  135.0000   -55.4796     9.2523     6.6868     7.2289     0.1178     0.2965     0.0693     2.4387    10.1228   102.8209
  135.5000   -55.4986     9.0502     6.5915     7.1306     0.1125     0.3077     0.0792     2.4455    10.1242   103.3122
  136.0000   -55.5177     8.8525     6.4976     7.0710     0.1079     0.3054     0.0905     2.4520    10.1257   104.1111
  136.5000   -55.5368     8.6575     6.4055     7.0831     0.1077     0.3022     0.0966     2.4585    10.1271   105.3348
  137.0000   -55.5558     8.7580     6.3318     7.1035     0.1124     0.2990     0.1004     2.4637    10.1285   106.5741
  137.5000   -55.5748     8.9300     6.3820     7.1241     0.1104     0.2947     0.0901     2.4498    10.1299   107.0897
  138.0000   -55.5939     9.1054     6.4242     7.1447     0.0986     0.2950     0.1022     2.4676    10.1313   104.6863
  138.5000   -55.6129     9.2842     6.4668     7.1653     0.1017     0.2974     0.1124     2.4831    10.1327   102.1077
  139.0000   -55.6320     9.3188     6.5090     7.1860     0.1071     0.2967     0.1060     2.4737    10.1342   100.8482
  139.5000   -55.6511     9.0202     6.4888     7.2023     0.1104     0.2936     0.0985     2.4530    10.1356   100.6292
  140.0000   -55.6699     8.8998     6.4689     7.2675     0.1042     0.2911     0.1056     2.4650    10.1370   100.3026
  140.5000   -55.6996     9.0415     6.4490     7.3477     0.0994     0.2926     0.1156     2.4762    10.1384    99.5453
  141.0000   -55.7352     9.2172     6.4292     7.4292     0.1030     0.2953     0.1155     2.4743    10.1398    98.8017
  141.5000   -55.7709     9.3188     6.4094     7.5414     0.1092     0.2978     0.1114     2.4681    10.1413    98.4353
  142.0000   -55.8066     9.3222     6.3904     7.5005     0.1148     0.2981     0.0943     2.4581    10.1427    98.7749
  142.5000   -55.8423     8.8547     6.3236     7.4363     0.1109     0.2971     0.0800     2.4516    10.1441    98.4932
  143.0000   -55.8781     8.5034     6.2598     7.3727     0.0986     0.2962     0.0848     2.4551    10.1455    97.5789
  143.5000   -55.9138     8.1175     6.1967     7.3096     0.0932     0.2964     0.1033     2.4769    10.1470    97.1674
  144.0000   -55.9495     8.2514     6.1341     7.2470     0.0972     0.2969     0.1078     2.4906    10.1484    97.1548
  144.5000   -55.9851     8.4619     6.0723     7.1850     0.1049     0.2974     0.0976     2.4807    10.1498    97.1864
  145.0000   -56.0209     8.5782     6.0110     7.1237     0.1074     0.2978     0.0905     2.4681    10.1512    96.0659
  145.5000   -56.0582     8.4280     5.9504     7.0630     0.1105     0.2977     0.0836     2.4606    10.1526    95.4227
  146.0000   -56.1685     8.2683     5.8903     7.0053     0.0986     0.2965     0.0882     2.4557    10.1541    95.7152
  146.5000   -56.3694     8.2683     5.6834     6.8862     0.0988     0.2946     0.0956     2.4682    10.1555    96.6058
  147.0000   -56.5688     8.5538     5.4971     6.7108     0.1035     0.2926     0.1002     2.4771    10.1569    97.4859
  147.5000   -56.7692     8.5782     5.3560     6.5398     0.1094     0.2919     0.0938     2.4652    10.1583    98.2106
  148.0000   -56.9689     8.3562     5.2175     6.3731     0.1211     0.2933     0.0808     2.4472    10.1597    98.5200
  148.5000   -57.1676     8.0407     5.0827     6.2107     0.1291     0.2962     0.0678     2.4237    10.1612    98.8198
  149.0000   -57.1986     7.6607     4.9512     6.0525     0.1338     0.3001     0.0594     2.4115    10.1626    99.6407
  149.5000   -57.0494     7.1244     4.8235     5.8796     0.1369     0.3048     0.0631     2.4020    10.1640   100.5930
  150.0000   -56.9017     6.8781     4.7169     6.0056     0.1248     0.3095     0.0749     2.4186    10.1654   101.5479
  150.5000   -56.7531     6.6299     4.7820     6.3348     0.1294     0.3140     0.0795     2.4355    10.1668   102.4060
  151.0000   -56.6047     7.3267     4.8763     6.2774     0.1267     0.3152     0.0728     2.4202    10.1683   102.4053
  151.5000   -56.4563     8.3601     4.9725     6.1017     0.1217     0.3075     0.0731     2.4405    10.1697   101.3134
  152.0000   -56.3080     8.0931     5.0705     6.1019     0.1171     0.3037     0.0751     2.4477    10.1711    99.8955
  152.5000   -56.1596     7.8965     5.1705     6.2527     0.1050     0.3076     0.0950     2.4674    10.1725    98.4641
  153.0000   -56.0112     8.0797     5.2725     6.3683     0.0955     0.3104     0.1101     2.4876    10.1739    98.0979
  153.5000   -55.8624     8.3334     5.3764     6.4858     0.0969     0.3093     0.1036     2.4824    10.1754    98.6985
  154.0000   -55.7077     8.6575     5.4824     6.6053     0.0982     0.3066     0.1081     2.4867    10.1768    98.3605
  154.5000   -55.7591     8.5751     5.5905     6.7271     0.0880     0.3038     0.1244     2.5076    10.1782    98.2558
  155.0000   -55.8667     8.4317     5.7008     6.8511     0.0783     0.3010     0.1471     2.5262    10.1796    98.8332
  155.5000   -55.9759     8.2907     5.8132     6.8785     0.0700     0.3011     0.1563     2.5340    10.1810    98.8144
  156.0000   -56.0847     8.1521     5.8825     6.8785     0.0710     0.3020     0.1567     2.5462    10.1825    98.3596
  156.5000   -56.1933     8.0431     5.7848     6.8785     0.0841     0.3014     0.1340     2.5213    10.1839    99.4059
  157.0000   -56.3020     8.1956     5.7157     6.8785     0.0972     0.3005     0.1108     2.4933    10.1853    99.6141
  157.5000   -56.4106     8.3458     5.6474     6.8171     0.1104     0.2998     0.0874     2.4537    10.1867    98.2772
