~VERSION INFORMATION
 VERS.                2.0:   CWLS LOG ASCII STANDARD - VERSION 2.0
 WRAP.                 NO:   ONE LINE PER DEPTH STEP
~WELL INFORMATION
#MNEM.UNIT      DATA TYPE    INFORMATION
#----------   ------------   ------------------------------
 STRT.F           46.0000:   START DEPTH
 STOP.F          472.0000:   STOP DEPTH
 STEP.F            0.5000:   STEP LENGTH
 NULL.          -999.2500:   NO VALUE
 COMP. BROWN JOHN E&C INC:   COMPANY
 WELL. NPR 3 SX10 1 #63-10:   WELL
 FLD .             TEAPOT:   FIELD
 LOC .      S10 T38N R78W:   LOCATION
 CNTY.            NATRONA:   COUNTY
 STAT.            WYOMING:   STATE
 CTRY. UNITED STATES OF AMERICA:   COUNTRY
 SRVC.       Schlumberger:   SERVICE COMPANY
 DATE.        01-OCT-1990:   LOGDATE
 API .       490251132000:   API NUMBER
~CURVE INFORMATION
#MNEM.UNIT       API CODE    CURVE DESCRIPTION
#----------   ------------   ------------------------------
 DEPT.F                  :   
 GRR .GAPI   07 310 01 00:   GAMMA RAY
 ILD .OHMM   07 120 46 00:   INDUCTION LOG DEEP
 ILM .OHMM   07 120 44 00:   INDUCTION LOG MEDIUM
~PARAMETER INFORMATION
#MNEM.UNIT          VALUE    DESCRIPTION
#----------   ------------   ------------------------------
 PD  .                 GL:   PERMANENT DATUM
 EPD .F            5182.0:   ELEVATION PERMANENT DATUM
 LMF .                 KB:   LOG MEASURED FROM
 DAPD.F              10.0:   FEET ABOVE PERMANENT DATUM
 DMF .                 KB:   DRILLING MEASURED FROM
 EKB .F            5192.0:   KELLING BUSHING
 EDF .F            5191.0:   DRILLING FLOOR
 EGL .F            5182.0:   GROUND LEVEL
 DATE.        01-OCT-1990:   RUN DATE
 RUN .                  1:   RUN NUMBER
 DD  .F               477:   DEPTH DRILLER
 DL  .F               478:   DEPTH LOGGER
 BLI .F               472:   BOTTOM LOG INTERVAL
 TLI .F                50:   TOP LOG INTERVAL
 CS  .IN            8.625:   CASING SIZE
 CBL .F                53:   CASING BOTTOM LOGGER
 BS  .IN            7.875:   BIT SIZE
 BSD .F               477:   BIT SIZE AT DEPTH
 DFT .                AIR:   DRILLING FLUID TYPE
 TLAB.HRS            1758:   TIME LOGGER AT BOTTOM
 LUN .               5882:   LOGGING UNIT NUMBER
 LUL .               CODY:   LOGGING UNIT LOCATION
 ENGI.        MIKE FISHER:   RECORDING ENGINEER
 WITN.       GARRY STRONG:   WITNESSED BY
 CLNT.            A2DTECH:   CLIENT CODE
 ORIG.           5" PRINT:   ORIGIN OF DATA
 UWI .       490251132000:   UNIQUE WELL ID
 DICO. A2D Technologies, Inc.:   DIGITIZING COMPANY
~OTHER INFORMATION
~A   DEPT      GRR        ILD        ILM   
# ...
  319.0000   113.1521    14.8271    14.3431
  319.5000   112.2111    14.7253    14.2467
  320.0000   111.9126    14.7265    14.2503
  320.5000   112.8030    14.8301    14.3525
  321.0000   114.2967    14.9344    14.3648
  321.5000   114.8854    14.9472    14.5599
  322.0000   114.5691    15.1454    14.6644
  322.5000   113.3479    15.2520    14.9762
  323.0000   111.8250    15.3592    15.0836
  323.5000   111.2066    15.3602    15.1918
  324.0000   112.9987    15.5760    15.3008
  324.5000   114.7941    15.6855    15.3039
  325.0000   115.9861    15.4704    14.9914
  325.5000   116.8765    15.2448    14.6738
  326.0000   116.8619    14.7389    14.1875
  326.5000   116.5456    14.5365    14.0915
  327.0000   114.4132    14.2381    13.8037
  327.5000   113.8015    14.0428    13.5224
  328.0000   115.2915    13.7543    13.3386
  328.5000   117.6938    13.7553    13.1566
  329.0000   117.6755    13.6610    13.1599
  329.5000   117.6609    13.6620    13.1626
  330.0000   118.2496    13.6631    13.0741
  330.5000   119.7647    13.7592    13.0774
  331.0000   116.6757    13.9525    13.0801
  331.5000   114.2806    14.2470    13.1739
  332.0000   114.2660    15.0614    14.5223
  332.5000   112.7431    16.2575    16.3457
  333.0000   108.5053    19.0870    18.6555
  333.5000   104.2674    21.1113    21.5896
  334.0000    99.7279    25.8885    23.9991
  334.5000    95.4901    29.0838    27.8849
  335.0000    93.9367    33.7064    31.8757
  335.5000    93.3456    36.6365    34.4136
  336.0000    95.7443    39.2723    36.6410
  336.5000    99.0479    40.1013    37.6809
  337.0000   101.7482    40.1040    38.2158
  337.5000    99.9237    39.2802    37.9586
  338.0000    97.7974    38.7413    37.7037
  338.5000    95.9729    38.4759    37.7116
  339.0000    96.8633    39.0170    37.7195
  339.5000    97.4520    39.8407    37.9917
  340.0000    96.2271    39.5677    38.5309
  340.5000    95.0058    38.7550    38.5387
  341.0000    95.2929    37.6964    37.4903
  341.5000    96.1832    36.4131    35.7183
  342.0000    97.0736    35.4184    35.2327
  342.5000    97.9640    35.6924    34.7536
  343.0000    97.3424    36.4210    34.5012
  343.5000    96.7281    36.1709    33.5827
  344.0000   100.6314    34.9401    32.2184
  344.5000   100.6168    33.0552    31.1250
  345.0000   100.3006    31.9299    30.0687
  345.5000   100.2860    31.2740    29.8651
  346.0000   100.2713    30.4197    29.6659
  346.5000   103.5750    30.0024    29.4665
  347.0000   102.3501    30.0049    29.2684
  347.5000   100.2239    30.0069    29.0517
  348.0000    99.9113    29.5953    28.2823
  348.5000   102.3063    28.7868    27.3225
  349.0000   104.1016    28.1955    26.7644
  349.5000   104.6908    27.8087    26.3992
  350.0000   103.7700    27.4278    26.7753
  350.5000   100.7448    27.6225    26.7806
  351.0000   101.9629    28.2075    26.9727
  351.5000   103.7441    27.8223    26.7625
  352.0000   105.2415    27.6335    25.8834
  352.5000   103.7246    27.6381    25.8885
  353.0000   102.8110    28.0282    26.4390
  353.5000   103.7074    28.6217    27.1893
  354.0000   105.2468    28.6255    27.3843
  354.5000   109.4193    28.6293    27.3899
  355.0000   110.3178    28.0237    27.0186
  355.5000   109.4020    26.7176    26.4668
  356.0000   107.2818    25.6312    25.9248
  356.5000   105.1463    25.6346    25.9313
  357.0000   104.8512    25.8166    25.9365
  357.5000   105.7453    25.8201    25.9419
  358.0000   106.6417    25.4675    25.4131
  358.5000   110.5546    24.9468    24.5506
  359.0000   115.3725    23.7669    23.8826
  359.5000   116.2688    22.8005    23.5567
  360.0000   116.2580    21.7221    23.2374
  360.5000   116.2493    20.9777    23.2423
  361.0000   116.2407    20.5543    22.9273
  361.5000   115.9304    20.4149    22.7720
  362.0000   113.1061    20.7037    22.6200
  362.5000   105.3528    21.2894    22.4668
  363.0000    99.6126    22.1976    22.6291
  363.5000    99.3045    22.8421    24.2616
  364.0000   101.7070    22.9876    22.7971
  364.5000   103.5083    22.3619    22.1757
  365.0000   104.7041    21.6020    21.5735
  365.5000   105.9021    20.5803    20.2702
  366.0000   109.2117    19.4713    18.7829
  366.5000   109.5068    19.2054    18.1383
  367.0000   109.1944    19.0758    17.6526
  367.5000   108.8839    18.8153    17.6561
  368.0000   108.5716    18.4300    17.5374
  368.5000   108.5629    18.1784    17.1792
  369.0000   108.2526    17.8004    17.0636
  369.5000   107.6406    17.3215    16.8317
  370.0000   107.0287    17.2034    16.7497
  370.5000   107.0178    16.9685    16.4567
  371.0000   107.9142    16.7373    16.1637
  371.5000   109.4138    16.5088    15.8254
  372.0000   110.9135    16.2714    15.9389
  372.5000   110.9048    15.9505    15.7222
  373.0000   110.5641    15.7327    15.6163
  373.5000   110.5858    15.5173    15.4041
  374.0000   112.0833    15.4121    15.3013
  374.5000   112.3785    15.2021    15.3044
  375.0000   111.4627    15.2047    15.0962
  375.5000   108.1207    15.1010    14.8902
  376.0000   106.0134    14.9990    14.5868
  376.5000   105.7052    14.7937    14.3884
  377.0000   111.4259    14.6938    14.2917
  377.5000   112.6239    14.5942    14.1963
  378.0000   113.5202    14.5966    14.1992
  378.5000   115.3215    14.5985    14.2020
  379.0000   118.0256    14.7022    14.4036
  379.5000   120.1286    14.7041    14.5069
  380.0000   121.3287    14.6043    14.7128
  380.5000   121.0163    14.5053    14.8190
  381.0000   120.4043    14.5077    14.8220
  381.5000   121.2985    14.5096    14.7216
  382.0000   123.4036    14.4107    14.6226
  382.5000   122.4878    14.4131    14.6263
  383.0000   120.0659    14.2163    14.5053
  383.5000   117.6439    13.9252    14.0356
  384.0000   117.6350    13.6405    13.8440
  384.5000   117.6245    13.5475    13.5619
  385.0000   117.6158    13.4556    13.3775
  385.5000   117.3055    13.2722    13.2875
  386.0000   118.8051    13.1822    13.1898
  386.5000   122.7632    13.0928    13.1095
  387.0000   126.9305    13.0040    13.0213
  387.5000   126.0168    12.9157    13.0246
  388.0000   122.9916    12.9179    13.0272
  388.5000   120.5697    12.9196    13.0298
  389.0000   122.0693    12.9214    12.9422
  389.5000   123.9304    12.9235    12.9455
  390.0000   128.0852    12.8354    13.0383
  390.5000   127.1694    12.8375    13.0409
  391.0000   124.4458    12.8392    13.0435
  391.5000   122.9289    12.8409    13.0461
  392.0000   122.9402    12.8431    12.9537
  392.5000   125.3227    12.8448    12.7822
  393.0000   126.2190    12.7576    12.6969
  393.5000   127.1175    12.7593    12.6995
  394.0000   128.0116    12.6727    12.7905
  394.5000   128.0030    12.5819    12.7045
  395.0000   126.4839    12.3294    12.5289
  395.5000   125.5702    12.2454    12.3620
  396.0000   125.8654    12.1623    12.2789
  396.5000   125.5529    11.9966    12.1957
  397.0000   125.5443    11.9152    12.1137
  397.5000   125.5606    11.8344    12.1168
  398.0000   127.9381    11.7541    12.0342
  398.5000   128.2332    11.5940    11.7900
  399.0000   128.2224    11.5153    11.7102
  399.5000   127.9121    11.4368    11.3922
  400.0000   127.6018    11.2810    11.0053
  400.5000   128.2172    11.1247    10.6993
  401.0000   128.8326    10.8193    10.3298
  401.5000   129.3851    10.5224    10.1252
  402.0000   129.9773    10.3048    10.0551
  402.5000   134.4933    10.1621    10.0551
  403.0000   136.2943     9.9520     9.9855
  403.5000   136.5893     9.6730     9.7796
  404.0000   136.2766     9.2006     9.6447
  404.5000   135.6666     8.3648     8.7510
  405.0000   137.7670     7.0808     7.3560
  405.5000   142.2831     6.2488     6.4465
  406.0000   145.2908     6.0352     5.4189
  406.5000   158.2532     5.9516     5.1617
  407.0000   166.6908     5.9927     5.2704
  407.5000   167.5868     6.0341     5.8899
  408.0000   162.4736     6.2034     6.4465
  408.5000   138.3066     6.6029     6.9131
  409.0000   131.9629     7.3779     7.5760
  409.5000   129.2391     8.1302     8.3685
