~VERSION INFORMATION
 VERS.                2.0:   CWLS LOG ASCII STANDARD - VERSION 2.0
 WRAP.                 NO:   ONE LINE PER DEPTH STEP
~WELL INFORMATION
#MNEM.UNIT      DATA TYPE    INFORMATION
#----------   ------------   ------------------------------
 STRT.F           48.0000:   START DEPTH
 STOP.F          650.0000:   STOP DEPTH
 STEP.F            0.5000:   STEP LENGTH
 NULL.          -999.2500:   NO VALUE
 COMP. FENIX & SCISSON INC:   COMPANY
 WELL.    36 SX 34 #36-34:   WELL
 FLD .             TEAPOT:   FIELD
 LOC .      S34 T39N R78W:   LOCATION
 CNTY.            NATRONA:   COUNTY
 STAT.            WYOMING:   STATE
 CTRY. UNITED STATES OF AMERICA:   COUNTRY
 SRVC.            Unknown:   SERVICE COMPANY
 DATE.        19-JAN-1979:   LOGDATE
 API .       490251076800:   API NUMBER
~CURVE INFORMATION
#MNEM.UNIT       API CODE    CURVE DESCRIPTION
#----------   ------------   ------------------------------
 DEPT.F                  :   
 SPR .MV     05 010 01 00:   SPONTANEOUS POTENTIAL FROM RES.
 SN  .OHMM   05 040 16 00:   SHORT NORMAL 16"
 IL  .OHMM   05 120 00 00:   INDUCTION LOG
 CALD.IN     45 280 60 00:   CALIPER
 GRD .GAPI   45 310 01 00:   GAMMA RAY FROM DENSITY LOG
 RHOB.G/C3   45 350 01 00:   BULK DENSITY
 DPHI.DEC    45 890 12 00:   DENSITY POROSITY SANDSTONE
 CORR.G/C3   45 356 01 00:   DENSITY CORRECTION
~PARAMETER INFORMATION
#MNEM.UNIT          VALUE    DESCRIPTION
#----------   ------------   ------------------------------
 PD  .                 GL:   PERMANENT DATUM
 EPD .F              5125:   ELEVATION PERMANENT DATUM
 LMF .                 KB:   LOG MEASURED FROM
 DAPD.F                 4:   FEET ABOVE PERMANENT DATUM
 DMF .                 KB:   DRILLING MEASURED FROM
 EKB .F              5129:   KELLING BUSHING
 EGL .F              5125:   GROUND LEVEL
 DATE.            1-19-79:   RUN DATE
 RUN .                  1:   RUN NUMBER
 DD  .F               650:   DEPTH DRILLER
 DL  .F               650:   DEPTH LOGGER
 BLI .F               643:   BOTTOM LOG INTERVAL
 TLI .F                50:   TOP LOG INTERVAL
 CS  .IN            8.625:   CASING SIZE
 CBD .F                40:   CASING BOTTOM DRILLER
 CBL .F                36:   CASING BOTTOM LOGGER
 BS  .IN            7.875:   BIT SIZE
 BSD .F               650:   BIT SIZE AT DEPTH
 DFT .                KCL:   DRILLING FLUID TYPE
 DFD .                8.8:   DRILLING FLUID DENSITY
 DFV .                 34:   DRILLING FLUID VISCOSITY
 DFL .                8.8:   DRILLING FLUID LOSS
 MSS .           FLOWLINE:   MUD SAMPLE SOURCE
 RMS .OHMM            .17:   RESISTIVITY MUD SAMPLE
 MST .F                62:   MUD SAMPLE TEMPERATURE
 RMF .OHMM            .15:   RESISTIVITY MUD FILTRATE SAMPLE
 MFST.F                62:   MUD FILTRATE SAMPLE TEMPERATURE
 RMC .OHMM            .22:   RESISTIVITY MUD CAKE
 MCST.F                63:   MUD CAKE SAMPLE TEMPERATURE
 MFSS.           MEASURED:   MUD FILTRATE SAMPLE SOURCE
 MCSS.           MEASURED:   MUD CAKE SAMPLE SOURCE
 RMB .OHMM            .18:   RESISTIVITY MUD AT BHT
 BHT .F                60:   BOTTOM HOLE TEMPERATURE
 TCS .HRS               3:   TIME CURCULATED STOPPED
 MRT .F                60:   MAXIMUM RECORDED TEMPERATURE
 LUN .                 30:   LOGGING UNIT NUMBER
 LUL .             CASPER:   LOGGING UNIT LOCATION
 ENGI.         B. ROLLINS:   RECORDING ENGINEER
 WITN.           DINSMORE:   WITNESSED BY
 CLNT.            A2DTECH:   CLIENT CODE
 ORIG.           5" PRINT:   ORIGIN OF DATA
 UWI .       490251076800:   UNIQUE WELL ID
 DICO. A2D Technologies, Inc.:   DIGITIZING COMPANY
~OTHER INFORMATION
~A   DEPT      SPR           SN        IL      CALD        GRD       RHOB       DPHI       CORR   
# ...
  615.0000   -68.5460     5.8890     6.6980     8.0850   101.4160     2.5060     0.0970     0.0210
  615.5000   -68.1370     6.2280     7.0410     8.0750   103.6760     2.5110     0.0960     0.0210
  616.0000   -67.7260     6.5670     7.3840     8.0660   103.8110     2.5160     0.0950     0.0220
  616.5000   -67.3030     6.9060     7.7280     8.0560    97.0800     2.5180     0.0940     0.0220
  617.0000   -66.7820     7.2450     8.0710     8.0460    99.4780     2.5200     0.0910     0.0230
  617.5000   -66.3060     7.5840     8.4140     8.0370   104.2170     2.5220     0.0870     0.0250
  618.0000   -66.3000     7.9230     8.7250     8.0270   108.9290     2.5250     0.0870     0.0260
  618.5000   -66.3290     8.0730     8.8910     8.0180   109.7330     2.5270     0.0850     0.0280
  619.0000   -66.8760     8.1490     9.0580     8.0080   107.6440     2.5290     0.0830     0.0310
  619.5000   -67.1640     8.3010     9.2240     7.9990   104.7570     2.5300     0.0810     0.0340
  620.0000   -66.5400     8.4950     9.3910     7.9980   101.8460     2.5260     0.0830     0.0330
  620.5000   -65.9310     8.5350     9.5580     8.0040    99.1780     2.5220     0.0850     0.0310
  621.0000   -65.3240     8.6940     9.7240     8.0110    99.5100     2.5240     0.0850     0.0310
  621.5000   -64.7400     8.7750     9.8910     8.0180   102.9590     2.5300     0.0800     0.0350
  622.0000   -64.9310     8.9210    10.0580     8.0240   106.3540     2.5360     0.0750     0.0340
  622.5000   -65.8820     9.0610    10.2240     8.0310   109.2110     2.5390     0.0790     0.0300
  623.0000   -65.8050     9.2010    10.3910     8.0380   109.3740     2.5290     0.0830     0.0270
  623.5000   -65.4360     9.3410    10.5720     8.0450   110.3170     2.5290     0.0820     0.0270
  624.0000   -65.0590     9.4810    10.7650     8.0510   111.7560     2.5290     0.0810     0.0290
  624.5000   -64.7390     9.6210    10.9580     8.0580   112.4890     2.5220     0.0850     0.0300
  625.0000   -65.1500     9.7610    11.1510     8.0650   108.3790     2.5150     0.0890     0.0260
  625.5000   -65.5750     9.9010    11.3440     8.0710   104.5060     2.5080     0.0930     0.0230
  626.0000   -65.6960    10.0410    11.5360     8.0780   103.5250     2.5130     0.0930     0.0240
  626.5000   -65.4130    10.1760    11.7980     8.0850   103.9140     2.5190     0.0890     0.0270
  627.0000   -64.7130    10.2700    11.7910     8.0920   103.2840     2.5230     0.0870     0.0270
  627.5000   -64.0100    10.2060    11.7780     8.0930   101.1640     2.5230     0.0870     0.0240
  628.0000   -63.8640    10.1430    11.7640     8.0930    99.0370     2.5160     0.0900     0.0220
  628.5000   -64.1050    10.0800    11.7510     8.0930    99.7320     2.5090     0.0940     0.0200
  629.0000   -64.2780    10.0170    11.7370     8.0930   100.7260     2.5050     0.0950     0.0250
  629.5000   -64.0190     9.9540    11.7230     8.0930   100.8110     2.5080     0.0930     0.0300
  630.0000   -63.7580     9.8910    11.7100     8.0930   100.7180     2.5140     0.0900     0.0350
  630.5000   -63.5330     9.8270    11.6960     8.0930   101.9910     2.5190     0.0890     0.0390
  631.0000   -63.7210     9.7640    11.6830     8.0930   103.2850     2.5210     0.0890     0.0390
  631.5000   -63.9110     9.7010    11.6690     8.0790   104.5820     2.5230     0.0880     0.0380
  632.0000   -64.0990     9.6380    11.6550     8.0590   105.8970     2.5250     0.0870     0.0320
  632.5000   -64.2860     9.5750    11.6420     8.0370   105.6230     2.5280     0.0830     0.0300
  633.0000   -64.4650     9.5120    11.6280     8.0540   105.8200     2.5340     0.0790     0.0350
  633.5000   -64.8800     9.4490    11.6150     8.0600   106.2790     2.5420     0.0760     0.0410
  634.0000   -65.3340     9.3860    11.6010     8.3390   105.7790     2.5420     0.0770     0.0390
  634.5000   -65.7950     9.3230    11.5870     8.5350   105.2220     2.5350     0.0800     0.0350
  635.0000   -66.0180     9.2600    11.5080     8.2900   104.6670     2.5290     0.0830     0.0320
  635.5000   -66.1770     9.1970    11.4020     8.2080   104.1100     2.5220     0.0860     0.0280
  636.0000   -66.3330     9.1340    11.2970     8.1750   103.0570     2.5160     0.0890     0.0240
  636.5000   -66.4910     9.0710    11.1910     8.1860   101.7800     2.5200     0.0870     0.0300
  637.0000   -66.6560     9.0070    11.0850     8.1960   100.7610     2.5280     0.0850     0.0340
  637.5000   -66.5480     8.9440    10.9790     8.2060  -999.2500     2.5280     0.0840     0.0330
  638.0000   -66.3270     8.8810    10.9580     8.2170  -999.2500     2.5240     0.0860     0.0330
  638.5000   -66.1100     8.8180    10.9580     8.2270  -999.2500     2.5210     0.0880     0.0330
  639.0000   -66.5090     8.7550    10.9580     8.2380  -999.2500     2.5240     0.0850     0.0340
  639.5000   -67.1580     8.6920    10.9580     8.2490  -999.2500     2.5300     0.0800     0.0350
  640.0000   -67.8080     8.6290    10.9580     8.2100  -999.2500     2.5350     0.0790     0.0370
  640.5000   -68.4590     8.5660    10.9580     8.1530  -999.2500     2.5360     0.0790     0.0380
  641.0000   -68.4910     8.5030    10.9580     8.0990  -999.2500     2.5350     0.0800     0.0370
  641.5000   -68.4950     8.4400    10.9570     8.1190  -999.2500     2.5350     0.0800     0.0340
  642.0000   -68.5950     8.3780    10.9590     8.3860  -999.2500     2.5340     0.0800     0.0320
  642.5000   -68.9990     8.3780    10.9630     8.2580  -999.2500     2.5340     0.0810     0.0290
  643.0000   -69.4680     8.3780    10.9730     8.2120  -999.2500     2.5270     0.0840     0.0230
  643.5000  -999.2500  -999.2500  -999.2500  -999.2500  -999.2500     2.5200     0.0880     0.0170
  644.0000  -999.2500  -999.2500  -999.2500  -999.2500  -999.2500     2.5140     0.0910     0.0170
  644.5000  -999.2500  -999.2500  -999.2500  -999.2500  -999.2500     2.5160     0.0880     0.0230
  645.0000  -999.2500  -999.2500  -999.2500  -999.2500  -999.2500     2.5220     0.0850     0.0290
  645.5000  -999.2500  -999.2500  -999.2500  -999.2500  -999.2500     2.5270     0.0820     0.0340
  646.0000  -999.2500  -999.2500  -999.2500  -999.2500  -999.2500     2.5270     0.0820     0.0370
  646.5000  -999.2500  -999.2500  -999.2500  -999.2500  -999.2500     2.5280     0.0820     0.0400
  647.0000  -999.2500  -999.2500  -999.2500  -999.2500  -999.2500     2.5300     0.0790     0.0450
  647.5000  -999.2500  -999.2500  -999.2500  -999.2500  -999.2500     2.5370     0.0750     0.0560
  648.0000  -999.2500  -999.2500  -999.2500  -999.2500  -999.2500     2.5440     0.0710     0.0590
  648.5000  -999.2500  -999.2500  -999.2500  -999.2500  -999.2500     2.5400     0.0770     0.0580
  649.0000  -999.2500  -999.2500  -999.2500  -999.2500  -999.2500     2.5320     0.0850     0.0500
  649.5000  -999.2500  -999.2500  -999.2500  -999.2500  -999.2500     2.5260     0.0920     0.0440
  650.0000  -999.2500  -999.2500  -999.2500  -999.2500  -999.2500     2.5210     0.0980     0.0410
