~VERSION INFORMATION
 VERS.                2.0:   CWLS LOG ASCII STANDARD - VERSION 2.0
 WRAP.                 NO:   ONE LINE PER DEPTH STEP
~WELL INFORMATION
#MNEM.UNIT      DATA TYPE    INFORMATION
#----------   ------------   ------------------------------
 STRT.F            0.0000:   START DEPTH
 STOP.F          790.0000:   STOP DEPTH
 STEP.F            0.1000:   STEP LENGTH
 NULL.          -999.2500:   NO VALUE
 COMP.   FLUOR DANIEL INC:   COMPANY
 WELL.   72-2 X-34 #72-34:   WELL
 FLD .          N.P.R. #3:   FIELD
 LOC .      S34 T39N R78W:   LOCATION
 CNTY.            NATRONA:   COUNTY
 STAT.            WYOMING:   STATE
 CTRY. UNITED STATES OF AMERICA:   COUNTRY
 SRVC.      Western Atlas:   SERVICE COMPANY
 DATE.        25-MAR-1995:   LOGDATE
 API .       490252269300:   API NUMBER
~CURVE INFORMATION
#MNEM.UNIT       API CODE    CURVE DESCRIPTION
#----------   ------------   ------------------------------
 DEPT.F                  :   
 GRR .GAPI   07 310 01 00:   GAMMA RAY
 RILD.OHMM   07 120 46 00:   INDUCTION LOG DEEP RESISTIVITY
 RILM.OHMM   07 120 44 00:   INDUCTION LOG MEDIUM RESISTIVITY
~PARAMETER INFORMATION
#MNEM.UNIT          VALUE    DESCRIPTION
#----------   ------------   ------------------------------
 PD  .                 GL:   PERMANENT DATUM
 EPD .F              5058:   ELEVATION PERMANENT DATUM
 LMF .                 KB:   LOG MEASURED FROM
 DAPD.F                10:   FEET ABOVE PERMANENT DATUM
 DMF .                 KB:   DRILLING MEASURED FROM
 EKB .F              5068:   KELLING BUSHING
 EDF .F              5067:   DRILLING FLOOR
 EGL .F              5058:   GROUND LEVEL
 DATE.        25-MAR-1995:   RUN DATE
 RUN .                  1:   RUN NUMBER
 DD  .F               796:   DEPTH DRILLER
 DL  .F               798:   DEPTH LOGGER
 BLI .F               790:   BOTTOM LOG INTERVAL
 TLI .F                96:   TOP LOG INTERVAL
 CS  .IN            9.625:   CASING SIZE
 CBD .F                95:   CASING BOTTOM DRILLER
 CBL .F                96:   CASING BOTTOM LOGGER
 BS  .IN             8.75:   BIT SIZE
 BSD .F               796:   BIT SIZE AT DEPTH
 DFT .                AIR:   DRILLING FLUID TYPE
 MRT .F                97:   MAXIMUM RECORDED TEMPERATURE
 LUN .            HL 6530:   LOGGING UNIT NUMBER
 LUL .             CASPER:   LOGGING UNIT LOCATION
 ENGI.             RAUTIO:   RECORDING ENGINEER
 WITN.             STRONG:   WITNESSED BY
 CLNT.            A2DTECH:   CLIENT CODE
 ORIG.       2", 5" PRINT:   ORIGIN OF DATA
 UWI .       490252269300:   UNIQUE WELL ID
 DICO. A2D Technologies, Inc.:   DIGITIZING COMPANY
~OTHER INFORMATION
~A    DEPT      GRR      RILD       RILM   
# ...
  127.4000   112.7975     4.4767     4.3389
  127.5000   113.1831     4.4322     4.2950
  127.6000   113.7021     4.3536     4.2131
  127.7000   114.3080     4.2714     4.1281
  127.8000   115.0166     4.1776     4.0574
  127.9000   115.2953     4.0793     3.9864
  128.0000   116.0184     3.9833     3.8825
  128.1000   116.4200     3.8747     3.8070
  128.2000   116.9517     3.7436     3.7342
  128.3000   117.5631     3.6484     3.6795
  128.4000   117.8851     3.6086     3.6227
  128.5000   118.7280     3.5658     3.5202
  128.6000   119.6771     3.5344     3.4262
  128.7000   120.3445     3.5069     3.3618
  128.8000   120.8634     3.4675     3.2853
  128.9000   121.3030     3.4449     3.2180
  129.0000   121.5634     3.4080     3.1628
  129.1000   121.8496     3.3676     3.1086
  129.2000   122.3173     3.3277     3.0730
  129.3000   122.4753     3.2882     3.0379
  129.4000   122.6054     3.2492     3.0133
  129.5000   122.7900     3.2065     2.9959
  129.6000   122.8151     3.1727     2.9787
  129.7000   123.1050     3.1608     2.9612
  129.8000   123.5654     3.1426     2.9612
  129.9000   123.9075     3.1106     2.9612
  130.0000   124.2922     3.0920     2.9612
  130.1000   124.7394     3.0714     2.9673
  130.2000   125.0192     3.0714     2.9818
  130.3000   125.6046     3.0713     2.9818
  130.4000   125.8319     3.0627     2.9818
  130.5000   126.0924     3.0493     2.9946
  130.6000   126.3528     3.0493     3.0119
  130.7000   126.6132     3.0492     3.0293
  130.8000   126.8578     3.0492     3.0467
  130.9000   126.8600     3.0491     3.0658
  131.0000   126.8616     3.0491     3.0658
  131.1000   126.6941     3.0537     3.0784
  131.2000   126.4374     3.0709     3.1053
  131.3000   126.1807     3.0709     3.1467
  131.4000   125.9121     3.0708     3.1997
  131.5000   125.3160     3.0708     3.2410
  131.6000   125.0993     3.0708     3.2913
  131.7000   124.6769     3.0707     3.3355
  131.8000   124.1617     3.0714     3.3835
  131.9000   123.5856     3.0927     3.4424
  132.0000   122.8284     3.1081     3.5010
  132.1000   122.5278     3.1266     3.5473
  132.2000   121.8863     3.1533     3.5826
  132.3000   121.4363     3.1953     3.6241
  132.4000   121.0702     3.2528     3.6567
  132.5000   120.5548     3.3220     3.6727
  132.6000   120.0439     3.3878     3.6734
  132.7000   119.7397     3.4694     3.6983
  132.8000   119.3198     3.5441     3.7160
  132.9000   118.9628     3.6078     3.7375
  133.0000   118.6004     3.6726     3.7590
  133.1000   118.0851     3.7518     3.7854
  133.2000   117.5706     3.7880     3.8291
  133.3000   117.3140     3.8333     3.8557
  133.4000   116.8500     3.8792     3.8735
  133.5000   116.4892     3.9302     3.8959
  133.6000   116.3347     4.0013     3.9184
  133.7000   116.3365     4.0731     3.9452
  133.8000   116.3384     4.1075     3.9919
  133.9000   116.3403     4.1611     4.0601
  134.0000   116.1389     4.2165     4.1125
  134.1000   115.8823     4.2416     4.1601
  134.2000   115.7238     4.2674     4.1995
  134.3000   115.7256     4.2923     4.2275
  134.4000   115.7276     4.3179     4.2790
  134.5000   115.7294     4.3436     4.3025
  134.6000   115.7313     4.3694     4.3274
  134.7000   115.7331     4.3955     4.3389
  134.8000   115.9242     4.4226     4.3472
  134.9000   116.4011     4.4480     4.3723
  135.0000   116.6719     4.4542     4.3996
  135.1000   117.4184     4.4691     4.4230
  135.2000   117.8045     4.4862     4.4303
  135.3000   118.0649     4.4902     4.4303
  135.4000   118.2345     4.5183     4.4380
  135.5000   118.1981     4.5182     4.4611
  135.6000   117.9273     4.5181     4.4611
  135.7000   117.9291     4.5181     4.4611
  135.8000   117.7389     4.5180     4.4611
  135.9000   117.3425     4.5179     4.4611
  136.0000   116.8272     4.5179     4.4611
  136.1000   116.2427     4.5178     4.4611
  136.2000   115.1392     4.5177     4.4611
  136.3000   114.4187     4.5177     4.4611
  136.4000   114.0214     4.5088     4.4611
  136.5000   113.4932     4.4853     4.4611
  136.6000   112.8859     4.4852     4.4611
  136.7000   112.5676     4.4852     4.4611
  136.8000   111.7289     4.4851     4.4611
  136.9000   111.4935     4.4713     4.4611
  137.0000   111.4215     4.4530     4.4451
  137.1000   111.4233     4.4529     4.4196
  137.2000   111.7437     4.4528     4.3942
  137.3000   112.8069     4.4288     4.3688
  137.4000   114.2285     4.4209     4.3389
  137.5000   114.9298     4.4077     4.3389
  137.6000   115.5266     4.3893     4.3240
  137.7000   116.0456     4.3892     4.3089
  137.8000   116.7163     4.3891     4.3043
  137.9000   117.7061     4.3658     4.2790
  138.0000   118.2833     4.3399     4.2790
  138.1000   118.2849     4.3266     4.2600
  138.2000   118.4639     4.3120     4.2355
  138.3000   118.7243     4.2628     4.2200
  138.4000   118.7683     4.2344     4.2162
  138.5000   118.2727     4.2343     4.1908
  138.6000   117.9834     4.2173     4.1679
  138.7000   117.7593     4.1805     4.1263
  138.8000   117.3294     4.1376     4.0917
  138.9000   116.8140     4.1129     4.0682
  139.0000   116.4355     4.0851     4.0418
  139.1000   116.4052     4.0433     3.9919
  139.2000   115.8174     3.9954     3.9497
  139.3000   115.5969     3.9480     3.9045
  139.4000   115.5098     3.9012     3.8598
  139.5000   115.5117     3.8538     3.8156
  139.6000   115.4489     3.7753     3.7675
  139.7000   115.2043     3.7186     3.6727
  139.8000   115.2065     3.6667     3.5981
  139.9000   115.2081     3.6232     3.5300
  140.0000   115.2100     3.5803     3.4695
  140.1000   115.2118     3.5378     3.4154
  140.2000   115.2137     3.4890     3.3763
  140.3000   115.2156     3.4545     3.3323
  140.4000   115.2177     3.4008     3.2994
  140.5000   115.2193     3.3406     3.2494
  140.6000   115.3833     3.2857     3.2019
  140.7000   115.5341     3.2467     3.1607
  140.8000   115.5931     3.2014     3.1057
  140.9000   115.8488     3.1703     3.0236
  141.0000   115.8510     3.1557     2.9946
  141.1000   116.2745     3.1402     2.9710
  141.2000   116.6350     3.1108     2.9540
  141.3000   117.1074     3.1105     2.9407
  141.4000   118.0455     3.0885     2.9407
  141.5000   119.5966     3.0884     2.9407
  141.6000   120.8389     3.0884     2.9544
  141.7000   121.2546     3.0884     2.9715
  141.8000   121.7736     3.0883     2.9818
  141.9000   122.2927     3.0883     2.9851
  142.0000   122.7622     3.0882     3.0026
  142.1000   123.0252     3.0882     3.0197
  142.2000   123.2830     3.0882     3.0236
  142.3000   123.7469     3.0881     3.0336
  142.4000   123.9639     3.0880     3.0511
  142.5000   123.9658     3.0880     3.0658
  142.6000   123.8756     3.0879     3.0658
  142.7000   123.3475     3.0879     3.0658
  142.8000   122.8451     3.0879     3.0658
  142.9000   122.1303     3.0810     3.0658
  143.0000   121.2088     3.0657     3.0658
  143.1000   120.0810     3.0657     3.0658
  143.2000   118.8749     3.0656     3.0658
  143.3000   118.0710     3.0656     3.0658
  143.4000   117.0789     3.0656     3.0658
  143.5000   116.2425     3.0655     3.0658
  143.6000   115.3252     3.0627     3.0658
  143.7000   114.3839     3.0436     3.0640
  143.8000   113.5330     3.0435     3.0446
  143.9000   112.1724     3.0435     3.0446
  144.0000   111.1958     3.0336     3.0326
  144.1000   110.1634     3.0217     3.0236
  144.2000   109.4103     3.0216     3.0187
  144.3000   109.0693     3.0216     3.0026
  144.4000   109.1061     3.0048     3.0026
  144.5000   109.3843     2.9999     2.9876
  144.6000   109.6270     2.9904     2.9705
  144.7000   110.0759     2.9784     2.9534
  144.8000   110.4589     2.9740     2.9365
  144.9000   110.7193     2.9360     2.9195
  145.0000   111.0417     2.9199     2.9001
  145.1000   111.8838     2.9025     2.8862
  145.2000   112.5974     2.8852     2.8696
  145.3000   113.1902     2.8680     2.8531
  145.4000   113.7092     2.8510     2.8367
  145.5000   114.1483     2.8325     2.8204
