~VERSION INFORMATION
 VERS.                2.0:   CWLS LOG ASCII STANDARD - VERSION 2.0
 WRAP.                 NO:   ONE LINE PER DEPTH STEP
~WELL INFORMATION
#MNEM.UNIT      DATA TYPE    INFORMATION
#----------   ------------   ------------------------------
 STRT.F            0.0000:   START DEPTH
 STOP.F          533.0000:   STOP DEPTH
 STEP.F            0.1000:   STEP LENGTH
 NULL.          -999.2500:   NO VALUE
 COMP.   FLUOR DANIEL INC:   COMPANY
 WELL.   84-4 X 10 #81-10:   WELL
 FLD .             TEAPOT:   FIELD
 LOC .      S10 T38N R78W:   LOCATION
 CNTY.            NATRONA:   COUNTY
 STAT.            WYOMING:   STATE
 CTRY. UNITED STATES OF AMERICA:   COUNTRY
 SRVC.     Atlas Wireline:   SERVICE COMPANY
 DATE.        25-SEP-1994:   LOGDATE
 API .       490252264000:   API NUMBER
~CURVE INFORMATION
#MNEM.UNIT       API CODE    CURVE DESCRIPTION
#----------   ------------   ------------------------------
 DEPT.F                  :   
 GRR .GAPI   07 310 01 00:   GAMMA RAY
 RILD.OHMM   07 120 46 00:   INDUCTION LOG DEEP RESISTIVITY
 RILM.OHMM   07 120 44 00:   INDUCTION LOG MEDIUM RESISTIVITY
~PARAMETER INFORMATION
#MNEM.UNIT          VALUE    DESCRIPTION
#----------   ------------   ------------------------------
 PD  .                 GL:   PERMANENT DATUM
 EPD .F              5150:   ELEVATION PERMANENT DATUM
 LMF .                 KB:   LOG MEASURED FROM
 DAPD.F                10:   FEET ABOVE PERMANENT DATUM
 DMF .                 KB:   DRILLING MEASURED FROM
 EKB .F              5160:   KELLING BUSHING
 EDF .F              5159:   DRILLING FLOOR
 EGL .F              5150:   GROUND LEVEL
 DATE.        25-SEP-1994:   RUN DATE
 RUN .                  1:   RUN NUMBER
 DD  .F               545:   DEPTH DRILLER
 DL  .F               541:   DEPTH LOGGER
 BLI .F               533:   BOTTOM LOG INTERVAL
 CS  .IN            9.625:   CASING SIZE
 CBD .F                76:   CASING BOTTOM DRILLER
 CBL .F                76:   CASING BOTTOM LOGGER
 BS  .IN             8.75:   BIT SIZE
 BSD .F               545:   BIT SIZE AT DEPTH
 DFT .                AIR:   DRILLING FLUID TYPE
 MRT .F                85:   MAXIMUM RECORDED TEMPERATURE
 LUN .            HL 6401:   LOGGING UNIT NUMBER
 LUL .         FT. MORGAN:   LOGGING UNIT LOCATION
 ENGI.    DAVE FREDERICKS:   RECORDING ENGINEER
 WITN.        GARY STRONG:   WITNESSED BY
 CLNT.            A2DTECH:   CLIENT CODE
 ORIG.           5' PRINT:   ORIGIN OF DATA
 UWI .       490252264000:   UNIQUE WELL ID
 DICO. A2D Technologies, Inc.:   DIGITIZING COMPANY
~OTHER INFORMATION
~A    DEPT      GRR      RILD       RILM   
# ...
  327.6000    89.4574    18.6771    18.9438
  327.7000    89.4586    18.7875    19.0567
  327.8000    89.3692    18.8640    19.1500
  327.9000    89.1587    18.8789    19.1514
  328.0000    89.1601    18.9957    19.2853
  328.1000    88.5573    19.1026    19.3805
  328.2000    88.3468    19.2156    19.4960
  328.3000    88.0913    19.3291    19.6122
  328.4000    87.7149    19.3955    19.7290
  328.5000    87.1268    19.4232    19.8465
  328.6000    86.3274    19.5379    19.9707
  328.7000    85.2412    19.6668    20.0838
  328.8000    83.0668    19.7695    20.2036
  328.9000    80.5609    19.8040    20.3961
  329.0000    78.2961    19.8658    20.5871
  329.1000    76.3485    19.9422    20.7097
  329.2000    74.4920    19.9425    20.8420
  329.3000    72.4534    19.9427    21.1157
  329.4000    70.4461    20.0817    21.2286
  329.5000    69.5406    20.1782    21.3552
  329.6000    68.8773    20.2217    21.4824
  329.7000    68.6369    20.2764    21.6104
  329.8000    68.6381    20.3962    21.7392
  329.9000    68.6846    20.5046    21.8662
  330.0000    68.9426    20.5049    21.8676
  330.1000    69.5482    20.5052    21.9776
  330.2000    70.1837    20.5953    22.0217
  330.3000    70.9553    20.7170    22.0870
  330.4000    71.7269    20.7920    22.1771
  330.5000    72.3474    20.8178    22.1783
  330.6000    72.5752    20.9371    22.1796
  330.7000    72.5765    20.9374    22.1808
  330.8000    72.5776    20.9376    22.1820
  330.9000    72.3825    20.9379    22.1832
  331.0000    71.9758    20.9993    22.1845
  331.1000    71.5692    21.0840    22.1857
  331.2000    71.1927    21.0843    22.1869
  331.3000    70.4086    21.0846    22.1882
  331.4000    69.2618    21.0849    22.0706
  331.5000    68.3566    21.0852    22.0376
  331.6000    67.3306    21.0855    22.0388
  331.7000    66.1686    21.0858    22.0400
  331.8000    64.9765    21.1167    22.0412
  331.9000    63.9052    21.2329    22.0425
  332.0000    62.6224    21.2332    22.0438
  332.1000    61.7174    21.3449    22.0449
  332.2000    61.0841    21.3813    22.0461
  332.3000    60.6472    21.4489    22.1135
  332.4000    60.5124    21.5305    22.2017
  332.5000    60.5891    21.5532    22.2235
  332.6000    60.8774    21.6807    22.3583
  332.7000    61.4224    21.6811    22.3598
  332.8000    61.9070    21.6813    22.4672
  332.9000    62.8144    21.8463    22.5173
  333.0000    63.6917    22.0444    22.5185
  333.1000    64.5690    22.1374    22.5569
  333.2000    65.5371    22.1516    22.6774
  333.3000    66.3087    22.2919    22.6788
  333.4000    67.1711    22.2921    22.9294
  333.5000    67.8520    22.4904    23.0995
  333.6000    68.6237    22.6799    23.1582
  333.7000    69.5312    22.7611    23.2144
  333.8000    70.5595    22.7903    23.3841
  333.9000    71.5426    22.9249    23.6550
  334.0000    72.3142    23.0795    23.8136
  334.1000    73.2220    23.1966    23.9378
  334.2000    74.0689    23.3337    24.0805
  334.3000    74.9312    23.4716    24.2992
  334.4000    75.7028    23.6555    24.5376
  334.5000    76.3988    23.9147    24.7090
  334.6000    76.9136    24.0606    25.0037
  334.7000    77.4587    24.3363    25.3538
  334.8000    78.1849    24.6245    25.6018
  334.9000    78.7601    24.9161    25.9065
  335.0000    79.2749    25.2111    26.2882
  335.1000    79.7898    25.5480    26.7577
  335.2000    80.3045    25.9904    27.2160
  335.3000    80.8346    26.3298    27.5580
  335.4000    81.6968    26.8933    28.0234
  335.5000    82.3776    27.4167    28.5246
  335.6000    83.1492    27.9048    29.0346
  335.7000    83.6489    28.3402    29.5534
  335.8000    83.9976    28.7386    30.1247
  335.9000    84.4671    29.4202    30.8428
  336.0000    84.7251    30.0353    31.6608
  336.1000    84.7265    30.6280    32.3353
  336.2000    84.7275    31.2368    32.9680
  336.3000    84.7287    31.7928    33.6655
  336.4000    84.6091    32.3583    34.3196
  336.5000    84.2779    32.9561    34.7668
  336.6000    83.7958    33.7906    35.3872
  336.7000    83.5251    34.3543    36.1236
  336.8000    83.0430    34.8101    36.4838
  336.9000    82.1377    35.3434    36.9180
  337.0000    81.4139    35.8868    37.2499
  337.1000    80.7959    36.3113    37.5409
  337.2000    80.0871    36.7407    37.9568
  337.3000    79.5596    37.2343    38.1922
  337.4000    78.6998    37.6162    38.4106
  337.5000    78.7009    38.0617    38.4616
  337.6000    78.8834    38.5123    38.6019
  337.7000    79.2773    38.8918    38.8319
  337.8000    79.9734    39.1215    39.0633
  337.9000    81.1831    39.3586    39.2960
  338.0000    83.2387    39.8128    39.5522
  338.1000    85.6570    39.9086    39.5542
  338.2000    86.5040    40.2008    39.7270
  338.3000    87.2000    40.5711    39.9637
  338.4000    87.8357    40.8108    40.1121
  338.5000    88.3807    41.0518    40.1625
  338.6000    88.3819    41.3175    40.3951
  338.7000    88.3831    41.5384    40.3976
  338.8000    88.1426    41.7838    40.3995
  338.9000    87.4942    41.8954    40.4018
  339.0000    86.5740    41.8960    40.5238
  339.1000    85.5481    41.9438    40.6868
  339.2000    84.5219    42.1883    40.6891
  339.3000    83.4811    42.1890    40.6914
  339.4000    82.0473    42.1895    40.6936
  339.5000    80.4622    42.1901    40.6958
  339.6000    79.0282    42.1907    40.6981
  339.7000    77.7455    42.1913    40.7003
  339.8000    76.4629    42.1918    40.7026
  339.9000    75.2707    42.1925    40.7048
  340.0000    74.5015    42.1930    40.7073
  340.1000    74.2008    42.1936    40.7093
  340.2000    74.4133    42.1942    40.5334
  340.3000    74.6713    42.1948    40.4331
  340.4000    74.9293    42.1954    40.3416
  340.5000    75.1118    42.1959    40.1070
  340.6000    75.1432    42.1966    39.8737
  340.7000    75.4164    42.1971    39.6114
  340.8000    75.9009    42.1977    39.6133
  340.9000    76.4157    42.1983    39.4546
  341.0000    76.7794    42.1154    39.3445
  341.1000    77.1432    41.9081    39.3467
  341.2000    77.6580    41.9088    39.3105
  341.3000    78.1729    41.6203    39.0797
  341.4000    78.7482    41.4251    39.0823
  341.5000    79.4289    41.1829    38.8971
  341.6000    80.0193    41.0494    38.8166
  341.7000    80.5341    40.9855    38.7131
  341.8000    81.1396    40.7458    38.5532
  341.9000    81.8659    40.4865    38.5298
  342.0000    82.3807    40.2709    38.2917
  342.1000    83.2884    40.0355    38.2937
  342.2000    83.9239    39.9312    38.1247
  342.3000    84.6954    39.8438    37.9031
  342.4000    85.5878    39.6107    37.6827
  342.5000    86.6163    39.3791    37.4636
  342.6000    87.6445    39.1125    37.2456
  342.7000    88.7336    38.9202    37.0040
  342.8000    89.7016    38.8435    36.6233
  342.9000    90.7300    38.7338    36.3475
  343.0000    91.6074    38.5765    36.1362
  343.1000    92.4847    38.5481    35.8511
  343.2000    93.2713    38.3114    35.4708
  343.3000    93.2877    38.0988    35.2619
  343.4000    93.5760    37.8761    34.5434
  343.5000    93.3504    37.7860    34.3767
  343.6000    93.0948    37.6947    34.0458
  343.7000    92.5673    37.4743    32.9578
  343.8000    91.7980    37.2678    32.5738
  343.9000    91.0743    37.2684    32.2182
  344.0000    90.5619    37.0768    32.0220
  344.1000    89.6570    36.8601    31.8447
  344.2000    89.4465    36.7572    31.8046
  344.3000    89.3571    36.7577    31.9195
  344.4000    89.3583    36.7224    32.0290
  344.5000    89.3595    36.5051    32.0783
  344.6000    89.3910    36.5057    32.2550
  344.7000    89.6641    36.3329    32.2570
  344.8000    89.9069    36.2547    32.4300
  344.9000    90.3613    36.1589    32.4844
  345.0000    91.0272    35.9475    32.4862
  345.1000    91.6930    35.7574    32.5596
  345.2000    92.2684    35.7580    32.7154
  345.3000    93.0247    35.7585    32.7172
  345.4000    93.6001    35.6040    32.7193
  345.5000    94.0544    35.5127    32.7208
  345.6000    94.3879    35.5132    32.7226
  345.7000    94.6459    35.4710    32.7244
