~VERSION INFORMATION
 VERS.                2.0:   CWLS LOG ASCII STANDARD - VERSION 2.0
 WRAP.                 NO:   ONE LINE PER DEPTH STEP
~WELL INFORMATION
#MNEM.UNIT      DATA TYPE    INFORMATION
#----------   ------------   ------------------------------
 STRT.F           19.0000:   START DEPTH
 STOP.F          600.0000:   STOP DEPTH
 STEP.F            0.5000:   STEP LENGTH
 NULL.          -999.2500:   NO VALUE
 COMP. FENIX & SCISSON INC:   COMPANY
 WELL.       NPR-3 #18-34:   WELL
 FLD .             TEAPOT:   FIELD
 LOC .      S34 T39N R78W:   LOCATION
 CNTY.            NATRONA:   COUNTY
 STAT.            WYOMING:   STATE
 CTRY. UNITED STATES OF AMERICA:   COUNTRY
 SRVC.           BIRDWELL:   SERVICE COMPANY
 DATE.        10-AUG-1978:   LOGDATE
 API .       490251068100:   API NUMBER
~CURVE INFORMATION
#MNEM.UNIT       API CODE    CURVE DESCRIPTION
#----------   ------------   ------------------------------
 DEPT.F                  :   
 SPR .MV     05 010 01 00:   SPONTANEOUS POTENTIAL FROM RES.
 SN  .OHMM   05 040 16 00:   SHORT NORMAL 16"
 ILD .OHMM   05 120 46 00:   INDUCTION LOG DEEP
 GRD .GAPI   45 310 01 00:   GAMMA RAY FROM DENSITY LOG
 CALD.IN     45 280 60 00:   CALIPER
 CORR.G/C3   45 356 01 00:   DENSITY CORRECTION
 DPHI.DEC    45 890 12 00:   DENSITY POROSITY SANDSTONE
 DEN .G/C3   45 350 01 00:   COMPENSATED BULK DENSTIY
~PARAMETER INFORMATION
#MNEM.UNIT          VALUE    DESCRIPTION
#----------   ------------   ------------------------------
 PD  .                 GL:   PERMANENT DATUM
 EPD .F              5159:   ELEVATION PERMANENT DATUM
 LMF .                 KB:   LOG MEASURED FROM
 DAPD.F                 4:   FEET ABOVE PERMANENT DATUM
 DMF .                 KB:   DRILLING MEASURED FROM
 EKB .F              5163:   KELLING BUSHING
 EGL .F              5159:   GROUND LEVEL
 DATE.            8-10-78:   RUN DATE
 RUN .                  1:   RUN NUMBER
 DD  .F               605:   DEPTH DRILLER
 DL  .F               606:   DEPTH LOGGER
 BLI .F               600:   BOTTOM LOG INTERVAL
 TLI .F                35:   TOP LOG INTERVAL
 CS  .IN            8.625:   CASING SIZE
 CBD .F                40:   CASING BOTTOM DRILLER
 BS  .IN            7.875:   BIT SIZE
 BSD .F               605:   BIT SIZE AT DEPTH
 DFT .                KCL:   DRILLING FLUID TYPE
 DFD .                8.7:   DRILLING FLUID DENSITY
 DFV .                 33:   DRILLING FLUID VISCOSITY
 DFPH.                  9:   DRILLING FLUID PH
 MSS .          FLOW LINE:   MUD SAMPLE SOURCE
 RMS .OHMM            .14:   RESISTIVITY MUD SAMPLE
 MST .F                88:   MUD SAMPLE TEMPERATURE
 MFSS.               MEAS:   MUD FILTRATE SAMPLE SOURCE
 MCSS.               MEAS:   MUD CAKE SAMPLE SOURCE
 TCS .HRS               1:   TIME CURCULATED STOPPED
 LUN .               3006:   LOGGING UNIT NUMBER
 LUL .               CASP:   LOGGING UNIT LOCATION
 ENGI.             MILLER:   RECORDING ENGINEER
 WITN.           MCGINLEY:   WITNESSED BY
 CLNT.            A2DTECH:   CLIENT CODE
 ORIG.           5" PRINT:   ORIGIN OF DATA
 UWI .       490251068100:   UNIQUE WELL ID
 DICO. A2D Technologies, Inc.:   DIGITIZING COMPANY
~OTHER INFORMATION
~A   DEPT      SPR         SN        ILD         GRD      CALD       CORR       DPHI        DEN   
# ...
  383.5000   -32.9456     7.3483     7.9391    88.5417     8.3833     0.0349     0.1066     2.5073
  384.0000   -32.6697     7.6815     8.2115    92.6711     8.3976     0.0350     0.1046     2.5010
  384.5000   -31.7938     7.8010     8.4327    96.2169     8.4126     0.0289     0.1143     2.4969
  385.0000   -31.5685     7.9103     8.4762    98.1016     8.4274     0.0212     0.1282     2.4761
  385.5000   -31.6842     8.0211     8.4997    95.7757     8.4424     0.0148     0.1360     2.4509
  386.0000   -30.5816     8.1335     8.6243    95.4677     8.4595     0.0148     0.1466     2.4290
  386.5000   -29.0857     8.2612     8.7428    95.3149     8.3707     0.0216     0.1628     2.4075
  387.0000   -28.4286     8.4061     8.8628    93.0122     8.2965     0.0253     0.1674     2.3969
  387.5000   -27.8067     8.5536     9.1188    87.5922     8.2864     0.0209     0.1861     2.3893
  388.0000   -26.9510     8.7408     9.4508    78.7976     8.2369     0.0166     0.2002     2.3599
  388.5000   -25.8562     9.0260     9.7947    67.9667     8.1245     0.0123     0.2059     2.3434
  389.0000   -24.8917     9.3167    10.1377    70.2407     8.0534     0.0086     0.2174     2.3197
  389.5000   -24.2687     9.5885    10.5017    70.9730     8.0059     0.0072     0.2324     2.2971
  390.0000   -23.6396     9.6297    10.4289    68.4122     7.9588     0.0078     0.2489     2.2601
  390.5000   -23.0590     9.6749    10.4067    65.4701     7.9118     0.0100     0.2572     2.2495
  391.0000   -22.6516     9.7198    10.4067    64.3899     7.8647     0.0121     0.2567     2.2502
  391.5000   -20.9898     9.7649    10.4067    65.4805     7.8175     0.0141     0.2556     2.2519
  392.0000   -19.3764     9.8103    10.4067    66.7919     7.7699     0.0212     0.2440     2.2673
  392.5000   -18.6258     9.8526    10.5825    66.9632     7.7692     0.0347     0.2200     2.3017
  393.0000   -18.0925     9.8795    10.8140    66.3804     7.7770     0.0293     0.1960     2.3361
  393.5000   -18.1014     9.9065    11.0505    66.6582     7.7907     0.0277     0.1840     2.3616
  394.0000   -18.0996     9.9335    11.0990    72.3150     7.8274     0.0308     0.1767     2.3836
  394.5000   -18.1001    10.0187    11.2247    75.9516     7.8632     0.0287     0.1751     2.3855
  395.0000   -18.0994    10.1187    11.3303    75.7211     7.8894     0.0269     0.1718     2.3873
  395.5000   -18.1423    10.2198    11.5713    70.4097     7.9039     0.0272     0.1638     2.3970
  396.0000   -18.2094    10.3218    12.3378    65.0804     7.8450     0.0335     0.1608     2.4046
  396.5000   -18.2739    10.4249    12.6284    60.3150     7.7779     0.0367     0.1865     2.3755
  397.0000   -18.4983    10.5029    12.6250    59.9334     7.7108     0.0358     0.2041     2.3435
  397.5000   -18.8003    10.4271    12.6250    67.5316     7.7067     0.0349     0.2248     2.3117
  398.0000   -18.9047    10.3668    12.6250    68.5370     7.7835     0.0372     0.2452     2.2796
  398.5000   -18.5427    10.3069    12.6003    62.5672     7.8604     0.0398     0.2592     2.2514
  399.0000   -18.0239    10.2473    12.5642    62.4109     7.8796     0.0424     0.2695     2.2326
  399.5000   -17.4977    10.2170    12.5279    62.3158     7.8282     0.0454     0.2675     2.2306
  400.0000   -16.9722    10.2690    12.4918    58.5095     7.8041     0.0571     0.2659     2.2320
  400.5000   -16.5050    10.3041    12.4558    54.2702     7.8284     0.0684     0.2602     2.2393
  401.0000   -16.4822    10.3394    12.4198    54.0188     7.8522     0.0803     0.2544     2.2488
  401.5000   -16.1889    10.3748    12.3934    55.0591     7.8767     0.1032     0.2393     2.2653
  402.0000   -15.9036    10.4067    12.4779    56.1930     7.8921     0.1287     0.2182     2.2897
  402.5000   -15.7255    10.5513    12.5541    57.4202     7.9108     0.1347     0.1998     2.3298
  403.0000   -15.8542    10.6846    12.6188    61.5335     7.9293     0.1235     0.2022     2.3388
  403.5000   -15.9743    10.8195    13.1429    65.9457     7.9493     0.1085     0.2168     2.3201
  404.0000   -16.0943    10.9561    14.2385    69.2429     8.0035     0.0934     0.2262     2.2988
  404.5000   -16.2136    11.0383    14.2291    67.6967     8.0582     0.0867     0.2278     2.2943
  405.0000   -16.3018    11.0971    14.2291    64.5860     8.1129     0.0839     0.2273     2.2935
  405.5000   -16.3001    11.1561    14.2291    61.4816     8.1690     0.0760     0.2328     2.2892
  406.0000   -16.2997    11.2155    14.2386    59.5030     8.1898     0.0728     0.2325     2.2895
  406.5000   -16.3000    11.2752    14.2737    61.6651     8.2015     0.0751     0.2460     2.2768
  407.0000   -16.3030    11.3704    14.3085    63.9122     8.2130     0.0899     0.2342     2.2775
  407.5000   -16.4874    11.5019    14.3433    64.3563     8.2245     0.1043     0.2255     2.2924
  408.0000   -16.8946    11.6350    14.3606    59.8203     8.2361     0.1105     0.2152     2.3074
  408.5000   -17.4081    11.7290    13.8131    61.8135     8.2353     0.1163     0.1980     2.3354
  409.0000   -17.8737    11.6946    13.4061    65.3344     8.2254     0.1223     0.1808     2.3634
  409.5000   -17.6912    11.6683    13.0112    67.7783     8.2154     0.1239     0.1636     2.4014
  410.0000   -17.5148    11.6418    12.7416    68.7379     8.2054     0.1221     0.1482     2.4379
  410.5000   -17.9772    11.6155    12.5815    71.6508     8.1954     0.1076     0.1408     2.4385
  411.0000   -18.6837    11.5892    12.4376    71.8298     8.1854     0.0833     0.1540     2.4219
  411.5000   -19.3964    11.5630    12.2812    73.1202     8.1694     0.0643     0.1584     2.4089
  412.0000   -19.6320    11.5369    12.2577    73.9576     8.1496     0.0544     0.1628     2.4059
  412.5000   -19.7856    11.5108    12.2108    72.9989     8.1174     0.0384     0.1715     2.3963
  413.0000   -19.9267    11.4848    12.1687    70.5118     8.0775     0.0195     0.1851     2.3772
  413.5000   -20.0385    11.4588    12.2219    68.0274     8.0375     0.0169     0.1942     2.3581
  414.0000   -20.1225    11.4331    12.2813    67.2945     7.9975     0.0169     0.2022     2.3417
  414.5000   -20.1723    11.4098    12.3413    67.1146     7.9576     0.0169     0.2116     2.3280
  415.0000   -20.2221    11.4436    12.3959    67.5672     7.9171     0.0169     0.2204     2.3143
  415.5000   -20.2699    11.4746    12.2538    68.9878     7.8964     0.0207     0.2249     2.3071
  416.0000   -20.1917    11.5152    12.1257    68.9949     7.8810     0.0260     0.2160     2.3080
  416.5000   -19.9382    11.4535    11.9999    64.9377     7.8660     0.0308     0.2100     2.3217
  417.0000   -19.7137    11.3660    11.8728    65.0495     7.8511     0.0306     0.2040     2.3358
  417.5000   -19.9259    11.2792    11.8091    69.0593     7.8445     0.0302     0.2015     2.3366
  418.0000   -20.1587    11.1931    11.7663    72.6435     7.8492     0.0299     0.2074     2.3316
  418.5000   -20.4361    11.0990    11.7249    72.5958     7.8537     0.0296     0.2079     2.3293
  419.0000   -20.6919    11.1074    11.6834    72.4488     7.8581     0.0293     0.2113     2.3268
  419.5000   -20.6532    11.1167    11.6422    69.5765     7.8633     0.0291     0.2118     2.3252
  420.0000   -20.6041    11.1260    11.6221    67.9868     7.8827     0.0215     0.2124     2.3252
  420.5000   -20.5547    11.1353    11.8233    67.9111     7.9021     0.0130     0.2115     2.3252
  421.0000   -20.4976    11.1446    11.9617    65.0813     7.9213     0.0147     0.2106     2.3252
  421.5000   -20.9070    11.1540    12.0573    62.2260     7.9406     0.0091     0.2126     2.3237
  422.0000   -21.4024    11.1633    11.9936    62.3914     7.9598     0.0068     0.2166     2.3202
  422.5000   -21.7340    11.1726    11.9448    66.5255     7.9622     0.0122     0.2135     2.3231
  423.0000   -21.8074    11.1820    11.8962    67.7667     7.9622     0.0175     0.2086     2.3311
  423.5000   -21.8795    11.1911    11.8478    67.7908     7.9621     0.0227     0.2036     2.3389
