~VERSION INFORMATION
 VERS.                2.0:   CWLS LOG ASCII STANDARD - VERSION 2.0
 WRAP.                 NO:   ONE LINE PER DEPTH STEP
~WELL INFORMATION
#MNEM.UNIT      DATA TYPE    INFORMATION
#----------   ------------   ------------------------------
 STRT.F            3.0000:   START DEPTH
 STOP.F         3449.0000:   STOP DEPTH
 STEP.F            0.5000:   STEP LENGTH
 NULL.          -999.2500:   NO VALUE
 COMP. LAWRENCE/ALLISON INC:   COMPANY
 WELL.       NPR 3 #24-10:   WELL
 FLD .             TEAPOT:   FIELD
 LOC .      S10 T38N R78W:   LOCATION
 CNTY.            NATRONA:   COUNTY
 STAT.            WYOMING:   STATE
 CTRY. UNITED STATES OF AMERICA:   COUNTRY
 SRVC.      Dresser Atlas:   SERVICE COMPANY
 DATE.        28-JUL-1985:   LOGDATE
 API .       490251104400:   API NUMBER
~CURVE INFORMATION
#MNEM.UNIT       API CODE    CURVE DESCRIPTION
#----------   ------------   ------------------------------
 DEPT.F                  :   
 PORD.DEC    45 890 12 00:   POROSITY DENSITY SANDSTONE
 CNC .DEC    42 890 03 00:   NEUTRON POROSITY SANDSTONE
 CORR.G/C3   45 356 01 00:   DENSITY CORRECTION
 DEN .G/C3   45 350 01 00:   COMPENSATED BULK DENSTIY
 AC  .US/F   60 520 00 00:   ACCOUSTIC
 CALR.IN     07 280 01 00:   CALIPER FROM RESISTIVITY
 GRR .GAPI   07 310 01 00:   GAMMA RAY
 RFOC.OHMM   07 220 04 00:   RESISTIVITY FOCUSED LOG
 RILD.OHMM   07 120 46 00:   INDUCTION LOG DEEP RESISTIVITY
 RILM.OHMM   07 120 44 00:   INDUCTION LOG MEDIUM RESISTIVITY
 SPR .MV     07 010 01 00:   SPONTANEOUS POTENTIAL
~PARAMETER INFORMATION
#MNEM.UNIT          VALUE    DESCRIPTION
#----------   ------------   ------------------------------
 PD  .                 GL:   PERMANENT DATUM
 EPD .F              5242:   ELEVATION PERMANENT DATUM
 LMF .                 KB:   LOG MEASURED FROM
 DAPD.F                13:   FEET ABOVE PERMANENT DATUM
 DMF .                 KB:   DRILLING MEASURED FROM
 EKB .F              5255:   KELLING BUSHING
 EGL .F              5242:   GROUND LEVEL
 DATE.        28-JUL-1985:   RUN DATE
 RUN .                  1:   RUN NUMBER
 DD  .F              3451:   DEPTH DRILLER
 DL  .F              3451:   DEPTH LOGGER
 BLI .F              3449:   BOTTOM LOG INTERVAL
 CS  .IN            8.625:   CASING SIZE
 CBD .F               688:   CASING BOTTOM DRILLER
 CBL .F               686:   CASING BOTTOM LOGGER
 BS  .IN            7.875:   BIT SIZE
 BSD .F              3451:   BIT SIZE AT DEPTH
 DFT .            KCL GEL:   DRILLING FLUID TYPE
 DFD .                8.9:   DRILLING FLUID DENSITY
 DFV .                 40:   DRILLING FLUID VISCOSITY
 DFPH.                8.0:   DRILLING FLUID PH
 DFL .                 10:   DRILLING FLUID LOSS
 MSS .           FLOWLINE:   MUD SAMPLE SOURCE
 RMS .OHMM           0.87:   RESISTIVITY MUD SAMPLE
 MST .F                92:   MUD SAMPLE TEMPERATURE
 RMF .OHMM             65:   RESISTIVITY MUD FILTRATE SAMPLE
 MFST.F                92:   MUD FILTRATE SAMPLE TEMPERATURE
 RMC .OHMM           1.09:   RESISTIVITY MUD CAKE
 MCST.F                92:   MUD CAKE SAMPLE TEMPERATURE
 MFSS.               CALC:   MUD FILTRATE SAMPLE SOURCE
 MCSS.               CALC:   MUD CAKE SAMPLE SOURCE
 RMB .OHMM            .66:   RESISTIVITY MUD AT BHT
 BHT .F               121:   BOTTOM HOLE TEMPERATURE
 TCS .HRS               4:   TIME CURCULATED STOPPED
 MRT .F               121:   MAXIMUM RECORDED TEMPERATURE
 LUN .               6264:   LOGGING UNIT NUMBER
 LUL .               GLTE:   LOGGING UNIT LOCATION
 ENGI.           FAHLSING:   RECORDING ENGINEER
 WITN.             STRONG:   WITNESSED BY
 CLNT.            A2DTECH:   CLIENT CODE
 ORIG.        2" 5" PRINT:   ORIGIN OF DATA
 UWI .       490251104400:   UNIQUE WELL ID
 DICO. A2D Technologies, Inc.:   DIGITIZING COMPANY
 R1  . POROSITY WITH SANDSTONE:   REMARKS 1
~OTHER INFORMATION
~A    DEPT    PORD        CNC       CORR        DEN         AC       CALR         GRR      RFOC       RILD       RILM        SPR   
# ...
 1070.5000  -999.2500  -999.2500  -999.2500  -999.2500  -999.2500    10.5551    98.2681     8.7400     9.4733     9.4351   -46.6418
 1071.0000  -999.2500  -999.2500  -999.2500  -999.2500  -999.2500    10.6003    99.6235     8.7400     9.4077     9.3697   -46.6374
 1071.5000  -999.2500  -999.2500  -999.2500  -999.2500  -999.2500    10.6456    94.1883     8.7400     9.3425     9.2402   -46.6329
 1072.0000  -999.2500  -999.2500  -999.2500  -999.2500  -999.2500    10.6757    89.1780     8.6698     9.2778     9.1126   -46.6284
 1072.5000  -999.2500  -999.2500  -999.2500  -999.2500  -999.2500    10.7059    87.6506     8.5002     9.0863     8.9867   -46.4728
 1073.0000  -999.2500  -999.2500  -999.2500  -999.2500  -999.2500    10.7360    89.6837     8.3827     8.9568     8.8011   -46.3164
 1073.5000  -999.2500  -999.2500  -999.2500  -999.2500  -999.2500    10.7511    92.8464     8.2669     8.7679     8.6795   -46.0098
 1074.0000  -999.2500  -999.2500  -999.2500  -999.2500  -999.2500    10.7662    95.3313     8.2096     8.5353     8.5002   -45.8543
 1074.5000  -999.2500  -999.2500  -999.2500  -999.2500  -999.2500    10.7813    93.2982     8.0401     8.4175     8.3198   -45.6988
 1075.0000  -999.2500  -999.2500  -999.2500  -999.2500  -999.2500    10.7964    87.4247     7.9290     8.1299     8.1433   -45.5433
 1075.5000  -999.2500  -999.2500  -999.2500  -999.2500  -999.2500    10.7964    82.9066     7.7652     7.9621     7.9843   -45.5388
 1076.0000  -999.2500  -999.2500  -999.2500  -999.2500  -999.2500    10.7964    84.4880     7.6579     7.7978     7.9290   -45.6854
 1076.5000  -999.2500  -999.2500  -999.2500  -999.2500  -999.2500    10.7964    90.1355     7.6048     7.7438     7.8740   -45.8331
 1077.0000  -999.2500  -999.2500  -999.2500  -999.2500  -999.2500    10.7964    93.5241     7.6048     7.6902     7.8740   -46.1308
 1077.5000  -999.2500  -999.2500  -999.2500  -999.2500  -999.2500    10.7662    95.3313     7.5521     7.6902     7.8194   -46.4273
 1078.0000  -999.2500  -999.2500  -999.2500  -999.2500  -999.2500    10.7360    91.0392     7.4998     7.6902     7.8740   -46.7251
 1078.5000  -999.2500  -999.2500  -999.2500  -999.2500  -999.2500    10.7360    88.3283     7.4478     7.6902     7.8740   -46.8716
 1079.0000  -999.2500  -999.2500  -999.2500  -999.2500  -999.2500    10.7360    86.7196     7.4454     7.6902     7.8740   -47.0182
 1079.5000  -999.2500  -999.2500  -999.2500  -999.2500  -999.2500    10.7360    85.0775     7.4478     7.7438     7.8740   -47.0136
 1080.0000  -999.2500  -999.2500  -999.2500  -999.2500  -999.2500    10.7360    80.8735     7.4478     7.7438     7.8740   -47.0082
 1080.5000  -999.2500  -999.2500  -999.2500  -999.2500  -999.2500    10.7210    79.9699     7.4998     7.7978     7.8740   -46.8527
 1081.0000  -999.2500  -999.2500  -999.2500  -999.2500  -999.2500    10.7210    83.8102     7.5521     7.7978     7.8740   -46.6972
 1081.5000  -999.2500  -999.2500  -999.2500  -999.2500  -999.2500    10.6908    88.3283     7.6048     7.8522     7.8740   -46.5416
 1082.0000  -999.2500  -999.2500  -999.2500  -999.2500  -999.2500    10.6584    91.2651     7.6579     7.7978     7.8740   -46.3861
 1082.5000  -999.2500  -999.2500  -999.2500  -999.2500  -999.2500    10.5701    92.1687     7.6579     7.7978     7.8194   -46.3817
 1083.0000  -999.2500  -999.2500  -999.2500  -999.2500  -999.2500    10.5098    86.7470     7.6579     7.7978     7.8194   -46.2262
 1083.5000  -999.2500  -999.2500  -999.2500  -999.2500  -999.2500    10.4646    82.6807     7.6579     7.7978     7.8194   -46.2217
 1084.0000  -999.2500  -999.2500  -999.2500  -999.2500  -999.2500    10.4193    79.0663     7.6579     7.7438     7.7652   -46.2173
 1084.5000  -999.2500  -999.2500  -999.2500  -999.2500  -999.2500    10.4042    76.3554     7.6048     7.7438     7.7114   -46.2128
 1085.0000  -999.2500  -999.2500  -999.2500  -999.2500  -999.2500    10.3891    82.4548     7.5521     7.6902     7.6048   -46.3595
 1085.5000  -999.2500  -999.2500  -999.2500  -999.2500  -999.2500    10.3741    88.7801     7.4998     7.6369     7.5521   -46.3550
 1086.0000  -999.2500  -999.2500  -999.2500  -999.2500  -999.2500    10.3741    93.0813     7.3962     7.5840     7.4998   -46.3505
 1086.5000  -999.2500  -999.2500  -999.2500  -999.2500  -999.2500    10.3741    91.4169     7.2940     7.4994     7.3962   -46.3459
 1087.0000  -999.2500  -999.2500  -999.2500  -999.2500  -999.2500    10.3741    89.6024     7.1932     7.4293     7.3449   -46.1903
 1087.5000  -999.2500  -999.2500  -999.2500  -999.2500  -999.2500    10.3741    90.1355     7.1932     7.3593     7.3449   -46.0339
 1088.0000  -999.2500  -999.2500  -999.2500  -999.2500  -999.2500    10.3741    92.1687     7.1433     7.3249     7.3449   -45.8784
 1088.5000  -999.2500  -999.2500  -999.2500  -999.2500  -999.2500    10.3741    93.5241     7.1418     7.3249     7.3449   -45.7229
 1089.0000  -999.2500  -999.2500  -999.2500  -999.2500  -999.2500    10.3760    91.7169     7.0938     7.3249     7.3449   -45.7184
 1089.5000  -999.2500  -999.2500  -999.2500  -999.2500  -999.2500    10.3891    86.7470     7.0938     7.3760     7.3962   -46.0161
 1090.0000  -999.2500  -999.2500  -999.2500  -999.2500  -999.2500    10.3891    85.3916     7.0938     7.4275     7.4478   -46.3149
 1090.5000  -999.2500  -999.2500  -999.2500  -999.2500  -999.2500    10.4042    88.7801     7.1433     7.4793     7.4998   -46.6114
 1091.0000  -999.2500  -999.2500  -999.2500  -999.2500  -999.2500    10.4042    92.8464     7.1932     7.5315     7.5521   -46.9091
 1091.5000  -999.2500  -999.2500  -999.2500  -999.2500  -999.2500    10.4042    96.4608     7.2940     7.6369     7.6579   -47.0568
 1092.0000  -999.2500  -999.2500  -999.2500  -999.2500  -999.2500    10.4042    95.5572     7.3449     7.6902     7.7652   -47.0512
 1092.5000  -999.2500  -999.2500  -999.2500  -999.2500  -999.2500    10.4042    92.3946     7.4478     7.7978     7.8740   -47.0468
 1093.0000  -999.2500  -999.2500  -999.2500  -999.2500  -999.2500    10.4042    92.1687     7.6048     7.8522     7.9843   -47.0393
 1093.5000  -999.2500  -999.2500  -999.2500  -999.2500  -999.2500    10.3891    93.2982     7.7114     7.9621     8.0962   -46.7356
 1094.0000  -999.2500  -999.2500  -999.2500  -999.2500  -999.2500    10.3741    91.1566     7.8194     8.0177     8.2096   -46.5800
 1094.5000  -999.2500  -999.2500  -999.2500  -999.2500  -999.2500    10.3590    88.3283     7.8740     8.1299     8.3246   -46.2726
 1095.0000  -999.2500  -999.2500  -999.2500  -999.2500  -999.2500    10.3288    90.3614     7.9290     8.2437     8.3827   -45.9660
 1095.5000  -999.2500  -999.2500  -999.2500  -999.2500  -999.2500    10.3137    94.4277     7.9290     8.3051     8.3827   -45.5084
 1096.0000  -999.2500  -999.2500  -999.2500  -999.2500  -999.2500    10.2836    97.3645     7.9843     8.3591     8.4413   -45.3529
 1096.5000  -999.2500  -999.2500  -999.2500  -999.2500  -999.2500    10.2685    94.4277     7.9843     8.4175     8.4413   -45.3484
 1097.0000  -999.2500  -999.2500  -999.2500  -999.2500  -999.2500    10.2534    92.1687     8.0401     8.4762     8.4413   -45.4950
 1097.5000  -999.2500  -999.2500  -999.2500  -999.2500  -999.2500    10.2534    90.1355     8.0962     8.4762     8.4413   -45.7927
 1098.0000  -999.2500  -999.2500  -999.2500  -999.2500  -999.2500    10.2534    86.8030     8.1527     8.5353     8.4413   -46.0903
 1098.5000  -999.2500  -999.2500  -999.2500  -999.2500  -999.2500    10.2534    84.2747     8.1527     8.5353     8.4413   -46.3880
 1099.0000  -999.2500  -999.2500  -999.2500  -999.2500  -999.2500    10.2685    86.0775     8.0962     8.5353     8.3827   -46.6856
 1099.5000  -999.2500  -999.2500  -999.2500  -999.2500  -999.2500    10.2836    91.2688     7.9843     8.5353     8.3827   -46.9834
 1100.0000  -999.2500  -999.2500  -999.2500  -999.2500  -999.2500    10.2884    95.3306     7.9226     8.5300     8.3729   -47.2810
 1100.5000  -999.2500  -999.2500  -999.2500  -999.2500  -999.2500    10.3179    96.9085     7.8445     8.4976     8.3430   -47.3759
