~VERSION INFORMATION
 VERS.                2.0:   CWLS LOG ASCII STANDARD - VERSION 2.0
 WRAP.                 NO:   ONE LINE PER DEPTH STEP
~WELL INFORMATION
#MNEM.UNIT      DATA TYPE    INFORMATION
#----------   ------------   ------------------------------
 STRT.F           28.0000:   START DEPTH
 STOP.F          546.5000:   STOP DEPTH
 STEP.F            0.5000:   STEP LENGTH
 NULL.          -999.2500:   NO VALUE
 COMP. LAWRENCE/ALLISON INC:   COMPANY
 WELL.    55-66 SX #10-10:   WELL
 FLD .            WILDCAT:   FIELD
 LOC .      S10 T38N R78W:   LOCATION
 CNTY.            NATRONA:   COUNTY
 STAT.            WYOMING:   STATE
 CTRY. UNITED STATES OF AMERICA:   COUNTRY
 SRVC.            Unknown:   SERVICE COMPANY
 DATE.        20-AUG-1984:   LOGDATE
 API .       490251098000:   API NUMBER
~CURVE INFORMATION
#MNEM.UNIT       API CODE    CURVE DESCRIPTION
#----------   ------------   ------------------------------
 DEPT.F                  :   
 CNC .DEC    42 890 03 00:   NEUTRON POROSITY SANDSTONE
 CALD.IN     45 280 60 00:   CALIPER FROM DENSITY LOG
 DEN .G/C3   45 350 01 00:   COMPENSATED BULK DENSTIY
 PORD.DEC    45 890 12 00:   POROSITY DENSITY STONESTONE
 CORR.G/C3   45 356 01 00:   DENSITY CORRECTION
 SPR .MV     07 010 01 00:   SPONTANEOUS POTENTIAL
 RFOC.OHMM   07 220 04 00:   RESISTIVITY FOCUSED LOG
 RILD.OHMM   07 120 46 00:   INDUCTION LOG DEEP RESISTIVITY
 RILM.OHMM   07 120 44 00:   INDUCTION LOG MEDIUM RESISTIVITY
 AC  .US/F   60 520 00 00:   ACCOUSTIC
 GRD .GAPI   45 310 01 00:   GAMMA RAY FROM DENSITY LOG
~PARAMETER INFORMATION
#MNEM.UNIT          VALUE    DESCRIPTION
#----------   ------------   ------------------------------
 PD  .                 GL:   PERMANENT DATUM
 EPD .F              5200:   ELEVATION PERMANENT DATUM
 LMF .                 GL:   LOG MEASURED FROM
 DMF .                 GL:   DRILLING MEASURED FROM
 EGL .F              5200:   GROUND LEVEL
 DATE.        20-AUG-1984:   RUN DATE
 RUN .                  1:   RUN NUMBER
 DD  .F               554:   DEPTH DRILLER
 DL  .F               548:   DEPTH LOGGER
 BLI .F               546:   BOTTOM LOG INTERVAL
 TLI .F                30:   TOP LOG INTERVAL
 CS  .IN            9.625:   CASING SIZE
 CBD .F                46:   CASING BOTTOM DRILLER
 CBL .F                41:   CASING BOTTOM LOGGER
 BS  .IN            7.875:   BIT SIZE
 BSD .F               554:   BIT SIZE AT DEPTH
 DFT .          KCL WATER:   DRILLING FLUID TYPE
 MSS .           FLOWLINE:   MUD SAMPLE SOURCE
 RMS .OHMM           .691:   RESISTIVITY MUD SAMPLE
 MST .F                82:   MUD SAMPLE TEMPERATURE
 MRT .F               100:   MAXIMUM RECORDED TEMPERATURE
 LUN .               6307:   LOGGING UNIT NUMBER
 LUL .               GLTE:   LOGGING UNIT LOCATION
 ENGI.           FAHLSING:   RECORDING ENGINEER
 WITN.           JENNINGS:   WITNESSED BY
 CLNT.            A2DTECH:   CLIENT CODE
 ORIG.       2", 5" PRINT:   ORIGIN OF DATA
 UWI .       490251098000:   UNIQUE WELL ID
 DICO. A2D Technologies, Inc.:   DIGITIZING COMPANY
~OTHER INFORMATION
~A   DEPT      CNC       CALD        DEN       PORD       CORR        SPR       RFOC       RILD       RILM         AC        GRD   
# ...
  394.0000     0.2831     7.7030     2.5330     0.0880     0.0140   -39.4550    15.2500    13.2580    14.2500    88.2190    99.1330
  394.5000     0.2740     7.7030     2.5540     0.0790     0.0340   -39.5700    15.2500    13.8570    14.4990    87.2550    99.0690
  395.0000     0.2727     7.7030     2.5540     0.0790     0.0510   -39.6860    15.4910    14.0850    14.7480    87.1280   100.2720
  395.5000     0.2726     7.7030     2.5520     0.0790     0.0580   -39.8010    15.8260    14.3130    14.9970    86.9270   101.4750
  396.0000     0.2797     7.7030     2.5570     0.0770     0.0620   -39.9160    16.1610    14.5410    15.2460    86.7260   101.1060
  396.5000     0.2724     7.7030     2.5620     0.0740     0.0510   -40.0320    16.4960    14.7690    15.4950    86.5250    99.7480
  397.0000     0.2706     7.7030     2.5610     0.0740     0.0370   -40.1550    16.8310    14.9970    15.7440    86.5120    99.4320
  397.5000     0.2699     7.7030     2.5570     0.0770     0.0240   -39.9270    17.1660    15.2250    15.9930    86.5960    99.7710
  398.0000     0.2732     7.7030     2.5530     0.0790     0.0100   -39.5900    17.5010    15.4540    16.2430    86.6290   100.1550
  398.5000     0.2669     7.7030     2.5490     0.0800     0.0110   -39.2500    17.6660    15.6820    16.4920    86.5290    98.2070
  399.0000     0.2632     7.7030     2.5550     0.0760     0.0330   -38.9090    17.6200    15.9100    16.5980    86.5250    95.4440
  399.5000     0.2619     7.7030     2.5610     0.0730     0.0500   -38.5670    17.4700    16.1150    16.6460    86.7610    93.8860
  400.0000     0.2658     7.7030     2.5570     0.0820     0.0550   -38.2160    17.3200    16.1460    16.6930    86.9970    95.8540
  400.5000     0.2741     7.7030     2.5370     0.0910     0.0310   -38.3170    17.1850    16.1750    16.7400    87.2550    97.7300
  401.0000     0.2756     7.7030     2.5180     0.1000     0.0130   -38.4530    16.9810    16.2040    16.7880    86.9820    99.3290
  401.5000     0.2767     7.7030     2.4990     0.1080    -0.0050   -38.5900    16.8720    16.2330    16.8350    86.6570    98.4200
  402.0000     0.2807     7.7030     2.4950     0.1140    -0.0160   -38.7260    16.8720    16.2620    16.8820    86.6840    99.2720
  402.5000     0.2815     7.7030     2.4960     0.1110    -0.0020   -38.8630    16.9170    16.2910    16.9290    86.7130   100.7200
  403.0000     0.2780     7.7030     2.5010     0.1040     0.0130   -38.9990    16.9790    16.3200    16.9770    86.7430   102.1840
  403.5000     0.2671     7.7030     2.5040     0.1060     0.0280   -39.1350    17.0400    16.3490    17.0240    86.6280   103.7340
  404.0000     0.2640     7.7030     2.5010     0.1110     0.0430   -39.2700    17.1010    16.3770    17.0710    86.3910   103.0130
  404.5000     0.2599     7.7030     2.4990     0.1100     0.0460   -39.3850    17.1620    16.4140    17.1180    86.1530    98.7990
  405.0000     0.2589     7.7030     2.4990     0.1100     0.0370   -39.3620    17.2240    16.2940    17.1660    85.9150    94.6670
  405.5000     0.2579     7.7030     2.5020     0.1090     0.0280   -39.3410    17.2850    16.1390    17.2130    85.9990    89.9820
  406.0000     0.2761     7.7020     2.5050     0.1080     0.0230   -39.3210    17.3460    15.9840    17.2600    86.1840    91.6850
  406.5000     0.2754     7.7020     2.5080     0.1050     0.0400   -39.3020    17.4070    15.8290    17.3080    86.3690    94.6150
  407.0000     0.2697     7.7020     2.5110     0.1030     0.0360   -39.2820    17.4690    15.6760    17.3550    86.5570    97.6000
  407.5000     0.2709     7.7020     2.5140     0.1000     0.0280   -39.2620    17.5040    15.8470    17.4030    86.6230   100.6410
  408.0000     0.2705     7.7010     2.5120     0.1010     0.0200   -39.2420    17.3360    16.0160    17.4510    86.5820   100.8560
  408.5000     0.2663     7.7010     2.5110     0.1020     0.0160   -39.2220    17.1700    16.1850    17.5040    86.4570    97.2480
  409.0000     0.2607     7.7010     2.5170     0.0980     0.0240   -39.2030    17.0050    16.3540    17.3350    86.3310    93.5520
  409.5000     0.2687     7.7000     2.5230     0.0950     0.0320   -39.2080    16.8390    16.4140    17.1320    86.3330    92.8330
  410.0000     0.2674     7.7000     2.5230     0.0950     0.0280   -39.3040    16.6740    16.2500    16.9300    86.5150    94.8940
  410.5000     0.2593     7.7000     2.5240     0.0920     0.0250   -39.3990    16.5080    16.0580    16.7270    86.7430    96.8930
  411.0000     0.2558     7.7000     2.5310     0.0880     0.0320   -39.4930    16.3430    15.8670    16.5250    87.1300    98.8810
  411.5000     0.2585     7.6990     2.5380     0.0860     0.0400   -39.5870    16.1770    15.6750    16.3220    87.5160    99.2760
  412.0000     0.2690     7.6990     2.5380     0.0860     0.0480   -39.6820    16.0120    15.4830    16.1200    88.1080    97.4860
  412.5000     0.2804     7.6990     2.5360     0.0880     0.0570   -39.7760    15.8470    15.2920    15.9170    88.8170    95.7570
  413.0000     0.2800     7.6990     2.5340     0.0900     0.0510   -39.8710    15.6810    15.1000    15.7150    89.5260    94.5480
  413.5000     0.2811     7.6980     2.5280     0.0930     0.0410   -39.9640    15.5160    14.9090    15.5120    90.1500    96.8480
  414.0000     0.2888     7.6980     2.5230     0.0960     0.0310   -40.0540    15.3500    14.7170    15.3100    90.1960   100.1080
  414.5000     0.2887     7.6980     2.5170     0.0990     0.0210   -40.1370    15.1850    14.5250    15.1070    89.9950   103.4970
  415.0000     0.2871     7.6970     2.5120     0.1010     0.0130   -40.3680    15.0190    14.3340    14.9050    89.8500   104.1110
  415.5000     0.2847     7.6970     2.5070     0.1020     0.0270   -40.2670    14.8540    14.1420    14.7030    89.9500    99.7710
  416.0000     0.2786     7.6970     2.5010     0.1020     0.0430   -40.1720    14.6880    13.9500    14.5000    90.4490    96.4540
  416.5000     0.2779     7.6970     2.4950     0.1080     0.0480   -40.0770    14.5230    13.7590    14.2980    91.0770    95.0550
  417.0000     0.2778     7.6960     2.4880     0.1130     0.0360   -39.9850    14.3580    13.5670    14.0950    91.6950    95.3250
  417.5000     0.2781     7.6960     2.4820     0.1180     0.0240   -40.0150    14.1920    13.3750    13.8930    92.2460    96.9330
  418.0000     0.2767     7.6960     2.4870     0.1180     0.0130   -40.0500    14.0270    13.1840    13.6900    92.1160   100.8710
  418.5000     0.2742     7.6950     2.4960     0.1100     0.0010   -40.0860    13.8610    12.9920    13.4880    91.9330   104.8440
  419.0000     0.2744     7.6950     2.5050     0.1040     0.0090   -40.1220    13.6960    12.8000    13.2850    91.8060   107.4010
  419.5000     0.2790     7.6950     2.5140     0.0980     0.0200   -40.1570    13.5320    12.6090    13.0830    91.7290   106.6610
  420.0000     0.2916     7.6950     2.5240     0.0940     0.0290   -40.1730    13.6560    12.4170    12.9010    91.6470   105.4680
  420.5000     0.2922     7.6940     2.5260     0.1000     0.0240   -40.1480    13.8090    12.2310    12.7920    91.3890   104.2820
  421.0000     0.2877     7.6940     2.5140     0.1040     0.0170   -40.1230    13.9620    12.0970    12.6830    91.1150   103.0960
  421.5000     0.2848     7.6940     2.5030     0.1080     0.0110   -40.0980    14.1690    11.9670    12.5750    90.9780   101.9070
  422.0000     0.2885     7.6930     2.5070     0.1050     0.0040   -40.0730    14.0240    11.8370    12.4660    91.2460   100.6860
  422.5000     0.2964     7.6930     2.5130     0.1010     0.0120   -40.0480    13.8000    11.7070    12.3570    91.6390   101.9400
  423.0000     0.2980     7.6930     2.5200     0.0960     0.0230   -40.0230    13.5760    11.5770    12.2490    92.0320   104.8230
  423.5000     0.3063     7.6930     2.5260     0.0930     0.0300   -40.0000    13.3520    11.4470    12.1400    92.4250   105.7920
  424.0000     0.3075     7.6920     2.5210     0.0970     0.0170   -39.9850    13.1280    11.3170    12.0310    92.7530   106.3220
