~VERSION INFORMATION
 VERS.                2.0:   CWLS LOG ASCII STANDARD - VERSION 2.0
 WRAP.                 NO:   ONE LINE PER DEPTH STEP
~WELL INFORMATION
#MNEM.UNIT      DATA TYPE    INFORMATION
#----------   ------------   ------------------------------
 STRT.F          438.0000:   START DEPTH
 STOP.F         2175.0000:   STOP DEPTH
 STEP.F            0.5000:   STEP LENGTH
 NULL.          -999.2500:   NO VALUE
 COMP.   FLUOR DANIEL INC:   COMPANY
 WELL. NAVAL PETROLEUM RESERVE 3 X29 #74-29:   WELL
 FLD .            WLIDCAT:   FIELD
 LOC .      S29 T39N R78W:   LOCATION
 CNTY.            NATRONA:   COUNTY
 STAT.            WYOMING:   STATE
 CTRY. UNITED STATES OF AMERICA:   COUNTRY
 SRVC.            Unknown:   SERVICE COMPANY
 DATE.        05-JUN-1995:   LOGDATE
 API .       490252272900:   API NUMBER
~CURVE INFORMATION
#MNEM.UNIT       API CODE    CURVE DESCRIPTION
#----------   ------------   ------------------------------
 DEPT.F                  :   
 ROP .FT/HR  91 810 01 00:   RAT OF DRILLING PENETRATION
 TGAS.TC/CC  91 830 01 00:   TOTAL GAS UNIT
~PARAMETER INFORMATION
#MNEM.UNIT          VALUE    DESCRIPTION
#----------   ------------   ------------------------------
 EKB .F              5036:   KELLING BUSHING
 EGL .F              5026:   GROUND LEVEL
 DATE.        05-JUN-1995:   RUN DATE
 RUN .                  1:   RUN NUMBER
 BLI .F              2160:   BOTTOM LOG INTERVAL
 TLI .F               440:   TOP LOG INTERVAL
 ENGI.     R.HUSK/C.TOWER:   RECORDING ENGINEER
 CLNT.            A2DTECH:   CLIENT CODE
 ORIG.           5" PRINT:   ORIGIN OF DATA
 UWI .       490252272900:   UNIQUE WELL ID
 DICO. A2D Technologies, Inc.:   DIGITIZING COMPANY
~OTHER INFORMATION
~A   DEPT        ROP       TGAS 
# ...
 1167.0000     0.5030     2.6340
 1167.5000     0.5125     2.6219
 1168.0000     0.5123     2.6099
 1168.5000     0.5121     2.6000
 1169.0000     0.5119     2.5887
 1169.5000     0.5117     2.5774
 1170.0000     0.5115     2.5638
 1170.5000     0.5113     2.5547
 1171.0000     0.5112     2.5434
 1171.5000     0.5110     2.5307
 1172.0000     0.5107     2.5196
 1172.5000     0.5105     2.5086
 1173.0000     0.5104     2.4981
 1173.5000     0.5102     2.4865
 1174.0000     0.5100     2.4755
 1174.5000     0.5098     2.4642
 1175.0000     0.5096     2.4528
 1175.5000     0.5094     2.4415
 1176.0000     0.6254     2.4284
 1176.5000     0.6244     2.4189
 1177.0000     0.6242     2.4063
 1177.5000     0.6240     2.3953
 1178.0000     0.6238     2.3842
 1178.5000     0.6236     2.5623
 1179.0000     0.6138     2.5508
 1179.5000     0.6233     2.5396
 1180.0000     0.7769     2.5283
 1180.5000     0.7767     2.5170
 1181.0000     0.7765     2.5038
 1181.5000     0.7763     2.6814
 1182.0000     0.7761     2.6704
 1182.5000     0.7759     2.6593
 1183.0000     0.7757     2.6483
 1183.5000     0.7852     3.0173
 1184.0000     0.7850     3.1922
 1184.5000     0.7848     5.8234
 1185.0000     0.7846     2.9434
 1185.5000     0.7748     2.2129
 1186.0000     0.7736     2.2018
 1186.5000     0.6109     2.1908
 1187.0000     0.6011     2.1811
 1187.5000     0.6106     2.1687
 1188.0000     0.6007     2.1576
 1188.5000     0.5044     2.1466
 1189.0000     0.5042     2.1355
 1189.5000     0.5040     2.1244
 1190.0000     0.5038     2.1132
 1190.5000     0.5037     2.1019
 1191.0000     0.5035     2.0906
 1191.5000     0.5032     2.0775
 1192.0000     0.5127     2.0664
 1192.5000     0.5125     2.2468
 1193.0000     0.5219     2.0471
 1193.5000     0.5217     2.2247
 1194.0000     1.2138     2.0222
 1194.5000     1.2810     2.0113
 1195.0000     1.2808     2.0000
 1195.5000     1.2806     1.9887
 1196.0000     1.2787     1.9752
 1196.5000     0.6263     1.9660
 1197.0000     0.6261     1.9547
 1197.5000     0.6356     1.9421
 1198.0000     0.6354     1.9310
 1198.5000     0.6352     1.9208
 1199.0000     0.6543     1.9601
 1199.5000     0.6540     2.0884
 1200.0000     0.5577     2.0755
 1200.5000     0.4998     2.0641
 1201.0000     0.4996     1.8619
 1201.5000     0.5091     1.8528
 1202.0000     0.4992     1.8398
 1202.5000     0.4990     1.8302
 1203.0000     0.4988     1.8189
 1203.5000     0.4986     1.8067
 1204.0000     0.4985     1.7956
 1204.5000     0.5010     1.7849
 1205.0000     0.5036     1.7735
 1205.5000     0.5062     1.7623
 1206.0000     0.5088     1.7509
 1206.5000     0.5000     1.7376
 1207.0000     0.5000     1.7265
 1207.5000     0.5103     1.9041
 1208.0000     0.6250     1.8931
 1208.5000     0.6346     1.8820
 1209.0000     0.6346     2.0624
 1209.5000     0.6346     2.0958
 1210.0000     0.6538     2.0000
 1210.5000     0.6442     1.9868
 1211.0000     0.6442     1.7849
 1211.5000     0.6442     1.7717
 1212.0000     0.8462     1.5674
 1212.5000     0.9904     1.5566
 1213.0000     0.9808     1.5414
 1213.5000     0.9712     1.5285
 1214.0000     0.9712     1.5144
 1214.5000     0.5962     1.5038
 1215.0000     0.5000     1.4906
 1215.5000     0.5000     1.4765
 1216.0000     0.5000     1.4642
 1216.5000     0.5000     1.4505
 1217.0000     0.5096     1.4375
 1217.5000     0.5096     1.4245
 1218.0000     0.5096     1.4113
 1218.5000     0.5142     1.3981
 1219.0000     0.5192     1.3823
 1219.5000     0.5192     1.5580
 1220.0000     0.5192     1.5472
 1220.5000     0.5192     1.7239
 1221.0000     0.5192     1.7077
 1221.5000     0.5192     1.6947
 1222.0000     0.5192     1.6830
 1222.5000     0.5192     1.6687
 1223.0000     0.5192     1.6557
 1223.5000     0.5192     1.6427
 1224.0000     0.5192     1.4415
 1224.5000     0.5192     1.4283
 1225.0000     0.5192     1.4151
 1225.5000     0.5288     1.4019
 1226.0000     0.5288     1.3887
 1226.5000     0.5288     1.5648
 1227.0000     0.5288     1.3599
 1227.5000     0.5192     1.3469
 1228.0000     0.5192     1.5258
 1228.5000     0.5192     1.5096
 1229.0000     0.5192     1.4966
 1229.5000     0.5192     1.4836
 1230.0000     0.5192     1.6593
 1230.5000     0.5192     1.8382
 1231.0000     0.5192     1.8220
 1231.5000     0.5192     1.8090
 1232.0000     0.5192     1.7960
 1232.5000     0.5288     1.7830
 1233.0000     0.5192     1.3925
 1233.5000     0.5192     1.4862
 1234.0000     0.5288     1.6940
 1234.5000     0.5288     1.7302
 1235.0000     0.5192     1.7170
 1235.5000     0.5192     1.7018
 1236.0000     0.5288     1.6906
 1236.5000     0.5192     1.6774
 1237.0000     0.5192     1.6629
 1237.5000     0.5192     1.6509
 1238.0000     0.5288     1.6369
 1238.5000     0.5385     1.6245
 1239.0000     0.5385     1.6113
 1239.5000     0.5385     1.5981
 1240.0000     0.5481     1.5849
 1240.5000     0.5577     1.5717
 1241.0000     0.5577     1.5585
 1241.5000     0.5577     1.5427
 1242.0000     0.5769     1.5321
 1242.5000     0.6346     1.5189
 1243.0000     0.6250     1.5057
 1243.5000     0.6250     1.4907
 1244.0000     0.6346     1.4777
 1244.5000     0.7692     1.4660
 1245.0000     0.7692     1.4517
 1245.5000     0.7692     1.6274
 1246.0000     0.9519     1.6144
 1246.5000     0.9615     1.6019
 1247.0000     0.9615     1.5885
 1247.5000     0.9615     1.6699
 1248.0000     0.6731     1.7512
 1248.5000     0.5000     1.7377
 1249.0000     0.4904     1.7219
 1249.5000     0.4904     1.7089
 1250.0000     0.4904     1.6959
 1250.5000     0.5000     1.8749
 1251.0000     0.5000     1.8586
 1251.5000     0.5000     1.8457
 1252.0000     0.5000     2.0246
 1252.5000     0.5000     1.8197
 1253.0000     0.5000     1.6180
 1253.5000     0.4951     1.6050
 1254.0000     0.4816     1.5925
 1254.5000     0.4816     1.5792
 1255.0000     0.4817     1.5660
 1255.5000     0.4530     1.5528
 1256.0000     0.4531     1.3509
 1256.5000     0.4532     1.3384
 1257.0000     0.4533     1.5132
 1257.5000     0.4534     1.4978
 1258.0000     0.4535     1.4848
 1258.5000     0.4536     1.4736
 1259.0000     0.4537     1.4589
 1259.5000     0.4538     1.4459
 1260.0000     0.4539     1.4340
 1260.5000     0.4539     1.4208
 1261.0000     0.4540     1.4069
 1261.5000     0.4349     1.3928
 1262.0000     0.4350     1.1924
 1262.5000     0.4351     0.9906
 1263.0000     0.4352     1.1666
 1263.5000     0.4353     1.3424
 1264.0000     0.4354     1.3989
 1264.5000     0.4355     1.7618
 1265.0000     0.4356     2.0552
 1265.5000     0.4357     2.0434
 1266.0000     0.4358     2.2213
 1266.5000     0.4359     2.2052
 1267.0000     0.4462     2.1923
 1267.5000     0.4553     2.1761
 1268.0000     0.4554     1.9774
 1268.5000     0.4555     1.9642
 1269.0000     0.4556     2.1407
 1269.5000     0.4557     2.3151
 1270.0000     0.4558     2.3019
 1270.5000     0.4366     2.3481
 1271.0000     0.4560     2.4641
 1271.5000     0.4561     2.4504
 1272.0000     0.5908     2.4377
 1272.5000     0.5716     2.4245
 1273.0000     0.5717     2.5442
 1273.5000     0.5718     2.5868
 1274.0000     0.6873     2.5736
 1274.5000     0.6874     2.5604
 1275.0000     0.6875     2.5472
 1275.5000     0.6876     2.5340
 1276.0000     0.6877     2.5198
 1276.5000     0.6878     2.6988
 1277.0000     0.6879     2.6827
 1277.5000     0.6976     2.6698
 1278.0000     0.5727     2.6566
 1278.5000     0.4766     2.6434
 1279.0000     0.4864     2.8198
 1279.5000     0.4961     2.8036
 1280.0000     0.4962     2.6021
 1280.5000     0.4770     2.5640
 1281.0000     0.4579     2.3887
 1281.5000     0.4387     2.3755
 1282.0000     0.4388     2.3618
 1282.5000     0.4389     2.3491
 1283.0000     0.4391     2.3358
 1283.5000     0.4391     2.3226
 1284.0000     0.4585     2.3070
 1284.5000     0.4586     2.2941
 1285.0000     0.4587     2.4731
 1285.5000     0.4684     2.2683
 1286.0000     0.4781     2.4441
 1286.5000     0.4828     2.4321
 1287.0000     0.4882     2.4189
 1287.5000     0.4976     2.4054
 1288.0000     0.4977     2.3925
