~VERSION INFORMATION
 VERS.                2.0:   CWLS LOG ASCII STANDARD - VERSION 2.0
 WRAP.                 NO:   ONE LINE PER DEPTH STEP
~WELL INFORMATION
#MNEM.UNIT      DATA TYPE    INFORMATION
#----------   ------------   ------------------------------
 STRT.F           20.0000:   START DEPTH
 STOP.F          599.0000:   STOP DEPTH
 STEP.F            0.5000:   STEP LENGTH
 NULL.          -999.2500:   NO VALUE
 COMP. FENIX & SCISSON INC:   COMPANY
 WELL.    47 SX 34 #47-34:   WELL
 FLD .             TEAPOT:   FIELD
 LOC .      S34 T39N R78W:   LOCATION
 CNTY.            NATRONA:   COUNTY
 STAT.            WYOMING:   STATE
 CTRY. UNITED STATES OF AMERICA:   COUNTRY
 SRVC.       Schlumberger:   SERVICE COMPANY
 DATE.        24-JAN-1979:   LOGDATE
 API .       490251077000:   API NUMBER
~CURVE INFORMATION
#MNEM.UNIT       API CODE    CURVE DESCRIPTION
#----------   ------------   ------------------------------
 DEPT.F                  :   
 SN  .OHMM   05 040 16 00:   SHORT NORMAL 16"
 ILD .OHMM   05 120 46 00:   INDUCTION LOG DEEP
 SPR .MV     05 010 01 00:   SPONTANEOUS POTENTIAL FROM RES.
 CALD.IN     45 280 60 00:   CALIPER
 GRD .GAPI   45 310 01 00:   GAMMA RAY FROM DENSITY LOG
 DPHI.DEC    45 890 12 00:   DENSITY POROSITY SANDSTONE
 CORR.G/C3   45 356 01 00:   DENSITY CORRECTION
 RHOB.G/C3   45 350 01 00:   BULK DENSITY
~PARAMETER INFORMATION
#MNEM.UNIT          VALUE    DESCRIPTION
#----------   ------------   ------------------------------
 PD  .                 GL:   PERMANENT DATUM
 EPD .F              5132:   ELEVATION PERMANENT DATUM
 LMF .                 KB:   LOG MEASURED FROM
 DAPD.F                 4:   FEET ABOVE PERMANENT DATUM
 DMF .                 KB:   DRILLING MEASURED FROM
 EKB .F              5136:   KELLING BUSHING
 EGL .F              5132:   GROUND LEVEL
 DATE.            1-24-79:   RUN DATE
 RUN .                  1:   RUN NUMBER
 DD  .F               600:   DEPTH DRILLER
 DL  .F               600:   DEPTH LOGGER
 BLI .F               594:   BOTTOM LOG INTERVAL
 TLI .F                28:   TOP LOG INTERVAL
 CS  .IN            8.625:   CASING SIZE
 CBD .F                40:   CASING BOTTOM DRILLER
 BS  .IN            7.875:   BIT SIZE
 BSD .F               600:   BIT SIZE AT DEPTH
 DFT .                KCL:   DRILLING FLUID TYPE
 DFD .                8.8:   DRILLING FLUID DENSITY
 DFV .                 60:   DRILLING FLUID VISCOSITY
 DFPH.                9.5:   DRILLING FLUID PH
 DFL .               10.8:   DRILLING FLUID LOSS
 MSS .           FLOWLINE:   MUD SAMPLE SOURCE
 RMS .OHMM            .22:   RESISTIVITY MUD SAMPLE
 MST .F                60:   MUD SAMPLE TEMPERATURE
 RMF .OHMM             .2:   RESISTIVITY MUD FILTRATE SAMPLE
 MFST.F                61:   MUD FILTRATE SAMPLE TEMPERATURE
 RMC .OHMM             .3:   RESISTIVITY MUD CAKE
 MCST.F                61:   MUD CAKE SAMPLE TEMPERATURE
 MFSS.           MEASURED:   MUD FILTRATE SAMPLE SOURCE
 MCSS.           MEASURED:   MUD CAKE SAMPLE SOURCE
 RMB .OHMM            .23:   RESISTIVITY MUD AT BHT
 BHT .F                58:   BOTTOM HOLE TEMPERATURE
 TCS .HRS               4:   TIME CURCULATED STOPPED
 MRT .F                58:   MAXIMUM RECORDED TEMPERATURE
 LUN .               3029:   LOGGING UNIT NUMBER
 LUL .             CASPER:   LOGGING UNIT LOCATION
 ENGI.         B. ROLLINS:   RECORDING ENGINEER
 WITN.         RICHARDSON:   WITNESSED BY
 CLNT.            A2DTECH:   CLIENT CODE
 ORIG.           5" PRINT:   ORIGIN OF DATA
 UWI .       490251077000:   UNIQUE WELL ID
 DICO. A2D Technologies, Inc.:   DIGITIZING COMPANY
~OTHER INFORMATION
~A   DEPT       SN        ILD        SPR         CALD       GRD        DPHI       CORR       RHOB 
# ...
  182.0000     7.2901     9.1327   -22.6672     8.1418   116.6031     0.1176     0.1403     2.4862
  182.5000     7.2378     9.1024   -23.2816     8.1658   116.5731     0.1198     0.1263     2.4790
  183.0000     7.1859     9.0721   -22.1211     8.1898   117.8820     0.1210     0.1093     2.4732
  183.5000     7.1343     8.8894   -20.8974     8.2039   119.1068     0.1235     0.0938     2.4705
  184.0000     7.0831     8.6655   -19.6856     8.2077   117.6344     0.1239     0.0845     2.4711
  184.5000     7.0025     8.4473   -18.8668     8.2117   115.9072     0.1186     0.0797     2.4805
  185.0000     6.9138     8.2344   -20.1572     8.2156   119.4582     0.1189     0.0800     2.4911
  185.5000     6.8261     8.0288   -22.0378     8.2196   125.0332     0.1205     0.0705     2.4971
  186.0000     6.7531     7.8242   -23.9150     8.2236   122.4945     0.1221     0.0557     2.4748
  186.5000     6.7531     7.6543   -25.3544     8.2276   119.2750     0.1238     0.0418     2.4695
  187.0000     6.7531     7.5414   -24.0248     8.2316   116.5835     0.1260     0.0318     2.4693
  187.5000     6.7993     7.5414   -22.7649     8.2356   116.3402     0.1277     0.0220     2.4656
  188.0000     6.8483     7.6815   -22.8749     8.2397   116.0586     0.1274     0.0147     2.4657
  188.5000     6.8976     7.9695   -25.7744     8.2425   115.8012     0.1234     0.0203     2.4711
  189.0000     6.9473     8.0431   -25.7833     8.2129   113.8014     0.1210     0.0256     2.4767
  189.5000     6.9973     8.1631   -25.0542     8.1815   111.3529     0.1214     0.0305     2.4736
  190.0000     7.0477     8.4907   -24.1873     8.1490   111.4942     0.1211     0.0328     2.4720
  190.5000     7.0710     8.8315   -23.3169     8.1752   112.0960     0.1173     0.0384     2.4866
  191.0000     7.0709     9.0698   -22.4488     8.2154   111.1819     0.1150     0.0403     2.4997
  191.5000     7.0710     9.1046   -21.6779     8.2559   105.1417     0.1150     0.0356     2.4980
  192.0000     7.0710     9.1489   -21.7409     8.2963   104.6767     0.1226     0.0309     2.4742
  192.5000     7.0710     9.0651   -22.0870     8.3369   104.8746     0.1168     0.0316     2.4813
  193.0000     7.0710     8.9734   -22.4313     8.3774   105.8562     0.1149     0.0338     2.4898
  193.5000     7.0710     8.8759   -22.7746     8.4245   106.8538     0.1144     0.0310     2.4956
  194.0000     7.0710     8.7795   -23.1175     8.4025   109.9030     0.1140     0.0257     2.4920
  194.5000     7.0706     8.6564   -23.4609     8.3801   113.4432     0.1172     0.0204     2.4848
  195.0000     7.0996     8.6569   -23.8150     8.3579   108.6266     0.1207     0.0180     2.4781
  195.5000     7.1538     8.7023   -24.0298     8.3359   104.5041     0.1164     0.0180     2.4811
  196.0000     7.2087     8.7650   -24.2127     8.3138   104.1296     0.1121     0.0181     2.4887
  196.5000     7.2641     8.8281   -24.2826     8.3078   100.5112     0.1084     0.0067     2.4963
  197.0000     7.3199     8.8916   -24.2308     8.3210    95.8813     0.1074     0.0059     2.5015
  197.5000     7.3762     8.9557   -24.1788     8.3342    99.5302     0.1084     0.0083     2.4985
  198.0000     7.4328     9.0201   -24.1256     8.3432   103.4299     0.1102     0.0128     2.4889
  198.5000     7.4721     9.0651   -24.2173     8.3132   107.3842     0.1126     0.0172     2.4811
  199.0000     7.4726     8.9558   -24.4473     8.2799   109.5851     0.1078     0.0217     2.4873
  199.5000     7.4105     8.9163   -24.6778     8.2688   110.7039     0.1079     0.0218     2.4939
  200.0000     7.3228     8.8780   -24.9088     8.2785   111.6971     0.1127     0.0184     2.4929
  200.5000     7.2365     8.8398   -25.1355     8.2583   114.8536     0.1174     0.0135     2.4838
  201.0000     7.1511     8.8018   -25.2849     8.2082   116.6317     0.1220     0.0084     2.4749
  201.5000     7.0668     8.7636   -25.2076     8.1573   115.0391     0.1234     0.0039     2.4685
  202.0000     6.9834     8.7371   -25.1383     8.1071   110.9068     0.1249     0.0060     2.4675
  202.5000     6.9421     8.7374   -25.0832     8.2588   106.7210     0.1218     0.0100     2.4724
  203.0000     7.0116     8.7375   -24.7510     8.3412   109.0796     0.1182     0.0140     2.4792
  203.5000     7.0656     8.7375   -24.4281     8.3180   112.0143     0.1147     0.0180     2.4861
  204.0000     7.1200     8.7375   -24.1067     8.2903   115.2928     0.1136     0.0204     2.4876
  204.5000     7.1369     8.7376   -23.7859     8.2628   113.2072     0.1192     0.0221     2.4875
  205.0000     7.1361     8.7380   -23.4981     8.2502   110.6387     0.1150     0.0239     2.4895
  205.5000     7.1065     8.7213   -23.6238     8.2737   108.0726     0.1106     0.0286     2.4970
  206.0000     7.0836     8.7029   -23.8885     8.2966   105.5143     0.1060     0.0337     2.5120
  206.5000     7.0608     8.6847   -23.6182     8.3509   104.2907     0.1017     0.0328     2.5174
  207.0000     7.0380     8.6666   -23.2224     8.3578   107.6626     0.1046     0.0291     2.5110
  207.5000     7.0153     8.6485   -22.7904     8.3482   107.9628     0.1113     0.0246     2.4895
  208.0000     6.9927     8.6304   -23.3210     8.3381   110.6790     0.1197     0.0147     2.4737
  208.5000     6.9701     8.6124   -24.1759     8.3280   114.9403     0.1297     0.0046     2.4634
  209.0000     6.9477     8.5944   -25.0522     8.3261   113.7201     0.1286     0.0002     2.4641
  209.5000     6.9253     8.5773   -25.9313     8.3310   111.8737     0.1217     0.0093     2.4747
  210.0000     6.9029     8.5480   -26.6476     8.3360   109.9463     0.1149     0.0193     2.4883
  210.5000     6.8781     8.5206   -25.2054     8.3410   109.4602     0.1077     0.0294     2.5021
  211.0000     6.8785     8.4933   -23.7643     8.3433   110.6725     0.1023     0.0338     2.5158
  211.5000     6.8785     8.4661   -24.2764     8.3433   112.2603     0.1018     0.0284     2.5176
  212.0000     6.8785     8.4389   -25.0978     8.3433   113.8079     0.1047     0.0226     2.5102
  212.5000     6.8785     8.4119   -25.9142     8.3433   112.5551     0.1093     0.0167     2.4972
  213.0000     6.8785     8.3849   -26.5093     8.3433   111.1069     0.1136     0.0109     2.4870
  213.5000     6.8785     8.3585   -26.3407     8.3435   109.8826     0.1182     0.0058     2.4832
  214.0000     6.8785     8.3347   -25.6959     8.3236   111.8917     0.1201     0.0089     2.4807
  214.5000     6.8785     8.3160   -25.0739     8.2883   113.9377     0.1210     0.0127     2.4823
  215.0000     6.8785     8.2968   -24.4526     8.2529   113.4930     0.1205     0.0159     2.4820
  215.5000     6.8785     8.2778   -23.8676     8.2236   114.3971     0.1191     0.0151     2.4785
  216.0000     6.8785     8.2587   -24.4262     8.2633   118.5307     0.1167     0.0143     2.4798
  216.5000     6.8785     8.2398   -25.0138     8.3055   118.3342     0.1133     0.0135     2.4870
  217.0000     6.8785     8.2208   -25.5949     8.3179   115.7521     0.1113     0.0128     2.4937
  217.5000     6.8784     8.2020   -25.2782     8.2843   113.1860     0.1106     0.0120     2.4953
  218.0000     6.8778     8.1925   -24.0389     8.2491   111.0966     0.1069     0.0099     2.5067
  218.5000     6.9214     8.3039   -22.7757     8.3092   109.3665     0.1030     0.0064     2.5182
  219.0000     6.9547     8.3790   -23.0545     8.2426   109.5290     0.0940     0.0029     2.5263
  219.5000     6.9881     8.4547   -23.7832     8.2646   110.1846     0.0910     0.0018     2.5265
  220.0000     7.0217     8.5312   -24.3171     8.3343   110.8030     0.0918     0.0134     2.5259
  220.5000     7.0554     8.6083   -24.2476     8.3401   108.1429     0.0978     0.0248     2.5166
  221.0000     7.0893     8.6861   -23.2769     8.3023   105.1733     0.1020     0.0318     2.5077
  221.5000     7.1234     8.7647   -22.3178     8.2647   108.3529     0.1049     0.0251     2.5001
  222.0000     7.1576     8.8439   -21.3182     8.2684   107.2108     0.1067     0.0183     2.5000
