~VERSION INFORMATION
 VERS.                2.0:   CWLS LOG ASCII STANDARD - VERSION 2.0
 WRAP.                 NO:   ONE LINE PER DEPTH STEP
~WELL INFORMATION
#MNEM.UNIT      DATA TYPE    INFORMATION
#----------   ------------   ------------------------------
 STRT.F            0.0000:   START DEPTH
 STOP.F          666.0000:   STOP DEPTH
 STEP.F            0.1000:   STEP LENGTH
 NULL.          -999.2500:   NO VALUE
 COMP.   FLUOR DANIEL INC:   COMPANY
 WELL.   77-2 X 34 #77-34:   WELL
 FLD .             TEAPOT:   FIELD
 LOC .      S34 T39N R78W:   LOCATION
 CNTY.            NATRONA:   COUNTY
 STAT.            WYOMING:   STATE
 CTRY. UNITED STATES OF AMERICA:   COUNTRY
 SRVC.      Western Atlas:   SERVICE COMPANY
 DATE.        01-APR-1995:   LOGDATE
 API .       490252270000:   API NUMBER
~CURVE INFORMATION
#MNEM.UNIT       API CODE    CURVE DESCRIPTION
#----------   ------------   ------------------------------
 DEPT.F                  :   
 GRR .GAPI   07 310 01 00:   GAMMA RAY
 RILD.OHMM   07 120 46 00:   INDUCTION LOG DEEP RESISTIVITY
 RILM.OHMM   07 120 44 00:   INDUCTION LOG MEDIUM RESISTIVITY
~PARAMETER INFORMATION
#MNEM.UNIT          VALUE    DESCRIPTION
#----------   ------------   ------------------------------
 PD  .                 GL:   PERMANENT DATUM
 EPD .F              5106:   ELEVATION PERMANENT DATUM
 LMF .                 KB:   LOG MEASURED FROM
 DAPD.F                10:   FEET ABOVE PERMANENT DATUM
 DMF .                 KB:   DRILLING MEASURED FROM
 EKB .F              5116:   KELLING BUSHING
 EDF .F              5115:   DRILLING FLOOR
 EGL .F              5106:   GROUND LEVEL
 DATE.        01-APR-1995:   RUN DATE
 RUN .                  1:   RUN NUMBER
 DD  .F               674:   DEPTH DRILLER
 DL  .F               674:   DEPTH LOGGER
 BLI .F               666:   BOTTOM LOG INTERVAL
 TLI .F                52:   TOP LOG INTERVAL
 CS  .IN            9.625:   CASING SIZE
 CBD .F                52:   CASING BOTTOM DRILLER
 CBL .F                52:   CASING BOTTOM LOGGER
 BS  .IN             8.75:   BIT SIZE
 BSD .F               674:   BIT SIZE AT DEPTH
 DFT .                AIR:   DRILLING FLUID TYPE
 MRT .F                89:   MAXIMUM RECORDED TEMPERATURE
 LUN .            HL 6530:   LOGGING UNIT NUMBER
 LUL .             CASPER:   LOGGING UNIT LOCATION
 ENGI.      PAT RASMUSSEN:   RECORDING ENGINEER
 WITN.        GARY STRONG:   WITNESSED BY
 CLNT.            A2DTECH:   CLIENT CODE
 ORIG.           5" PRINT:   ORIGIN OF DATA
 UWI .       490252270000:   UNIQUE WELL ID
 DICO. A2D Technologies, Inc.:   DIGITIZING COMPANY
~OTHER INFORMATION
~A    DEPT      GRR      RILD       RILM   
# ...
   54.6000   117.8643     3.9625     5.1000
   54.7000   118.3350     3.5659     4.3572
   54.8000   118.6101     3.3460     3.6806
   54.9000   118.8350     2.9556     3.1120
   55.0000   118.9140     2.5458     2.7593
   55.1000   118.7972     2.2414     2.3274
   55.2000   118.5496     2.0688     2.1864
   55.3000   118.2898     1.9995     2.0984
   55.4000   117.7124     1.9901     2.0445
   55.5000   117.5053     1.9650     2.0012
   55.6000   116.9472     1.9357     1.9678
   55.7000   116.3045     1.9178     1.9424
   55.8000   115.7587     1.9178     1.9924
   55.9000   115.0033     1.9620     2.0998
   56.0000   114.2685     2.1510     2.2623
   56.1000   113.3309     2.4346     2.5238
   56.2000   112.6162     2.8245     2.9675
   56.3000   112.1199     3.2991     3.4546
   56.4000   111.6573     3.5925     3.5399
   56.5000   111.3907     3.7527     3.6295
   56.6000   111.1622     4.1979     3.7138
   56.7000   110.7379     5.3003     3.8101
   56.8000   110.4893     6.5534     3.9422
   56.9000   110.4905     6.9982     4.0511
   57.0000   110.4917     7.3170     4.1473
   57.1000   110.4931     7.4704     4.2681
   57.2000   110.4941     7.6452     4.4131
   57.3000   110.4953     7.8238     4.6043
   57.4000   110.4965     7.9441     4.8510
   57.5000   110.4977     7.8596     5.1650
   57.6000   110.4989     7.0675     5.4531
   57.7000   110.5002     6.2710     5.7623
   57.8000   110.5014     5.7041     5.9231
   57.9000   110.5026     5.4181     5.7879
   58.0000   110.5038     5.2469     5.6494
   58.1000   110.5050     5.1285     5.4971
   58.2000   110.5062     5.0936     5.3867
   58.3000   110.7429     5.0937     5.3434
   58.4000   110.8103     5.0763     5.4816
   58.5000   110.8115     5.0586     5.8907
   58.6000   110.7358     5.0587     6.2672
   58.7000   110.5121     5.0589     6.3335
   58.8000   110.5136     5.0590     6.3282
   58.9000   110.2948     5.0591     6.2915
   59.0000   110.0473     5.0431     6.2551
   59.1000   109.7997     5.0243     6.2156
   59.2000   109.4910     5.0244     6.1359
   59.3000   109.0029     5.0246     6.0737
   59.4000   108.7109     4.9978     6.0039
   59.5000   108.3037     4.9899     5.9509
   59.6000   107.9586     4.9753     5.9254
   59.7000   107.8093     4.9469     5.9270
   59.8000   107.7651     4.9185     5.9659
   59.9000   107.5101     4.8872     5.9949
   60.0000   107.2700     4.8624     6.0292
   60.1000   107.2109     4.8535     6.0790
   60.2000   107.2121     4.8275     6.1489
   60.3000   107.2133     4.7794     6.2205
   60.4000   107.1847     4.7534     6.3484
   60.5000   106.9141     4.7536     6.3780
   60.6000   106.9152     4.7537     6.3696
   60.7000   106.9164     4.7538     6.3182
   60.8000   106.9176     4.7657     6.2385
   60.9000   106.8519     4.8055     6.1302
   61.0000   106.6183     4.8891     5.9922
   61.1000   106.6198     4.9461     5.8298
   61.2000   106.6208     5.0503     5.6828
   61.3000   106.6220     5.1506     5.5647
   61.4000   106.5191     5.2406     5.4742
   61.5000   106.2715     5.3267     5.4084
   61.6000   106.0223     5.3908     5.3491
   61.7000   105.5292     5.3910     5.2877
   61.8000   104.8386     5.3911     5.2108
   61.9000   103.9521     5.3575     5.1116
   62.0000   102.9583     5.3064     4.9949
   62.1000   102.0356     5.2682     4.8720
   62.2000   101.5048     5.1708     4.7448
   62.3000   101.0429     5.0095     4.6290
   62.4000   100.9038     4.8007     4.5235
   62.5000   100.9050     4.5715     4.3980
   62.6000   100.9062     4.3540     4.2280
   62.7000   100.6056     4.1792     4.0946
   62.8000   100.6071     3.9680     3.9714
   62.9000   100.8239     3.8309     3.8367
   63.0000   100.9110     3.7075     3.7262
   63.1000   101.1322     3.5836     3.6466
   63.2000   101.6310     3.4464     3.5827
   63.3000   102.1255     3.3281     3.4893
   63.4000   102.4244     3.1750     3.3557
   63.5000   102.8255     3.0707     3.2165
   63.6000   103.4715     2.9494     3.0893
   63.7000   104.2190     2.8393     2.9631
   63.8000   105.0079     2.7426     2.8296
   63.9000   106.0501     2.6490     2.6981
   64.0000   106.7632     2.5593     2.6110
   64.1000   107.8796     2.4395     2.4822
   64.2000   109.2561     2.3163     2.3485
   64.3000   110.8285     2.1855     2.2369
   64.4000   112.5197     2.0460     2.1601
   64.5000   113.9006     1.9495     2.1113
   64.6000   115.4530     1.8864     2.0268
   64.7000   116.8582     1.8458     1.9546
   64.8000   118.2190     1.8142     1.9071
   64.9000   119.8386     1.7831     1.8725
   65.0000   121.8703     1.7537     1.8281
   65.1000   125.3709     1.7319     1.8079
   65.2000   126.8135     1.7138     1.7795
   65.3000   128.4030     1.7011     1.7490
   65.4000   129.7967     1.6865     1.7156
   65.5000   131.0418     1.6672     1.6790
   65.6000   132.3150     1.6481     1.6582
   65.7000   133.2887     1.6268     1.6319
   65.8000   134.2849     1.6107     1.6040
   65.9000   135.1439     1.5723     1.5810
   66.0000   135.8914     1.5545     1.5629
   66.1000   136.6074     1.5366     1.5458
   66.2000   137.1488     1.5188     1.5358
   66.3000   137.6048     1.5003     1.5279
   66.4000   138.1036     1.5085     1.5251
   66.5000   138.3590     1.5169     1.5292
   66.6000   138.4290     1.5257     1.5355
   66.7000   138.6789     1.5483     1.5366
   66.8000   138.9661     1.5719     1.5568
   66.9000   139.1789     1.5955     1.5800
   67.0000   139.1111     1.6113     1.6135
   67.1000   138.9695     1.6269     1.6467
   67.2000   138.8646     1.6423     1.6776
   67.3000   138.3686     1.6564     1.7164
   67.4000   138.3698     1.6971     1.7634
   67.5000   137.9789     1.7347     1.7886
   67.6000   137.4826     1.7753     1.8262
   67.7000   137.0765     1.8339     1.8869
   67.8000   136.7541     1.9022     1.9928
   67.9000   135.9627     1.9617     2.1710
   68.0000   135.4973     2.0633     2.2865
   68.1000   134.6401     2.1292     2.3971
   68.2000   133.3912     2.2225     2.5099
   68.3000   131.8999     2.3208     2.6161
   68.4000   130.2998     2.4123     2.7048
   68.5000   127.2219     2.4950     2.7863
   68.6000   124.8294     2.5616     2.8488
   68.7000   122.5882     2.6002     2.9022
   68.8000   120.4875     2.6557     2.9431
   68.9000   118.1321     2.7248     2.9711
   69.0000   115.3967     2.8045     2.9952
   69.1000   112.1462     2.8882     3.0696
   69.2000   110.3300     3.0712     3.1529
   69.3000   108.3904     3.1903     3.2449
   69.4000   106.8424     3.3777     3.3700
   69.5000   105.5997     3.5988     3.5282
   69.6000   104.3089     3.8381     3.6982
   69.7000   103.5928     4.1167     3.9396
   69.8000   102.6615     4.3333     4.1496
   69.9000   101.6676     4.5237     4.3248
   70.0000   100.7542     4.7420     4.4637
   70.1000   100.0366     4.9627     4.6162
   70.2000    99.4897     5.1326     4.8324
   70.3000    98.8205     5.2921     5.0913
   70.4000    98.2459     5.4084     5.2722
   70.5000    97.7496     5.5349     5.4888
   70.6000    97.1886     5.6643     5.6988
   70.7000    96.4553     5.7965     5.8897
   70.8000    95.8771     5.9464     6.0672
   70.9000    95.2549     6.2571     6.4892
   71.0000    94.9744     6.5571     6.6462
   71.1000    94.7716     6.8517     6.8399
   71.2000    94.2753     7.0940     7.0048
   71.3000    93.7714     7.2899     7.1349
   71.4000    93.5276     7.4573     7.3001
   71.5000    93.0880     7.6073     7.4700
   71.6000    92.7308     7.7206     7.6085
   71.7000    92.3970     7.8264     7.7142
   71.8000    91.9006     7.8778     7.8203
   71.9000    91.3654     7.8986     7.9558
   72.0000    91.3665     7.9896     8.0981
   72.1000    91.1913     8.0450     8.1429
   72.2000    91.0673     8.0828     8.2255
   72.3000    90.9979     8.1017     8.2936
   72.4000    90.7503     8.1019     8.3243
   72.5000    90.4677     8.1106     8.3238
   72.6000    90.4688     8.1591     8.3233
   72.7000    90.3093     8.1593     8.3229
