~VERSION INFORMATION
 VERS.                2.0:   CWLS LOG ASCII STANDARD - VERSION 2.0
 WRAP.                 NO:   ONE LINE PER DEPTH STEP
~WELL INFORMATION
#MNEM.UNIT      DATA TYPE    INFORMATION
#----------   ------------   ------------------------------
 STRT.F           27.0000:   START DEPTH
 STOP.F          713.0000:   STOP DEPTH
 STEP.F            0.5000:   STEP LENGTH
 NULL.          -999.2500:   NO VALUE
 COMP. FENIX & SCISSON INC:   COMPANY
 WELL.       NPR 3 #44-34:   WELL
 FLD .        TEAPOT DOME:   FIELD
 LOC .      S34 T39N R78W:   LOCATION
 CNTY.            NATRONA:   COUNTY
 STAT.            WYOMING:   STATE
 CTRY. UNITED STATES OF AMERICA:   COUNTRY
 SRVC.           BIRDWELL:   SERVICE COMPANY
 DATE.        24-AUG-1978:   LOGDATE
 API .       490251070000:   API NUMBER
~CURVE INFORMATION
#MNEM.UNIT       API CODE    CURVE DESCRIPTION
#----------   ------------   ------------------------------
 DEPT.F                  :   
 SPR .MV     05 010 01 00:   SPONTANEOUS POTENTIAL FROM RES.
 ILD .OHMM   05 120 46 00:   INDUCTION LOG DEEP
 SN  .OHMM   05 040 16 00:   SHORT NORMAL 16"
 CALD.IN     45 280 60 00:   CALIPER
 GRD .GAPI   45 310 01 00:   GAMMA RAY FROM DENSITY LOG
 DEN .G/C3   45 350 01 00:   COMPENSATED BULK DENSTIY
 DPHI.DEC    45 890 12 00:   DENSITY POROSITY SANDSTONE
 CORR.G/C3   45 356 01 00:   DENSITY CORRECTION
~PARAMETER INFORMATION
#MNEM.UNIT          VALUE    DESCRIPTION
#----------   ------------   ------------------------------
 PD  .                 GL:   PERMANENT DATUM
 EPD .F              5124:   ELEVATION PERMANENT DATUM
 LMF .                 KB:   LOG MEASURED FROM
 DAPD.F                 4:   FEET ABOVE PERMANENT DATUM
 DMF .                 KB:   DRILLING MEASURED FROM
 EKB .F              5128:   KELLING BUSHING
 EGL .F              5124:   GROUND LEVEL
 DATE.            8-24-78:   RUN DATE
 RUN .                  1:   RUN NUMBER
 DD  .F               716:   DEPTH DRILLER
 DL  .F               713:   DEPTH LOGGER
 BLI .F               707:   BOTTOM LOG INTERVAL
 TLI .F                50:   TOP LOG INTERVAL
 CS  .IN            8.625:   CASING SIZE
 CBD .F                40:   CASING BOTTOM DRILLER
 BS  .IN            7.875:   BIT SIZE
 BSD .F               716:   BIT SIZE AT DEPTH
 DFT .            MUD KCL:   DRILLING FLUID TYPE
 DFD .                8.6:   DRILLING FLUID DENSITY
 DFV .                 34:   DRILLING FLUID VISCOSITY
 DFL .                7.4:   DRILLING FLUID LOSS
 MSS .          FLOW LINE:   MUD SAMPLE SOURCE
 RMS .OHMM            .18:   RESISTIVITY MUD SAMPLE
 MST .F                76:   MUD SAMPLE TEMPERATURE
 RMF .OHMM            .16:   RESISTIVITY MUD FILTRATE SAMPLE
 MFST.F                92:   MUD FILTRATE SAMPLE TEMPERATURE
 RMC .OHMM             .3:   RESISTIVITY MUD CAKE
 MCST.F                86:   MUD CAKE SAMPLE TEMPERATURE
 MFSS.               MEAS:   MUD FILTRATE SAMPLE SOURCE
 TCS .HRS               3:   TIME CURCULATED STOPPED
 MRT .F                72:   MAXIMUM RECORDED TEMPERATURE
 LUN .               2958:   LOGGING UNIT NUMBER
 LUL .               CASP:   LOGGING UNIT LOCATION
 ENGI.           REYNOLDS:   RECORDING ENGINEER
 WITN.              AMEND:   WITNESSED BY
 CLNT.            A2DTECH:   CLIENT CODE
 ORIG.           5" PRINT:   ORIGIN OF DATA
 UWI .       490251070000:   UNIQUE WELL ID
 DICO. A2D Technologies, Inc.:   DIGITIZING COMPANY
~OTHER INFORMATION
~A   DEPT      SPR        ILD         SN       CALD         GRD       DEN       DPHI       CORR   
# ...
   67.5000   -73.2036     3.5210     4.1972     9.0997    89.7442     2.3616     0.2043     0.0203
   68.0000   -73.4159     3.4528     4.1530     9.1025    89.7717     2.3619     0.2041     0.0180
   68.5000   -73.6073     3.3412     4.0999     9.1052    89.8991     2.3615     0.2045     0.0190
   69.0000   -73.6050     3.1135     4.0473     9.1079    89.7899     2.3568     0.2093     0.0210
   69.5000   -73.6056     2.8988     3.9244     9.1107    89.6715     2.3492     0.2197     0.0239
   70.0000   -73.6018     2.7000     3.7963     9.1135    89.5788     2.3288     0.2352     0.0268
   70.5000   -73.8068     2.5357     3.6364     9.1162    89.7674     2.3087     0.2507     0.0369
   71.0000   -74.0901     2.5360     3.4673     9.1154    90.7128     2.2873     0.2661     0.0478
   71.5000   -74.2014     2.5377     3.3060     9.1020    92.3376     2.2604     0.2817     0.0588
   72.0000   -74.2037     2.5609     3.1521     9.0890    94.9547     2.2329     0.2971     0.0671
   72.5000   -74.2034     2.6442     3.0470     9.0675    98.3670     2.2053     0.3126     0.0669
   73.0000   -74.2044     2.7440     3.0351     9.0042   101.6010     2.1781     0.3242     0.0508
   73.5000   -74.2057     2.8475     3.0180     8.9415   101.8781     2.1681     0.3242     0.0347
   74.0000   -74.1930     3.0527     3.0010     8.8790    99.4100     2.1702     0.3066     0.0233
   74.5000   -73.5661     3.4337     2.9913     8.8158    95.9960     2.1942     0.2855     0.0235
   75.0000   -72.0802     3.8623     3.3213     8.7169    93.0277     2.2401     0.2430     0.0235
   75.5000   -71.6901     4.3202     3.5842     8.5562    92.4552     2.3718     0.1969     0.0233
   76.0000   -71.3517     4.6328     3.8679     8.3962    90.0246     2.3859     0.1899     0.0295
   76.5000   -71.2378     4.8166     4.1740     8.2491    85.2372     2.3850     0.1903     0.0372
   77.0000   -71.2877     4.8872     4.5044     8.2268    83.9624     2.3842     0.1904     0.0562
   77.5000   -71.3392     4.9575     4.7040     8.1993    89.2232     2.3851     0.1906     0.0650
   78.0000   -71.3932     5.0288     4.7415     8.2237    92.2590     2.3870     0.1882     0.0511
   78.5000   -71.1223     5.1242     4.8071     8.2594    92.1727     2.3899     0.1819     0.0449
   79.0000   -70.6083     5.3348     5.0106     8.2945    90.5551     2.4041     0.1758     0.0437
   79.5000   -70.2107     5.5541     5.2227     8.3396    88.5223     2.4235     0.1615     0.0426
   80.0000   -70.2185     5.7827     5.4438     8.4045    86.4926     2.4334     0.1663     0.0414
   80.5000   -70.2189     6.0196     5.6743     8.4677    85.2778     2.4164     0.1753     0.0311
   81.0000   -70.2191     6.2288     5.9145     8.5452    88.0500     2.4016     0.1824     0.0200
   81.5000   -70.2191     6.2565     6.1140     8.6430    88.7294     2.3949     0.1886     0.0097
   82.0000   -70.2191     6.2842     6.1276     8.7423    86.9115     2.3816     0.1948     0.0092
   82.5000   -70.2191     6.3121     6.1413     8.8403    85.3589     2.3788     0.1949     0.0173
   83.0000   -70.2191     6.3401     6.1551     8.9451    87.2300     2.3844     0.1881     0.0237
   83.5000   -70.2190     6.3683     6.1688     9.0496    91.4100     2.3899     0.1868     0.0253
   84.0000   -70.2181     6.3965     6.1826     9.1532    91.5292     2.3911     0.1873     0.0268
   84.5000   -70.2241     6.4249     6.1964     9.2233    87.6540     2.3925     0.1855     0.0361
   85.0000   -70.3471     6.4562     6.2102     9.2475    87.6835     2.4025     0.1766     0.0435
   85.5000   -70.4700     6.4840     6.2241     9.2726    91.1438     2.4123     0.1720     0.0435
   86.0000   -70.5947     6.5150     6.2380     9.2974    94.2757     2.4191     0.1691     0.0435
   86.5000   -70.6178     6.5461     6.2520     9.2904    94.2630     2.4212     0.1615     0.0435
   87.0000   -70.6179     6.5755     6.2659     9.2812    96.5841     2.4345     0.1513     0.0435
   87.5000   -70.6177     6.6153     6.2810     9.2721    96.4938     2.4477     0.1476     0.0435
   88.0000   -70.6177     6.6533     6.3048     9.2630    94.5711     2.4510     0.1528     0.0435
   88.5000   -70.6169     6.6914     6.3310     9.2360    94.1552     2.4504     0.1508     0.0434
   89.0000   -70.5717     6.7297     6.3572     9.1920    89.6943     2.4535     0.1444     0.0413
   89.5000   -70.4558     6.7683     6.3836     9.1480    88.3530     2.4555     0.1474     0.0348
   90.0000   -70.3400     6.8070     6.4141     9.1047    86.5676     2.4515     0.1499     0.0283
   90.5000   -70.2235     6.8460     6.4725     9.0718    86.6488     2.4501     0.1496     0.0234
   91.0000   -70.2344     6.8853     6.5315     9.0414    92.6954     2.4500     0.1489     0.0235
   91.5000   -70.2567     6.9247     6.5910     9.0109    96.8972     2.4489     0.1500     0.0235
   92.0000   -70.2785     6.9601     6.6510     8.9807   101.2750     2.4451     0.1528     0.0235
   92.5000   -70.3000     6.9903     6.7116     8.9562    96.0691     2.4421     0.1540     0.0235
   93.0000   -70.3216     7.0206     6.7728     8.9281    90.1822     2.4459     0.1514     0.0235
   93.5000   -70.3432     7.0511     6.8344     8.8998    89.8088     2.4523     0.1435     0.0235
   94.0000   -70.3646     7.0817     6.8833     8.8717    88.6751     2.4611     0.1420     0.0233
   94.5000   -70.3862     7.1124     6.8464     8.8437    86.2974     2.4554     0.1491     0.0193
   95.0000   -70.4079     7.1401     6.8159     8.8167    84.5265     2.4500     0.1503     0.0154
   95.5000   -70.5798     7.1400     6.7855     8.7897    84.7110     2.4510     0.1502     0.0116
   96.0000   -70.8911     7.1392     6.7553     8.7594    84.7653     2.4519     0.1491     0.0110
   96.5000   -70.9501     7.1403     6.7259     8.7256    83.3770     2.4506     0.1488     0.0104
   97.0000   -70.7888     7.0558     6.6958     8.6920    83.4678     2.4502     0.1509     0.0099
   97.5000   -70.6292     6.7586     6.5446     8.6583    83.6560     2.4423     0.1569     0.0098
   98.0000   -71.1348     5.3894     6.3201     8.6246    83.2222     2.4287     0.1665     0.0124
   98.5000   -71.6642     4.3727     6.0609     8.5908    82.8705     2.4144     0.1762     0.0148
   99.0000   -71.9003     3.5502     5.7792     8.5670    82.6715     2.4005     0.1858     0.0234
   99.5000   -72.1454     2.8860     5.4553     8.5493    82.5887     2.3859     0.1954     0.0385
  100.0000   -72.3850     2.4915     5.0886     8.5319    85.2782     2.3689     0.2013     0.0620
  100.5000   -72.1584     2.4688     4.5726     8.5166    87.8577     2.3202     0.2297     0.0966
  101.0000   -71.8715     2.4678     4.0490     8.5170    90.5043     2.2557     0.2522     0.0874
  101.5000   -71.5328     2.4686     3.6610     8.5170    97.3609     2.1885     0.2659     0.0896
  102.0000   -71.0589     2.4913     3.3010     8.5165   104.4405     2.1217     0.2796     0.0880
  102.5000   -70.6238     2.7583     3.2348     8.5145   110.6199     2.0882     0.2933     0.0520
  103.0000   -70.6305     3.1525     3.2195     8.5418   110.3010     2.1119     0.3069     0.0324
  103.5000   -69.8173     3.6807     3.3665     8.9377   106.4846     2.1543     0.3126     0.0291
  104.0000   -68.7147     4.3155     3.7520     9.9986   101.9902     2.1967     0.2318     0.0263
  104.5000   -68.0212     6.3196     4.1811     8.5482    97.6741     2.3049     0.1827     0.0280
  105.0000   -68.0284     8.1478     4.6460     9.4178    92.1752     2.3750     0.1798     0.0316
  105.5000   -68.0262    10.0853     5.4193    10.0519    84.3612     2.4003     0.1794     0.0353
  106.0000   -68.0462    10.8797     6.2885     8.6455    76.9734     2.3998     0.1798     0.0375
  106.5000   -68.2169    10.7987     7.1678     8.6844    74.0844     2.3989     0.1802     0.0359
  107.0000   -68.3936    10.4885     7.8173     8.7422    73.9809     2.3981     0.1799     0.0287
  107.5000   -68.4517     9.3796     8.1499     8.7916    73.4719     2.4018     0.1711     0.0217
