~VERSION INFORMATION
 VERS.                2.0:   CWLS LOG ASCII STANDARD - VERSION 2.0
 WRAP.                 NO:   ONE LINE PER DEPTH STEP
~WELL INFORMATION
#MNEM.UNIT      DATA TYPE    INFORMATION
#----------   ------------   ------------------------------
 STRT.F           12.0000:   START DEPTH
 STOP.F          793.0000:   STOP DEPTH
 STEP.F            0.5000:   STEP LENGTH
 NULL.          -999.2500:   NO VALUE
 COMP.   FLUOR DANIEL INC:   COMPANY
 WELL.   35-1-X-10 #35-10:   WELL
 FLD .            WILDCAT:   FIELD
 LOC .      S10 T38N R78W:   LOCATION
 CNTY.            NATRONA:   COUNTY
 STAT.            WYOMING:   STATE
 CTRY. UNITED STATES OF AMERICA:   COUNTRY
 SRVC.      Western Atlas:   SERVICE COMPANY
 DATE.        20-AUG-1996:   LOGDATE
 API .       490252282200:   API NUMBER
~CURVE INFORMATION
#MNEM.UNIT       API CODE    CURVE DESCRIPTION
#----------   ------------   ------------------------------
 DEPT.F                  :   
 RFOC.OHMM   07 220 04 00:   RESISTIVITY FOCUSED LOG
 RILD.OHMM   07 120 46 00:   INDUCTION LOG DEEP RESISTIVITY
 RILM.OHMM   07 120 44 00:   INDUCTION LOG MEDIUM RESISTIVITY
 SPR .MV     07 010 01 00:   SPONTANEOUS POTENTIAL
 CALD.IN     45 280 60 00:   CALIPER FROM DENSITY LOG
 GRD .GAPI   45 310 01 00:   GAMMA RAY FROM DENSITY LOG
 ZCOR.G/C3   45 356 01 00:   DENSITY CORRECTION
 ZDEN.G/C3   45 350 01 00:   BULK DENSITY
 PORZ.DEC    45 890 12 00:   DENSITY POROSITY SANDSTONE
 CNC .DEC    42 890 03 00:   NEUTRON POROSITY SANDSTONE
~PARAMETER INFORMATION
#MNEM.UNIT          VALUE    DESCRIPTION
#----------   ------------   ------------------------------
 PD  .                 GL:   PERMANENT DATUM
 EPD .F              5228:   ELEVATION PERMANENT DATUM
 LMF .                 KB:   LOG MEASURED FROM
 DAPD.F                10:   FEET ABOVE PERMANENT DATUM
 DMF .                 KB:   DRILLING MEASURED FROM
 EKB .F              5238:   KELLING BUSHING
 EGL .F              5228:   GROUND LEVEL
 DATE.        20-AUG-1996:   RUN DATE
 RUN .                  1:   RUN NUMBER
 DD  .F               794:   DEPTH DRILLER
 DL  .F               794:   DEPTH LOGGER
 BLI .F               793:   BOTTOM LOG INTERVAL
 TLI .F                12:   TOP LOG INTERVAL
 CS  .IN           13.375:   CASING SIZE
 CBD .F                58:   CASING BOTTOM DRILLER
 CBL .F                59:   CASING BOTTOM LOGGER
 BS  .IN            12.25:   BIT SIZE
 BSD .F               794:   BIT SIZE AT DEPTH
 DFT .           SPUD MUD:   DRILLING FLUID TYPE
 DFD .                9.2:   DRILLING FLUID DENSITY
 DFV .                 50:   DRILLING FLUID VISCOSITY
 DFPH.                  9:   DRILLING FLUID PH
 DFL .               13.8:   DRILLING FLUID LOSS
 MSS .              CIRC.:   MUD SAMPLE SOURCE
 RMS .OHMM           1.14:   RESISTIVITY MUD SAMPLE
 MST .F                77:   MUD SAMPLE TEMPERATURE
 RMF .OHMM           0.90:   RESISTIVITY MUD FILTRATE SAMPLE
 MFST.F                77:   MUD FILTRATE SAMPLE TEMPERATURE
 RMC .OHMM            1.4:   RESISTIVITY MUD CAKE
 MCST.F                77:   MUD CAKE SAMPLE TEMPERATURE
 MFSS.               CALC:   MUD FILTRATE SAMPLE SOURCE
 MCSS.               CALC:   MUD CAKE SAMPLE SOURCE
 RMB .OHMM            .84:   RESISTIVITY MUD AT BHT
 BHT .F               104:   BOTTOM HOLE TEMPERATURE
 TCS .HRS               3:   TIME CURCULATED STOPPED
 MRT .F               104:   MAXIMUM RECORDED TEMPERATURE
 LUN .            HL-6530:   LOGGING UNIT NUMBER
 LUL .             CASPER:   LOGGING UNIT LOCATION
 ENGI.           BROWNLOW:   RECORDING ENGINEER
 WITN.      SCHULTE/HARDY:   WITNESSED BY
 CLNT.            A2DTECH:   CLIENT CODE
 ORIG.           5" PRINT:   ORIGIN OF DATA
 UWI .       490252282200:   UNIQUE WELL ID
 DICO. A2D Technologies, Inc.:   DIGITIZING COMPANY
~OTHER INFORMATION
~A   DEPT     RFOC       RILD       RILM        SPR       CALD        GRD       ZCOR       ZDEN       PORZ        CNC   
# ...
  246.5000     9.0019    10.8635     9.9269   -13.1827    12.5492    68.8197     0.0280     2.4599     0.1145     0.3986
  247.0000     8.7534    10.6369     9.7225   -13.0285    12.5488    70.0368     0.0296     2.4600     0.1151     0.4047
  247.5000     8.5735    10.4932     9.5885   -13.0256    12.5483    71.2538     0.0296     2.4645     0.1109     0.4086
  248.0000     8.6327    10.4932     9.5885   -13.0227    12.5479    71.5667     0.0297     2.4705     0.1073     0.4098
  248.5000     8.7527    10.5663     9.6553   -13.0197    12.5475    71.8775     0.0343     2.4743     0.1060     0.4107
  249.0000     8.8747    10.6398     9.7901   -13.0161    12.5471    71.8861     0.0388     2.4751     0.1057     0.4128
  249.5000     8.9981    10.6398     9.8583   -13.0132    12.5467    71.2883     0.0434     2.4767     0.1054     0.4176
  250.0000     8.9352    10.6398     9.8631   -13.0036    12.5462    70.6963     0.0465     2.4781     0.1009     0.4279
  250.5000     8.9960    10.6382     9.9255   -12.9565    12.5458    69.7985     0.0465     2.4834     0.1009     0.4333
  251.0000     9.2483    10.6368     9.9932   -12.9094    12.5454    67.0881     0.0420     2.4842     0.1006     0.4327
  251.5000     9.3118    10.4889     9.9225   -12.8593    12.5450    65.5780     0.0405     2.4842     0.0997     0.4292
  252.0000     9.2458    10.3427     9.8527   -12.8593    12.5446    64.9904     0.0405     2.4834     0.0997     0.4279
  252.5000     8.8509    10.1989     9.7157   -12.7080    12.5441    68.0223     0.0466     2.4804     0.1006     0.4339
  253.0000     8.5632    10.1271     9.4486   -12.7080    12.5437    70.4478     0.0541     2.4782     0.1018     0.4372
  253.5000     8.5620    10.1257     9.3169   -12.7080    12.5433    71.3627     0.0587     2.4752     0.1039     0.4363
  254.0000     8.5017    10.1949     9.4458   -12.8593    12.5429    71.0692     0.0466     2.4714     0.1060     0.4305
  254.5000     8.2653    10.1227     9.6431   -12.8593    12.5425    70.4757     0.0359     2.4677     0.1078     0.4284
  255.0000     8.2090    10.1214     9.7766   -12.8593    12.5420    70.1800     0.0240     2.4601     0.1126     0.4251
  255.5000     8.2654    10.0501     9.9118   -12.8593    12.5416    69.5865     0.0179     2.4450     0.1205     0.4103
  256.0000     8.6758     9.9794     9.9102   -12.7080    12.5412    68.9908     0.0210     2.4239     0.1334     0.4025
  256.5000     9.6273     9.8403     9.7048   -12.5567    12.5408    68.0952     0.0529     2.4020     0.1491     0.4015
  257.0000     9.5591     9.7710     9.5699   -12.5567    12.5404    67.7995     0.0648     2.3990     0.1512     0.4018
  257.5000     9.4259     9.6351     9.4357   -12.2542    12.5399    67.5060     0.0452     2.4179     0.1355     0.4009
  258.0000     9.0400     9.5011     9.1771   -12.1029    12.5395    67.2145     0.0301     2.4400     0.1277     0.4075
  258.5000     8.4323     9.3690     9.0495   -11.9516    12.5391    66.3190     0.0255     2.4481     0.1235     0.4202
  259.0000     8.2001     9.3027     8.8620   -11.8003    12.5387    66.9318     0.0316     2.4512     0.1211     0.4223
  259.5000     8.1420     9.2372     8.7996   -11.8003    12.5383    68.4509     0.0362     2.4565     0.1180     0.4142
  260.0000     8.0287     9.1088     8.7984   -11.8003    12.5378    69.1439     0.0407     2.4603     0.1147     0.4018
  260.5000     8.0276     9.0432     8.7362   -11.8003    12.5378    66.6274     0.0438     2.4633     0.1117     0.4003
  261.0000     8.0266     8.9186     8.6147   -11.8003    12.5378    67.2703     0.0455     2.4603     0.1123     0.4150
  261.5000     8.0252     8.9174     8.3779   -11.8003    12.5378    68.7895     0.0468     2.4528     0.1180     0.4315
  262.0000     8.0242     8.9163     8.3768   -11.8003    12.5378    70.0065     0.0468     2.4482     0.1213     0.4452
  262.5000     8.0231     8.9151     8.4340   -11.8003    12.5378    69.4109     0.0469     2.4520     0.1195     0.4440
  263.0000     7.9114     8.9139     8.5504   -11.8003    12.5378    67.3068     0.0454     2.4589     0.1129     0.4310
  263.5000     7.8556     8.9748     8.7290   -11.9516    12.5378    67.0111     0.0378     2.4687     0.1050     0.4292
  264.0000     7.9093     9.0986     8.9114   -11.9516    12.5378    68.8345     0.0318     2.4831     0.0998     0.4280
  264.5000     8.1875     9.1610     9.0347   -11.9516    12.5378    69.7494     0.0288     2.4891     0.0972     0.4237
  265.0000     8.5943     9.2233     9.0963   -11.9516    12.5378    68.5096     0.0348     2.4793     0.1032     0.4133
  265.5000     8.8353     9.2218     8.9076   -11.9516    12.5378    67.0497     0.0470     2.4597     0.1123     0.4047
  266.0000     8.4146     9.2206     8.9064   -11.8003    12.5378    67.3604     0.0757     2.4423     0.1274     0.4101
  266.5000     7.9039     9.2194     8.9672   -11.8003    12.5378    68.2753     0.0878     2.4386     0.1283     0.4318
  267.0000     8.0134     9.2181     8.7811   -11.6490    12.5378    69.8066     0.0787     2.4454     0.1258     0.4357
  267.5000     8.1242     9.1437     8.4807   -11.6490    12.5378    71.3158     0.0621     2.4507     0.1233     0.4276
  268.0000     8.0666     8.9633     8.3628   -11.4977    12.5378    69.2074     0.0606     2.4575     0.1192     0.4270
  268.5000     7.9542     8.7776     8.1895   -11.3464    12.5378    68.9139     0.0652     2.4628     0.1141     0.4354
  269.0000     7.8435     8.3605     8.0198   -11.1952    12.5378    69.8309     0.0652     2.4696     0.1095     0.4258
  269.5000     7.7882     7.7385     7.9080   -10.8926    12.5227    71.9565     0.0590     2.4742     0.1071     0.4414
  270.0000     7.6195     7.1753     7.7442   -10.8926    12.5227    73.4756     0.0456     2.4727     0.1059     0.4843
  270.5000     7.2634     7.0755     7.5313   -10.7413    12.5227    74.3905     0.0380     2.4689     0.1074     0.4752
  271.0000     6.7282     7.0746     7.1711   -10.7413    12.5076    75.3055     0.0532     2.4635     0.1111     0.4732
  271.5000     6.4083     7.1229     6.9761   -10.7413    12.5076    74.0574     0.0547     2.4614     0.1147     0.4891
  272.0000     6.8206     7.2212     6.9751   -10.7413    12.4924    72.3015     0.0472     2.4621     0.1150     0.4655
  272.5000     7.1594     7.2707     7.0230   -10.7413    12.4773    71.4058     0.0472     2.4607     0.1152     0.4691
  273.0000     7.1583     7.3204     7.1199   -10.8926    12.4471    70.5081     0.0472     2.4598     0.1162     0.4779
  273.5000     7.2072     7.4216     7.2184   -11.0439    12.4471    70.2145     0.0517     2.4561     0.1174     0.4800
  274.0000     7.2565     7.5764     7.2677   -11.0439    12.4471    69.9210     0.0578     2.4584     0.1173     0.4784
  274.5000     7.3061     7.6810     7.2665   -11.0439    12.4471    70.5359     0.0442     2.4637     0.1125     0.4742
  275.0000     7.3561     7.6800     7.3164   -11.0439    12.4320    72.3572     0.0397     2.4690     0.1089     0.4628
  275.5000     7.3549     7.7327     7.3690   -11.0439    12.4320    72.6679     0.0427     2.4728     0.1077     0.4606
  276.0000     7.2524     7.7852     7.6247   -11.3464    12.4471    72.3744     0.0477     2.4721     0.1077     0.4633
  276.5000     7.2013     7.8384     7.7305   -11.4977    12.4471    72.9893     0.0609     2.4691     0.1083     0.4672
  277.0000     7.2001     7.8916     7.7292   -11.6490    12.4471    74.2064     0.0579     2.4668     0.1101     0.4690
  277.5000     7.1992     7.9458     7.7820   -11.6490    12.4622    73.6107     0.0413     2.4661     0.1110     0.4663
  278.0000     7.2486     8.0000     7.7807   -11.8003    12.4622    72.1087     0.0352     2.4676     0.1098     0.4602
  278.5000     7.3488     8.1104     7.7797   -11.8003    12.4622    71.8152     0.0337     2.4699     0.1089     0.4512
  279.0000     7.4582     8.1658     7.8330   -11.6490    12.4471    71.5238     0.0353     2.4714     0.1077     0.4413
  279.5000     7.7127     8.2788     7.9414   -11.4977    12.4471    70.9281     0.0353     2.4729     0.1071     0.4434
