~VERSION INFORMATION
 VERS.                2.0:   CWLS LOG ASCII STANDARD - VERSION 2.0
 WRAP.                 NO:   ONE LINE PER DEPTH STEP
~WELL INFORMATION
#MNEM.UNIT      DATA TYPE    INFORMATION
#----------   ------------   ------------------------------
 STRT.F            0.0000:   START DEPTH
 STOP.F          523.0000:   STOP DEPTH
 STEP.F            0.1000:   STEP LENGTH
 NULL.          -999.2500:   NO VALUE
 COMP.       F D SERV INC:   COMPANY
 WELL. NAVAL PETROLEUM RESERVE 3 SX-3 #87-3:   WELL
 FLD .             TEAPOT:   FIELD
 LOC .       S3 T38N R78W:   LOCATION
 CNTY.            NATRONA:   COUNTY
 STAT.            WYOMING:   STATE
 CTRY. UNITED STATES OF AMERICA:   COUNTRY
 SRVC.      Western Atlas:   SERVICE COMPANY
 DATE.        22-NOV-1992:   LOGDATE
 API .       490252254300:   API NUMBER
~CURVE INFORMATION
#MNEM.UNIT       API CODE    CURVE DESCRIPTION
#----------   ------------   ------------------------------
 DEPT.F                  :   
 GRR .GAPI   07 310 01 00:   GAMMA RAY
 RILD.OHMM   07 120 46 00:   INDUCTION LOG DEEP RESISTIVITY
 RILM.OHMM   07 120 44 00:   INDUCTION LOG MEDIUM RESISTIVITY
~PARAMETER INFORMATION
#MNEM.UNIT          VALUE    DESCRIPTION
#----------   ------------   ------------------------------
 PD  .                 GL:   PERMANENT DATUM
 EPD .F              5129:   ELEVATION PERMANENT DATUM
 LMF .                 KB:   LOG MEASURED FROM
 DAPD.F                10:   FEET ABOVE PERMANENT DATUM
 DMF .                 KB:   DRILLING MEASURED FROM
 EKB .F              5139:   KELLING BUSHING
 EDF .F              5138:   DRILLING FLOOR
 EGL .F              5129:   GROUND LEVEL
 DATE.        22-NOV-1992:   RUN DATE
 RUN .                  1:   RUN NUMBER
 DD  .F               530:   DEPTH DRILLER
 DL  .F               531:   DEPTH LOGGER
 BLI .F               530:   BOTTOM LOG INTERVAL
 TLI .F                58:   TOP LOG INTERVAL
 CS  .IN            8.625:   CASING SIZE
 CBD .F                58:   CASING BOTTOM DRILLER
 CBL .F                58:   CASING BOTTOM LOGGER
 BS  .IN            7.875:   BIT SIZE
 BSD .F               530:   BIT SIZE AT DEPTH
 DFT .           AIR FOAM:   DRILLING FLUID TYPE
 MRT .F                73:   MAXIMUM RECORDED TEMPERATURE
 LUN .            HL-6274:   LOGGING UNIT NUMBER
 LUL .             CASPER:   LOGGING UNIT LOCATION
 ENGI.       P. RASMUSSEN:   RECORDING ENGINEER
 WITN.          G. STRONG:   WITNESSED BY
 CLNT.            A2DTECH:   CLIENT CODE
 ORIG.           5" PRINT:   ORIGIN OF DATA
 UWI .       490252254300:   UNIQUE WELL ID
 DICO. A2D Technologies, Inc.:   DIGITIZING COMPANY
~OTHER INFORMATION
~A    DEPT      GRR      RILD       RILM   
# ...
  364.0000   108.6515    18.0908    18.4848
  364.1000   108.4046    18.0895    18.4822
  364.2000   108.1488    18.0883    18.4796
  364.3000   107.4375    18.0871    18.4770
  364.4000   106.5190    18.0858    18.4744
  364.5000   105.4119    18.0845    18.5731
  364.6000   104.2486    18.0833    18.5985
  364.7000   103.2083    18.0820    18.6484
  364.8000   100.2745    18.0808    18.7234
  364.9000    98.6887    18.0795    18.7209
  365.0000    97.2869    18.0783    18.8273
  365.1000    96.4717    18.0829    18.8465
  365.2000    96.0064    18.2019    18.9037
  365.3000    95.7300    18.2009    18.9731
  365.4000    95.7289    18.1996    18.9801
  365.5000    95.7277    18.2361    19.1001
  365.6000    95.8289    18.3245    19.1906
  365.7000    96.1189    18.3229    19.2966
  365.8000    96.6317    18.4158    19.4031
  365.9000    97.3335    18.5191    19.5102
  366.0000    98.0695    18.6230    19.6268
  366.1000    99.0465    18.7501    19.8291
  366.2000   100.3371    18.9659    19.9740
  366.3000   101.7969    19.0704    20.1872
  366.4000   102.7780    19.2595    20.4789
  366.5000   103.7600    19.4775    20.5943
  366.6000   104.4640    19.6977    20.8209
  366.7000   104.7903    19.9204    20.9658
  366.8000   104.7891    20.1845    21.0816
  366.9000   104.7877    20.3743    21.1650
  367.0000   104.7867    20.6049    21.1718
  367.1000   104.7855    20.8380    21.4556
  367.2000   104.7843    21.0737    21.6499
  367.3000   104.6967    21.3342    21.8219
  367.4000   104.1766    21.5536    22.0272
  367.5000   103.2473    21.8819    22.3998
  367.6000   102.0883    22.1983    22.8294
  367.7000   101.2134    22.4494    23.0520
  367.8000   100.7822    22.7069    23.3107
  367.9000   100.5353    22.9605    23.5186
  368.0000   100.2883    23.2205    23.6705
  368.1000   100.0415    23.4833    23.9547
  368.2000    99.9310    23.7092    24.0778
  368.3000    99.9298    23.8336    24.1158
  368.4000    99.9512    23.8315    24.1124
  368.5000   100.2298    23.8301    24.1090
  368.6000   100.6517    23.8285    24.1057
  368.7000   101.2961    23.8771    24.1023
  368.8000   101.8368    23.9920    24.0990
  368.9000   102.0813    23.9899    24.0956
  369.0000   102.3418    23.9884    24.0922
  369.1000   102.3407    23.8947    24.0816
  369.2000   102.3394    23.8185    23.9176
  369.3000   102.3383    23.7874    23.8047
  369.4000   102.2782    23.6499    23.6673
  369.5000   102.0294    23.6482    23.5771
  369.6000   101.5367    23.4449    23.5586
  369.7000   101.0441    23.1793    23.4064
  369.8000   100.4179    22.9167    23.1723
  369.9000    99.8335    22.6569    22.9923
  370.0000    99.5462    22.3582    22.9127
  370.1000    98.6976    22.1468    22.8416
  370.2000    98.4876    21.8960    22.4320
  370.3000    98.2407    21.6478    22.0747
  370.4000    97.9938    21.3851    21.6154
  370.5000    97.7852    20.9921    21.1853
  370.6000    97.7839    20.7752    20.8260
  370.7000    97.7828    20.3830    20.4741
  370.8000    98.1219    19.9752    20.4713
  370.9000    98.4987    19.6127    20.2917
  371.0000    98.8564    19.1678    20.0611
  371.1000    99.5933    18.9528    19.8663
  371.2000    99.8374    18.6581    19.7442
  371.3000   100.2703    18.3426    19.4820
  371.4000   100.6290    18.0930    19.3886
  371.5000   100.8735    17.9895    19.1482
  371.6000   101.1178    17.8702    18.8239
  371.7000   101.4013    17.7005    18.5177
  371.8000   101.6068    17.5602    18.2845
  371.9000   102.0011    17.4598    18.1903
  372.0000   102.4913    17.3599    18.0854
  372.1000   102.9814    17.2525    17.9383
  372.2000   103.5134    17.1621    17.7719
  372.3000   103.7370    17.0641    17.7694
  372.4000   103.9815    16.9231    17.6716
  372.5000   104.2260    16.7523    17.4283
  372.6000   104.4704    16.6561    17.2264
  372.7000   104.7177    16.5615    17.1028
  372.8000   105.2021    16.4669    16.9097
  372.9000   105.6922    16.4222    16.8122
  373.0000   106.3115    16.3651    16.7152
  373.1000   107.1198    16.1861    16.5678
  373.2000   108.1010    16.0790    16.4081
  373.3000   109.2488    16.0780    16.3205
  373.4000   109.4519    16.0215    16.3179
  373.5000   109.6964    15.9300    16.3160
  373.6000   110.2121    15.8388    16.2578
  373.7000   111.1599    15.7410    16.1300
  373.8000   111.9660    15.6582    15.9589
  373.9000   112.4093    15.6297    15.8581
  374.0000   112.8997    15.5880    15.7753
  374.1000   113.2814    15.5190    15.7437
  374.2000   113.5258    15.5179    15.7029
  374.3000   113.7755    15.5168    15.6123
  374.4000   113.7743    15.4485    15.5192
  374.5000   113.7731    15.4069    15.5171
  374.6000   113.6451    15.3792    15.4510
  374.7000   113.3983    15.2978    15.4050
  374.8000   113.1124    15.2966    15.4028
  374.9000   111.9526    15.2957    15.4007
  375.0000   110.9425    15.2416    15.3986
  375.1000   109.4232    15.1874    15.3964
  375.2000   107.8789    15.1731    15.3943
  375.3000   106.5877    15.0798    15.3639
  375.4000   104.6849    15.0002    15.2674
  375.5000   103.1450    14.9145    15.0690
  375.6000   101.9127    14.8293    14.9946
  375.7000   101.2470    14.7639    14.9604
  375.8000   101.0985    14.7626    14.9257
  375.9000   101.3506    14.6784    14.8523
  376.0000   101.8257    14.5945    14.8501
  376.1000   102.8595    14.5111    14.7715
  376.2000   104.0862    14.4534    14.7430
  376.3000   105.1785    14.4459    14.7037
  376.4000   105.9141    14.3509    14.6188
  376.5000   106.7895    14.3501    14.5327
  376.6000   107.3861    14.2990    14.5307
  376.7000   107.9797    14.2485    14.5287
  376.8000   108.2990    14.2474    14.5267
  376.9000   108.2978    14.2464    14.5246
  377.0000   108.2964    14.2455    14.5226
  377.1000   108.0778    14.1886    14.5202
  377.2000   107.9915    14.1446    14.5186
  377.3000   107.6795    14.1437    14.4698
  377.4000   107.0347    14.1427    14.4136
  377.5000   106.7776    14.1416    14.4033
  377.6000   106.3053    14.1406    14.3093
  377.7000   105.8126    14.1397    14.3075
  377.8000   105.3201    14.1387    14.3055
  377.9000   104.8925    14.1377    14.3035
  378.0000   104.6536    14.1366    14.3016
  378.1000   104.6521    14.1358    14.2994
  378.2000   104.6511    14.1348    14.3730
  378.3000   104.6499    14.1652    14.3956
  378.4000   104.7318    14.2318    14.3936
  378.5000   104.9502    14.2305    14.3915
  378.6000   104.9487    14.2296    14.3895
  378.7000   105.1627    14.2286    14.3876
  378.8000   105.2490    14.2276    14.3856
  378.9000   105.2478    14.2460    14.3835
  379.0000   105.2466    14.3251    14.4050
  379.1000   105.2453    14.3241    14.4802
  379.2000   104.7777    14.3231    14.4778
  379.3000   104.2852    14.3221    14.4761
  379.4000   103.5537    14.3211    14.4741
  379.5000   102.5067    14.3201    14.4721
  379.6000   101.2888    14.3190    14.4701
  379.7000   100.5508    14.3878    14.4678
  379.8000   100.0069    14.4172    14.4660
  379.9000    99.6519    14.4162    14.4640
  380.0000    99.7275    14.4152    14.4620
  380.1000   100.5113    14.4141    14.4599
  380.2000   101.9036    14.4132    14.4578
  380.3000   102.9656    14.4122    14.4559
  380.4000   103.7256    14.4112    14.4539
  380.5000   104.0181    14.4102    14.4519
  380.6000   104.0590    14.4092    14.4499
  380.7000   104.3182    14.4082    14.4479
  380.8000   105.0096    14.4072    14.4459
  380.9000   105.7453    14.4062    14.4438
  381.0000   106.4811    14.4052    14.4418
  381.1000   107.1570    14.4042    14.4398
  381.2000   107.6438    14.4030    14.4378
  381.3000   107.8883    14.4022    14.4354
  381.4000   107.9407    14.3501    14.4338
  381.5000   107.9395    14.3002    14.3833
  381.6000   107.9383    14.2992    14.3295
  381.7000   107.9371    14.2981    14.3275
  381.8000   107.9357    14.2972    14.3253
  381.9000   107.9347    14.2962    14.3235
  382.0000   107.7802    14.2952    14.3215
  382.1000   107.7260    14.2942    14.2853
