~VERSION INFORMATION
 VERS.                2.0:   CWLS LOG ASCII STANDARD - VERSION 2.0
 WRAP.                 NO:   ONE LINE PER DEPTH STEP
~WELL INFORMATION
#MNEM.UNIT      DATA TYPE    INFORMATION
#----------   ------------   ------------------------------
 STRT.F           40.0000:   START DEPTH
 STOP.F          950.5000:   STOP DEPTH
 STEP.F            0.5000:   STEP LENGTH
 NULL.          -999.2500:   NO VALUE
 COMP. FENIX & SCISSON INC:   COMPANY
 WELL.       NPR 3 #44-14:   WELL
 FLD .             TEAPOT:   FIELD
 LOC .      S14 T38N R78W:   LOCATION
 CNTY.            NATRONA:   COUNTY
 STAT.            WYOMING:   STATE
 CTRY. UNITED STATES OF AMERICA:   COUNTRY
 SRVC.            Unknown:   SERVICE COMPANY
 DATE.        05-JAN-1979:   LOGDATE
 API .       490251076100:   API NUMBER
~CURVE INFORMATION
#MNEM.UNIT       API CODE    CURVE DESCRIPTION
#----------   ------------   ------------------------------
 DEPT.F                  :   
 SPR .MV     05 010 01 00:   SPONTANEOUS POTENTIAL FROM RES.
 SN  .OHMM   05 040 16 00:   SHORT NORMAL 16"
 IL  .OHMM   05 120 00 00:   INDUCTION LOG
 CALD.IN     45 280 60 00:   CALIPER
 GRD .GAPI   45 310 01 00:   GAMMA RAY FROM DENSITY LOG
 RHOB.G/C3   45 350 01 00:   BULK DENSITY
 DPHI.DEC    45 890 12 00:   DENSITY POROSITY SANDSTONE
 CORR.G/C3   45 356 01 00:   DENSITY CORRECTION
~PARAMETER INFORMATION
#MNEM.UNIT          VALUE    DESCRIPTION
#----------   ------------   ------------------------------
 PD  .                 GL:   PERMANENT DATUM
 EPD .F              5266:   ELEVATION PERMANENT DATUM
 LMF .                 KB:   LOG MEASURED FROM
 DAPD.F                 4:   FEET ABOVE PERMANENT DATUM
 DMF .                 KB:   DRILLING MEASURED FROM
 EKB .F              5270:   KELLING BUSHING
 EGL .F              5266:   GROUND LEVEL
 DATE.             1-5-79:   RUN DATE
 RUN .                  1:   RUN NUMBER
 DD  .F               950:   DEPTH DRILLER
 DL  .F               943:   DEPTH LOGGER
 BLI .F               937:   BOTTOM LOG INTERVAL
 TLI .F                40:   TOP LOG INTERVAL
 CS  .IN            8.625:   CASING SIZE
 CBL .F                40:   CASING BOTTOM LOGGER
 BS  .IN            7.875:   BIT SIZE
 BSD .F               950:   BIT SIZE AT DEPTH
 DFT .                KCL:   DRILLING FLUID TYPE
 DFV .                 42:   DRILLING FLUID VISCOSITY
 DFL .               10.5:   DRILLING FLUID LOSS
 MSS .           FLOWLINE:   MUD SAMPLE SOURCE
 RMS .OHMM            .23:   RESISTIVITY MUD SAMPLE
 RMF .OHMM            .23:   RESISTIVITY MUD FILTRATE SAMPLE
 RMC .OHMM             .2:   RESISTIVITY MUD CAKE
 MFSS.           MEASURED:   MUD FILTRATE SAMPLE SOURCE
 MCSS.           MEASURED:   MUD CAKE SAMPLE SOURCE
 RMB .OHMM             .2:   RESISTIVITY MUD AT BHT
 BHT .F                70:   BOTTOM HOLE TEMPERATURE
 TCS .HRS               5:   TIME CURCULATED STOPPED
 MRT .F                70:   MAXIMUM RECORDED TEMPERATURE
 LUL .             CASPER:   LOGGING UNIT LOCATION
 ENGI.             MILLER:   RECORDING ENGINEER
 WITN.           DINSMORE:   WITNESSED BY
 CLNT.            A2DTECH:   CLIENT CODE
 ORIG.           5" PRINT:   ORIGIN OF DATA
 UWI .       490251076100:   UNIQUE WELL ID
 DICO. A2D Technologies, Inc.:   DIGITIZING COMPANY
~OTHER INFORMATION
~A   DEPT      SPR           SN         IL     CALD        GRD       RHOB       DPHI       CORR   
# ...
  566.5000   -33.7680     8.2050     8.7360     7.9020   106.4650     2.4800     0.1250     0.0040
  567.0000   -33.4870     8.2930     8.8900     7.9010   107.1080     2.4680     0.1320    -0.0030
  567.5000   -33.2030     8.3810     9.0430     7.8970   108.9660     2.4640     0.1310    -0.0010
  568.0000   -32.9100     8.4690     9.1970     7.8810   109.6120     2.4700     0.1290     0.0030
  568.5000   -33.0050     8.5580     9.3510     7.8650   106.2630     2.4770     0.1270     0.0040
  569.0000   -33.2200     8.6460     9.5050     7.8500   102.6140     2.4720     0.1330     0.0000
  569.5000   -33.4390     8.7340     9.6580     7.8340   100.6830     2.4630     0.1360    -0.0040
  570.0000   -33.6540     8.8220     9.8120     7.8190   104.5540     2.4540     0.1370    -0.0080
  570.5000   -33.7420     8.9100    10.0030     7.8030   111.8950     2.4570     0.1340     0.0000
  571.0000   -33.3490     8.9980    10.1990     7.7880   113.0270     2.4690     0.1280     0.0070
  571.5000   -33.0950     9.0860    10.3960     7.7730   108.8010     2.4810     0.1240     0.0140
  572.0000   -33.4150     9.1740    10.5920     7.7590   105.2760     2.4830     0.1230     0.0110
  572.5000   -33.2850     9.2620    10.7890     7.7450   107.1470     2.4850     0.1220     0.0090
  573.0000   -33.1320     9.3500    10.9850     7.7310   106.3090     2.4920     0.1190     0.0070
  573.5000   -32.9630     9.4380    11.1820     7.7170   102.0040     2.4940     0.1180     0.0050
  574.0000   -32.7220     9.4790    11.3790     7.7040    95.3630     2.4840     0.1230     0.0030
  574.5000   -32.4890     9.4390    11.5750     7.7470    92.1250     2.4760     0.1270     0.0020
  575.0000   -32.2570     9.4100    11.7250     7.7940    97.0810     2.4720     0.1300     0.0030
  575.5000   -32.0290     9.3800    11.7700     7.8410   100.2230     2.4710     0.1340     0.0030
  576.0000   -31.9160     9.3510    11.8200     7.8890    99.5570     2.4600     0.1400     0.0030
  576.5000   -32.1910     9.3210    11.7380     7.9360   101.5640     2.4500     0.1430     0.0040
  577.0000   -32.4440     9.2920    11.6130     7.9840   101.5410     2.4620     0.1400     0.0120
  577.5000   -32.5530     9.2620    11.4890     8.0010   100.5210     2.4740     0.1330     0.0240
  578.0000   -32.5790     9.2330    11.3650     7.9960   100.2870     2.4860     0.1270     0.0360
  578.5000   -32.2790     9.2030    11.2400     7.9850   101.1570     2.4860     0.1240     0.0380
  579.0000   -32.0010     9.1740    11.1160     7.9740    98.3130     2.4810     0.1270     0.0360
  579.5000   -31.7180     9.1440    10.9920     7.9620    95.2690     2.4770     0.1310     0.0350
  580.0000   -31.7390     9.1150    10.8670     7.9510    93.9770     2.4720     0.1350     0.0280
  580.5000   -31.8400     9.0850    10.7430     7.9390    96.2960     2.4650     0.1400     0.0190
  581.0000   -31.9430     9.0530    10.6510     7.9280    98.8050     2.4590     0.1400     0.0270
  581.5000   -32.0470     9.0160    10.5880     7.9170   101.3390     2.4620     0.1370     0.0380
  582.0000   -32.1530     8.9760    10.5260     7.9050   102.3250     2.4700     0.1300     0.0490
  582.5000   -32.2280     8.9350    10.4640     7.8870    99.2740     2.4780     0.1230     0.0580
  583.0000   -31.7450     8.8950    10.4020     7.8650   100.2400     2.4820     0.1290     0.0510
  583.5000   -31.4630     8.8540    10.3400     7.8420   102.1230     2.4690     0.1350     0.0380
  584.0000   -31.7770     8.8140    10.2780     7.8200   100.2290     2.4550     0.1400     0.0240
  584.5000   -32.4110     8.7730    10.2160     7.7980    97.2530     2.4540     0.1420     0.0160
  585.0000   -32.8150     8.7330    10.1530     7.7760    98.9610     2.4560     0.1420     0.0130
  585.5000   -33.2150     8.6920    10.0910     7.7670    93.8060     2.4580     0.1410     0.0100
  586.0000   -33.1800     8.6520    10.0290     7.7810    89.3000     2.4600     0.1390     0.0080
  586.5000   -33.1220     8.6120     9.9670     7.7950    84.7680     2.4600     0.1390     0.0070
  587.0000   -33.0650     8.5710     9.9040     7.8090    84.7790     2.4570     0.1410     0.0060
  587.5000   -32.9470     8.5310     9.8390     7.8230    89.5300     2.4540     0.1430     0.0070
  588.0000   -32.7700     8.4900     9.7740     7.8380    94.7560     2.4510     0.1450     0.0070
  588.5000   -32.5890     8.4500     9.7100     7.8420    99.9240     2.4500     0.1460     0.0080
  589.0000   -32.3860     8.4090     9.6450     7.8420   100.1720     2.4510     0.1470     0.0090
  589.5000   -32.1840     8.3690     9.5800     7.8420    98.0980     2.4520     0.1450     0.0090
  590.0000   -31.9840     8.3280     9.5150     7.8420    95.8270     2.4460     0.1480     0.0100
  590.5000   -31.7840     8.2880     9.4510     7.8420    97.5250     2.4380     0.1540     0.0080
  591.0000   -31.6980     8.2470     9.3860     7.8420    99.5140     2.4310     0.1580     0.0050
  591.5000   -31.7980     8.2070     9.3210     7.8420    96.8690     2.4270     0.1590     0.0040
  592.0000   -32.1190     8.1670     9.2560     7.8420    93.9970     2.4250     0.1600     0.0040
  592.5000   -32.8810     8.1260     9.1910     7.8420    91.6410     2.4250     0.1590     0.0040
  593.0000   -33.1910     8.0860     9.1270     7.8420    91.2330     2.4260     0.1560     0.0060
  593.5000   -33.1160     8.0450     9.0620     7.8420    93.5120     2.4340     0.1510     0.0080
  594.0000   -33.0440     8.0050     8.9970     7.8420    93.7800     2.4430     0.1470     0.0090
  594.5000   -32.9720     7.9640     8.9320     7.8420    94.3400     2.4530     0.1420     0.0110
  595.0000   -32.9010     7.9240     8.8670     7.8420    94.9890     2.4660     0.1370     0.0090
  595.5000   -32.9490     7.8830     8.8030     7.8390    93.4640     2.4590     0.1440     0.0050
  596.0000   -33.4500     7.8430     8.7380     7.8350    93.5270     2.4410     0.1540     0.0010
  596.5000   -33.4980     7.8020     8.6730     7.8310    88.8480     2.4270     0.1530    -0.0020
  597.0000   -33.2970     7.7620     8.6080     7.8270    92.9690     2.4290     0.1530    -0.0020
  597.5000   -33.0920     7.7220     8.5440     7.8230    98.8780     2.4400     0.1530     0.0040
  598.0000   -32.8760     7.6810     8.4790     7.8130    98.6770     2.4430     0.1510     0.0100
  598.5000   -33.1550     7.6710     8.4110     7.8030    96.0540     2.4420     0.1510     0.0140
  599.0000   -33.3520     7.6890     8.3890     7.8050    93.8360     2.4410     0.1540     0.0110
  599.5000   -33.0550     7.7070     8.3670     7.8090    96.4790     2.4390     0.1560     0.0080
  600.0000   -33.2570     7.7260     8.3450     7.8120    99.9070     2.4330     0.1590     0.0050
  600.5000   -33.5010     7.7420     8.3230     7.8150   101.6410     2.4210     0.1630     0.0040
  601.0000   -33.7450     7.6020     8.3010     7.8180   101.7990     2.4160     0.1660     0.0100
  601.5000   -33.9920     7.5230     8.2790     7.8270   100.6460     2.4400     0.1480     0.0190
  602.0000   -33.8470     7.4440     8.2570     7.9380   101.0420     2.4430     0.1500     0.0180
  602.5000   -33.6450     7.3650     8.0540     7.9460   101.4700     2.4350     0.1540     0.0100
  603.0000   -33.4390     7.2860     7.8570     7.9510   101.5040     2.4490     0.1380     0.0110
  603.5000   -33.2550     7.2070     7.6610     7.9560   100.8170     2.4600     0.1410     0.0140
  604.0000   -33.6700     7.1280     7.4650     7.9600   100.2050     2.4490     0.1460     0.0140
  604.5000   -34.1280     7.0490     7.2600     7.9580    97.8020     2.4370     0.1510     0.0090
  605.0000   -33.9040     6.9970     7.1930     7.9540    98.9810     2.4320     0.1550     0.0050
  605.5000   -33.6540     7.0190     7.2570     7.9500    99.0920     2.4320     0.1560     0.0010
  606.0000   -33.7710     7.0360     7.3140     7.9460    96.0720     2.4310     0.1570    -0.0030
  606.5000   -33.5590     7.0520     7.3700     7.9420    98.3720     2.4290     0.1560    -0.0050
