~VERSION INFORMATION
 VERS.                2.0:   CWLS LOG ASCII STANDARD - VERSION 2.0
 WRAP.                 NO:   ONE LINE PER DEPTH STEP
~WELL INFORMATION
#MNEM.UNIT      DATA TYPE    INFORMATION
#----------   ------------   ------------------------------
 STRT.F           16.5000:   START DEPTH
 STOP.F          640.0000:   STOP DEPTH
 STEP.F            0.5000:   STEP LENGTH
 NULL.          -999.2500:   NO VALUE
 COMP. FENIX & SCISSON INC:   COMPANY
 WELL.     11 SX 14 #3-14:   WELL
 FLD .             TEAPOT:   FIELD
 LOC .      S14 T38N R78W:   LOCATION
 CNTY.            NATRONA:   COUNTY
 STAT.            WYOMING:   STATE
 CTRY. UNITED STATES OF AMERICA:   COUNTRY
 SRVC.            Unknown:   SERVICE COMPANY
 DATE.        18-DEC-1978:   LOGDATE
 API .       490251075700:   API NUMBER
~CURVE INFORMATION
#MNEM.UNIT       API CODE    CURVE DESCRIPTION
#----------   ------------   ------------------------------
 DEPT.F                  :   
 SPR .MV     05 010 01 00:   SPONTANEOUS POTENTIAL FROM RES.
 SN  .OHMM   05 040 16 00:   SHORT NORMAL 16"
 IL  .OHMM   05 120 00 00:   INDUCTION LOG
 GRD .GAPI   45 310 01 00:   GAMMA RAY FROM DENSITY LOG
 CALD.IN     45 280 60 00:   CALIPER
 RHOB.G/C3   45 350 01 00:   BULK DENSITY
 DPHI.DEC    45 890 12 00:   DENSITY POROSITY SANDSTONE
 CORR.G/C3   45 356 01 00:   DENSITY CORRECTION
~PARAMETER INFORMATION
#MNEM.UNIT          VALUE    DESCRIPTION
#----------   ------------   ------------------------------
 PD  .                 GL:   PERMANENT DATUM
 EPD .F              5217:   ELEVATION PERMANENT DATUM
 LMF .                 KB:   LOG MEASURED FROM
 DAPD.F                 4:   FEET ABOVE PERMANENT DATUM
 DMF .                 KB:   DRILLING MEASURED FROM
 EKB .F              5221:   KELLING BUSHING
 EGL .F              5217:   GROUND LEVEL
 DATE.           12-18-78:   RUN DATE
 RUN .                  1:   RUN NUMBER
 DD  .F               653:   DEPTH DRILLER
 DL  .F               640:   DEPTH LOGGER
 BLI .F               634:   BOTTOM LOG INTERVAL
 TLI .F                32:   TOP LOG INTERVAL
 CS  .IN            8.625:   CASING SIZE
 CBD .F                40:   CASING BOTTOM DRILLER
 CBL .F                30:   CASING BOTTOM LOGGER
 BS  .IN            7.875:   BIT SIZE
 BSD .F               653:   BIT SIZE AT DEPTH
 DFT .                KCL:   DRILLING FLUID TYPE
 DFD .                8.3:   DRILLING FLUID DENSITY
 DFV .                 36:   DRILLING FLUID VISCOSITY
 DFPH.               12.5:   DRILLING FLUID PH
 DFL .               12.3:   DRILLING FLUID LOSS
 MSS .           FLOWLINE:   MUD SAMPLE SOURCE
 MST .F                56:   MUD SAMPLE TEMPERATURE
 RMF .OHMM            .44:   RESISTIVITY MUD FILTRATE SAMPLE
 MFST.F                58:   MUD FILTRATE SAMPLE TEMPERATURE
 RMC .OHMM            .58:   RESISTIVITY MUD CAKE
 MCST.F                66:   MUD CAKE SAMPLE TEMPERATURE
 MFSS.           MEASURED:   MUD FILTRATE SAMPLE SOURCE
 MCSS.           MEASURED:   MUD CAKE SAMPLE SOURCE
 BHT .F                58:   BOTTOM HOLE TEMPERATURE
 TCS .HRS               4:   TIME CURCULATED STOPPED
 MRT .F                58:   MAXIMUM RECORDED TEMPERATURE
 LUL .             CASPER:   LOGGING UNIT LOCATION
 ENGI.         B. ROLLINS:   RECORDING ENGINEER
 WITN.              AMEND:   WITNESSED BY
 CLNT.            A2DTECH:   CLIENT CODE
 ORIG.           5" PRINT:   ORIGIN OF DATA
 UWI .       490251075700:   UNIQUE WELL ID
 DICO. A2D Technologies, Inc.:   DIGITIZING COMPANY
~OTHER INFORMATION
~A   DEPT      SPR         SN         IL         GRD      CALD       RHOB       DPHI       CORR   
# ...
  421.5000   -30.6750     8.3300     7.0510   117.7400     7.6440     2.4960     0.1150     0.0350
  422.0000   -30.4940     8.3300     6.9020   116.4260     7.6440     2.4970     0.1110     0.0340
  422.5000   -30.3140     8.2120     6.7540   115.5280     7.6440     2.5020     0.1070     0.0330
  423.0000   -30.1340     8.0190     6.6060   116.0180     7.6450     2.5070     0.1070     0.0330
  423.5000   -29.9540     7.8250     6.4940   116.4310     7.6730     2.5070     0.1090     0.0320
  424.0000   -29.7750     7.6320     6.5830   116.3360     7.7000     2.5040     0.1110     0.0320
  424.5000   -29.5950     7.4380     6.6770   116.2330     7.7280     2.5000     0.1180     0.0320
  425.0000   -29.6410     7.2450     6.4740   116.1330     7.7550     2.4900     0.1320     0.0330
  425.5000   -29.9240     7.1410     6.1790   116.0530     7.7830     2.4770     0.1330     0.0370
  426.0000   -30.2050     7.0740     5.9220   116.2000     7.8000     2.4650     0.1270     0.0450
  426.5000   -30.4870     7.0080     5.9220   116.3460     7.7930     2.4720     0.1070     0.0530
  427.0000   -30.5010     6.8110     5.9220   116.4920     7.7870     2.4910     0.1020     0.0530
  427.5000   -30.5000     6.5700     5.9220   116.6100     7.8000     2.5000     0.1100     0.0480
  428.0000   -30.5000     6.3540     5.9220   115.6770     7.8610     2.5010     0.1220     0.0430
  428.5000   -30.5010     6.2420     5.9220   115.3820     7.9200     2.4830     0.1400     0.0380
  429.0000   -30.4870     6.1020     5.9220   115.2900     7.9810     2.4550     0.1590     0.0390
  429.5000   -30.1690     6.2920     6.0570   114.3920     8.1120     2.4280     0.1700     0.0460
  430.0000   -29.8450     6.6130     6.2770   113.4890     8.2490     2.3970     0.1640     0.0530
  430.5000   -29.5210     6.9330     6.5690   113.6520     8.3090     2.4100     0.1470     0.0590
  431.0000   -29.1930     7.2540     6.8610   113.2110     8.1020     2.4410     0.1310     0.0590
  431.5000   -28.8990     7.6670     7.1220   112.9850     7.8180     2.4710     0.1180     0.0580
  432.0000   -28.6060     7.6590     7.1220   113.2990     7.7750     2.4980     0.1060     0.0560
  432.5000   -28.3170     7.6480     7.0880   113.6170     7.8700     2.4970     0.1180     0.0560
  433.0000   -28.4590     7.6370     6.8450   113.2430     8.0030     2.4920     0.1180     0.0570
  433.5000   -28.6270     7.6270     6.4270   112.4270     8.0680     2.4900     0.1170     0.0630
  434.0000   -28.7960     7.6160     5.9580   111.4200     7.9460     2.4950     0.1140     0.0700
  434.5000   -28.8990     7.6050     5.8560   109.6890     7.7320     2.4990     0.1130     0.0770
  435.0000   -28.8970     7.4950     5.7540   107.9850     7.7760     2.5000     0.1120     0.0840
  435.5000   -28.8950     7.0280     5.6560   106.7820     7.8350     2.5010     0.1120     0.0920
  436.0000   -28.8940     6.5610     5.7210   107.2760     7.8920     2.5020     0.1160     0.0980
  436.5000   -28.4630     6.0380     5.7850   107.6740     7.7790     2.4990     0.1290     0.0900
  437.0000   -27.5140     6.0740     5.8480   107.3620     7.7300     2.4920     0.1460     0.0790
  437.5000   -26.5680     6.3600     6.1460   107.0540     7.6930     2.4570     0.1630     0.0760
  438.0000   -25.9510     6.7600     6.5500   106.7610     7.6870     2.4130     0.1610     0.0830
  438.5000   -25.6530     7.1630     6.9540   107.9760     7.6910     2.4200     0.1460     0.1050
  439.0000   -25.3540     7.5670     7.3580   111.8800     7.6960     2.4480     0.1290     0.1220
  439.5000   -25.0500     7.8160     7.5780   114.7310     7.7000     2.4760     0.1140     0.1350
  440.0000   -24.7890     8.0140     7.7390   114.1780     7.6620     2.5050     0.1000     0.1390
  440.5000   -24.5350     8.2120     7.9000   113.2880     7.5880     2.5190     0.0860     0.1400
  441.0000   -24.7560     8.4100     8.0610   113.8560     7.5960     2.5320     0.0880     0.1290
  441.5000   -26.8280     8.6080     8.2210   114.9710     7.6260     2.5410     0.0920     0.1110
  442.0000   -27.0540     8.8060     8.3820   114.1430     7.7370     2.5370     0.0950     0.0890
  442.5000   -26.7700     9.0040     8.5430   111.9220     7.8680     2.5280     0.0950     0.0750
  443.0000   -26.5050     9.2020     8.7030   109.9030     7.5970     2.5270     0.0960     0.0670
  443.5000   -26.2410     9.3140     8.7360   110.0720     7.5840     2.5260     0.1010     0.0570
  444.0000   -25.9570     9.3320     8.7510   111.0400     7.6400     2.5180     0.1070     0.0460
  444.5000   -26.4350     9.3510     8.7660   110.9810     7.7040     2.5080     0.1120     0.0380
  445.0000   -27.1670     9.3700     8.7800   110.9010     7.6950     2.5020     0.1130     0.0360
  445.5000   -27.4950     9.3880     8.7950   109.6120     7.7840     2.4980     0.1140     0.0360
  446.0000   -27.5210     9.4070     8.8100   105.2460     8.0630     2.4970     0.1180     0.0370
  446.5000   -28.2620     9.4250     8.8250   101.3210     7.7860     2.4930     0.1140     0.0370
  447.0000   -29.0450     9.4440     8.8390    99.5920     7.7240     2.4920     0.1070     0.0370
  447.5000   -30.4220     9.4630     8.8540   100.5100     8.2170     2.5060     0.1000     0.0370
  448.0000   -32.7080     9.4810     8.8690   102.5300     8.0040     2.5200     0.0940     0.0370
  448.5000   -34.0350     9.5000     8.8840   103.1340     7.7340     2.5200     0.1020     0.0370
  449.0000   -34.8820     9.5190     8.8980   103.1590     7.7110     2.5170     0.1040     0.0370
  449.5000   -36.2850     9.5370     8.9130   103.1930     7.6980     2.5150     0.1050     0.0370
  450.0000   -39.7160     9.5560     8.9280   103.2270     7.6840     2.5130     0.1050     0.0370
  450.5000   -44.5990     9.5740     8.9430   103.2570     7.6700     2.5110     0.1030     0.0370
  451.0000   -49.4930     9.5930     8.9580   103.2870     7.6770     2.5130     0.1030     0.0370
  451.5000   -54.3700     9.6120     8.9680   103.3130     7.7020     2.5150     0.1020     0.0360
  452.0000   -56.1690     9.6300     8.5300   103.1590     7.7270     2.5180     0.0990     0.0360
  452.5000   -54.8430     9.6540     8.1360   102.1490     7.7530     2.5210     0.0930     0.0360
  453.0000   -82.9200     9.5490     7.7420   101.1190     7.7830     2.5260     0.0910     0.0360
  453.5000   -98.5830     9.4040     7.3480   101.1930     7.8400     2.5330     0.0920     0.0360
  454.0000  -999.2500     9.2580     6.9270   102.2620     7.9000     2.5330     0.0960     0.0360
  454.5000  -999.2500     8.8620     6.9270   103.0350     7.9250     2.5260     0.1020     0.0360
  455.0000  -999.2500     8.1930     6.9270   101.3840     7.9330     2.5190     0.1130     0.0360
  455.5000  -999.2500     7.5250     6.9270   100.0040     7.9460     2.5070     0.1280     0.0360
  456.0000  -999.2500     6.8560     6.9270    99.8170     8.0560     2.4920     0.1590     0.0370
  456.5000  -999.2500     6.4940     6.9270   100.8270     8.2500     2.4430     0.1920     0.0390
  457.0000  -999.2500     6.9800     7.0910   103.9290     7.9280     2.3930     0.1920     0.0470
  457.5000  -999.2500     7.8350     8.1430   108.2160     7.8740     2.3500     0.1630     0.0600
  458.0000  -999.2500     8.6910     9.1940   110.3580     7.9080     2.4000     0.1240     0.0580
  458.5000  -999.2500     9.5460    10.2460   110.6540     7.9200     2.4590     0.0930     0.0460
  459.0000  -999.2500    10.3190    10.7110   110.2830     7.7910     2.5160     0.0920     0.0440
  459.5000  -999.2500    10.5270    10.9990   100.0370     7.6670     2.5300     0.0920     0.0440
  460.0000  -999.2500    10.5770    11.2920    94.7010     7.6570     2.5330     0.0920     0.0440
  460.5000  -999.2500    10.6260    11.3120    94.8710     7.6510     2.5320     0.0920     0.0440
  461.0000  -999.2500    10.6750    11.3320    97.9660     7.6440     2.5320     0.0920     0.0450
  461.5000  -999.2500    10.7240    11.3520   100.1930     7.6570     2.5320     0.0960     0.0450
