~VERSION INFORMATION
 VERS.                2.0:   CWLS LOG ASCII STANDARD - VERSION 2.0
 WRAP.                 NO:   ONE LINE PER DEPTH STEP
~WELL INFORMATION
#MNEM.UNIT      DATA TYPE    INFORMATION
#----------   ------------   ------------------------------
 STRT.F           19.5000:   START DEPTH
 STOP.F          690.5000:   STOP DEPTH
 STEP.F            0.5000:   STEP LENGTH
 NULL.          -999.2500:   NO VALUE
 COMP. FENIX & SCISSON INC:   COMPANY
 WELL. 37-22 SX 11 WI #3-11:   WELL
 FLD .             TEAPOT:   FIELD
 LOC .      S11 T38N R78W:   LOCATION
 CNTY.            NATRONA:   COUNTY
 STAT.            WYOMING:   STATE
 CTRY. UNITED STATES OF AMERICA:   COUNTRY
 SRVC.      Dresser Atlas:   SERVICE COMPANY
 DATE.        11-AUG-1980:   LOGDATE
 API .       490251084400:   API NUMBER
~CURVE INFORMATION
#MNEM.UNIT       API CODE    CURVE DESCRIPTION
#----------   ------------   ------------------------------
 DEPT.F                  :   
 SPR .MV     07 010 01 00:   SPONTANEOUS POTENTIAL
 SFL .OHMM   07 220 01 00:   SHALLOW FOCUSED LOG RESISTIVITY
 ILD .OHMM   07 120 46 00:   INDUCTION LOG DEEP
 ILM .OHMM   07 120 44 00:   INDUCTION LOG MEDIUM
 GRD .GAPI   45 310 01 00:   GAMMA RAY FROM DENSITY LOG
 CALD.IN     45 280 60 00:   CALIPER
 CORR.G/C3   45 356 01 00:   DENSITY CORRECTION
 RHOB.G/C3   45 350 01 00:   BULK DENSITY
 NPHI.DEC    42 890 12 00:   NEUTRON POROSITY SANDSTONE
 DPHI.DEC    45 890 12 00:   DENSITY POROSITY SANDSTONE
~PARAMETER INFORMATION
#MNEM.UNIT          VALUE    DESCRIPTION
#----------   ------------   ------------------------------
 PD  .                 GL:   PERMANENT DATUM
 EPD .F              5191:   ELEVATION PERMANENT DATUM
 LMF .                 KB:   LOG MEASURED FROM
 DAPD.F                 5:   FEET ABOVE PERMANENT DATUM
 DMF .                 KB:   DRILLING MEASURED FROM
 EKB .F              5196:   KELLING BUSHING
 EGL .F              5191:   GROUND LEVEL
 DATE.            8-11-80:   RUN DATE
 RUN .                  1:   RUN NUMBER
 DD  .F               680:   DEPTH DRILLER
 DL  .F               689:   DEPTH LOGGER
 BLI .F               687:   BOTTOM LOG INTERVAL
 TLI .F                20:   TOP LOG INTERVAL
 CS  .IN            8.625:   CASING SIZE
 BS  .IN            7.875:   BIT SIZE
 BSD .F               680:   BIT SIZE AT DEPTH
 DFT .           CHEM GEL:   DRILLING FLUID TYPE
 DFD .                9.9:   DRILLING FLUID DENSITY
 DFV .                 52:   DRILLING FLUID VISCOSITY
 DFPH.               11.5:   DRILLING FLUID PH
 DFL .                104:   DRILLING FLUID LOSS
 MSS .           FLOWLINE:   MUD SAMPLE SOURCE
 RMS .OHMM             .2:   RESISTIVITY MUD SAMPLE
 MST .F                74:   MUD SAMPLE TEMPERATURE
 RMF .OHMM            .15:   RESISTIVITY MUD FILTRATE SAMPLE
 MFST.F                74:   MUD FILTRATE SAMPLE TEMPERATURE
 RMC .OHMM            .25:   RESISTIVITY MUD CAKE
 MCST.F                74:   MUD CAKE SAMPLE TEMPERATURE
 MFSS.               CALC:   MUD FILTRATE SAMPLE SOURCE
 MCSS.               CALC:   MUD CAKE SAMPLE SOURCE
 TCS .HRS               3:   TIME CURCULATED STOPPED
 LUN .             HL6150:   LOGGING UNIT NUMBER
 LUL .                 FM:   LOGGING UNIT LOCATION
 ENGI.            BRANNEY:   RECORDING ENGINEER
 WITN.           MCINTYRE:   WITNESSED BY
 CLNT.            A2DTECH:   CLIENT CODE
 ORIG.           5" PRINT:   ORIGIN OF DATA
 UWI .       490251084400:   UNIQUE WELL ID
 DICO. A2D Technologies, Inc.:   DIGITIZING COMPANY
~OTHER INFORMATION
~A   DEPT      SPR        SFL        ILD        ILM        GRD       CALD       CORR       RHOB       NPHI       DPHI   
# ...
  287.5000   -56.0510     8.3810     7.5140     6.6890   115.9600     7.9740     0.0150     2.4680     0.2650     0.1290
  288.0000   -55.9400     8.3750     7.5140     6.6810   118.1270     7.9760     0.0100     2.4770     0.2710     0.1230
  288.5000   -55.8280     8.3690     7.5140     6.6730   119.6360     7.9790     0.0330     2.4930     0.2740     0.1090
  289.0000   -55.7170     8.3620     7.5140     6.6660   119.6980     7.9810     0.0450     2.5090     0.2760     0.1110
  289.5000   -55.6060     8.3560     7.5140     6.6580   122.0640     7.9830     0.0240     2.5010     0.2730     0.1140
  290.0000   -55.4940     8.3490     7.5140     6.6500   123.0030     7.9860     0.0330     2.4910     0.2690     0.1180
  290.5000   -55.3820     8.3430     7.5140     6.6430   120.2830     7.9880     0.0320     2.4810     0.2700     0.1210
  291.0000   -55.2730     8.3360     7.5140     6.6350   121.2360     7.9910     0.0210     2.4760     0.2730     0.1240
  291.5000   -55.3670     8.3300     7.5140     6.6280   119.5450     7.9930     0.0180     2.4810     0.2650     0.1220
  292.0000   -55.4890     8.3230     7.5140     6.6200   118.2650     7.9950     0.0270     2.4860     0.2540     0.1200
  292.5000   -55.6110     8.3170     7.5140     6.6120   117.7350     7.9980     0.0320     2.4910     0.2560     0.1180
  293.0000   -55.7340     8.3110     7.5140     6.6050   120.3000     8.0000     0.0340     2.4960     0.2630     0.1160
  293.5000   -55.8560     8.3040     7.5140     6.5970   120.2320     8.0020     0.0360     2.5010     0.2530     0.1120
  294.0000   -55.9780     8.2980     7.5140     6.5890   119.0820     8.0050     0.0380     2.5070     0.2550     0.1070
  294.5000   -56.1010     8.2910     7.5140     6.5820   122.3460     8.0070     0.0400     2.5040     0.2610     0.1100
  295.0000   -56.2250     8.2850     7.5140     6.5740   121.1920     8.0090     0.0400     2.4980     0.2650     0.1120
  295.5000   -56.2740     8.2780     7.5140     6.5660   123.3610     8.0120     0.0390     2.4970     0.2600     0.1120
  296.0000   -56.3160     8.2720     7.5140     6.5590   120.2880     8.0140     0.0380     2.5010     0.2530     0.1120
  296.5000   -56.3570     8.2650     7.5140     6.5510   119.9360     8.0160     0.0420     2.5040     0.2680     0.1100
  297.0000   -56.4010     8.2590     7.5140     6.5440   120.3010     8.0170     0.0450     2.5080     0.2660     0.1070
  297.5000   -56.4540     8.2530     7.5140     6.5360   121.1470     8.0200     0.0480     2.5110     0.2610     0.1050
  298.0000   -56.0460     8.2460     7.5140     6.5280   122.2210     8.0220     0.0480     2.5130     0.2590     0.1070
  298.5000   -55.5810     8.2400     7.5140     6.5210   123.2640     8.0240     0.0390     2.5030     0.2630     0.1110
  299.0000   -55.1090     8.2380     7.5140     6.5130   123.8540     8.0260     0.0300     2.4930     0.2660     0.1140
  299.5000   -54.8740     8.2380     7.5140     6.5050   125.7120     8.0290     0.0280     2.4850     0.2670     0.1180
  300.0000   -55.0810     8.2380     7.5140     6.4980   123.1040     8.0310     0.0360     2.4910     0.2640     0.1210
  300.5000   -55.2800     8.2380     7.5140     6.4870   122.4150     8.0330     0.0440     2.5040     0.2600     0.1070
  301.0000   -55.4540     8.2380     7.5140     6.5020   123.0040     8.0350     0.0500     2.5120     0.2560     0.1090
  301.5000   -55.4310     8.2380     7.5140     6.5300   123.6110     8.0380     0.0370     2.5030     0.2520     0.1120
  302.0000   -55.3440     8.2380     7.5140     6.5590   123.7550     8.0400     0.0200     2.4940     0.2490     0.1150
  302.5000   -55.2610     8.2380     7.5140     6.5870   122.2100     8.0420     0.0190     2.4900     0.2540     0.1170
  303.0000   -55.1780     8.2380     7.5140     6.6160   120.6550     8.0440     0.0300     2.5010     0.2600     0.1110
  303.5000   -55.0950     8.2380     7.5140     6.6450   121.2630     8.0470     0.0360     2.5160     0.2650     0.1060
  304.0000   -55.1690     8.2380     7.5140     6.6740   119.9720     8.0490     0.0150     2.5220     0.2750     0.0980
  304.5000   -55.4420     8.2380     7.5140     6.7020   118.7360     8.0510    -0.0190     2.4860     0.2760     0.1170
  305.0000   -55.7120     8.2380     7.5140     6.7310   121.0580     8.0530    -0.0060     2.4560     0.2750     0.1370
  305.5000   -55.9810     8.2380     7.5140     6.7600   117.2040     8.0560     0.0150     2.4760     0.2780     0.1190
  306.0000   -56.2490     8.2380     7.5140     6.7880   116.9090     8.0580     0.0300     2.4950     0.2820     0.1150
  306.5000   -56.4280     8.2380     7.5140     6.8170   117.9600     8.0600     0.0270     2.5070     0.2830     0.1120
  307.0000   -56.3230     8.2380     7.5140     6.8540   120.7320     8.0620     0.0210     2.4860     0.2800     0.1180
  307.5000   -56.2240     8.2340     7.5140     6.8120   122.0310     8.0650     0.0150     2.4720     0.2750     0.1230
  308.0000   -56.1260     8.1960     7.5150     6.7510   122.4660     8.0670     0.0160     2.4800     0.2690     0.1260
  308.5000   -56.0290     8.1580     7.4860     6.6910   120.1810     8.0690     0.0240     2.4890     0.2660     0.1180
  309.0000   -55.9300     8.1200     7.4340     6.6300   121.2150     8.0710     0.0320     2.4990     0.2700     0.1120
  309.5000   -55.8330     8.0820     7.3820     6.5700   122.9160     8.0740     0.0390     2.5080     0.2590     0.1080
  310.0000   -55.7360     8.0440     7.3290     6.5090   122.5050     8.0760     0.0470     2.5200     0.2650     0.1040
  310.5000   -55.6730     8.0060     7.2770     6.4490   118.3350     8.0760     0.0490     2.5120     0.2730     0.1020
  311.0000   -55.7830     7.9680     7.2240     6.3880   115.6060     8.0750     0.0380     2.4970     0.2790     0.1100
  311.5000   -55.8910     7.9300     7.1720     6.3280   115.1170     8.0740     0.0270     2.4880     0.2750     0.1170
  312.0000   -55.9980     7.8920     7.1110     6.2680   118.3380     8.0740     0.0200     2.4940     0.2700     0.1170
  312.5000   -56.1060     7.8540     7.1170     6.2070   121.8170     8.0730     0.0250     2.4960     0.2740     0.1170
  313.0000   -56.2200     7.8160     7.1300     6.1440   123.5490     8.0720     0.0300     2.4860     0.2790     0.1180
  313.5000   -56.0970     7.7960     7.1430     6.1790   121.5450     8.0720     0.0260     2.4770     0.2850     0.1220
  314.0000   -55.8760     7.8440     7.1560     6.2250   118.3430     8.0710     0.0200     2.4950     0.2830     0.1240
  314.5000   -55.6540     7.8820     7.1690     6.2720   117.8230     8.0700     0.0140     2.4890     0.2780     0.1200
  315.0000   -55.4310     7.9200     7.1820     6.3190   119.6180     8.0700     0.0170     2.4780     0.2760     0.1250
  315.5000   -55.2100     7.9570     7.1950     6.3680   119.6860     8.0690     0.0220     2.4700     0.2800     0.1280
  316.0000   -55.0910     7.9950     7.2080     6.3850   118.9340     8.0680     0.0260     2.4790     0.2820     0.1270
  316.5000   -55.3160     8.0330     7.2210     6.4020   118.1890     8.0680     0.0300     2.4870     0.2790     0.1240
  317.0000   -55.5390     8.0710     7.2340     6.4200   117.4530     8.0670     0.0280     2.4780     0.2740     0.1210
  317.5000   -55.7630     8.1090     7.2470     6.4370   116.7090     8.0660     0.0220     2.4910     0.2680     0.1180
  318.0000   -55.8400     8.1470     7.2600     6.4540   117.6510     8.0660     0.0130     2.4670     0.2620     0.1240
  318.5000   -55.7840     8.1850     7.2730     6.4720   120.6220     8.0650     0.0140     2.4710     0.2690     0.1290
  319.0000   -55.7280     8.2230     7.2860     6.4890   119.3230     8.0640     0.0190     2.4760     0.2730     0.1230
  319.5000   -55.6720     8.2600     7.2980     6.5070   116.8880     8.0640     0.0240     2.4820     0.2690     0.1200
  320.0000   -55.6150     8.2980     7.3110     6.5240   115.2520     8.0630     0.0270     2.4880     0.2630     0.1190
  320.5000   -55.5580     8.3360     7.3240     6.5420   119.4290     8.0620     0.0300     2.4940     0.2690     0.1150
