~VERSION INFORMATION
 VERS.                2.0:   CWLS LOG ASCII STANDARD - VERSION 2.0
 WRAP.                 NO:   ONE LINE PER DEPTH STEP
~WELL INFORMATION
#MNEM.UNIT      DATA TYPE    INFORMATION
#----------   ------------   ------------------------------
 STRT.F           40.0000:   START DEPTH
 STOP.F          512.0000:   STOP DEPTH
 STEP.F            0.5000:   STEP LENGTH
 NULL.          -999.2500:   NO VALUE
 COMP. FENIX & SCISSON INC:   COMPANY
 WELL.    SX 3FO 55 #52-3:   WELL
 FLD .             TEAPOT:   FIELD
 LOC .       S3 T38N R78W:   LOCATION
 CNTY.            NATRONA:   COUNTY
 STAT.            WYOMING:   STATE
 CTRY. UNITED STATES OF AMERICA:   COUNTRY
 SRVC.              Welex:   SERVICE COMPANY
 DATE.        28-JUN-1980:   LOGDATE
 API .       490251081600:   API NUMBER
~CURVE INFORMATION
#MNEM.UNIT       API CODE    CURVE DESCRIPTION
#----------   ------------   ------------------------------
 DEPT.F                  :   
 GRD .GAPI   45 310 01 00:   GAMMA RAY FROM DENSITY LOG
 CALD.IN     45 280 60 00:   CALIPER
 RHOB.G/C3   45 350 01 00:   BULK DENSITY
 DPHI.DEC    45 890 12 00:   DENSITY POROSITY SANDSTONE
 CORR.G/C3   45 356 01 00:   DENSITY CORRECTION
~PARAMETER INFORMATION
#MNEM.UNIT          VALUE    DESCRIPTION
#----------   ------------   ------------------------------
 PD  .                 GL:   PERMANENT DATUM
 EPD .F              5161:   ELEVATION PERMANENT DATUM
 LMF .                 KB:   LOG MEASURED FROM
 DAPD.F                 5:   FEET ABOVE PERMANENT DATUM
 DMF .                 KB:   DRILLING MEASURED FROM
 EKB .F              5166:   KELLING BUSHING
 EGL .F              5161:   GROUND LEVEL
 DATE.            6-28-80:   RUN DATE
 RUN .                  1:   RUN NUMBER
 DD  .F               514:   DEPTH DRILLER
 DL  .F               514:   DEPTH LOGGER
 BLI .F               512:   BOTTOM LOG INTERVAL
 TLI .F                46:   TOP LOG INTERVAL
 CS  .IN                7:   CASING SIZE
 BS  .IN             6.25:   BIT SIZE
 BSD .F               514:   BIT SIZE AT DEPTH
 DFT .        AIR DRILLED:   DRILLING FLUID TYPE
 BHT .F                74:   BOTTOM HOLE TEMPERATURE
 TCS .HRS               2:   TIME CURCULATED STOPPED
 MRT .F                74:   MAXIMUM RECORDED TEMPERATURE
 ENGI.            TOTHILL:   RECORDING ENGINEER
 WITN.              AMEND:   WITNESSED BY
 CLNT.            A2DTECH:   CLIENT CODE
 ORIG.           5" PRINT:   ORIGIN OF DATA
 UWI .       490251081600:   UNIQUE WELL ID
 DICO. A2D Technologies, Inc.:   DIGITIZING COMPANY
~OTHER INFORMATION
~A   DEPT       GRD        CALD       RHOB       DPHI       CORR 
# ...
  101.0000   112.9837     6.4642     2.4540     0.1301     0.0062
  101.5000   113.3174     6.4748     2.4493     0.1332     0.0058
  102.0000   113.6398     6.4865     2.4408     0.1386    -0.0042
  102.5000   112.9193     6.4983     2.4389     0.1406    -0.0119
  103.0000   111.3073     6.4981     2.4434     0.1384    -0.0094
  103.5000   109.4911     6.4870     2.4506     0.1331    -0.0071
  104.0000   108.1802     6.4760     2.4650     0.1264     0.0004
  104.5000   107.7516     6.4648     2.4808     0.1184     0.0130
  105.0000   107.9758     6.4537     2.4793     0.1159     0.0123
  105.5000   107.6155     6.4443     2.4740     0.1186     0.0073
  106.0000   106.0619     6.4451     2.4774     0.1202     0.0042
  106.5000   104.4346     6.4459     2.4953     0.1102     0.0226
  107.0000   103.4780     6.4467     2.5130     0.1009     0.0431
  107.5000   103.2666     6.4475     2.5193     0.0955     0.0478
  108.0000   103.0823     6.4483     2.5164     0.0960     0.0521
  108.5000   103.1300     6.4491     2.5160     0.0958     0.0558
  109.0000   103.2565     6.4499     2.5163     0.0957     0.0585
  109.5000   103.9073     6.4507     2.5078     0.0982     0.0613
  110.0000   103.8480     6.4515     2.5023     0.0998     0.0585
  110.5000   103.6955     6.4523     2.4970     0.1044     0.0539
  111.0000   104.0066     6.4531     2.4885     0.1087     0.0493
  111.5000   104.3155     6.4539     2.4836     0.1125     0.0447
  112.0000   103.9336     6.4546     2.4774     0.1186     0.0400
  112.5000   103.1136     6.4555     2.4706     0.1226     0.0334
  113.0000   102.2651     6.4562     2.4628     0.1257     0.0265
  113.5000   101.4112     6.4570     2.4544     0.1306     0.0195
  114.0000   101.3586     6.4578     2.4523     0.1331     0.0204
  114.5000   101.6222     6.4586     2.4587     0.1294     0.0247
  115.0000   101.2957     6.4594     2.4615     0.1275     0.0291
  115.5000   100.8252     6.4602     2.4643     0.1260     0.0337
  116.0000    99.4235     6.4610     2.4697     0.1245     0.0387
  116.5000    98.0761     6.4618     2.4771     0.1162     0.0442
  117.0000    98.5900     6.4626     2.4758     0.1171     0.0448
  117.5000    99.2382     6.4634     2.4727     0.1210     0.0436
  118.0000    99.3768     6.4640     2.4744     0.1191     0.0423
  118.5000    99.2382     6.4609     2.4754     0.1178     0.0385
  119.0000   100.0074     6.4577     2.4677     0.1235     0.0342
  119.5000   100.8187     6.4545     2.4595     0.1285     0.0298
  120.0000   101.4499     6.4513     2.4512     0.1318     0.0284
  120.5000   102.0809     6.4481     2.4508     0.1341     0.0293
  121.0000   102.7105     6.4450     2.4522     0.1329     0.0301
  121.5000   103.1755     6.4418     2.4537     0.1316     0.0309
  122.0000   103.4451     6.4386     2.4539     0.1305     0.0319
  122.5000   103.5605     6.4354     2.4522     0.1325     0.0272
  123.0000   103.1899     6.4323     2.4445     0.1361     0.0212
  123.5000   102.8352     6.4291     2.4358     0.1407     0.0152
  124.0000   102.7946     6.4259     2.4299     0.1457     0.0092
  124.5000   103.0394     6.4239     2.4338     0.1458     0.0115
  125.0000   102.8571     6.4231     2.4438     0.1399     0.0171
  125.5000   102.6783     6.4223     2.4450     0.1367     0.0228
  126.0000   102.5053     6.4214     2.4478     0.1347     0.0285
  126.5000   102.0694     6.4206     2.4557     0.1296     0.0342
  127.0000   101.5423     6.4198     2.4636     0.1261     0.0400
  127.5000   101.0151     6.4190     2.4720     0.1226     0.0457
  128.0000   100.9973     6.4182     2.4804     0.1130     0.0514
  128.5000   101.6252     6.4173     2.4840     0.1154     0.0536
  129.0000   102.0295     6.4165     2.4660     0.1220     0.0407
  129.5000   101.8547     6.4157     2.4617     0.1270     0.0316
  130.0000   102.5197     6.4149     2.4542     0.1314     0.0246
  130.5000   103.7350     6.4141     2.4466     0.1355     0.0211
  131.0000   104.9585     6.4132     2.4416     0.1378     0.0198
  131.5000   106.2073     6.4124     2.4401     0.1398     0.0183
  132.0000   107.0935     6.4116     2.4500     0.1347     0.0287
  132.5000   107.9865     6.4108     2.4641     0.1267     0.0436
  133.0000   108.8748     6.4100     2.4682     0.1228     0.0470
  133.5000   109.6487     6.4091     2.4702     0.1214     0.0484
  134.0000   109.5393     6.4083     2.4705     0.1199     0.0494
  134.5000   109.4502     6.4075     2.4826     0.1139     0.0592
  135.0000   108.7208     6.4067     2.4976     0.1079     0.0704
  135.5000   107.5583     6.4059     2.4914     0.1066     0.0646
  136.0000   106.6519     6.4050     2.4734     0.1165     0.0512
  136.5000   106.9352     6.4040     2.4544     0.1262     0.0309
  137.0000   107.4712     6.4019     2.4406     0.1362     0.0165
  137.5000   108.1835     6.3997     2.4363     0.1417     0.0063
  138.0000   108.6469     6.3976     2.4400     0.1393     0.0111
  138.5000   108.0042     6.3955     2.4496     0.1338     0.0162
  139.0000   106.6593     6.3933     2.4596     0.1284     0.0212
  139.5000   105.2896     6.3912     2.4651     0.1256     0.0228
  140.0000   104.7158     6.3891     2.4694     0.1230     0.0238
  140.5000   104.4589     6.3870     2.4706     0.1211     0.0226
  141.0000   104.2228     6.3848     2.4706     0.1226     0.0206
  141.5000   103.3671     6.3845     2.4706     0.1210     0.0188
  142.0000   103.5969     6.3845     2.4571     0.1249     0.0073
  142.5000   105.2341     6.3845     2.4416     0.1393    -0.0092
  143.0000   105.9049     6.3845     2.4345     0.1433    -0.0167
  143.5000   106.5296     6.3845     2.4358     0.1425    -0.0165
  144.0000   106.8963     6.3845     2.4408     0.1388    -0.0092
  144.5000   107.2026     6.3845     2.4535     0.1325     0.0016
  145.0000   107.5098     6.3845     2.4631     0.1267     0.0123
  145.5000   107.8167     6.3845     2.4694     0.1214     0.0216
  146.0000   108.1388     6.3845     2.4644     0.1249     0.0142
  146.5000   108.0433     6.3845     2.4538     0.1321     0.0068
  147.0000   107.7797     6.3845     2.4549     0.1314     0.0071
  147.5000   108.1983     6.3845     2.4556     0.1305     0.0088
  148.0000   109.3789     6.3845     2.4620     0.1313     0.0142
  148.5000   110.5577     6.3845     2.4750     0.1208     0.0307
  149.0000   111.7355     6.3845     2.4869     0.1123     0.0467
  149.5000   112.8312     6.3854     2.4952     0.1070     0.0578
  150.0000   113.6142     6.3865     2.4878     0.1111     0.0484
  150.5000   113.9315     6.3876     2.4780     0.1166     0.0395
  151.0000   114.1895     6.3887     2.4679     0.1226     0.0304
  151.5000   114.3628     6.3898     2.4728     0.1208     0.0369
  152.0000   112.7982     6.3909     2.4829     0.1171     0.0447
  152.5000   110.9069     6.3920     2.4898     0.1106     0.0490
  153.0000   109.0108     6.3931     2.4822     0.1139     0.0454
  153.5000   107.4669     6.3942     2.4761     0.1186     0.0421
  154.0000   106.5435     6.3953     2.4758     0.1192     0.0387
  154.5000   105.6054     6.3964     2.4707     0.1198     0.0354
  155.0000   105.5758     6.3975     2.4694     0.1226     0.0356
  155.5000   105.9092     6.3986     2.4802     0.1142     0.0398
  156.0000   106.2382     6.3997     2.4781     0.1164     0.0390
  156.5000   107.1980     6.4008     2.4813     0.1155     0.0378
  157.0000   108.3698     6.4019     2.4846     0.1129     0.0367
  157.5000   109.3475     6.4029     2.4926     0.1095     0.0394
  158.0000   109.7385     6.4041     2.5072     0.1002     0.0479
  158.5000   110.0197     6.4044     2.5113     0.0962     0.0555
  159.0000   109.8297     6.4044     2.5053     0.1000     0.0482
  159.5000   109.2999     6.4044     2.4939     0.1076     0.0406
  160.0000   109.9552     6.4044     2.4847     0.1126     0.0330
  160.5000   110.9704     6.4044     2.4819     0.1150     0.0260
  161.0000   111.9864     6.4044     2.4701     0.1188     0.0187
  161.5000   112.6049     6.4044     2.4569     0.1286     0.0107
