~VERSION INFORMATION
 VERS.                2.0:   CWLS LOG ASCII STANDARD - VERSION 2.0
 WRAP.                 NO:   ONE LINE PER DEPTH STEP
~WELL INFORMATION
#MNEM.UNIT      DATA TYPE    INFORMATION
#----------   ------------   ------------------------------
 STRT.F           12.0000:   START DEPTH
 STOP.F          549.0000:   STOP DEPTH
 STEP.F            0.5000:   STEP LENGTH
 NULL.          -999.2500:   NO VALUE
 COMP. LAWRENCE/ALLISON INC:   COMPANY
 WELL.  58-64-1 SX 3 #3-3:   WELL
 FLD .             TEAPOT:   FIELD
 LOC .       S3 T38N R78W:   LOCATION
 CNTY.            NATRONA:   COUNTY
 STAT.            WYOMING:   STATE
 CTRY. UNITED STATES OF AMERICA:   COUNTRY
 SRVC.      Dresser Atlas:   SERVICE COMPANY
 DATE.        05-DEC-1984:   LOGDATE
 API .       490251117800:   API NUMBER
~CURVE INFORMATION
#MNEM.UNIT       API CODE    CURVE DESCRIPTION
#----------   ------------   ------------------------------
 DEPT.F                  :   
 RFOC.OHMM   07 220 04 00:   RESISTIVITY FOCUSED LOG
 RILD.OHMM   07 120 46 00:   INDUCTION LOG DEEP RESISTIVITY
 RILM.OHMM   07 120 44 00:   INDUCTION LOG MEDIUM RESISTIVITY
 SPR .MV     07 010 01 00:   SPONTANEOUS POTENTIAL
 CALD.IN     45 280 60 00:   CALIPER FROM DENSITY LOG
 CNC .DEC    42 890 03 00:   NEUTRON POROSITY SANDSTONE
 CORR.G/C3   45 356 01 00:   DENSITY CORRECTION
 DEN .G/C3   45 350 01 00:   COMPENSATED BULK DENSTIY
 GRD .GAPI   45 310 01 00:   GAMMA RAY FROM DENSITY LOG
 PORD.DEC    45 890 12 00:   POROSITY DENSITY SANDSTONE
 DT  .US/F   60 520 00 00:   INTERVAL TRANSIT TIME
~PARAMETER INFORMATION
#MNEM.UNIT          VALUE    DESCRIPTION
#----------   ------------   ------------------------------
 PD  .                 GL:   PERMANENT DATUM
 EPD .F              5188:   ELEVATION PERMANENT DATUM
 LMF .                 KB:   LOG MEASURED FROM
 DMF .                 KB:   DRILLING MEASURED FROM
 EGL .F              5188:   GROUND LEVEL
 DATE.         5-DEC-1984:   RUN DATE
 RUN .                  1:   RUN NUMBER
 DD  .F               556:   DEPTH DRILLER
 DL  .F               551:   DEPTH LOGGER
 BLI .F               549:   BOTTOM LOG INTERVAL
 CS  .IN            8.625:   CASING SIZE
 CBD .F                20:   CASING BOTTOM DRILLER
 CBL .F                20:   CASING BOTTOM LOGGER
 BS  .IN            7.875:   BIT SIZE
 BSD .F               556:   BIT SIZE AT DEPTH
 DFT .          KCL WATER:   DRILLING FLUID TYPE
 MSS .           FLOWLINE:   MUD SAMPLE SOURCE
 RMS .OHMM            .36:   RESISTIVITY MUD SAMPLE
 MST .F                70:   MUD SAMPLE TEMPERATURE
 RMF .OHMM            .26:   RESISTIVITY MUD FILTRATE SAMPLE
 MFST.F                70:   MUD FILTRATE SAMPLE TEMPERATURE
 RMC .OHMM            .46:   RESISTIVITY MUD CAKE
 MCST.F                70:   MUD CAKE SAMPLE TEMPERATURE
 MFSS.               CALC:   MUD FILTRATE SAMPLE SOURCE
 MCSS.               CALC:   MUD CAKE SAMPLE SOURCE
 RMB .OHMM            .29:   RESISTIVITY MUD AT BHT
 BHT .F                85:   BOTTOM HOLE TEMPERATURE
 TCS .HRS               3:   TIME CURCULATED STOPPED
 MRT .F               100:   MAXIMUM RECORDED TEMPERATURE
 LUN .               6274:   LOGGING UNIT NUMBER
 LUL .               GLTE:   LOGGING UNIT LOCATION
 ENGI.             RAUTIO:   RECORDING ENGINEER
 WITN.       GROOMS/LUERS:   WITNESSED BY
 CLNT.            A2DTECH:   CLIENT CODE
 ORIG.         2.5" PRINT:   ORIGIN OF DATA
 UWI .       490251117800:   UNIQUE WELL ID
 DICO. A2D Technologies, Inc.:   DIGITIZING COMPANY
~OTHER INFORMATION
~A   DEPT     RFOC       RILD       RILM        SPR       CALD        CNC       CORR        DEN         GRD      PORD         DT   
# ...
  347.5000    27.5994    28.2423    29.3915   -48.4093     8.0112     0.2516     0.0333     2.3278    79.0859     0.2089   105.7064
  348.0000    28.7639    30.2594    30.2063   -47.6353     8.0108     0.2553     0.0212     2.3319    79.0740     0.2065   104.1730
  348.5000    30.3975    31.5574    32.3668   -46.8977     8.0104     0.2583     0.0152     2.3392    77.2384     0.2015   102.6534
  349.0000    33.9622    33.8997    33.7301   -46.1786     8.0401     0.2547     0.0119     2.3516    76.6186     0.1920   100.7289
  349.5000    36.3939    36.2126    33.7138   -46.1906     8.0397     0.2403     0.0182     2.3684    76.6067     0.1839    96.7935
  350.0000    37.4053    37.3207    32.7728   -46.2026     8.0392     0.2234     0.0273     2.3870    75.3789     0.1762    90.3520
  350.5000    37.3897    38.1821    31.4180   -46.2146     8.0388     0.2174     0.0303     2.4104    75.2918     0.1625    88.8140
  351.0000    37.3741    37.5311    28.4887   -45.9227     8.0383     0.2150     0.0273     2.4447    75.9630     0.1475    88.1146
  351.5000    35.5261    35.7471    26.1945   -45.9347     8.0379     0.2138     0.0273     2.4552    77.7748     0.1368    89.0603
  352.0000    30.3097    32.1715    25.8201   -45.9466     8.0375     0.2174     0.0278     2.4219    78.3708     0.1580    92.1106
  352.5000    31.7224    31.3812    26.1696   -46.2626     8.0370     0.2283     0.0339     2.3854    78.9668     0.1829    94.5588
  353.0000    33.3824    33.1657    26.5233   -46.2746     8.0366     0.2446     0.0394     2.3642    77.7386     0.1939    95.5480
  353.5000    31.8806    32.6945    27.6403   -46.2866     8.0361     0.2567     0.0247     2.3460    77.7264     0.2006    97.2594
  354.0000    30.1257    32.0801    28.0140   -45.9946     8.0356     0.2633     0.0091     2.3369    77.7143     0.2024    99.2338
  354.5000    28.6087    30.5965    27.5920   -46.0066     8.0352     0.2682     0.0091     2.3369    77.8288     0.2043   100.5138
  355.0000    28.1238    28.6639    26.4534   -45.7147     8.0347     0.2713     0.0091     2.3369    78.4499     0.2049   101.3801
  355.5000    27.8004    27.8592    25.3273   -45.4227     8.0343     0.2743     0.0165     2.3338    78.8954     0.2067   102.1410
  356.0000    28.1795    27.7843    23.9304   -45.1307     8.0338     0.2727     0.0241     2.3308    80.0993     0.2074   102.6466
  356.5000    27.7772    27.9964    23.2850   -45.1429     8.0334     0.2660     0.0288     2.3308    80.6952     0.2074   102.7451
  357.0000    27.7656    27.8050    22.6710   -45.1550     8.0329     0.2608     0.0333     2.3340    79.5663     0.2061   102.4807
  357.5000    27.1453    26.8422    22.6104   -45.1672     8.0325     0.2584     0.0212     2.3385    77.6798     0.2036   101.6629
  358.0000    26.0103    25.1875    22.3360   -45.2077     8.0320     0.2567     0.0152     2.3429    76.4012     0.1999   100.6898
  358.5000    24.9228    24.3263    22.0167   -45.4954     8.0316     0.2551     0.0182     2.3447    78.5927     0.1965    99.6885
  359.0000    24.1208    24.3178    22.0060   -45.8561     8.0311     0.2559     0.0273     2.3496    80.9869     0.1905    99.0593
  359.5000    24.4486    24.1677    21.6914   -46.1803     8.0307     0.2579     0.0273     2.3576    83.6573     0.1865    98.3175
  360.0000    24.4365    24.3009    21.6808   -46.5045     8.0301     0.2604     0.0279     2.3642    84.8612     0.1862    97.3353
  360.5000    24.7685    24.6312    21.6702   -46.7599     8.0297     0.2623     0.0273     2.3612    84.8493     0.1881    96.2705
  361.0000    24.9108    24.9692    21.6597   -46.7720     8.0292     0.2651     0.0212     2.3622    83.6216     0.1852    95.3555
  361.5000    25.0946    24.6142    21.6492   -46.7842     8.0288     0.2685     0.0212     2.3699    79.9623     0.1827    94.6740
  362.0000    24.9178    24.2658    21.7457   -47.1003     8.0283     0.2642     0.0212     2.3754    76.3030     0.1800    94.9180
  362.5000    23.8825    23.9223    21.9331   -47.1125     8.0279     0.2566     0.0212     2.3765    74.4673     0.1831    96.3662
  363.0000    23.3789    23.5837    22.2296   -47.2341     8.0275     0.2601     0.0213     2.3688    74.4053     0.1859    98.5063
  363.5000    23.3692    23.5755    22.2167   -47.4407     8.0270     0.2661     0.0273     2.3626    76.2672     0.1872    99.5993
  364.0000    23.3594    23.5674    22.5170   -47.4529     8.0266     0.2691     0.0276     2.3603    79.9027     0.1846   100.1186
  364.5000    23.3497    23.5593    22.8213   -47.4650     8.0261     0.2686     0.0308     2.3657    82.3728     0.1816   100.3318
  365.0000    23.3380    23.5512    23.1298   -47.6191     8.0257     0.2601     0.0261     2.3733    83.5263     0.1804   100.4827
  365.5000    23.6570    23.5431    23.1185   -47.7933     8.0407     0.2541     0.0137     2.3703    82.2219     0.1822   100.3318
  366.0000    23.9785    23.5350    23.1073   -47.8055     8.0550     0.2577     0.0052     2.3612    82.4883     0.1859   100.7843
  366.5000    23.9668    23.8570    23.0960   -47.8176     8.0545     0.2626     0.0030     2.3520    84.7064     0.1907   101.2368
  367.0000    24.0659    23.8483    23.0848   -47.8298     8.0541     0.2602     0.0082     2.3581    85.3024     0.1895   101.8401
  367.5000    23.9470    23.8401    22.5688   -47.5404     8.0536     0.2572     0.0194     2.3586    84.5035     0.1896   101.9910
  368.0000    23.9371    23.8499    22.4274   -47.5524     8.0532     0.2530     0.0299     2.3520    83.4529     0.1932   101.8401
  368.5000    23.5966    23.8237    22.1068   -47.5644     8.0527     0.2506     0.0333     2.3429    84.8845     0.1981   101.2368
  369.0000    23.2610    23.4865    22.0962   -47.2724     8.0523     0.2487     0.0272     2.3384    86.3668     0.2005   100.9351
  369.5000    23.2514    23.4783    21.7804   -47.2844     8.0518     0.2470     0.0101     2.3369    87.9503     0.2012   100.3318
  370.0000    22.6039    23.1459    21.7699   -46.9909     8.0514     0.2478    -0.0212     2.3385    87.9635     0.1997   100.0302
  370.5000    22.5946    23.1379    21.4588   -47.0045     8.0509     0.2497    -0.0234     2.3462    86.3810     0.1966    99.7285
  371.0000    21.9655    22.7861    21.1521   -47.0165     8.0505     0.2521    -0.0091     2.3524    85.8115     0.1923    99.6978
  371.5000    21.6530    22.4567    20.8498   -47.3324     8.0500     0.2546     0.0030     2.3586    85.7972     0.1892   100.1810
  372.0000    21.3451    22.1321    20.5518   -47.6484     8.0495     0.2555     0.0182     2.3630    84.5694     0.1857   100.6335
  372.5000    21.0414    21.8122    19.9782   -48.2683     8.0322     0.2540     0.0333     2.3649    82.7338     0.1832   100.9351
  373.0000    20.7421    20.9069    19.6927   -48.5842     8.0183     0.2518     0.0152     2.3680    82.7219     0.1808   100.7843
  373.5000    20.1646    20.0393    19.1431   -48.9002     8.0179     0.2499    -0.0030     2.3738    84.5337     0.1780   100.4827
  374.0000    19.8778    19.7496    18.6088   -48.9122     8.0174     0.2496    -0.0091     2.3794    85.1307     0.1749   100.0302
  374.5000    19.3243    19.5257    18.0894   -48.9242     8.0170     0.2510     0.0000     2.3866    85.7264     0.1722    99.7285
  375.0000    19.0494    19.5189    17.8309   -48.9362     8.0166     0.2551     0.0273     2.3928    86.9296     0.1697    99.7285
  375.5000    19.0415    19.5121    17.3332   -48.9482     8.0161     0.2575     0.0395     2.3959    86.9177     0.1680    99.4268
  376.0000    19.0335    19.2359    16.8494   -48.6403     8.0157     0.2581     0.0455     2.3953    88.1216     0.1704    99.5777
  376.5000    19.0098    19.1455    16.8413   -48.3643     8.0152     0.2557     0.0455     2.3899    88.0588     0.1723    99.4268
  377.0000    18.7549    18.8687    16.8332   -48.3769     8.0148     0.2521     0.0450     2.3885    85.6150     0.1729    99.1252
  377.5000    18.4625    18.6885    16.8250   -48.7335     8.0143     0.2533     0.0418     2.3930    84.9696     0.1693    98.3710
