~VERSION INFORMATION
 VERS.                2.0:   CWLS LOG ASCII STANDARD - VERSION 2.0
 WRAP.                 NO:   ONE LINE PER DEPTH STEP
~WELL INFORMATION
#MNEM.UNIT      DATA TYPE    INFORMATION
#----------   ------------   ------------------------------
 STRT.F           30.0000:   START DEPTH
 STOP.F          733.0000:   STOP DEPTH
 STEP.F            0.5000:   STEP LENGTH
 NULL.          -999.2500:   NO VALUE
 COMP. FENIX & SCISSON INC:   COMPANY
 WELL.    NPR-3 #51 S -34:   WELL
 FLD .             TEAPOT:   FIELD
 LOC .      S34 T39N R78W:   LOCATION
 CNTY.            NATRONA:   COUNTY
 STAT.            WYOMING:   STATE
 CTRY. UNITED STATES OF AMERICA:   COUNTRY
 SRVC.      Dresser Atlas:   SERVICE COMPANY
 DATE.        20-MAR-1977:   LOGDATE
 API .       490251031600:   API NUMBER
~CURVE INFORMATION
#MNEM.UNIT       API CODE    CURVE DESCRIPTION
#----------   ------------   ------------------------------
 DEPT.F                  :   
 CALD.IN     45 280 60 00:   CALIPER FROM DENSITY LOG
 GRD .GAPI   45 310 01 00:   GAMMA RAY FROM DENSITY LOG
 CORR.G/C3   45 356 01 00:   DENSITY CORRECTION
 DPHI.DEC    45 890 12 00:   DENSITY POROSITY SANDSTONE
 RHOB.G/C3   45 350 01 00:   BULK DENSITY
 SPR .MV     07 010 01 00:   SPONTANEOUS POTENTIAL
 ILD .OHMM   07 120 46 00:   INDUCTION LOG DEEP
 ILM .OHMM   07 120 44 00:   INDUCTION LOG MEDIUM
 SFL .OHMM   07 220 01 00:   SHALLOW FOCUSED LOG RESISTIVITY
~PARAMETER INFORMATION
#MNEM.UNIT          VALUE    DESCRIPTION
#----------   ------------   ------------------------------
 PD  .                 GL:   PERMANENT DATUM
 EPD .F              5065:   ELEVATION PERMANENT DATUM
 LMF .                 KB:   LOG MEASURED FROM
 DAPD.F                 4:   FEET ABOVE PERMANENT DATUM
 DMF .                 KB:   DRILLING MEASURED FROM
 EKB .F              5069:   KELLING BUSHING
 EGL .F              5065:   GROUND LEVEL
 DATE.        20-MAR-1977:   RUN DATE
 RUN .                  1:   RUN NUMBER
 DD  .F               735:   DEPTH DRILLER
 DL  .F               731:   DEPTH LOGGER
 BLI .F               729:   BOTTOM LOG INTERVAL
 TLI .F                42:   TOP LOG INTERVAL
 CS  .IN            8.625:   CASING SIZE
 CBD .F                40:   CASING BOTTOM DRILLER
 CBL .F                42:   CASING BOTTOM LOGGER
 BS  .IN            7.875:   BIT SIZE
 BSD .F               735:   BIT SIZE AT DEPTH
 DFT .           CHEM GEL:   DRILLING FLUID TYPE
 DFD .                9.0:   DRILLING FLUID DENSITY
 DFV .                 38:   DRILLING FLUID VISCOSITY
 DFPH.                8.5:   DRILLING FLUID PH
 DFL .                 72:   DRILLING FLUID LOSS
 MSS .           FLOWLINE:   MUD SAMPLE SOURCE
 RMS .OHMM             .4:   RESISTIVITY MUD SAMPLE
 MST .F                51:   MUD SAMPLE TEMPERATURE
 RMF .OHMM            .72:   RESISTIVITY MUD FILTRATE SAMPLE
 MFST.F                48:   MUD FILTRATE SAMPLE TEMPERATURE
 RMC .OHMM           1.16:   RESISTIVITY MUD CAKE
 MCST.F                48:   MUD CAKE SAMPLE TEMPERATURE
 MFSS.               MEAS:   MUD FILTRATE SAMPLE SOURCE
 MCSS.               MEAS:   MUD CAKE SAMPLE SOURCE
 RMB .OHMM            .31:   RESISTIVITY MUD AT BHT
 BHT .F                66:   BOTTOM HOLE TEMPERATURE
 TCS .HRS            0300:   TIME CURCULATED STOPPED
 MRT .F                66:   MAXIMUM RECORDED TEMPERATURE
 LUN .               6145:   LOGGING UNIT NUMBER
 LUL .              GLTTE:   LOGGING UNIT LOCATION
 ENGI.              RANCK:   RECORDING ENGINEER
 WITN.              BURKE:   WITNESSED BY
 CLNT.            A2DTECH:   CLIENT CODE
 ORIG.           5" PRINT:   ORIGIN OF DATA
 UWI .       490251031600:   UNIQUE WELL ID
 DICO. A2D Technologies, Inc.:   DIGITIZING COMPANY
~OTHER INFORMATION
~A   DEPT     CALD        GRD       CORR       DPHI       RHOB        SPR        ILD        ILM        SFL   
# ...
  322.0000     8.2445   110.3236     0.0180     0.0867     2.5187   -53.0910     6.8910     7.9658     9.8956
  322.5000     8.2466   110.0459     0.0151     0.0953     2.5068   -52.9239     6.8948     8.0268     9.8358
  323.0000     8.2487   109.4697     0.0123     0.1007     2.4956   -53.0552     6.8986     8.0810     9.6386
  323.5000     8.2508   109.4906     0.0109     0.1055     2.4792   -53.0373     6.8548     8.0861     9.3834
  324.0000     8.2528   109.2129     0.0095     0.1073     2.4732   -53.0194     6.8586     8.0271     9.3235
  324.5000     8.2400   107.8905     0.0097     0.1069     2.4725   -53.0015     6.8624     7.9846     9.2655
  325.0000     8.2422   108.9561     0.0113     0.1042     2.4756   -52.9836     6.8662     7.9344     9.2735
  325.5000     8.2442   109.8725     0.0114     0.1018     2.4810   -53.1194     6.8700     7.9947     9.3444
  326.0000     8.2463   109.8933     0.0010     0.0993     2.4870   -53.2463     6.8264     7.9997     9.3509
  326.5000     8.2334   109.3171    -0.0049     0.0984     2.4894   -53.3776     6.8302     8.0047     9.3574
  327.0000     8.2360   107.8454     0.0104     0.0981     2.4909   -53.5090     6.8340     8.0107     9.2350
  327.5000     8.2381   105.7767     0.0090     0.0987     2.4925   -53.7940     6.8378     8.0157     9.2414
  328.0000     8.2248   106.2453     0.0076     0.0971     2.4956   -53.9254     6.8416     8.0764     9.4420
  328.5000     8.2273   107.7587     0.0108     0.0917     2.4987   -53.9030     6.8453     8.1376     9.6468
  329.0000     8.2290   108.2273     0.0154     0.0863     2.5040   -54.0388     6.8019     8.1426     9.9936
  329.5000     8.2315   108.0985     0.0216     0.0817     2.5093   -54.3149     6.7587     8.0915    10.2814
  330.0000     8.2181   107.3735     0.0262     0.0778     2.5154   -54.2970     6.7625     8.0965    10.3600
  330.5000     8.2204   105.9018     0.0294     0.0709     2.5230   -54.2791     6.7162     8.1015    10.2939
  331.0000     8.2228   103.6838     0.0325     0.0622     2.5448   -54.2612     6.5851     7.9938     9.3508
  331.5000     8.2245   102.6599     0.0357     0.0591     2.5569   -54.2433     6.5394     7.9436     8.7919
  332.0000     8.2270   102.3821     0.0373     0.0585     2.5592   -54.0761     6.4124     7.9498     9.7610
  332.5000     8.2291   103.7464     0.0375     0.0594     2.5555   -54.0582     6.3235     7.9547     9.8339
  333.0000     8.2311   105.5582     0.0360     0.0627     2.5518   -53.8910     6.2442     8.0150     8.9330
  333.5000     8.2329   106.7736     0.0317     0.0728     2.5392   -54.0269     6.2478     8.0200     8.2835
  334.0000     8.2353   107.5423     0.0288     0.0791     2.5226   -54.0045     6.2080     8.0807     8.9454
  334.5000     8.2371   109.9633     0.0259     0.0830     2.5137   -53.7200     6.2116     8.0287     8.9515
  335.0000     8.2395   112.3731     0.0230     0.0818     2.5086   -53.5982     6.2150     7.9782     9.0200
  335.5000     8.2416   113.2811     0.0232     0.0784     2.5179   -53.4764     6.1754     7.8746     9.2157
  336.0000     8.2437   113.5940     0.0248     0.0757     2.5246   -53.3708     6.1363     7.8239     9.1568
  336.5000     8.2458   113.6149     0.0280     0.0751     2.5261   -53.7388     6.1398     7.7748     9.0371
  337.0000     8.2478   113.4862     0.0296     0.0750     2.5254   -53.9323     6.1432     7.7808     8.9810
  337.5000     8.2499   113.5199     0.0312     0.0747     2.5256   -53.9090     6.1893     7.7307     8.8636
  338.0000     8.2670   113.9761     0.0314     0.0750     2.5294   -53.8904     6.2357     7.6821     8.9313
  338.5000     8.2691   113.3692     0.0300     0.0780     2.5204   -54.4705     6.2825     7.6881     8.8758
  339.0000     8.2711   111.5453     0.0254     0.0815     2.5107   -54.7559     6.3818     7.6386     8.8835
  339.5000     8.2732   108.7413     0.0195     0.0860     2.5033   -54.7327     6.4659     7.6446     9.0136
  340.0000     8.2753   108.8259     0.0169     0.0827     2.5124   -54.4146     6.5152     7.6493     9.0826
  340.5000     8.2774   111.4368     0.0172     0.0800     2.5192   -54.2463     6.6096     7.7608     9.2156
  341.0000     8.2795   111.7126     0.0186     0.0784     2.5208   -54.0779     6.6592     7.8196     9.3506
  341.5000     8.2816   110.9872     0.0203     0.0769     2.5254   -53.9096     6.6629     7.8788     9.5535
  342.0000     8.2837   110.5791     0.0221     0.0760     2.5292   -54.0453     6.6666     7.8837     9.6265
  342.5000     8.2858   110.4301     0.0251     0.0757     2.5270   -54.3214     6.7632     7.8886     9.7001
  343.0000     8.2878   111.3517     0.0252     0.0798     2.5211   -54.4572     6.8139     7.8936     9.8422
  343.5000     8.2901   111.0741     0.0237     0.0828     2.5152   -54.4339     6.7707     7.8985     9.8490
  344.0000     8.2920   110.6471     0.0210     0.0849     2.5032   -54.5649     6.7744     7.9034     9.9243
  344.5000     8.2943   109.0262     0.0227     0.0821     2.5153   -54.5463     6.8252     7.8537     9.9312
  345.0000     8.2962   104.1217     0.0258     0.0809     2.5229   -54.5277     6.8290     7.7505     9.9380
  345.5000     8.2985   104.8888     0.0243     0.0848     2.5162   -54.5090     6.8328     7.7018     9.8763
  346.0000     8.3004   107.7454     0.0184     0.0887     2.5013   -54.4904     6.8366     7.7066     9.8149
  346.5000     8.2875   109.1096     0.0140     0.0919     2.4961   -54.4718     6.7454     7.6053     9.7522
  347.0000     8.2896   109.7274     0.0097     0.0940     2.4939   -54.4531     6.7500     7.5054     9.6916
  347.5000     8.2762   109.7483     0.0053     0.0958     2.4903   -54.4345     6.7063     7.4067     9.6331
  348.0000     8.2489   109.9184     0.0024     0.0979     2.4858   -54.4159     6.6637     7.3083     9.5055
  348.5000     8.2510   108.8944    -0.0004     0.1008     2.4844   -54.2475     6.6214     7.1636     9.4464
  349.0000     8.2376   106.6765    -0.0003     0.1020     2.4860   -54.2289     6.5349     7.1175     9.3877
  349.5000     8.2402   105.9458     0.0059     0.0960     2.4973   -54.3600     6.4033     7.0250     9.2026
  350.0000     8.2430   108.9815     0.0120     0.0923     2.5010   -54.3413     6.2752     6.9186     9.1890
  350.5000     8.2503   110.0579     0.0154     0.0899     2.5051   -54.4401     6.1072     6.8876     9.0781
  351.0000     8.2575   111.1343     0.0188     0.0875     2.5091   -54.3785     6.0680     6.8917     8.9668
  351.5000     8.2471   111.9989     0.0201     0.0893     2.5058   -54.4396     6.0709     6.8951     8.7873
  352.0000     8.2338   112.0338     0.0187     0.0943     2.4991   -54.4228     6.1161     6.8984     8.6713
  352.5000     8.2205   110.9932     0.0159     0.0973     2.4939   -54.4094     6.1615     6.9018     8.5567
  353.0000     8.2072   110.1172     0.0130     0.0985     2.4887   -54.5486     6.2073     6.9531     8.5615
  353.5000     8.1939   109.9866     0.0087     0.0988     2.4864   -54.5318     6.2535     7.0048     8.7461
  354.0000     8.1956   112.0966     0.0073     0.0954     2.5008   -54.5184     6.2999     7.0569     8.9347
  354.5000     8.1972   114.9519     0.0105     0.0858     2.5091   -54.6576     6.3030     7.1588     9.0017
  355.0000     8.1989   116.0162     0.0152     0.0789     2.5189   -54.7934     6.3498     7.2121     9.2597
  355.5000     8.2005   114.8417     0.0199     0.0719     2.5317   -54.7766     6.3970     7.3162     9.5251
  356.0000     8.2022   112.9210     0.0246     0.0641     2.5468   -54.7632     6.4446     7.4219     9.8661
  356.5000     8.2038   111.1495     0.0293     0.0571     2.5573   -54.7498     6.4925     7.5290     9.5357
  357.0000     8.2055   108.7809     0.0279     0.0569     2.5619   -54.7364     6.4957     7.6377     9.2802
  357.5000     8.2071   108.0493     0.0251     0.0635     2.5454   -54.7229     6.4988     7.6945     9.1577
  358.0000     8.2237   109.7155     0.0222     0.0679     2.5335   -54.5603     6.5471     7.8057     9.2265
