~VERSION INFORMATION
 VERS.                2.0:   CWLS LOG ASCII STANDARD - VERSION 2.0
 WRAP.                 NO:   ONE LINE PER DEPTH STEP
~WELL INFORMATION
#MNEM.UNIT      DATA TYPE    INFORMATION
#----------   ------------   ------------------------------
 STRT.F           18.0000:   START DEPTH
 STOP.F          647.0000:   STOP DEPTH
 STEP.F            0.5000:   STEP LENGTH
 NULL.          -999.2500:   NO VALUE
 COMP. FENIX & SCISSON INC:   COMPANY
 WELL. NAVAL PETROLEUM RESERVE 3 SX-1 #82-15:   WELL
 FLD .        TEAPOT DOME:   FIELD
 LOC .      S15 T38N R78W:   LOCATION
 CNTY.            NATRONA:   COUNTY
 STAT.            WYOMING:   STATE
 CTRY. UNITED STATES OF AMERICA:   COUNTRY
 SRVC.            Unknown:   SERVICE COMPANY
 DATE.        15-MAR-1979:   LOGDATE
 API .       490251076500:   API NUMBER
~CURVE INFORMATION
#MNEM.UNIT       API CODE    CURVE DESCRIPTION
#----------   ------------   ------------------------------
 DEPT.F                  :   
 SPR .MV     05 010 01 00:   SPONTANEOUS POTENTIAL FROM RES.
 SN  .OHMM   05 040 16 00:   SHORT NORMAL 16"
 IL  .OHMM   05 120 00 00:   INDUCTION LOG
 CALD.IN     45 280 60 00:   CALIPER
 GRD .GAPI   45 310 01 00:   GAMMA RAY FROM DENSITY LOG
 RHOB.G/C3   45 350 01 00:   BULK DENSITY
 DPHI.DEC    45 890 12 00:   DENSITY POROSITY SANDSTONE
 CORR.G/C3   45 356 01 00:   DENSITY CORRECTION
~PARAMETER INFORMATION
#MNEM.UNIT          VALUE    DESCRIPTION
#----------   ------------   ------------------------------
 PD  .                 GL:   PERMANENT DATUM
 EPD .F              5249:   ELEVATION PERMANENT DATUM
 LMF .                 KB:   LOG MEASURED FROM
 DAPD.F                 4:   FEET ABOVE PERMANENT DATUM
 DMF .                 KB:   DRILLING MEASURED FROM
 EKB .F              5253:   KELLING BUSHING
 EGL .F              5249:   GROUND LEVEL
 DATE.            1-15-79:   RUN DATE
 RUN .                  1:   RUN NUMBER
 DD  .F               670:   DEPTH DRILLER
 DL  .F               647:   DEPTH LOGGER
 BLI .F               640:   BOTTOM LOG INTERVAL
 TLI .F                30:   TOP LOG INTERVAL
 CS  .IN            8.625:   CASING SIZE
 CBD .F                40:   CASING BOTTOM DRILLER
 CBL .F                34:   CASING BOTTOM LOGGER
 BS  .IN            7.875:   BIT SIZE
 BSD .F               670:   BIT SIZE AT DEPTH
 DFT .                KCL:   DRILLING FLUID TYPE
 DFD .                8.9:   DRILLING FLUID DENSITY
 DFV .                 44:   DRILLING FLUID VISCOSITY
 DFPH.                8.5:   DRILLING FLUID PH
 DFL .               14.8:   DRILLING FLUID LOSS
 MSS .           FLOWLINE:   MUD SAMPLE SOURCE
 RMS .OHMM            .26:   RESISTIVITY MUD SAMPLE
 MST .F                61:   MUD SAMPLE TEMPERATURE
 RMF .OHMM            .25:   RESISTIVITY MUD FILTRATE SAMPLE
 MFST.F                60:   MUD FILTRATE SAMPLE TEMPERATURE
 RMC .OHMM             .2:   RESISTIVITY MUD CAKE
 MCST.F                60:   MUD CAKE SAMPLE TEMPERATURE
 MFSS.           MEASURED:   MUD FILTRATE SAMPLE SOURCE
 MCSS.           MEASURED:   MUD CAKE SAMPLE SOURCE
 RMB .OHMM            .27:   RESISTIVITY MUD AT BHT
 BHT .F                58:   BOTTOM HOLE TEMPERATURE
 TCS .HRS               5:   TIME CURCULATED STOPPED
 MRT .F                58:   MAXIMUM RECORDED TEMPERATURE
 LUN .               3006:   LOGGING UNIT NUMBER
 LUL .             CASPER:   LOGGING UNIT LOCATION
 ENGI.            ROLLINS:   RECORDING ENGINEER
 WITN.              AMEND:   WITNESSED BY
 CLNT.            A2DTECH:   CLIENT CODE
 ORIG.         2.5" PRINT:   ORIGIN OF DATA
 UWI .       490251076500:   UNIQUE WELL ID
 DICO. A2D Technologies, Inc.:   DIGITIZING COMPANY
~OTHER INFORMATION
~A   DEPT      SPR         SN         IL       CALD         GRD      RHOB       DPHI       CORR   
# ...
  463.5000   -58.1410    12.7690    15.4270     8.3640    86.7010     2.4410     0.1840     0.0490
  464.0000   -58.0810    13.3200    16.8700     8.3630    79.1220     2.4140     0.1920     0.0600
  464.5000   -58.0200    13.8710    18.3120     8.3620    71.3960     2.3850     0.1860     0.0500
  465.0000   -57.9600    14.4220    18.9230     8.3610    66.7010     2.3730     0.1820     0.0400
  465.5000   -57.8990    14.9720    20.2710     8.3600    63.2800     2.3810     0.1760     0.0300
  466.0000   -57.8390    15.2310    21.5320     8.3600    59.4420     2.3910     0.1770     0.0300
  466.5000   -57.7790    15.3350    21.2920     8.3600    59.0050     2.3950     0.1830     0.0300
  467.0000   -57.7180    15.4400    20.8120     8.3600    60.8980     2.3880     0.1890     0.0300
  467.5000   -57.6590    15.5440    20.3320     8.3600    62.0980     2.3750     0.1950     0.0300
  468.0000   -57.5970    15.6480    19.8510     8.3600    65.9030     2.3620     0.2010     0.0300
  468.5000   -57.5400    15.7520    19.3710     8.3600    71.9180     2.3490     0.2090     0.0300
  469.0000   -57.4780    15.8560    18.8910     8.3600    77.9480     2.3360     0.2190     0.0300
  469.5000   -57.5630    15.9600    18.5770     8.3600    81.3150     2.3230     0.2280     0.0300
  470.0000   -57.7120    16.0650    18.5770     8.3600    80.4070     2.3100     0.2380     0.0300
  470.5000   -57.8560    16.1690    18.5770     8.3600    77.4610     2.2930     0.2340     0.0270
  471.0000   -57.9990    16.2730    18.5770     8.3600    74.4370     2.2970     0.2250     0.0230
  471.5000   -58.1440    16.3250    18.5770     8.3600    74.3520     2.3130     0.2160     0.0220
  472.0000   -58.2880    16.3250    18.5770     8.3600    76.4490     2.3260     0.2110     0.0220
  472.5000   -58.4330    16.3250    18.5770     8.3600    77.4050     2.3390     0.2090     0.0220
  473.0000   -58.5770    16.3250    18.6450     8.3600    75.9010     2.3400     0.2060     0.0220
  473.5000   -58.7220    16.3260    18.8050     8.3600    74.7360     2.3410     0.2090     0.0280
  474.0000   -58.8650    16.3250    18.9670     8.3600    76.2630     2.3390     0.2120     0.0350
  474.5000   -59.0130    16.3240    19.1290     8.3600    77.9790     2.3370     0.2120     0.0370
  475.0000   -59.0900    16.3200    19.2890     8.3600    76.4130     2.3390     0.1930     0.0350
  475.5000   -59.1110    16.3350    19.4490     8.3600    74.7140     2.3790     0.1660     0.0320
  476.0000   -59.1380    16.2000    19.6100     8.3600    72.8010     2.4210     0.1400     0.0240
  476.5000   -59.1640    15.9850    19.7700     8.3600    73.7550     2.4620     0.1000     0.0150
  477.0000   -59.1890    15.7730    19.9330     8.3600    75.0630     2.5050     0.1090     0.0140
  477.5000   -59.2150    15.5650    20.0940     8.3600    76.3720     2.5200     0.1270     0.0170
  478.0000   -59.2410    15.3570    20.3350     8.3600    78.6400     2.5120     0.1460     0.0260
  478.5000   -59.2660    15.1480    20.2940     8.3600    80.1140     2.4700     0.1640     0.0340
  479.0000   -59.2920    14.9400    20.0020     8.3600    80.2660     2.4330     0.1820     0.0430
  479.5000   -59.3180    14.7320    19.7100     8.3600    79.4440     2.3950     0.2010     0.0520
  480.0000   -59.3430    14.5240    19.4180     8.3600    78.0310     2.3560     0.2210     0.0580
  480.5000   -59.3690    14.3160    19.1270     8.3600    76.7540     2.3310     0.2220     0.0600
  481.0000   -59.3950    14.0840    18.8350     8.3600    76.1270     2.3190     0.2200     0.0620
  481.5000   -59.4200    14.0190    18.5770     8.3600    76.5030     2.3200     0.2180     0.0620
  482.0000   -59.4470    13.9460    18.1940     8.3600    77.0170     2.3280     0.2050     0.0590
  482.5000   -59.4770    13.8720    17.8520     8.3600    79.1270     2.3440     0.1940     0.0520
  483.0000   -59.6030    13.7990    17.5090     8.3600    81.6470     2.3610     0.1830     0.0450
  483.5000   -59.7640    13.7260    17.1660     8.3600    84.3430     2.3790     0.1790     0.0370
  484.0000   -59.9230    13.6520    16.8230     8.3600    85.8060     2.3880     0.1820     0.0330
  484.5000   -60.0810    13.5790    16.4810     8.3600    83.1700     2.3850     0.1860     0.0330
  485.0000   -60.2400    13.5060    16.1380     8.3600    80.7890     2.3780     0.1890     0.0320
  485.5000   -60.3980    13.4320    15.7950     8.3600    77.9810     2.3720     0.1930     0.0310
  486.0000   -60.5570    13.3590    15.4530     8.3600    77.1030     2.3670     0.1910     0.0300
  486.5000   -60.7160    13.2850    15.1100     8.3600    76.6450     2.3700     0.1880     0.0280
  487.0000   -60.8750    13.2120    14.8860     8.3600    78.5810     2.3760     0.1850     0.0260
  487.5000   -61.0340    13.1390    14.8860     8.3600    80.5920     2.3810     0.1830     0.0280
  488.0000   -61.1920    13.0650    14.8860     8.3600    82.6900     2.3800     0.1870     0.0310
  488.5000   -61.3520    12.9920    14.8860     8.3600    84.5620     2.3750     0.1960     0.0340
  489.0000   -61.4950    12.9190    14.8860     8.3600    85.4100     2.3700     0.1940     0.0370
  489.5000   -61.6090    12.8420    14.8860     8.3600    86.2000     2.3710     0.1890     0.0370
  490.0000   -61.7130    12.7340    14.8860     8.3600    87.0300     2.3770     0.1840     0.0350
  490.5000   -61.8180    12.6200    14.8860     8.3600    88.6220     2.3810     0.1780     0.0340
  491.0000   -61.9230    12.5070    15.0290     8.3600    90.3790     2.3860     0.1770     0.0320
  491.5000   -62.0280    12.3940    15.1670     8.3600    91.0010     2.3890     0.1770     0.0310
  492.0000   -62.1300    12.2810    15.3040     8.3600    90.7850     2.3870     0.1820     0.0290
  492.5000   -62.2450    12.1670    15.4420     8.3600    90.6670     2.3780     0.1910     0.0270
  493.0000   -62.2760    12.0540    15.5800     8.3600    90.1000     2.3660     0.1990     0.0260
  493.5000   -62.1990    11.9410    15.7330     8.3600    87.1270     2.3550     0.2030     0.0260
  494.0000   -62.1350    11.8280    15.5930     8.3600    86.0750     2.3540     0.2020     0.0260
  494.5000   -62.0660    11.7100    15.4340     8.3600    86.8640     2.3550     0.2010     0.0260
  495.0000   -61.9980    11.7440    15.2750     8.3600    84.1680     2.3560     0.1990     0.0260
  495.5000   -61.9320    11.7780    15.1160     8.3600    82.8910     2.3580     0.1980     0.0300
  496.0000   -61.8640    11.8130    14.9580     8.3600    83.5740     2.3590     0.1970     0.0350
  496.5000   -61.7990    11.8480    14.7990     8.3600    85.2560     2.3690     0.1910     0.0400
  497.0000   -61.7300    11.8820    14.6400     8.3600    86.9390     2.3780     0.1820     0.0410
  497.5000   -61.6620    11.9170    14.4810     8.3600    88.0450     2.3880     0.1760     0.0390
  498.0000   -61.6040    11.9520    14.3220     8.3600    87.4680     2.3900     0.1780     0.0380
  498.5000   -61.5060    11.9860    14.1630     8.3600    86.9490     2.3890     0.1810     0.0380
  499.0000   -61.7070    12.0210    14.0450     8.3600    86.3530     2.3880     0.1820     0.0380
  499.5000   -62.2050    12.0550    13.9670     8.3600    86.9590     2.3870     0.1790     0.0360
  500.0000   -62.6640    12.0900    13.8900     8.3600    87.6800     2.3900     0.1760     0.0340
  500.5000   -63.1340    12.1250    13.8120     8.3600    87.0210     2.3970     0.1710     0.0310
  501.0000   -63.6010    12.1510    13.7340     8.3600    87.1960     2.4000     0.1740     0.0300
  501.5000   -64.0750    12.1510    13.6570     8.3610    89.6840     2.3950     0.1810     0.0300
  502.0000   -64.5320    12.1510    13.5740     8.3640    93.5400     2.3910     0.1790     0.0300
  502.5000   -65.0000    12.1510    13.5740     8.3660    91.4710     2.3880     0.1760     0.0300
  503.0000   -64.9290    12.1510    13.7950     8.3690    86.8460     2.3880     0.1810     0.0300
  503.5000   -64.6600    12.1510    13.9880     8.3710    81.3530     2.3840     0.1880     0.0300
