~VERSION INFORMATION
 VERS.                2.0:   CWLS LOG ASCII STANDARD - VERSION 2.0
 WRAP.                 NO:   ONE LINE PER DEPTH STEP
~WELL INFORMATION
#MNEM.UNIT      DATA TYPE    INFORMATION
#----------   ------------   ------------------------------
 STRT.F           31.0000:   START DEPTH
 STOP.F          600.0000:   STOP DEPTH
 STEP.F            0.5000:   STEP LENGTH
 NULL.          -999.2500:   NO VALUE
 COMP. FENIX & SCISSON INC:   COMPANY
 WELL.      NPR 3 #84 S-3:   WELL
 FLD .             TEAPOT:   FIELD
 LOC .       S3 T38N R78W:   LOCATION
 CNTY.            NATRONA:   COUNTY
 STAT.            WYOMING:   STATE
 CTRY. UNITED STATES OF AMERICA:   COUNTRY
 SRVC.              Welex:   SERVICE COMPANY
 DATE.        29-MAR-1977:   LOGDATE
 API .       490251032000:   API NUMBER
~CURVE INFORMATION
#MNEM.UNIT       API CODE    CURVE DESCRIPTION
#----------   ------------   ------------------------------
 DEPT.F                  :   
 CALD.IN     45 280 60 00:   CALIPER FROM DENSITY LOG
 GRD .GAPI   45 310 01 00:   GAMMA RAY FROM DENSITY LOG
 CORR.G/C3   45 356 01 00:   DENSITY CORRECTION
 DPHI.DEC    45 890 12 00:   DENSITY POROSITY SANDSTONE
 RHOB.G/C3   45 350 01 00:   BULK DENSITY
 SPR .MV     07 010 01 00:   SPONTANEOUS POTENTIAL
 ILD .OHMM   07 120 46 00:   INDUCTION LOG DEEP
 ILM .OHMM   07 120 44 00:   INDUCTION LOG MEDIUM
 SGRD.OHMM   07 221 05 00:   SHALLOW SHORT GUARD RESISTIVITY
~PARAMETER INFORMATION
#MNEM.UNIT          VALUE    DESCRIPTION
#----------   ------------   ------------------------------
 PD  .                 GL:   PERMANENT DATUM
 EPD .F              5146:   ELEVATION PERMANENT DATUM
 LMF .                 GL:   LOG MEASURED FROM
 DMF .                 GL:   DRILLING MEASURED FROM
 EGL .F              5146:   GROUND LEVEL
 DATE.        29-MAR-1977:   RUN DATE
 RUN .                  1:   RUN NUMBER
 DD  .F               610:   DEPTH DRILLER
 DL  .F               602:   DEPTH LOGGER
 BLI .F               600:   BOTTOM LOG INTERVAL
 TLI .F                30:   TOP LOG INTERVAL
 CS  .IN            8.625:   CASING SIZE
 BSD .F               610:   BIT SIZE AT DEPTH
 DFT .                KCL:   DRILLING FLUID TYPE
 DFD .                8.8:   DRILLING FLUID DENSITY
 BHT .F                63:   BOTTOM HOLE TEMPERATURE
 TCS .HRS            0500:   TIME CURCULATED STOPPED
 MRT .F                63:   MAXIMUM RECORDED TEMPERATURE
 ENGI.            C. DOAK:   RECORDING ENGINEER
 WITN.            R. LYON:   WITNESSED BY
 CLNT.            A2DTECH:   CLIENT CODE
 ORIG.           5" PRINT:   ORIGIN OF DATA
 UWI .       490251032000:   UNIQUE WELL ID
 DICO. A2D Technologies, Inc.:   DIGITIZING COMPANY
~OTHER INFORMATION
~A   DEPT     CALD        GRD       CORR       DPHI       RHOB        SPR        ILD        ILM       SGRD   
# ...
  250.0000     7.9672   114.4368    -0.0053     0.1108     2.4625   -46.1530     7.6175     8.8270    11.5727
  250.5000     7.9689   112.9941    -0.0051     0.1105     2.4603   -37.4283     7.6212     8.9048    11.4221
  251.0000     7.9705   111.8788    -0.0034     0.1104     2.4604   -38.4536     7.6249     9.0014    10.8891
  251.5000     7.9572   112.1917    -0.0017     0.1077     2.4620   -41.1135     7.6286     9.1940    10.8195
  252.0000     7.9589   113.6968     0.0014     0.1050     2.4673   -39.9100     7.5787     9.3908    11.2104
  252.5000     7.9455   114.7548     0.0031     0.1020     2.4726   -37.6664     7.5833     9.2016    11.0638
  253.0000     7.9323   115.0676     0.0048     0.0996     2.4795   -36.3144     7.5870     8.7702    11.2258
  253.5000     7.9343   114.3373     0.0049     0.0993     2.4795   -34.9623     7.5907     8.5334    11.3381
  254.0000     7.9359   114.5011     0.0066     0.1055     2.4706   -35.0961     7.6579     8.7169    10.9342
  254.5000     7.9373   115.1120     0.0068     0.1079     2.4639   -36.7159     7.6616     9.0275    11.0177
  255.0000     7.9390   115.8720     0.0069     0.1097     2.4588   -36.2553     7.6125     8.7241    11.1095
  255.5000     7.9405   116.4829     0.0056     0.1124     2.4543   -34.7547     7.6162     8.3150    10.7315
  256.0000     7.9270   115.5996     0.0058     0.1154     2.4541   -35.9286     7.5153     8.7313    10.6607
  256.5000     7.9289   114.5668     0.0029     0.1150     2.4539   -36.3596     7.4671     8.4378    10.9719
  257.0000     7.9308   113.5211     0.0016     0.1117     2.4530   -35.8930     7.4173     8.1542    11.0557
  257.5000     7.9322   113.1143     0.0002     0.1164     2.4524   -35.5869     7.2673     8.2142    11.2176
  258.0000     7.9489   114.6856    -0.0014     0.1215     2.4495   -35.2749     7.1203     8.3900    10.7656
  258.5000     7.9504   115.6774    -0.0039     0.1236     2.4436   -35.2605     6.9283     7.8867    10.5543
  259.0000     7.9520   111.9701    -0.0038     0.1242     2.4414   -36.0099     6.6950     7.3624    10.4764
  259.5000     7.9540   110.1966    -0.0036     0.1230     2.4497   -36.1225     6.4696     7.5200    10.1312
  260.0000     7.9704   110.8075    -0.0050     0.1176     2.4543   -35.9591     6.1326     7.5231     9.7827
  260.5000     7.9718   111.2694    -0.0048     0.1062     2.4641   -36.5350     5.9683     7.2702     9.1852
  261.0000     7.9735   110.0919    -0.0046     0.1092     2.4627   -36.6726     5.8885     6.8341     8.5029
  261.5000     7.9751   108.1693    -0.0045     0.1149     2.4560   -35.1682     5.8920     6.5589     7.3945
  262.0000     7.9770   109.6744    -0.0028     0.1199     2.4501   -33.8199     5.8949     6.6530     6.6224
  262.5000     7.9785   113.1169    -0.0026     0.1211     2.4499   -36.0339     5.9386     6.8901     8.8043
  263.0000     7.9800   114.3240     0.0006     0.1148     2.4585   -35.1239     6.0241     7.1851     9.9800
  263.5000     7.9817   114.4878     0.0022     0.1085     2.4623   -35.7072     6.1109     7.4412    10.4088
  264.0000     7.9832   110.6278     0.0039     0.1075     2.4624   -33.6085     6.2419     7.6539     9.9248
  264.5000     7.9700   109.4466     0.0071     0.1079     2.4633   -31.9593     6.4199     7.4990     9.7933
  265.0000     7.9717   111.9986     0.0088     0.1040     2.4770   -32.3903     6.6029     7.8744     9.8698
  265.5000     7.9736   111.7153     0.0119     0.0988     2.4869   -33.7128     6.7912     7.7158    10.2246
  266.0000     7.9603   109.9418     0.0136     0.0937     2.4951   -35.0354     6.9849     7.7770    10.5903
  266.5000     7.9618   108.9133     0.0153     0.0900     2.4995   -35.9121     7.0855     8.0056    10.4518
  267.0000     7.9633   109.6733     0.0154     0.0873     2.4996   -36.1946     7.1381     8.2219    10.7528
  267.5000     7.9650   110.4332     0.0172     0.0859     2.4996   -36.7742     7.1415     8.1602    10.3223
  268.0000     7.9517   109.1068     0.0173     0.0859     2.4997   -37.5023     6.9983     7.9946    10.4030
  268.5000     7.9533   107.0351     0.0175     0.0883     2.4968   -38.6763     6.8572     8.1197    10.4101
  269.0000     7.9380   107.1989     0.0161     0.0927     2.4879   -39.1110     6.7206     8.0114    10.2031
  269.5000     7.9268   109.1511     0.0148     0.0972     2.4842   -37.6066     6.6316     7.8501     9.9312
  270.0000     7.9135   111.1033     0.0134     0.1029     2.4768   -34.9210     6.5437     7.9078     9.5336
  270.5000     7.8857   112.9065     0.0106     0.1088     2.4634   -38.4687     6.5010     7.6951     9.2139
  271.0000     7.8571   113.6664     0.0092     0.1139     2.4514   -38.1567     6.3707     7.2837     9.2859
  271.5000     7.7995   112.1909     0.0064     0.1196     2.4425   -36.2103     6.1580     7.0871     9.4219
  272.0000     7.7267   109.5231     0.0035     0.1262     2.4313   -36.7899     5.9518     7.2897     9.4284
  272.5000     7.6683   109.0908     0.0007     0.1297     2.4247   -38.8554     5.6735     7.0937     9.3051
  273.0000     7.6550   109.4178    -0.0022     0.1246     2.4345   -39.5836     5.4835     6.8552     9.1818
  273.5000     7.6719   110.6453    -0.0035     0.1144     2.4533   -41.0547     5.3366     6.2681     8.8157
  274.0000     7.7332   112.4620    -0.0049     0.1075     2.4699   -40.4456     5.2296     6.1838     8.2888
  274.5000     7.8242   114.7258    -0.0047     0.1087     2.4669   -41.1738     5.0895     5.9354     7.1718
  275.0000     7.9004   117.3374    -0.0045     0.1129     2.4603   -44.2793     5.0569     5.3155     5.1472
  275.5000     7.9467   120.8077    -0.0029     0.1177     2.4550   -45.0075     5.0245     5.2079     5.3322
  276.0000     7.9632   122.3128    -0.0010     0.1157     2.4499   -43.1540     5.1697     6.1095     9.0946
  276.5000     7.9648   123.0728     0.0020     0.1119     2.4541   -39.8782     5.3580     6.2836     9.2278
  277.0000     7.9665   122.7858     0.0037     0.1107     2.4591   -38.2764     5.5895     6.7366     9.2983
  277.5000     7.9681   121.7611     0.0054     0.1098     2.4562   -38.5983     5.8661     7.2223     9.5661
  278.0000     7.9697   120.8817     0.0040     0.1056     2.4652   -41.4860     6.1609     7.0768     9.9099
  278.5000     7.9560   120.1513     0.0012     0.1044     2.4728   -44.3517     6.3817     7.0302    10.1953
  279.0000     7.9428   120.1661    -0.0017     0.1058     2.4706   -43.7118     6.6013     7.6428    10.3446
  279.5000     7.9295   120.0319    -0.0045     0.1070     2.4677   -46.0745     6.6503     7.8606    10.0629
  280.0000     7.8868   119.3015    -0.0044     0.1073     2.4663   -49.0352     6.7928     7.5964     9.8006
  280.5000     7.8437   117.6770    -0.0042     0.1052     2.4701   -47.2336     6.8907     7.8128    10.0892
  281.0000     7.8155   116.7939    -0.0040     0.1067     2.4679   -46.1788     6.9899     8.1474    10.2387
  281.5000     7.8321   117.7066     0.0007     0.1028     2.4747   -44.6781     7.0906     8.1507    10.5453
  282.0000     7.8635   118.4665     0.0084     0.0980     2.4838   -42.5831     7.1927     8.1541    11.1574
  282.5000     7.9099   117.4381     0.0146     0.0925     2.4951   -38.5565     7.2963     8.4446    11.2953
  283.0000     7.9264   116.5587     0.0193     0.0862     2.5035   -36.6101     7.4014     8.8674    10.9961
  283.5000     7.9429   116.2717     0.0224     0.0820     2.5088   -39.8643     7.5080     8.9390    10.7031
  284.0000     7.9296   115.8431     0.0256     0.0808     2.5103   -39.4037     7.6161     8.6325    11.0113
  284.5000     7.9164   115.5561     0.0273     0.0814     2.5097   -41.6178     7.6726     9.0021    11.4071
  285.0000     7.9031   116.7669     0.0305     0.0823     2.5082   -45.7635     7.7295     9.1948    11.5721
  285.5000     7.8898   118.8681     0.0321     0.0839     2.5053   -47.2346     7.7868     9.0721    10.9579
  286.0000     7.8765   120.6713     0.0323     0.0862     2.5016   -46.9227     7.7906     9.3954    10.8879
