~VERSION INFORMATION
 VERS.                2.0:   CWLS LOG ASCII STANDARD - VERSION 2.0
 WRAP.                 NO:   ONE LINE PER DEPTH STEP
~WELL INFORMATION
#MNEM.UNIT      DATA TYPE    INFORMATION
#----------   ------------   ------------------------------
 STRT.F            0.0000:   START DEPTH
 STOP.F         2758.0000:   STOP DEPTH
 STEP.F            0.5000:   STEP LENGTH
 NULL.          -999.2500:   NO VALUE
 COMP. FENIX & SCISSON INC:   COMPANY
 WELL.       402A #402-20:   WELL
 FLD .             TEAPOT:   FIELD
 LOC .      S20 T39N R78W:   LOCATION
 CNTY.            NATRONA:   COUNTY
 STAT.            WYOMING:   STATE
 CTRY. UNITED STATES OF AMERICA:   COUNTRY
 SRVC.      NL McCullough:   SERVICE COMPANY
 DATE.        15-JUL-1965:   LOGDATE
 API .       490251021100:   API NUMBER
~CURVE INFORMATION
#MNEM.UNIT       API CODE    CURVE DESCRIPTION
#----------   ------------   ------------------------------
 DEPT.F                  :   
 GR  .GAPI   30 310 01 00:   GAMMA RAY
 CALI.IN     70 280 01 00:   CALIPER
~PARAMETER INFORMATION
#MNEM.UNIT          VALUE    DESCRIPTION
#----------   ------------   ------------------------------
 PD  .                 GL:   PERMANENT DATUM
 LMF .                 GL:   LOG MEASURED FROM
 DMF .                 GL:   DRILLING MEASURED FROM
 DATE.            7-15-65:   RUN DATE
 RUN .                  1:   RUN NUMBER
 DL  .F              2759:   DEPTH LOGGER
 BLI .F              2758:   BOTTOM LOG INTERVAL
 TLI .F              2100:   TOP LOG INTERVAL
 CS  .IN                7:   CASING SIZE
 ENGI. FITZSIMMONS/COWLTHORPE:   RECORDING ENGINEER
 WITN.             HUDSON:   WITNESSED BY
 CLNT.            A2DTECH:   CLIENT CODE
 ORIG.           5" PRINT:   ORIGIN OF DATA
 UWI .       490251021100:   UNIQUE WELL ID
 DICO. A2D Technologies, Inc.:   DIGITIZING COMPANY
~OTHER INFORMATION
~A    DEPT      GR         CALI 
# ...
 1579.5000  -999.2500     5.6606
 1580.0000  -999.2500     5.6592
 1580.5000  -999.2500     5.6578
 1581.0000  -999.2500     5.6564
 1581.5000  -999.2500     5.6550
 1582.0000  -999.2500     5.6536
 1582.5000  -999.2500     5.6522
 1583.0000  -999.2500     5.6508
 1583.5000  -999.2500     5.6494
 1584.0000  -999.2500     5.6480
 1584.5000  -999.2500     5.6467
 1585.0000  -999.2500     5.6453
 1585.5000  -999.2500     5.6439
 1586.0000  -999.2500     5.6425
 1586.5000  -999.2500     5.6411
 1587.0000  -999.2500     5.6397
 1587.5000  -999.2500     5.6383
 1588.0000  -999.2500     5.6369
 1588.5000  -999.2500     5.6355
 1589.0000  -999.2500     5.6341
 1589.5000  -999.2500     5.6328
 1590.0000  -999.2500     5.6347
 1590.5000  -999.2500     5.6401
 1591.0000  -999.2500     5.6455
 1591.5000  -999.2500     5.6509
 1592.0000  -999.2500     5.6501
 1592.5000  -999.2500     5.6447
 1593.0000  -999.2500     5.6393
 1593.5000  -999.2500     5.6339
 1594.0000  -999.2500     5.6321
 1594.5000  -999.2500     5.6320
 1595.0000  -999.2500     5.6320
 1595.5000  -999.2500     5.6320
 1596.0000  -999.2500     5.6375
 1596.5000  -999.2500     5.6477
 1597.0000  -999.2500     5.6579
 1597.5000  -999.2500     5.6682
 1598.0000  -999.2500     5.6702
 1598.5000  -999.2500     5.6673
 1599.0000  -999.2500     5.6642
 1599.5000  -999.2500     5.6612
 1600.0000  -999.2500     5.6582
 1600.5000  -999.2500     5.6551
 1601.0000  -999.2500     5.6523
 1601.5000  -999.2500     5.6589
 1602.0000  -999.2500     5.6660
 1602.5000  -999.2500     5.6719
 1603.0000  -999.2500     5.6684
 1603.5000  -999.2500     5.6650
 1604.0000  -999.2500     5.6616
 1604.5000  -999.2500     5.6582
 1605.0000  -999.2500     5.6548
 1605.5000  -999.2500     5.6523
 1606.0000  -999.2500     5.6679
 1606.5000  -999.2500     5.6860
 1607.0000  -999.2500     5.6617
 1607.5000  -999.2500     5.6367
 1608.0000  -999.2500     5.6421
 1608.5000  -999.2500     5.6551
 1609.0000  -999.2500     5.6691
 1609.5000  -999.2500     5.6554
 1610.0000  -999.2500     5.6332
 1610.5000  -999.2500     5.6447
 1611.0000  -999.2500     5.6585
 1611.5000  -999.2500     5.6661
 1612.0000  -999.2500     5.6782
 1612.5000  -999.2500     5.6716
 1613.0000  -999.2500     5.6520
 1613.5000  -999.2500     5.6521
 1614.0000  -999.2500     5.6562
 1614.5000  -999.2500     5.6766
 1615.0000  -999.2500     5.6861
 1615.5000  -999.2500     5.6795
 1616.0000  -999.2500     5.6721
 1616.5000  -999.2500     5.6648
 1617.0000  -999.2500     5.6575
 1617.5000  -999.2500     5.6526
 1618.0000  -999.2500     5.6719
 1618.5000  -999.2500     5.6912
 1619.0000  -999.2500     5.6866
 1619.5000  -999.2500     5.6803
 1620.0000  -999.2500     5.6741
 1620.5000  -999.2500     5.6680
 1621.0000  -999.2500     5.6618
 1621.5000  -999.2500     5.6556
 1622.0000  -999.2500     5.6525
 1622.5000  -999.2500     5.6640
 1623.0000  -999.2500     5.6757
 1623.5000  -999.2500     5.6873
 1624.0000  -999.2500     5.6878
 1624.5000  -999.2500     5.6768
 1625.0000  -999.2500     5.6658
 1625.5000  -999.2500     5.6543
 1626.0000  -999.2500     5.6597
 1626.5000  -999.2500     5.6698
 1627.0000  -999.2500     5.6800
 1627.5000  -999.2500     5.6901
 1628.0000  -999.2500     5.7002
 1628.5000  -999.2500     5.7107
 1629.0000  -999.2500     5.7041
 1629.5000  -999.2500     5.6941
 1630.0000  -999.2500     5.6841
 1630.5000  -999.2500     5.6740
 1631.0000  -999.2500     5.6744
 1631.5000  -999.2500     5.6803
 1632.0000  -999.2500     5.6862
 1632.5000  -999.2500     5.6921
 1633.0000  -999.2500     5.6859
 1633.5000  -999.2500     5.6778
 1634.0000  -999.2500     5.6731
 1634.5000  -999.2500     5.6948
 1635.0000  -999.2500     5.7115
 1635.5000  -999.2500     5.7038
 1636.0000  -999.2500     5.6965
 1636.5000  -999.2500     5.6893
 1637.0000  -999.2500     5.6821
 1637.5000  -999.2500     5.6749
 1638.0000  -999.2500     5.6753
 1638.5000  -999.2500     5.6828
 1639.0000  -999.2500     5.6902
 1639.5000  -999.2500     5.6977
 1640.0000  -999.2500     5.7054
 1640.5000  -999.2500     5.7113
 1641.0000  -999.2500     5.6915
 1641.5000  -999.2500     5.6716
 1642.0000  -999.2500     5.6525
 1642.5000  -999.2500     5.6584
 1643.0000  -999.2500     5.6666
 1643.5000  -999.2500     5.6746
 1644.0000  -999.2500     5.6827
 1644.5000  -999.2500     5.6909
 1645.0000  -999.2500     5.6920
 1645.5000  -999.2500     5.6871
 1646.0000  -999.2500     5.6821
 1646.5000  -999.2500     5.6773
 1647.0000  -999.2500     5.6724
 1647.5000  -999.2500     5.6676
 1648.0000  -999.2500     5.6627
 1648.5000  -999.2500     5.6578
 1649.0000  -999.2500     5.6528
 1649.5000  -999.2500     5.6553
 1650.0000  -999.2500     5.6593
 1650.5000  -999.2500     5.6633
 1651.0000  -999.2500     5.6673
 1651.5000  -999.2500     5.6713
 1652.0000  -999.2500     5.6753
 1652.5000  -999.2500     5.6792
 1653.0000  -999.2500     5.6832
 1653.5000  -999.2500     5.6872
 1654.0000  -999.2500     5.6915
 1654.5000  -999.2500     5.6850
 1655.0000  -999.2500     5.6756
 1655.5000  -999.2500     5.6661
 1656.0000  -999.2500     5.6568
 1656.5000  -999.2500     5.6597
 1657.0000  -999.2500     5.6860
 1657.5000  -999.2500     5.7115
 1658.0000  -999.2500     5.7077
 1658.5000  -999.2500     5.7017
 1659.0000  -999.2500     5.6957
 1659.5000  -999.2500     5.6898
 1660.0000  -999.2500     5.6839
 1660.5000  -999.2500     5.6779
 1661.0000  -999.2500     5.6721
 1661.5000  -999.2500     5.6785
 1662.0000  -999.2500     5.6865
 1662.5000  -999.2500     5.6945
 1663.0000  -999.2500     5.7024
 1663.5000  -999.2500     5.7105
 1664.0000  -999.2500     5.7096
 1664.5000  -999.2500     5.7027
 1665.0000  -999.2500     5.6958
 1665.5000  -999.2500     5.6888
 1666.0000  -999.2500     5.6820
 1666.5000  -999.2500     5.6750
 1667.0000  -999.2500     5.6756
 1667.5000  -999.2500     5.6816
 1668.0000  -999.2500     5.6877
 1668.5000  -999.2500     5.6938
 1669.0000  -999.2500     5.6999
 1669.5000  -999.2500     5.7060
 1670.0000  -999.2500     5.7121
 1670.5000  -999.2500     5.7068
 1671.0000  -999.2500     5.6999
 1671.5000  -999.2500     5.6930
 1672.0000  -999.2500     5.6861
 1672.5000  -999.2500     5.6791
 1673.0000  -999.2500     5.6723
 1673.5000  -999.2500     5.6747
 1674.0000  -999.2500     5.6782
 1674.5000  -999.2500     5.6817
 1675.0000  -999.2500     5.6851
 1675.5000  -999.2500     5.6886
 1676.0000  -999.2500     5.6920
 1676.5000  -999.2500     5.6922
 1677.0000  -999.2500     5.6921
 1677.5000  -999.2500     5.6921
 1678.0000  -999.2500     5.6925
 1678.5000  -999.2500     5.6938
 1679.0000  -999.2500     5.6951
 1679.5000  -999.2500     5.6964
 1680.0000  -999.2500     5.6977
 1680.5000  -999.2500     5.6990
 1681.0000  -999.2500     5.7003
 1681.5000  -999.2500     5.7016
 1682.0000  -999.2500     5.7028
 1682.5000  -999.2500     5.7041
 1683.0000  -999.2500     5.7054
 1683.5000  -999.2500     5.7067
 1684.0000  -999.2500     5.7080
 1684.5000  -999.2500     5.7093
 1685.0000  -999.2500     5.7106
 1685.5000  -999.2500     5.7119
 1686.0000  -999.2500     5.7122
 1686.5000  -999.2500     5.7122
 1687.0000  -999.2500     5.7122
 1687.5000  -999.2500     5.7122
 1688.0000  -999.2500     5.7120
 1688.5000  -999.2500     5.7004
 1689.0000  -999.2500     5.6651
 1689.5000  -999.2500     5.6808
 1690.0000  -999.2500     5.7274
 1690.5000  -999.2500     5.6872
 1691.0000  -999.2500     5.6680
 1691.5000  -999.2500     5.6590
 1692.0000  -999.2500     5.6542
 1692.5000  -999.2500     5.6684
 1693.0000  -999.2500     5.6821
 1693.5000  -999.2500     5.6911
 1694.0000  -999.2500     5.6854
 1694.5000  -999.2500     5.6801
 1695.0000  -999.2500     5.6748
 1695.5000  -999.2500     5.6695
 1696.0000  -999.2500     5.6642
 1696.5000  -999.2500     5.6589
 1697.0000  -999.2500     5.6533
 1697.5000  -999.2500     5.6540
 1698.0000  -999.2500     5.6688
 1698.5000  -999.2500     5.6835
 1699.0000  -999.2500     5.6915
 1699.5000  -999.2500     5.6877
 1700.0000  -999.2500     5.6842
 1700.5000  -999.2500     5.6806
