~VERSION INFORMATION
 VERS.                2.0:   CWLS LOG ASCII STANDARD - VERSION 2.0
 WRAP.                 NO:   ONE LINE PER DEPTH STEP
~WELL INFORMATION
#MNEM.UNIT      DATA TYPE    INFORMATION
#----------   ------------   ------------------------------
 STRT.F            2.0000:   START DEPTH
 STOP.F          602.0000:   STOP DEPTH
 STEP.F            0.1000:   STEP LENGTH
 NULL.          -999.2500:   NO VALUE
 COMP.       F D SERV INC:   COMPANY
 WELL.    63-1 SX-3 #63-3:   WELL
 FLD .             TEAPOT:   FIELD
 LOC .       S3 T38N R78W:   LOCATION
 CNTY.            NATRONA:   COUNTY
 STAT.            WYOMING:   STATE
 CTRY. UNITED STATES OF AMERICA:   COUNTRY
 SRVC.     Atlas Wireline:   SERVICE COMPANY
 DATE.        20-APR-1992:   LOGDATE
 API .       490252251300:   API NUMBER
~CURVE INFORMATION
#MNEM.UNIT       API CODE    CURVE DESCRIPTION
#----------   ------------   ------------------------------
 DEPT.F                  :   
 GRR .GAPI   07 310 01 00:   GAMMA RAY
 RILD.OHMM   07 120 46 00:   INDUCTION LOG DEEP RESISTIVITY
 RILM.OHMM   07 120 44 00:   INDUCTION LOG MEDIUM RESISTIVITY
~PARAMETER INFORMATION
#MNEM.UNIT          VALUE    DESCRIPTION
#----------   ------------   ------------------------------
 PD  .                 GL:   PERMANENT DATUM
 EPD .F              5176:   ELEVATION PERMANENT DATUM
 LMF .                 KB:   LOG MEASURED FROM
 DAPD.F                 5:   FEET ABOVE PERMANENT DATUM
 DMF .                 KB:   DRILLING MEASURED FROM
 EKB .F              5181:   KELLING BUSHING
 EDF .F              5180:   DRILLING FLOOR
 EGL .F              5176:   GROUND LEVEL
 DATE.        20-APR-1992:   RUN DATE
 RUN .                  1:   RUN NUMBER
 DD  .F               608:   DEPTH DRILLER
 DL  .F               608:   DEPTH LOGGER
 BLI .F               602:   BOTTOM LOG INTERVAL
 CS  .IN            8.625:   CASING SIZE
 CBD .F                48:   CASING BOTTOM DRILLER
 CBL .F                50:   CASING BOTTOM LOGGER
 BS  .IN            7.875:   BIT SIZE
 BSD .F               608:   BIT SIZE AT DEPTH
 DFT .                AIR:   DRILLING FLUID TYPE
 TCS .HRS               2:   TIME CURCULATED STOPPED
 MRT .F                85:   MAXIMUM RECORDED TEMPERATURE
 LUN .           HL- 6274:   LOGGING UNIT NUMBER
 LUL .             CASPER:   LOGGING UNIT LOCATION
 ENGI.             RAUTIO:   RECORDING ENGINEER
 WITN.        GARY STRONG:   WITNESSED BY
 CLNT.            A2DTECH:   CLIENT CODE
 ORIG.           5" PRINT:   ORIGIN OF DATA
 UWI .       490252251300:   UNIQUE WELL ID
 DICO. A2D Technologies, Inc.:   DIGITIZING COMPANY
~OTHER INFORMATION
~A    DEPT      GRR      RILD       RILM   
# ...
  584.4000  -999.2500     7.3855     7.4178
  584.5000  -999.2500     7.3428     7.3590
  584.6000  -999.2500     7.2591     7.2814
  584.7000  -999.2500     7.1763     7.2367
  584.8000  -999.2500     7.0945     7.1977
  584.9000  -999.2500     7.0135     7.1273
  585.0000  -999.2500     6.9333     7.0458
  585.1000  -999.2500     6.8464     6.9652
  585.2000  -999.2500     6.8110     6.8855
  585.3000  -999.2500     6.7457     6.7927
  585.4000  -999.2500     6.6687     6.7292
  585.5000  -999.2500     6.6015     6.6523
  585.6000  -999.2500     6.5629     6.5625
  585.7000  -999.2500     6.4881     6.4557
  585.8000  -999.2500     6.3851     6.3764
  585.9000  -999.2500     6.2968     6.2760
  586.0000  -999.2500     6.2249     6.1936
  586.1000  -999.2500     6.1489     6.1229
  586.2000  -999.2500     6.0353     6.0529
  586.3000  -999.2500     5.9723     5.9815
  586.4000  -999.2500     5.8809     5.8202
  586.5000  -999.2500     5.7806     5.7402
  586.6000  -999.2500     5.6818     5.6423
  586.7000  -999.2500     5.5846     5.5460
  586.8000  -999.2500     5.4719     5.4471
  586.9000  -999.2500     5.3960     5.3130
  587.0000  -999.2500     5.3040     5.2304
  587.1000  -999.2500     5.2026     5.1212
  587.2000  -999.2500     5.0888     5.0051
  587.3000  -999.2500     4.9960     4.8916
  587.4000  -999.2500     4.8648     4.7800
  587.5000  -999.2500     4.6711     4.6454
  587.6000  -999.2500     4.5112     4.5145
  587.7000  -999.2500     4.4223     4.3872
  587.8000  -999.2500     4.3705     4.2800
  587.9000  -999.2500     4.2834     4.2040
  588.0000  -999.2500     4.2228     4.0993
  588.1000  -999.2500     4.1365     4.0363
  588.2000  -999.2500     4.0515     3.9523
  588.3000  -999.2500     3.9674     3.8529
  588.4000  -999.2500     3.8030     3.7392
  588.5000  -999.2500     3.6620     3.6128
  588.6000  -999.2500     3.5039     3.5111
  588.7000  -999.2500     3.3851     3.4273
  588.8000  -999.2500     3.3083     3.3391
  588.9000  -999.2500     3.2342     3.2571
  589.0000  -999.2500     3.1707     3.2015
  589.1000  -999.2500     3.1928     3.1409
  589.2000  -999.2500     3.1813     3.1089
  589.3000  -999.2500     3.1558     3.0851
  589.4000  -999.2500     3.1165     3.0673
  589.5000  -999.2500     3.0614     3.0535
  589.6000  -999.2500     3.0278     3.0533
  589.7000  -999.2500     2.9932     3.0705
  589.8000  -999.2500     2.9678     3.0879
  589.9000  -999.2500     2.9559     3.1152
  590.0000  -999.2500     2.9558     3.1507
  590.1000  -999.2500     2.9557     3.1866
  590.2000  -999.2500     2.9556     3.2274
  590.3000  -999.2500     2.9665     3.2599
  590.4000  -999.2500     2.9834     3.2971
  590.5000  -999.2500     3.0004     3.3347
  590.6000  -999.2500     3.0180     3.3728
  590.7000  -999.2500     3.0348     3.4118
  590.8000  -999.2500     3.0655     3.4698
  590.9000  -999.2500     3.1007     3.5295
  591.0000  -999.2500     3.1306     3.5903
  591.1000  -999.2500     3.1503     3.6521
  591.2000  -999.2500     3.1909     3.7129
  591.3000  -999.2500     3.2069     3.7609
  591.4000  -999.2500     3.2374     3.8364
  591.5000  -999.2500     3.2746     3.9102
  591.6000  -999.2500     3.3123     3.9872
  591.7000  -999.2500     3.3504     4.0789
  591.8000  -999.2500     3.4082     4.1751
  591.9000  -999.2500     3.4672     4.2691
  592.0000  -999.2500     3.5386     4.3675
  592.1000  -999.2500     3.6133     4.4681
  592.2000  -999.2500     3.6806     4.5709
  592.3000  -999.2500     3.7989     4.6760
  592.4000  -999.2500     3.8774     4.7993
  592.5000  -999.2500     3.9672     4.9185
  592.6000  -999.2500     4.0591     5.0793
  592.7000  -999.2500     4.1586     5.2309
  592.8000  -999.2500     4.2787     5.3571
  592.9000  -999.2500     4.4032     5.5173
  593.0000  -999.2500     4.5312     5.6088
  593.1000  -999.2500     4.6627     5.7299
  593.2000  -999.2500     4.7978     5.8444
  593.3000  -999.2500     4.9331     5.9449
  593.4000  -999.2500     5.0577     6.0470
  593.5000  -999.2500     5.1373     6.1674
  593.6000  -999.2500     5.2470     6.2573
  593.7000  -999.2500     5.3683     6.3650
  593.8000  -999.2500     5.4923     6.4745
  593.9000  -999.2500     5.6183     6.5791
  594.0000  -999.2500     5.7347     6.6579
  594.1000  -999.2500     5.8147     6.7670
  594.2000  -999.2500     5.9354     6.8263
  594.3000  -999.2500     6.0726     6.8849
  594.4000  -999.2500     6.2024     6.9411
  594.5000  -999.2500     6.2792     6.9428
  594.6000  -999.2500     6.3795     6.9887
  594.7000  -999.2500     6.4638     6.9883
  594.8000  -999.2500     6.5199     6.9878
  594.9000  -999.2500     6.5572     6.9873
  595.0000  -999.2500     6.5946     6.9933
  595.1000  -999.2500     6.6391     7.0353
  595.2000  -999.2500     6.6390     7.0348
  595.3000  -999.2500     6.6616     7.0343
  595.4000  -999.2500     6.6997     7.0339
  595.5000  -999.2500     6.7318     7.0442
  595.6000  -999.2500     6.7316     7.0840
  595.7000  -999.2500     6.7677     7.1312
  595.8000  -999.2500     6.8064     7.1308
  595.9000  -999.2500     6.8453     7.1303
  596.0000  -999.2500     6.8844     7.1451
  596.1000  -999.2500     6.9259     7.1856
  596.2000  -999.2500     7.0187     7.2291
  596.3000  -999.2500     7.0522     7.2286
  596.4000  -999.2500     7.1177     7.2574
  596.5000  -999.2500     7.1994     7.2984
  596.6000  -999.2500     7.2821     7.3397
  596.7000  -999.2500     7.3695     7.3812
  596.8000  -999.2500     7.4504     7.4309
  596.9000  -999.2500     7.5043     7.4650
  597.0000  -999.2500     7.5249     7.5072
  597.1000  -999.2500  -999.2500     7.5497
  597.2000  -999.2500  -999.2500     7.5923
  597.3000  -999.2500  -999.2500     7.6389
  597.4000  -999.2500  -999.2500     7.6384
  597.5000  -999.2500  -999.2500     7.6682
  597.6000  -999.2500  -999.2500     7.7116
  597.7000  -999.2500  -999.2500     7.7443
  597.8000  -999.2500  -999.2500     7.7448
  597.9000  -999.2500  -999.2500     7.7974
  598.0000  -999.2500  -999.2500     7.7969
  598.1000  -999.2500  -999.2500     7.8221
  598.2000  -999.2500  -999.2500     7.8505
  598.3000  -999.2500  -999.2500     7.8500
  598.4000  -999.2500  -999.2500     7.8494
  598.5000  -999.2500  -999.2500     7.8489
  598.6000  -999.2500  -999.2500     7.8483
  598.7000  -999.2500  -999.2500     7.8684
  598.8000  -999.2500  -999.2500     7.9023
  598.9000  -999.2500  -999.2500     7.9017
  599.0000  -999.2500  -999.2500     7.9012
  599.1000  -999.2500  -999.2500     7.9006
  599.2000  -999.2500  -999.2500     7.9001
  599.3000  -999.2500  -999.2500     7.8995
  599.4000  -999.2500  -999.2500     7.8989
  599.5000  -999.2500  -999.2500     7.8984
  599.6000  -999.2500  -999.2500     7.8979
  599.7000  -999.2500  -999.2500     7.8973
  599.8000  -999.2500  -999.2500     7.8766
  599.9000  -999.2500  -999.2500     7.8412
  600.0000  -999.2500  -999.2500     7.8407
  600.1000  -999.2500  -999.2500     7.8401
  600.2000  -999.2500  -999.2500     7.8396
  600.3000  -999.2500  -999.2500     7.8390
  600.4000  -999.2500  -999.2500     7.8385
  600.5000  -999.2500  -999.2500     7.8332
  600.6000  -999.2500  -999.2500     7.7827
  600.7000  -999.2500  -999.2500     7.7823
  600.8000  -999.2500  -999.2500     7.7817
  600.9000  -999.2500  -999.2500     7.7619
  601.0000  -999.2500  -999.2500     7.7265
  601.1000  -999.2500  -999.2500     7.7259
  601.2000  -999.2500  -999.2500     7.7253
  601.3000  -999.2500  -999.2500     7.7248
  601.4000  -999.2500  -999.2500     7.7243
  601.5000  -999.2500  -999.2500     7.7237
  601.6000  -999.2500  -999.2500     7.7232
  601.7000  -999.2500  -999.2500     7.7226
  601.8000  -999.2500  -999.2500     7.7221
  601.9000  -999.2500  -999.2500     7.7216
  602.0000  -999.2500  -999.2500     7.7206
