~VERSION INFORMATION
 VERS.                2.0:   CWLS LOG ASCII STANDARD - VERSION 2.0
 WRAP.                 NO:   ONE LINE PER DEPTH STEP
~WELL INFORMATION
#MNEM.UNIT      DATA TYPE    INFORMATION
#----------   ------------   ------------------------------
 STRT.F          250.0000:   START DEPTH
 STOP.F         2527.0000:   STOP DEPTH
 STEP.F            0.5000:   STEP LENGTH
 NULL.          -999.2500:   NO VALUE
 COMP. FENIX & SCISSON INC:   COMPANY
 WELL.       NPR 3 #18-28:   WELL
 FLD .            WILDCAT:   FIELD
 LOC .      S28 T39N R78W:   LOCATION
 CNTY.            NATRONA:   COUNTY
 STAT.            WYOMING:   STATE
 CTRY. UNITED STATES OF AMERICA:   COUNTRY
 SRVC.            Unknown:   SERVICE COMPANY
 DATE.        01-MAY-1979:   LOGDATE
 API .       490251078000:   API NUMBER
~CURVE INFORMATION
#MNEM.UNIT       API CODE    CURVE DESCRIPTION
#----------   ------------   ------------------------------
 DEPT.F                  :   
 CORR.G/C3   45 356 01 00:   DENSITY CORRECTION
 DPHI.DEC    45 890 12 00:   DENSITY POROSITY SANDSTONE
 RHOB.G/C3   45 350 01 00:   BULK DENSITY
 CALD.IN     45 280 60 00:   CALIPER FROM DENSITY LOG
 GRD .GAPI   45 310 01 00:   GAMMA RAY FROM DENSITY LOG
~PARAMETER INFORMATION
#MNEM.UNIT          VALUE    DESCRIPTION
#----------   ------------   ------------------------------
 PD  .                 GL:   PERMANENT DATUM
 EPD .F              5079:   ELEVATION PERMANENT DATUM
 LMF .                 KB:   LOG MEASURED FROM
 DAPD.F                10:   FEET ABOVE PERMANENT DATUM
 DMF .                 KB:   DRILLING MEASURED FROM
 EKB .F              5089:   KELLING BUSHING
 EGL .F              5079:   GROUND LEVEL
 DATE.             5-1-79:   RUN DATE
 RUN .                  1:   RUN NUMBER
 DL  .F              2527:   DEPTH LOGGER
 BLI .F              2527:   BOTTOM LOG INTERVAL
 TLI .F               250:   TOP LOG INTERVAL
 CS  .IN            9.625:   CASING SIZE
 CBD .F               500:   CASING BOTTOM DRILLER
 CBL .F               495:   CASING BOTTOM LOGGER
 BS  .IN             8.75:   BIT SIZE
 DFT .                AIR:   DRILLING FLUID TYPE
 TCS .HRS              12:   TIME CURCULATED STOPPED
 LUL .             CASPER:   LOGGING UNIT LOCATION
 ENGI.         B. ROLLINS:   RECORDING ENGINEER
 WITN.           DINSMORE:   WITNESSED BY
 CLNT.            A2DTECH:   CLIENT CODE
 ORIG.           5" PRINT:   ORIGIN OF DATA
 UWI .       490251078000:   UNIQUE WELL ID
 DICO. A2D Technologies, Inc.:   DIGITIZING COMPANY
~OTHER INFORMATION
~A   DEPT     CORR       DPHI       RHOB       CALD         GRD  
# ...
 1409.0000     0.0489     0.0069     2.5470     9.3337   118.2329
 1409.5000     0.0463     0.0030     2.5573     9.3393   117.9067
 1410.0000     0.0394     0.0066     2.5417     9.3449   113.1790
 1410.5000     0.0455     0.0119     2.5297     9.3504   109.9760
 1411.0000     0.0438     0.0183     2.5212     9.3560   109.8089
 1411.5000     0.0363     0.0216     2.5253     9.3583   111.5717
 1412.0000     0.0289     0.0240     2.5256     9.3561   113.9922
 1412.5000     0.0274     0.0264     2.5061     9.3539   115.7345
 1413.0000     0.0326     0.0284     2.5108     9.3518   114.0845
 1413.5000     0.0261     0.0295     2.5094     9.3496   112.2039
 1414.0000     0.0104     0.0395     2.4952     9.3474   113.6767
 1414.5000     0.0012     0.0438     2.4841     9.3453   116.2466
 1415.0000     0.0183     0.0343     2.4845     9.3431   118.6761
 1415.5000     0.0368     0.0230     2.5218     9.3409   118.8900
 1416.0000     0.0562     0.0153     2.5370     9.3294   115.5840
 1416.5000     0.0591     0.0193     2.5348     9.3088   111.6494
 1417.0000     0.0487     0.0273     2.5181     9.2883   110.5768
 1417.5000     0.0356     0.0354     2.5015     9.2677   113.3582
 1418.0000     0.0225     0.0462     2.4850     9.2472   115.1854
 1418.5000     0.0109     0.0429     2.4798     9.2266   109.8774
 1419.0000     0.0111     0.0387     2.5011     9.2059   110.4328
 1419.5000     0.0180     0.0355     2.4937     9.1853   116.3007
 1420.0000     0.0247     0.0307     2.4929     9.1855   117.8560
 1420.5000     0.0241     0.0252     2.5079     9.1889   113.2066
 1421.0000     0.0230     0.0223     2.5185     9.1921   109.0227
 1421.5000     0.0248     0.0220     2.5256     9.1953   112.5566
 1422.0000     0.0330     0.0197     2.5269     9.1986   115.8011
 1422.5000     0.0362     0.0205     2.5285     9.2018   115.5415
 1423.0000     0.0347     0.0196     2.5313     9.2051   115.0393
 1423.5000     0.0351     0.0120     2.5396     9.2083   113.1228
 1424.0000     0.0456     0.0045     2.5480     9.2115   112.9089
 1424.5000     0.0565    -0.0029     2.5565     9.2148   117.5007
 1425.0000     0.0678     0.0003     2.5638     9.2180   122.7357
 1425.5000     0.0682     0.0052     2.5508     9.2212   120.8749
 1426.0000     0.0506     0.0105     2.5410     9.2217   117.9184
 1426.5000     0.0430     0.0054     2.5465     9.2168   116.5710
 1427.0000     0.0544     0.0002     2.5557     9.2121   115.6373
 1427.5000     0.0603     0.0002     2.5611     9.2073   114.4806
 1428.0000     0.0528     0.0035     2.5550     9.2046   113.0096
 1428.5000     0.0546     0.0057     2.5490     9.2082   114.0606
 1429.0000     0.0623     0.0019     2.5554     9.2116   116.9150
 1429.5000     0.0683    -0.0005     2.5620     9.2150   119.0389
 1430.0000     0.0546     0.0161     2.5254     9.2184   116.9211
 1430.5000     0.0404     0.0282     2.5088     9.2218   114.2108
 1431.0000     0.0308     0.0300     2.5098     9.2252   111.5395
 1431.5000     0.0321     0.0268     2.5182     9.2286   111.1601
 1432.0000     0.0364     0.0202     2.5273     9.2320   112.4746
 1432.5000     0.0406     0.0169     2.5281     9.2354   113.6851
 1433.0000     0.0316     0.0264     2.5175     9.2388   111.9839
 1433.5000     0.0139     0.0331     2.5087     9.2422   110.1103
 1434.0000     0.0169     0.0331     2.5019     9.2456   110.0089
 1434.5000     0.0346     0.0249     2.5187     9.2490   112.8351
 1435.0000     0.0449     0.0203     2.5258     9.2524   113.1488
 1435.5000     0.0463     0.0219     2.5225     9.2558   116.0524
 1436.0000     0.0580     0.0202     2.5257     9.2592   117.8466
 1436.5000     0.0767     0.0133     2.5400     9.2626   116.4477
 1437.0000     0.0948     0.0070     2.5509     9.2660   114.2169
 1437.5000     0.0759     0.0115     2.5422     9.2694   112.3510
 1438.0000     0.0455     0.0167     2.5317     9.2728   116.2346
 1438.5000     0.0386     0.0181     2.5275     9.2762   119.3756
 1439.0000     0.0453     0.0069     2.5423     9.2795   117.2027
 1439.5000     0.0724    -0.0005     2.5581     9.2822   114.5549
 1440.0000     0.0911     0.0010     2.5738     9.2855   113.2348
 1440.5000     0.0575     0.0107     2.5465     9.2887   112.0098
 1441.0000     0.0302     0.0209     2.5090     9.2920   112.0173
 1441.5000     0.0067     0.0311     2.5037     9.2952   112.7867
 1442.0000     0.0111     0.0335     2.5023     9.2984   115.1692
 1442.5000     0.0273     0.0235     2.5084     9.3017   117.6961
 1443.0000     0.0434     0.0150     2.5237     9.3049   119.8522
 1443.5000     0.0591     0.0030     2.5388     9.3081   116.6498
 1444.0000     0.0678     0.0123     2.5511     9.3114   113.4096
 1444.5000     0.0325     0.0327     2.5179     9.3146   111.0007
 1445.0000     0.0035     0.0456     2.4865     9.3178   110.8248
 1445.5000     0.0020     0.0406     2.4811     9.3204   112.5490
 1446.0000     0.0319     0.0279     2.5202     9.3186   115.3764
 1446.5000     0.0486     0.0113     2.5425     9.3167   116.6818
 1447.0000     0.0459     0.0093     2.5438     9.3149   113.3267
 1447.5000     0.0437     0.0086     2.5453     9.3131   109.2870
 1448.0000     0.0461     0.0066     2.5490     9.3113   109.2003
 1448.5000     0.0676     0.0022     2.5615     9.3095   115.2489
 1449.0000     0.0915    -0.0023     2.5742     9.3077   115.2197
 1449.5000     0.0750    -0.0073     2.5736     9.3058   109.8256
 1450.0000     0.0483    -0.0006     2.5606     9.3040   109.3677
 1450.5000     0.0461     0.0057     2.5480     9.3022   116.4640
 1451.0000     0.0511     0.0109     2.5390     9.3004   114.0926
 1451.5000     0.0558     0.0117     2.5378     9.2986   110.0450
 1452.0000     0.0519     0.0125     2.5362     9.2968   113.0444
 1452.5000     0.0384     0.0161     2.5313     9.2949   116.5791
 1453.0000     0.0426     0.0177     2.5292     9.2931   115.9665
 1453.5000     0.0466     0.0106     2.5329     9.2913   111.3865
 1454.0000     0.0423     0.0092     2.5395     9.2895   109.7504
 1454.5000     0.0350     0.0109     2.5449     9.2877   113.9744
 1455.0000     0.0375     0.0121     2.5451     9.2859   115.3786
 1455.5000     0.0469     0.0087     2.5452     9.2841   112.9721
 1456.0000     0.0523     0.0040     2.5512     9.2822   109.7168
 1456.5000     0.0433     0.0022     2.5580     9.2840   108.2700
 1457.0000     0.0347     0.0109     2.5479     9.2879   109.5635
 1457.5000     0.0349     0.0138     2.5346     9.2917   111.0464
 1458.0000     0.0337     0.0148     2.5307     9.2956   111.9888
 1458.5000     0.0258     0.0177     2.5275     9.2995   110.4838
 1459.0000     0.0239     0.0233     2.5243     9.3034   108.9320
 1459.5000     0.0233     0.0290     2.5172     9.3073   109.2967
 1460.0000     0.0160     0.0343     2.5086     9.3112   110.9521
 1460.5000     0.0133     0.0347     2.5010     9.3151   112.1610
 1461.0000     0.0255     0.0301     2.5109     9.3190   111.5729
 1461.5000     0.0389     0.0198     2.5269     9.3229   109.9702
 1462.0000     0.0509     0.0090     2.5433     9.3268   109.1312
 1462.5000     0.0337     0.0158     2.5345     9.3307   108.9071
 1463.0000     0.0145     0.0288     2.5176     9.3345   109.9896
 1463.5000     0.0097     0.0340     2.5132     9.3384   111.1546
 1464.0000     0.0255     0.0327     2.5210     9.3423   112.0330
 1464.5000     0.0425     0.0228     2.5307     9.3462   111.8939
 1465.0000     0.0404     0.0125     2.5403     9.3501   111.0933
 1465.5000     0.0323     0.0082     2.5485     9.3540   110.0951
 1466.0000     0.0241     0.0233     2.5187     9.3579   109.1007
 1466.5000     0.0306     0.0284     2.5098     9.3618   108.1072
 1467.0000     0.0460     0.0197     2.5264     9.3657   107.1138
 1467.5000     0.0597     0.0145     2.5425     9.3696   106.1199
 1468.0000     0.0841     0.0021     2.5577     9.3734   105.1272
 1468.5000     0.0988    -0.0073     2.5715     9.3767   104.1122
 1469.0000     0.0797     0.0031     2.5589     9.3575   103.4439
 1469.5000     0.0582     0.0151     2.5435     9.3575   103.6052
