~VERSION INFORMATION
 VERS.                2.0:   CWLS LOG ASCII STANDARD - VERSION 2.0
 WRAP.                 NO:   ONE LINE PER DEPTH STEP
~WELL INFORMATION
#MNEM.UNIT      DATA TYPE    INFORMATION
#----------   ------------   ------------------------------
 STRT.F            0.1000:   START DEPTH
 STOP.F          550.8000:   STOP DEPTH
 STEP.F            0.1000:   STEP LENGTH
 NULL.          -999.2500:   NO VALUE
 COMP.       F D SERV INC:   COMPANY
 WELL.  82-1 SX 10 #82-10:   WELL
 FLD .             TEAPOT:   FIELD
 LOC .      S10 T38N R78W:   LOCATION
 CNTY.            NATRONA:   COUNTY
 STAT.            WYOMING:   STATE
 CTRY. UNITED STATES OF AMERICA:   COUNTRY
 SRVC.     Atlas Wireline:   SERVICE COMPANY
 DATE.        11-DEC-1992:   LOGDATE
 API .       490252257600:   API NUMBER
~CURVE INFORMATION
#MNEM.UNIT       API CODE    CURVE DESCRIPTION
#----------   ------------   ------------------------------
 DEPT.F                  :   
 GRR .GAPI   07 310 01 00:   GAMMA RAY
 RILD.OHMM   07 120 46 00:   INDUCTION LOG DEEP RESISTIVITY
 RILM.OHMM   07 120 44 00:   INDUCTION LOG MEDIUM RESISTIVITY
~PARAMETER INFORMATION
#MNEM.UNIT          VALUE    DESCRIPTION
#----------   ------------   ------------------------------
 PD  .                 GL:   PERMANENT DATUM
 EPD .F              5136:   ELEVATION PERMANENT DATUM
 LMF .                 KB:   LOG MEASURED FROM
 DAPD.F                10:   FEET ABOVE PERMANENT DATUM
 DMF .                 KB:   DRILLING MEASURED FROM
 EKB .F              5146:   KELLING BUSHING
 EDF .F              5145:   DRILLING FLOOR
 EGL .F              5136:   GROUND LEVEL
 DATE.        11-DEC-1992:   RUN DATE
 RUN .                  1:   RUN NUMBER
 DD  .F               560:   DEPTH DRILLER
 DL  .F               560:   DEPTH LOGGER
 BLI .F               551:   BOTTOM LOG INTERVAL
 CS  .IN            8.625:   CASING SIZE
 CBD .F                53:   CASING BOTTOM DRILLER
 CBL .F                54:   CASING BOTTOM LOGGER
 BS  .IN            7.875:   BIT SIZE
 BSD .F               560:   BIT SIZE AT DEPTH
 DFT .           AIR FOAM:   DRILLING FLUID TYPE
 BHT .F                60:   BOTTOM HOLE TEMPERATURE
 MRT .F                60:   MAXIMUM RECORDED TEMPERATURE
 LUN .           HL- 6274:   LOGGING UNIT NUMBER
 LUL .             CASPER:   LOGGING UNIT LOCATION
 ENGI.       P. RASMUSSEN:   RECORDING ENGINEER
 WITN.          G. STRONG:   WITNESSED BY
 CLNT.            A2DTECH:   CLIENT CODE
 ORIG.           5" PRINT:   ORIGIN OF DATA
 UWI .       490252257600:   UNIQUE WELL ID
 DICO. A2D Technologies, Inc.:   DIGITIZING COMPANY
~OTHER INFORMATION
~A    DEPT      GRR      RILD       RILM   
# ...
  309.5000   129.9669    10.2031    10.0696
  309.6000   129.6938    10.2573    10.1401
  309.7000   129.4388    10.2577    10.1890
  309.8000   129.0875    10.3163    10.2503
  309.9000   129.0851    10.3783    10.3120
  310.0000   129.0827    10.4021    10.3740
  310.1000   129.0799    10.4594    10.4548
  310.2000   129.0779    10.5664    10.6464
  310.3000   129.0755    10.6298    10.7210
  310.4000   129.0731    10.6960    10.8266
  310.5000   129.0707    10.8198    10.9567
  310.6000   129.0202    10.8978    11.0557
  310.7000   128.7591    10.9632    11.1661
  310.8000   128.4616    11.0600    11.3449
  310.9000   128.0143    11.1928    11.4132
  311.0000   127.3142    11.3271    11.6530
  311.1000   126.5360    11.4663    11.8293
  311.2000   125.2766    11.6268    12.0428
  311.3000   123.3671    11.7401    12.3358
  311.4000   122.0596    11.9271    12.6816
  311.5000   120.3245    12.1423    12.9869
  311.6000   119.1795    12.3850    13.2994
  311.7000   117.8840    12.6715    13.6671
  311.8000   114.5678    12.9026    13.8782
  311.9000   109.6508    13.2657    14.1287
  312.0000   105.0947    13.5295    14.3837
  312.1000   101.7658    13.8559    14.6753
  312.2000    98.6536    14.1900    15.0287
  312.3000    96.0711    14.5030    15.3905
  312.4000    93.4161    14.7792    15.8091
  312.5000    90.9774    15.1348    16.0584
  312.6000    89.0802    15.5607    16.4180
  312.7000    87.7846    15.8748    16.7588
  312.8000    86.2249    16.2578    17.0610
  312.9000    81.7947    16.7009    17.3916
  313.0000    79.3865    17.3137    17.8101
  313.1000    77.9885    18.0964    18.2868
  313.2000    77.1079    18.6406    18.8807
  313.3000    76.2153    19.1593    19.4823
  313.4000    75.1784    19.4528    19.9353
  313.5000    74.1113    19.8854    20.2949
  313.6000    72.7554    20.3650    20.6608
  313.7000    71.2736    20.8111    21.0331
  313.8000    70.3326    21.1620    21.4474
  313.9000    69.2294    21.4190    21.7995
  314.0000    67.9340    21.8599    22.0944
  314.1000    66.7947    22.1997    22.3598
  314.2000    66.0523    22.5065    22.5719
  314.3000    65.5205    22.7767    22.7770
  314.4000    65.2170    23.0501    23.1748
  314.5000    65.0045    23.3552    23.4737
  314.6000    64.7435    23.7652    23.8665
  314.7000    64.6087    23.9262    24.0773
  314.8000    64.6063    24.1771    24.3089
  314.9000    64.6460    24.3642    24.4734
  315.0000    64.9023    24.4313    24.4747
  315.1000    64.8995    24.4324    24.4761
  315.2000    65.1140    24.4334    24.4775
  315.3000    65.3702    24.4344    24.4788
  315.4000    65.6264    24.4355    24.3670
  315.5000    65.9729    24.4364    24.3128
  315.6000    66.5841    24.4374    24.2489
  315.7000    67.6466    24.4384    24.1479
  315.8000    70.2962    24.4395    24.1313
  315.9000    72.0745    24.4405    23.9842
  316.0000    73.7804    24.4415    23.9855
  316.1000    74.9149    24.4426    23.9868
  316.2000    75.6884    24.4435    23.8980
  316.3000    76.4619    24.4445    23.8242
  316.4000    77.2234    24.3632    23.8255
  316.5000    77.7982    24.2779    23.8268
  316.6000    78.0247    24.2789    23.8282
  316.7000    78.2809    24.2799    23.8297
  316.8000    78.5372    24.2810    23.8308
  316.9000    78.7934    24.2819    23.8321
  317.0000    78.9895    24.2829    23.8334
  317.1000    78.9871    24.2839    23.8347
  317.2000    78.9844    24.2849    23.8360
  317.3000    78.9823    24.2859    23.8374
  317.4000    78.9799    24.2869    23.8389
  317.5000    78.9774    24.2880    23.8400
  317.6000    79.0833    24.2890    23.8413
  317.7000    79.3396    24.2900    23.8426
  317.8000    79.5958    24.2910    23.8440
  317.9000    79.8699    24.2920    23.8453
  318.0000    80.1083    24.2930    23.8466
  318.1000    80.3645    24.2940    23.8481
  318.2000    80.6207    24.2951    23.8492
  318.3000    80.7627    24.2960    23.8506
  318.4000    80.7603    24.2970    23.8519
  318.5000    80.7579    24.2980    23.8532
  318.6000    80.7554    24.2991    23.8545
  318.7000    80.2599    24.3001    23.8558
  318.8000    79.9446    24.3011    23.8573
  318.9000    79.3587    24.3021    23.8585
  319.0000    78.8211    24.3031    23.8598
  319.1000    78.4818    24.1914    23.8611
  319.2000    77.9982    24.1374    23.8624
  319.3000    77.7311    24.1384    23.8638
  319.4000    77.4275    24.1394    23.8651
  319.5000    77.2150    24.1404    23.8665
  319.6000    77.1224    24.1414    23.8677
  319.7000    77.2463    24.0051    23.9721
  319.8000    77.5025    23.9768    24.0360
  319.9000    77.7171    23.9778    24.0373
  320.0000    77.7143    23.9788    24.0386
  320.1000    77.7115    23.9798    24.0400
  320.2000    77.9260    23.9808    24.0414
  320.3000    78.1823    23.9818    24.0426
  320.4000    78.3062    23.9830    24.0440
  320.5000    78.3038    23.9838    24.1282
  320.6000    78.3495    23.9848    24.2733
  320.7000    78.5998    24.0542    24.4193
  320.8000    78.5970    24.1987    24.5661
  320.9000    78.8175    24.3439    24.7252
  321.0000    78.8932    24.4923    24.8626
  321.1000    79.0291    24.8351    25.1257
  321.2000    79.1892    24.9575    25.4275
  321.3000    79.2409    25.2059    25.7329
  321.4000    79.4972    25.4337    26.0000
  321.5000    79.7832    25.5864    26.1729
  321.6000    80.1239    25.7401    26.5056
  321.7000    80.5095    25.8950    26.8054
  321.8000    81.3283    26.0762    27.0022
  321.9000    82.4827    26.3371    27.2643
  322.0000    82.7786    26.5473    27.5176
  322.1000    83.2136    26.7067    27.6832
  322.2000    83.5521    26.9216    27.8701
  322.3000    83.6740    27.2162    28.2184
  322.4000    83.6716    27.3796    28.3813
  322.5000    83.6692    27.5697    28.4173
  322.6000    83.6587    27.5706    28.5258
  322.7000    83.3633    27.7963    28.6974
  322.8000    82.9121    27.9575    28.8700
  322.9000    82.2100    28.0172    29.0193
  323.0000    81.4316    28.1541    29.0210
  323.1000    80.7514    28.1589    29.2242
  323.2000    80.1194    28.3522    29.2256
  323.3000    79.0266    28.4983    29.2272
  323.4000    76.7300    28.6695    29.2288
  323.5000    75.3444    28.7511    29.2304
  323.6000    73.9785    28.7523    29.2596
  323.7000    72.5366    28.7876    29.4365
  323.8000    70.9824    28.9545    29.4384
  323.9000    69.6145    28.9558    29.4397
  324.0000    68.8762    28.9569    29.4414
  324.1000    68.5929    29.0799    29.4430
  324.2000    68.5907    29.1605    29.5043
  324.3000    68.3938    29.1617    29.6506
  324.4000    68.2851    29.1997    29.6522
  324.5000    68.2827    29.3750    29.6541
  324.6000    68.2803    29.5723    29.8056
  324.7000    68.2779    29.5734    29.8629
  324.8000    68.2753    29.7012    29.8646
  324.9000    68.2731    29.7813    29.9299
  325.0000    68.4711    29.8516    30.0751
  325.1000    68.5690    30.0308    30.0822
  325.2000    68.7992    30.2111    30.2874
  325.3000    69.2399    30.4117    30.4453
  325.4000    69.5926    30.5751    30.6285
  325.5000    70.6646    30.6255    30.7140
  325.6000    71.4080    30.7300    30.7157
  325.7000    72.1817    30.8408    30.7174
  325.8000    73.2840    30.8421    30.7191
  325.9000    74.3302    30.8434    30.7210
  326.0000    75.0236    30.8448    30.7225
  326.1000    75.5004    30.8460    30.5931
  326.2000    75.7606    30.8472    30.5142
  326.3000    75.7578    30.7429    30.4448
  326.4000    75.7558    30.6369    30.3072
  326.5000    75.5830    30.6382    30.2971
  326.6000    75.4502    30.6242    30.1019
  326.7000    75.3616    30.4294    29.9426
  326.8000    75.0565    30.4305    29.7669
  326.9000    74.5388    30.2957    29.5922
  327.0000    74.2372    30.2230    29.4185
  327.1000    73.7981    30.1481    29.2458
  327.2000    73.4548    30.0170    29.0597
  327.3000    72.9252    30.0011    28.6907
  327.4000    72.2390    29.8124    28.5358
  327.5000    71.8200    29.8135    28.3684
  327.6000    72.1180    29.8148    28.3012
