~VERSION INFORMATION
 VERS.                2.0:   CWLS LOG ASCII STANDARD - VERSION 2.0
 WRAP.                 NO:   ONE LINE PER DEPTH STEP
~WELL INFORMATION
#MNEM.UNIT      DATA TYPE    INFORMATION
#----------   ------------   ------------------------------
 STRT.F           30.0000:   START DEPTH
 STOP.F          733.0000:   STOP DEPTH
 STEP.F            0.5000:   STEP LENGTH
 NULL.          -999.2500:   NO VALUE
 COMP. FENIX & SCISSON INC:   COMPANY
 WELL.    NPR-3 #51 S -34:   WELL
 FLD .             TEAPOT:   FIELD
 LOC .      S34 T39N R78W:   LOCATION
 CNTY.            NATRONA:   COUNTY
 STAT.            WYOMING:   STATE
 CTRY. UNITED STATES OF AMERICA:   COUNTRY
 SRVC.      Dresser Atlas:   SERVICE COMPANY
 DATE.        20-MAR-1977:   LOGDATE
 API .       490251031600:   API NUMBER
~CURVE INFORMATION
#MNEM.UNIT       API CODE    CURVE DESCRIPTION
#----------   ------------   ------------------------------
 DEPT.F                  :   
 CALD.IN     45 280 60 00:   CALIPER FROM DENSITY LOG
 GRD .GAPI   45 310 01 00:   GAMMA RAY FROM DENSITY LOG
 CORR.G/C3   45 356 01 00:   DENSITY CORRECTION
 DPHI.DEC    45 890 12 00:   DENSITY POROSITY SANDSTONE
 RHOB.G/C3   45 350 01 00:   BULK DENSITY
 SPR .MV     07 010 01 00:   SPONTANEOUS POTENTIAL
 ILD .OHMM   07 120 46 00:   INDUCTION LOG DEEP
 ILM .OHMM   07 120 44 00:   INDUCTION LOG MEDIUM
 SFL .OHMM   07 220 01 00:   SHALLOW FOCUSED LOG RESISTIVITY
~PARAMETER INFORMATION
#MNEM.UNIT          VALUE    DESCRIPTION
#----------   ------------   ------------------------------
 PD  .                 GL:   PERMANENT DATUM
 EPD .F              5065:   ELEVATION PERMANENT DATUM
 LMF .                 KB:   LOG MEASURED FROM
 DAPD.F                 4:   FEET ABOVE PERMANENT DATUM
 DMF .                 KB:   DRILLING MEASURED FROM
 EKB .F              5069:   KELLING BUSHING
 EGL .F              5065:   GROUND LEVEL
 DATE.        20-MAR-1977:   RUN DATE
 RUN .                  1:   RUN NUMBER
 DD  .F               735:   DEPTH DRILLER
 DL  .F               731:   DEPTH LOGGER
 BLI .F               729:   BOTTOM LOG INTERVAL
 TLI .F                42:   TOP LOG INTERVAL
 CS  .IN            8.625:   CASING SIZE
 CBD .F                40:   CASING BOTTOM DRILLER
 CBL .F                42:   CASING BOTTOM LOGGER
 BS  .IN            7.875:   BIT SIZE
 BSD .F               735:   BIT SIZE AT DEPTH
 DFT .           CHEM GEL:   DRILLING FLUID TYPE
 DFD .                9.0:   DRILLING FLUID DENSITY
 DFV .                 38:   DRILLING FLUID VISCOSITY
 DFPH.                8.5:   DRILLING FLUID PH
 DFL .                 72:   DRILLING FLUID LOSS
 MSS .           FLOWLINE:   MUD SAMPLE SOURCE
 RMS .OHMM             .4:   RESISTIVITY MUD SAMPLE
 MST .F                51:   MUD SAMPLE TEMPERATURE
 RMF .OHMM            .72:   RESISTIVITY MUD FILTRATE SAMPLE
 MFST.F                48:   MUD FILTRATE SAMPLE TEMPERATURE
 RMC .OHMM           1.16:   RESISTIVITY MUD CAKE
 MCST.F                48:   MUD CAKE SAMPLE TEMPERATURE
 MFSS.               MEAS:   MUD FILTRATE SAMPLE SOURCE
 MCSS.               MEAS:   MUD CAKE SAMPLE SOURCE
 RMB .OHMM            .31:   RESISTIVITY MUD AT BHT
 BHT .F                66:   BOTTOM HOLE TEMPERATURE
 TCS .HRS            0300:   TIME CURCULATED STOPPED
 MRT .F                66:   MAXIMUM RECORDED TEMPERATURE
 LUN .               6145:   LOGGING UNIT NUMBER
 LUL .              GLTTE:   LOGGING UNIT LOCATION
 ENGI.              RANCK:   RECORDING ENGINEER
 WITN.              BURKE:   WITNESSED BY
 CLNT.            A2DTECH:   CLIENT CODE
 ORIG.           5" PRINT:   ORIGIN OF DATA
 UWI .       490251031600:   UNIQUE WELL ID
 DICO. A2D Technologies, Inc.:   DIGITIZING COMPANY
~OTHER INFORMATION
~A   DEPT     CALD        GRD       CORR       DPHI       RHOB        SPR        ILD        ILM        SFL   
   30.0000  -999.2500  -999.2500  -999.2500  -999.2500  -999.2500  -999.2500  -999.2500  -999.2500  -999.2500
   30.5000  -999.2500    51.6539  -999.2500  -999.2500  -999.2500  -999.2500  -999.2500  -999.2500  -999.2500
   31.0000  -999.2500    53.1576  -999.2500  -999.2500  -999.2500  -999.2500  -999.2500  -999.2500  -999.2500
   31.5000  -999.2500    60.6315  -999.2500  -999.2500  -999.2500  -999.2500  -999.2500  -999.2500  -999.2500
   32.0000  -999.2500    73.1800  -999.2500  -999.2500  -999.2500  -999.2500  -999.2500  -999.2500  -999.2500
   32.5000  -999.2500    80.8022  -999.2500  -999.2500  -999.2500  -999.2500  -999.2500  -999.2500  -999.2500
   33.0000  -999.2500    82.9030  -999.2500  -999.2500  -999.2500  -999.2500  -999.2500  -999.2500  -999.2500
   33.5000  -999.2500    83.3619  -999.2500  -999.2500  -999.2500  -999.2500  -999.2500  -999.2500  -999.2500
   34.0000  -999.2500    83.2239  -999.2500  -999.2500  -999.2500  -999.2500  -999.2500  -999.2500  -999.2500
   34.5000  -999.2500    82.6381  -999.2500  -999.2500  -999.2500  -999.2500  -999.2500  -999.2500  -999.2500
   35.0000  -999.2500    82.3507  -999.2500  -999.2500  -999.2500  -999.2500  -999.2500  -999.2500  -999.2500
   35.5000  -999.2500    84.1530  -999.2500  -999.2500  -999.2500  -999.2500  -999.2500  -999.2500  -999.2500
   36.0000  -999.2500    85.8060  -999.2500  -999.2500  -999.2500  -999.2500  -999.2500  -999.2500  -999.2500
   36.5000  -999.2500    86.5634  -999.2500  -999.2500  -999.2500  -999.2500  -999.2500  -999.2500  -999.2500
   37.0000  -999.2500    85.0821  -999.2500  -999.2500  -999.2500  -999.2500  -999.2500  -999.2500  -999.2500
   37.5000  -999.2500    84.0485  -999.2500  -999.2500  -999.2500  -999.2500  -999.2500  -999.2500  -999.2500
   38.0000  -999.2500    82.2687  -999.2500  -999.2500  -999.2500  -999.2500  -999.2500  -999.2500  -999.2500
   38.5000  -999.2500    80.4888  -999.2500  -999.2500  -999.2500  -999.2500  -999.2500  -999.2500  -999.2500
   39.0000  -999.2500    78.5597  -999.2500  -999.2500  -999.2500  -999.2500  -999.2500  -999.2500  -999.2500
   39.5000  -999.2500    75.2873  -999.2500  -999.2500  -999.2500  -999.2500  -999.2500  -999.2500  -999.2500
   40.0000  -999.2500    76.4925  -999.2500  -999.2500  -999.2500  -999.2500  -999.2500  -999.2500  -999.2500
   40.5000  -999.2500    76.5037  -999.2500  -999.2500  -999.2500  -999.2500  -999.2500  -999.2500  -999.2500
   41.0000  -999.2500    74.4254  -999.2500  -999.2500  -999.2500  -999.2500  -999.2500  -999.2500  -999.2500
   41.5000  -999.2500    69.9590  -999.2500  -999.2500  -999.2500  -999.2500  -999.2500  -999.2500  -999.2500
   42.0000  -999.2500    68.7761  -999.2500  -999.2500  -999.2500  -999.2500  -999.2500  -999.2500  -999.2500
   42.5000     8.3924    69.6828    -0.2075  -999.2500  -999.2500    -5.2777  1156.1189    19.8149     0.4294
   43.0000     8.4414    71.1866    -0.1667  -999.2500  -999.2500   -11.0818   779.9696    22.9309     0.7681
   43.5000     8.5356    72.9888    -0.1290  -999.2500  -999.2500   -13.6057   361.9583    43.0899     1.5669
   44.0000     8.6724    78.3731    -0.0883  -999.2500  -999.2500   -15.6817   245.8124    76.0787     2.5619
   44.5000     8.7738    85.3992    -0.0370  -999.2500  -999.2500   -17.3101    24.0479    29.8895     2.7282
   45.0000     8.7014    88.9925     0.0158  -999.2500  -999.2500   -18.6399     2.5387     4.0143     2.8655
   45.5000     8.2699    90.7948     0.0400  -999.2500  -999.2500   -19.5219     2.4364     6.5224     2.9479
   46.0000     8.3466    91.7015     0.0478  -999.2500     2.0667   -20.4040     2.8786     9.5519     3.0962
   46.5000     8.3630    91.4142     0.0569  -999.2500     2.0840   -20.8383     3.1296    10.3861     3.2745
   47.0000     8.2757    88.4403     0.0630  -999.2500     2.0849   -21.2726     3.2867    10.9845     3.3454
   47.5000     8.2473    85.9142     0.0659  -999.2500     2.0850   -21.7102     3.4279     6.1436     3.2980
   48.0000     8.2796    86.2239     0.0690  -999.2500     2.0843   -21.6934     2.5121     3.0970     3.1451
   48.5000     8.3861    89.2201     0.0724  -999.2500     2.0829   -21.8326     1.9320     2.8717     3.1283
   49.0000     8.5973    91.0224     0.0778  -999.2500     2.0882   -21.8157     1.8936     2.7375     3.1310
   49.5000     8.7338    90.1381     0.0843  -999.2500     2.0943   -21.8023     1.7803     2.6460     3.1331
   50.0000     8.5414    89.1045     0.0827  -999.2500     2.0959   -21.7888     1.7566     2.5575     3.1785
   50.5000     8.4836    88.0709     0.0808  -999.2500     2.0960   -21.7753     1.7946     2.4380     3.1796
   51.0000     8.4855    89.7239     0.0786  -999.2500     2.0961   -21.7619     1.8588     2.3399     3.1809
   51.5000     8.4720    88.3918     0.0802  -999.2500     2.0962   -21.7484     2.0070     2.2309     3.2041
   52.0000     8.4590    85.8657     0.0819  -999.2500     2.0970   -21.5857     2.3222     1.9707     3.1609
   52.5000     8.4315    87.8172     0.0820  -999.2500     2.0979   -21.1245     2.5598     1.8783     3.2736
   53.0000     8.4335    86.9328     0.0806  -999.2500     2.0980   -20.5140     2.6149     2.1000     3.4850
   53.5000     8.4354    86.1978     0.0702  -999.2500     2.0958   -19.9035     2.7085     2.4303     3.6844
   54.0000     8.4373    85.3134     0.0613  -999.2500     2.0823   -19.1438     2.8054     2.7930     3.8685
   54.5000     8.4692    84.2799     0.0599  -999.2500     2.0787   -18.0855     3.0080     3.0793     3.9510
   55.0000     8.5458    81.6898     0.0601  -999.2500     2.0812   -17.1765     3.2254     3.3482     3.9797
   55.5000     8.6076    77.0472     0.0648  -999.2500     2.0842   -16.5660     3.4824     3.7170     3.8458
   56.0000     8.5647    76.3132     0.0709  -999.2500     2.0868   -16.7018     3.9193     3.9860     3.9278
   56.5000     8.1331    80.8113     0.0771  -999.2500     2.0943   -16.9869     4.2905     4.2745     4.2105
   57.0000     7.8809    84.8575     0.0847  -999.2500     2.1047   -17.2753     4.4749     4.4586     4.5448
   57.5000     7.7035    90.0991     0.0984  -999.2500     2.1324   -17.2618     4.4774     4.5551     4.7718
   58.0000     7.5261    91.3095     0.1091     0.2999     2.1685   -17.5469     4.3575     4.5265     4.8735
   58.5000     7.4383    92.3707     0.1213     0.2723     2.1972   -17.6826     4.1826     4.3150     4.8752
   59.0000     7.4552    93.2826     0.1275     0.2714     2.2035   -17.6692     4.0990     4.1707     4.7112
   59.5000     7.5319    94.0452     0.1291     0.2767     2.1944   -17.9751     4.0724     4.0593     4.5838
   60.0000     7.6983    94.8079     0.1292     0.2860     2.1803   -18.4080     4.0752     4.0053     4.4607
   60.5000     7.9244    95.1187     0.1294     0.2977     2.1646   -18.9901     4.1343     4.0085     4.1070
   61.0000     8.0310    91.5571     0.1220     0.3000     2.1483   -19.5721     4.1653     4.0388     3.7552
   61.5000     8.0927    88.5884     0.1131     0.3000     2.1280   -20.3189     4.2257     4.0977     3.8088
   62.0000     8.0946    88.1529     0.1117     0.3000     2.1364   -21.3333     4.2574     4.1863     4.2854
   62.5000     7.6930    95.3375     0.1209     0.2974     2.1635   -22.5124     4.2297     4.2181     4.5938
   63.0000     7.5156    99.5330     0.1300     0.2751     2.1891   -23.7025     4.1457     4.1054     4.7570
   63.5000     7.5623    96.7136     0.1392     0.2655     2.2128   -25.1786     3.8440     3.9136     4.8921
   64.0000     7.5942    92.2523     0.1529     0.2591     2.2328   -26.6627     3.3723     3.6794     4.9273
   64.5000     7.5064    93.3135     0.1621     0.2588     2.2308   -28.2801     2.9178     3.3184     4.5057
   65.0000     7.4187    96.1657     0.1667     0.2660     2.2030   -29.6070     2.7622     3.0137     4.0074
   65.5000     7.3608   100.2119     0.1699     0.2911     2.1721   -31.3851     2.4912     2.8138     3.3958
   66.0000     7.0040   105.0044     0.1655     0.2994     2.1319   -32.8577     2.3259     2.8156     3.0835
