~VERSION INFORMATION
 VERS.                2.0:   CWLS LOG ASCII STANDARD - VERSION 2.0
 WRAP.                 NO:   ONE LINE PER DEPTH STEP
~WELL INFORMATION
#MNEM.UNIT      DATA TYPE    INFORMATION
#----------   ------------   ------------------------------
 STRT.F          974.5000:   START DEPTH
 STOP.F         2805.0000:   STOP DEPTH
 STEP.F            0.5000:   STEP LENGTH
 NULL.          -999.2500:   NO VALUE
 COMP.   FLUOR DANIEL INC:   COMPANY
 WELL. NAVAL PETROLEUM RESERVE 3 SHX- #38-14:   WELL
 FLD .             TEAPOT:   FIELD
 LOC .      S14 T38N R78W:   LOCATION
 CNTY.            NATRONA:   COUNTY
 STAT.            WYOMING:   STATE
 CTRY. UNITED STATES OF AMERICA:   COUNTRY
 SRVC.            Unknown:   SERVICE COMPANY
 DATE.        20-AUG-1995:   LOGDATE
 API .       490252273400:   API NUMBER
~CURVE INFORMATION
#MNEM.UNIT       API CODE    CURVE DESCRIPTION
#----------   ------------   ------------------------------
 DEPT.F                  :   
 ROP .MIN/FT 91 810 01 00:   RAT OF DRILLING PENETRATION
 TGAS.UNITS  91 830 01 00:   TOTAL GAS FROM HOTWIRE
~PARAMETER INFORMATION
#MNEM.UNIT          VALUE    DESCRIPTION
#----------   ------------   ------------------------------
 EKB .F              5264:   KELLING BUSHING
 EGL .F              5254:   GROUND LEVEL
 DATE.            8-20-95:   RUN DATE
 DD  .F              2805:   DEPTH DRILLER
 CBD .F               980:   CASING BOTTOM DRILLER
 ENGI.              TOWER:   RECORDING ENGINEER
 WITN.               HUSK:   WITNESSED BY
 CLNT.            A2DTECH:   CLIENT CODE
 ORIG.           5" PRINT:   ORIGIN OF DATA
 UWI .       490252273400:   UNIQUE WELL ID
 DICO. A2D Technologies, Inc.:   DIGITIZING COMPANY
~OTHER INFORMATION
~A   DEPT      ROP         TGAS 
# ...
 2554.0000     0.5745     7.4469
 2554.5000     0.5746     7.3950
 2555.0000     0.5856     7.3431
 2555.5000     0.5857     7.2912
 2556.0000     0.6076     7.2393
 2556.5000     0.6186     7.1874
 2557.0000     0.6188     7.1356
 2557.5000     0.6080     7.0837
 2558.0000     0.5973     7.0315
 2558.5000     0.5974     6.8166
 2559.0000     0.5976     7.0392
 2559.5000     0.6086     7.0428
 2560.0000     0.5325     7.4822
 2560.5000     0.5431     7.4858
 2561.0000     0.5536     7.7073
 2561.5000     0.5531     7.9288
 2562.0000     0.5637     7.9324
 2562.5000     0.5632     7.9366
 2563.0000     0.5628     7.9464
 2563.5000     0.5624     7.9562
 2564.0000     0.5620     7.9661
 2564.5000     0.5724     7.9759
 2565.0000     0.5719     7.9857
 2565.5000     0.5716     7.9955
 2566.0000     0.5821     8.0053
 2566.5000     0.5816     8.0151
 2567.0000     0.5812     8.0249
 2567.5000     0.5808     8.0347
 2568.0000     0.5804     8.0445
 2568.5000     0.5800     8.0543
 2569.0000     0.5905     8.0641
 2569.5000     0.6009     8.0739
 2570.0000     0.5896     8.0837
 2570.5000     0.5892     8.0935
 2571.0000     0.5888     8.1033
 2571.5000     0.5884     8.1132
 2572.0000     0.5880     8.1230
 2572.5000     0.5876     8.1328
 2573.0000     0.5872     8.1426
 2573.5000     0.5868     8.1524
 2574.0000     0.5863     8.1622
 2574.5000     0.5859     8.1720
 2575.0000     0.5855     8.1818
 2575.5000     0.5851     8.1916
 2576.0000     0.5847     8.2014
 2576.5000     0.5844     8.2112
 2577.0000     0.5840     8.2210
 2577.5000     0.5836     8.2308
 2578.0000     0.5832     8.2406
 2578.5000     0.5827     8.2504
 2579.0000     0.5714     8.2602
 2579.5000     0.5601     8.2701
 2580.0000     0.6467     8.2815
 2580.5000     0.6463    11.8999
 2581.0000     0.6459    37.1066
 2581.5000     0.6455   234.8861
 2582.0000     0.6342   234.9714
 2582.5000     0.6338   232.8723
 2583.0000     0.6321   225.3119
 2583.5000     0.6221   209.0138
 2584.0000     0.6217   191.6376
 2584.5000     0.6213   179.7083
 2585.0000     0.6209   155.7645
 2585.5000     0.6205   149.2964
 2586.0000     0.6201   136.2749
 2586.5000     0.6197   125.4379
 2587.0000     0.6193   120.0621
 2587.5000     0.6298   115.7785
 2588.0000     0.5859   114.7573
 2588.5000     0.5093   114.7227
 2589.0000     0.5089   114.6740
 2589.5000     0.5195   114.6254
 2590.0000     0.5190   114.5767
 2590.5000     0.5186   114.5280
 2591.0000     0.5182   114.4794
 2591.5000     0.5178   114.4307
 2592.0000     0.5174   114.3820
 2592.5000     0.5279   114.3333
 2593.0000     0.5274   114.2847
 2593.5000     0.5270   114.2360
 2594.0000     0.5266   114.1873
 2594.5000     0.5262   114.1387
 2595.0000     0.5258   114.0900
 2595.5000     0.5363   114.0413
 2596.0000     0.5359   113.9926
 2596.5000     0.5355   113.9440
 2597.0000     0.5346   113.8953
 2597.5000     0.5238   113.8466
 2598.0000     0.6211   113.7980
 2598.5000     0.6207   113.7493
 2599.0000     0.6203   113.7006
 2599.5000     0.6199   113.6519
 2600.0000     0.6195   113.5993
 2600.5000     0.6301   113.4846
 2601.0000     0.6296   113.3598
 2601.5000     0.6292   113.2349
 2602.0000     0.5201   113.1101
 2602.5000     0.5306   112.9852
 2603.0000     0.5301   112.8604
 2603.5000     0.5515   112.7355
 2604.0000     0.5511   112.6107
 2604.5000     0.5507   112.4858
 2605.0000     0.5503   112.3610
 2605.5000     0.5498   112.2361
 2606.0000     0.5603   112.1113
 2606.5000     0.5599   111.9864
 2607.0000     0.5595   111.8616
 2607.5000     0.5591   111.7368
 2608.0000     0.5587   111.6119
 2608.5000     0.5474   111.4871
 2609.0000     0.5470   111.3622
 2609.5000     0.5465   111.2374
 2610.0000     0.5461   111.1125
 2610.5000     0.5349   111.0582
 2611.0000     0.5345   111.1456
 2611.5000     0.5450   111.2330
 2612.0000     0.5445   111.3204
 2612.5000     0.5441   111.4078
 2613.0000     0.5437   111.4951
 2613.5000     0.5433   111.5825
 2614.0000     0.5429   111.6699
 2614.5000     0.5425   111.7573
 2615.0000     0.5421   111.8447
 2615.5000     0.5417   111.9320
 2616.0000     0.5413   112.0194
 2616.5000     0.5409   112.1068
 2617.0000     0.5405   112.1942
 2617.5000     0.5292   112.2815
 2618.0000     0.5287   112.3689
 2618.5000     0.6915   112.4563
 2619.0000     0.6910   112.5437
 2619.5000     0.6906   112.6311
 2620.0000     0.6902   112.7184
 2620.5000     0.6789   112.7800
 2621.0000     0.6785   112.7573
 2621.5000     0.6781   112.7347
 2622.0000     0.6777   112.7120
 2622.5000     0.6772   112.6894
 2623.0000     0.6768   112.6667
 2623.5000     0.6764   112.6441
 2624.0000     0.6760   112.6214
 2624.5000     0.6757   112.5988
 2625.0000     0.6861   112.5761
 2625.5000     0.6966   112.5535
 2626.0000     0.6962   112.5308
 2626.5000     0.8588   112.5082
 2627.0000     0.8692   112.4855
 2627.5000     0.8688   112.4629
 2628.0000     0.8794   112.4402
 2628.5000     0.7376   112.4176
 2629.0000     0.6720   112.3949
 2629.5000     0.6716   112.3723
 2630.0000     0.6712   112.3496
 2630.5000     0.6708   112.4281
 2631.0000     0.6703   112.6707
 2631.5000     0.6699   112.9132
 2632.0000     0.6695   113.1558
 2632.5000     0.6691   113.3983
 2633.0000     0.6687   113.6409
 2633.5000     0.6683   113.8835
 2634.0000     0.6679   114.1260
 2634.5000     0.6784   114.3686
 2635.0000     0.6889   114.6112
 2635.5000     0.6993   114.8537
 2636.0000     0.7532   115.0963
 2636.5000     1.0138   115.3388
 2637.0000     1.0133   115.5814
 2637.5000     1.0239   117.9772
 2638.0000     1.0125   120.2469
 2638.5000     0.7730   120.3323
 2639.0000     0.7508   120.4176
 2639.5000     0.7503   120.5029
 2640.0000     0.7609   120.5882
 2640.5000     0.7714   121.0208
 2641.0000     0.7818   121.6836
 2641.5000     0.7922   122.2929
 2642.0000     0.7918   122.4417
 2642.5000     0.6538   120.3423
 2643.0000     0.6437   119.3776
 2643.5000     0.6550   118.4342
 2644.0000     0.6554   116.3986
 2644.5000     0.6558   116.5261
 2645.0000     0.6562   116.6749
 2645.5000     0.6567   116.8025
 2646.0000     0.6571   115.7953
 2646.5000     0.6466   114.8519
 2647.0000     0.6471   115.0007
 2647.5000     0.6475   115.1283
 2648.0000     0.6479   115.2771
 2648.5000     0.6483   115.4046
 2649.0000     0.6487   114.4187
 2649.5000     0.6491   113.4540
 2650.0000     0.6495   112.3654
 2650.5000     0.6607   111.9430
 2651.0000     0.6611   111.5206
 2651.5000     0.6615   111.0983
 2652.0000     0.6620   110.6759
 2652.5000     0.6624   110.2535
 2653.0000     0.6628   107.8467
 2653.5000     0.6632   103.6053
 2654.0000     0.6636   102.6407
 2654.5000     1.0010   100.5837
 2655.0000     1.0123   100.7113
 2655.5000     1.0127   100.8602
 2656.0000     1.0239   100.9877
 2656.5000     1.0243   102.2075
 2657.0000     1.0247   100.1293
 2657.5000     1.0360   100.2782
 2658.0000     0.9508   100.4057
 2658.5000     0.6672    98.3276
 2659.0000     0.6677    97.3629
 2659.5000     0.6681    97.5330
 2660.0000     0.6794    97.6605
 2660.5000     0.6798    96.6746
 2661.0000     0.6802    95.7099
 2661.5000     0.6806    92.6033
 2662.0000     0.6810    92.7309
 2662.5000     0.6814    92.8584
 2663.0000     0.6818    91.8725
 2663.5000     0.6822    90.9078
 2664.0000     0.6826    91.0566
 2664.5000     0.6830    90.0707
 2665.0000     0.6834    89.1060
 2665.5000     0.6838    88.1413
 2666.0000     0.6843    88.3114
 2666.5000     0.6956    88.4390
 2667.0000     0.6960    87.4824
 2667.5000     0.6964    87.6415
 2668.0000     0.6859    87.8006
 2668.5000     0.6863    87.9596
 2669.0000     0.6867    88.1187
 2669.5000     0.6871    88.2778
 2670.0000     0.6766    88.4369
 2670.5000     0.8184    88.5330
 2671.0000     0.8188    90.7708
 2671.5000     0.8192    90.8241
 2672.0000     0.8196    88.6840
 2672.5000     0.8091    88.7462
 2673.0000     0.8096    88.8083
 2673.5000     0.8100    86.6683
 2674.0000     0.8104    85.6382
 2674.5000     0.8108    84.5903
 2675.0000     0.8112    83.5514
