~VERSION INFORMATION
 VERS.                2.0:   CWLS LOG ASCII STANDARD - VERSION 2.0
 WRAP.                 NO:   ONE LINE PER DEPTH STEP
~WELL INFORMATION
#MNEM.UNIT      DATA TYPE    INFORMATION
#----------   ------------   ------------------------------
 STRT.F            0.1000:   START DEPTH
 STOP.F          550.8000:   STOP DEPTH
 STEP.F            0.1000:   STEP LENGTH
 NULL.          -999.2500:   NO VALUE
 COMP.       F D SERV INC:   COMPANY
 WELL.  82-1 SX 10 #82-10:   WELL
 FLD .             TEAPOT:   FIELD
 LOC .      S10 T38N R78W:   LOCATION
 CNTY.            NATRONA:   COUNTY
 STAT.            WYOMING:   STATE
 CTRY. UNITED STATES OF AMERICA:   COUNTRY
 SRVC.     Atlas Wireline:   SERVICE COMPANY
 DATE.        11-DEC-1992:   LOGDATE
 API .       490252257600:   API NUMBER
~CURVE INFORMATION
#MNEM.UNIT       API CODE    CURVE DESCRIPTION
#----------   ------------   ------------------------------
 DEPT.F                  :   
 GRR .GAPI   07 310 01 00:   GAMMA RAY
 RILD.OHMM   07 120 46 00:   INDUCTION LOG DEEP RESISTIVITY
 RILM.OHMM   07 120 44 00:   INDUCTION LOG MEDIUM RESISTIVITY
~PARAMETER INFORMATION
#MNEM.UNIT          VALUE    DESCRIPTION
#----------   ------------   ------------------------------
 PD  .                 GL:   PERMANENT DATUM
 EPD .F              5136:   ELEVATION PERMANENT DATUM
 LMF .                 KB:   LOG MEASURED FROM
 DAPD.F                10:   FEET ABOVE PERMANENT DATUM
 DMF .                 KB:   DRILLING MEASURED FROM
 EKB .F              5146:   KELLING BUSHING
 EDF .F              5145:   DRILLING FLOOR
 EGL .F              5136:   GROUND LEVEL
 DATE.        11-DEC-1992:   RUN DATE
 RUN .                  1:   RUN NUMBER
 DD  .F               560:   DEPTH DRILLER
 DL  .F               560:   DEPTH LOGGER
 BLI .F               551:   BOTTOM LOG INTERVAL
 CS  .IN            8.625:   CASING SIZE
 CBD .F                53:   CASING BOTTOM DRILLER
 CBL .F                54:   CASING BOTTOM LOGGER
 BS  .IN            7.875:   BIT SIZE
 BSD .F               560:   BIT SIZE AT DEPTH
 DFT .           AIR FOAM:   DRILLING FLUID TYPE
 BHT .F                60:   BOTTOM HOLE TEMPERATURE
 MRT .F                60:   MAXIMUM RECORDED TEMPERATURE
 LUN .           HL- 6274:   LOGGING UNIT NUMBER
 LUL .             CASPER:   LOGGING UNIT LOCATION
 ENGI.       P. RASMUSSEN:   RECORDING ENGINEER
 WITN.          G. STRONG:   WITNESSED BY
 CLNT.            A2DTECH:   CLIENT CODE
 ORIG.           5" PRINT:   ORIGIN OF DATA
 UWI .       490252257600:   UNIQUE WELL ID
 DICO. A2D Technologies, Inc.:   DIGITIZING COMPANY
~OTHER INFORMATION
~A    DEPT      GRR      RILD       RILM   
# ...
  400.5000    76.5332    26.8951    25.7076
  400.6000    77.5277    26.7227    25.3330
  400.7000    78.5222    26.3860    24.9922
  400.8000    79.5166    26.3863    24.5566
  400.9000    80.5111    26.2727    24.1112
  401.0000    81.5979    26.1194    23.9768
  401.1000    82.8905    25.9097    23.6213
  401.2000    84.2033    25.6076    23.3731
  401.3000    85.4056    25.3062    23.2371
  401.4000    86.2552    24.7941    23.1018
  401.5000    86.9484    24.5523    22.9673
  401.6000    87.2084    24.2662    22.8182
  401.7000    87.2078    24.0503    22.8187
  401.8000    87.1631    23.8686    22.7254
  401.9000    86.9039    23.6224    22.6627
  402.0000    86.6044    23.6228    22.6634
  402.1000    86.3853    23.4937    22.6862
  402.2000    86.1261    23.3565    22.8219
  402.3000    85.8669    23.2202    22.8226
  402.4000    85.6076    23.0847    22.8231
  402.5000    85.3484    22.9790    22.8238
  402.6000    85.0891    22.9793    22.8244
  402.7000    84.7957    22.9797    22.8250
  402.8000    84.5706    22.9799    22.8257
  402.9000    84.4938    22.9803    22.8263
  403.0000    84.3529    22.9806    22.9494
  403.1000    84.2901    22.9809    22.9859
  403.2000    84.4920    22.9812    22.9866
  403.3000    84.5055    22.9815    22.9872
  403.4000    84.7915    22.9818    22.9879
  403.5000    85.0215    22.9822    22.9885
  403.6000    85.4680    22.9825    22.9892
  403.7000    85.9847    22.9828    22.9898
  403.8000    86.5014    22.9831    22.9904
  403.9000    86.9560    22.9761    22.9910
  404.0000    87.2341    22.8252    22.9917
  404.1000    87.7948    22.8255    22.9923
  404.2000    88.0309    22.8258    22.9930
  404.3000    88.2889    22.8261    22.8672
  404.4000    88.5470    22.8264    22.8358
  404.5000    88.6947    22.8267    22.8364
  404.6000    88.6941    22.8270    22.8370
  404.7000    88.7196    22.8274    22.8377
  404.8000    88.9937    22.7218    22.8324
  404.9000    88.9931    22.6704    22.6816
  405.0000    88.9925    22.6708    22.6822
  405.1000    89.1503    22.6711    22.6828
  405.2000    89.2920    22.6570    22.6834
  405.3000    89.2914    22.6884    22.6841
  405.4000    89.2908    22.6890    22.6651
  405.5000    89.2902    22.6896    22.5290
  405.6000    89.2896    22.6903    22.5296
  405.7000    89.2890    22.6909    22.5302
  405.8000    89.2884    22.5938    22.5309
  405.9000    89.1655    22.5355    22.5315
  406.0000    88.9865    22.5361    22.4990
  406.1000    88.9096    22.5368    22.3774
  406.2000    88.3838    22.5374    22.3781
  406.3000    87.7815    22.5381    22.2619
  406.4000    87.5685    22.5386    22.2251
  406.5000    87.1388    22.5393    22.1563
  406.6000    86.6210    22.5399    22.0732
  406.7000    86.1031    22.5405    22.0738
  406.8000    85.5851    22.5042    22.0744
  406.9000    85.0693    22.3861    22.0751
  407.0000    84.7698    22.3868    22.0756
  407.1000    84.3322    22.3874    22.0762
  407.2000    84.1672    22.3881    22.0768
  407.3000    84.0323    22.3046    22.0774
  407.4000    83.8653    22.2348    22.0781
  407.5000    83.8647    22.1945    22.0787
  407.6000    83.8641    22.0825    22.0793
  407.7000    83.8634    22.0832    21.9841
  407.8000    83.8629    21.9315    21.9284
  407.9000    83.8623    21.9320    21.9290
  408.0000    84.0020    21.9326    21.9296
  408.1000    84.1618    21.8674    21.9302
  408.2000    84.2173    21.7824    21.9309
  408.3000    84.4754    21.7831    21.9314
  408.4000    84.7614    21.7808    21.9320
  408.5000    84.9915    21.6340    21.8701
  408.6000    85.2495    21.6345    21.7821
  408.7000    85.8003    21.5452    21.7827
  408.8000    86.3671    21.4864    21.7833
  408.9000    86.6873    21.4870    21.6630
  409.0000    87.2040    21.4876    21.6344
  409.1000    87.7648    21.4811    21.5602
  409.2000    88.0008    21.3406    21.4347
  409.3000    88.2588    21.3411    21.3100
  409.4000    88.6692    21.3417    21.1859
  409.5000    89.1860    21.3423    21.0472
  409.6000    89.7027    21.3429    21.0477
  409.7000    90.2194    21.3434    20.9628
  409.8000    90.7681    21.3440    20.9038
  409.9000    91.0101    21.3447    20.8633
  410.0000    91.4687    21.2274    20.7608
  410.1000    91.8269    21.1985    20.7615
  410.2000    92.0850    21.1991    20.7620
  410.3000    92.3431    21.1997    20.7626
  410.4000    92.5691    21.2003    20.7632
  410.5000    92.5684    21.2009    20.7638
  410.6000    92.5678    21.2015    20.7643
  410.7000    92.5672    21.2021    20.7649
  410.8000    92.4022    21.2026    20.7656
  410.9000    92.0206    21.1224    20.7661
  411.0000    91.5028    21.0575    20.7666
  411.1000    91.0230    21.0580    20.7672
  411.2000    90.7597    21.0389    20.7678
  411.3000    90.1575    20.9139    20.7684
  411.4000    89.7320    20.9146    20.7697
  411.5000    89.0436    20.9150    20.9137
  411.6000    88.3954    20.9156    20.9142
  411.7000    87.9637    20.8842    20.9945
  411.8000    87.7044    20.8227    20.8812
  411.9000    87.4432    20.7729    20.8816
  412.0000    86.8450    20.7736    20.8818
  412.1000    86.4074    20.7742    20.8821
  412.2000    86.0660    20.6673    20.8097
  412.3000    85.5381    20.6319    20.7388
  412.4000    84.9460    20.5653    20.7071
  412.5000    84.7368    20.4435    20.5964
  412.6000    84.7362    20.3225    20.5968
  412.7000    84.7356    20.2099    20.4832
  412.8000    84.7350    20.2106    20.3622
  412.9000    84.7344    20.1025    20.3147
  413.0000    84.8742    20.0722    20.3150
  413.1000    85.2305    20.0033    20.2818
  413.2000    85.7472    19.8848    20.1755
  413.3000    86.2778    19.7977    20.1759
  413.4000    87.1374    19.7866    20.1761
  413.5000    87.5980    19.6622    20.0823
  413.6000    88.3031    19.6627    20.0377
  413.7000    88.7858    19.6633    19.9833
  413.8000    89.2524    19.5918    19.8652
  413.9000    89.8412    19.5286    19.7632
  414.0000    89.8606    19.5292    19.7636
  414.1000    90.1407    19.5143    19.7639
  414.2000    90.3767    19.3955    19.7641
  414.3000    90.6348    19.2623    19.6893
  414.4000    90.8929    19.2627    19.6284
  414.5000    91.0406    19.1888    19.5922
  414.6000    91.0400    19.1308    19.4591
  414.7000    91.0655    19.1314    19.2263
  414.8000    91.3395    19.1129    19.0941
  414.9000    91.5815    18.9997    19.0012
  415.0000    92.4411    18.8699    18.8154
  415.1000    93.6334    18.7755    18.6479
  415.2000    94.6935    18.7406    18.5014
  415.3000    95.5432    18.6828    18.3011
  415.4000    96.6090    18.6123    18.1929
  415.5000    97.9519    18.5906    18.0683
  415.6000    98.9458    18.4849    17.9785
  415.7000    99.5667    18.4854    17.8723
  415.8000    99.7546    18.2933    17.7666
  415.9000    99.8763    18.2321    17.6983
  416.0000    99.9739    18.1722    17.6985
  416.1000    99.7528    18.1073    17.6988
  416.2000    99.7522    18.0825    17.6990
  416.3000    99.4507    17.9833    17.6093
  416.4000    99.0252    17.9839    17.5775
  416.5000    98.5073    17.8867    17.5778
  416.6000    97.9893    17.7809    17.5780
  416.7000    97.4715    17.7380    17.5783
  416.8000    96.8655    17.7385    17.5785
  416.9000    95.8382    17.7105    17.5788
  417.0000    95.8375    17.6170    17.5790
  417.1000    95.8370    17.6175    17.5792
  417.2000    96.0128    17.6180    17.5795
  417.3000    96.1365    17.5361    17.5797
  417.4000    96.2282    17.4974    17.5569
  417.5000    96.4362    17.4979    17.4591
  417.6000    96.4355    17.4668    17.4593
  417.7000    96.4348    17.3780    17.4595
  417.8000    96.4343    17.3786    17.3842
  417.9000    96.4337    17.2592    17.3397
  418.0000    96.4331    17.2596    17.2985
  418.1000    96.3343    17.2600    17.2207
  418.2000    96.0750    17.2094    17.2132
  418.3000    95.8158    17.1419    17.1025
  418.4000    95.5284    17.1424    17.1028
  418.5000    95.5278    17.1412    17.0272
  418.6000    95.5272    17.0251    16.9265
