~VERSION INFORMATION
 VERS.                2.0:   CWLS LOG ASCII STANDARD - VERSION 2.0
 WRAP.                 NO:   ONE LINE PER DEPTH STEP
~WELL INFORMATION
#MNEM.UNIT      DATA TYPE    INFORMATION
#----------   ------------   ------------------------------
 STRT.F           31.0000:   START DEPTH
 STOP.F          521.0000:   STOP DEPTH
 STEP.F            0.5000:   STEP LENGTH
 NULL.          -999.2500:   NO VALUE
 COMP. FENIX & SCISSON INC:   COMPANY
 WELL.      NPR-3 #52SX-3:   WELL
 FLD .             TEAPOT:   FIELD
 LOC .       S3 T38N R78W:   LOCATION
 CNTY.            NATRONA:   COUNTY
 STAT.            WYOMING:   STATE
 CTRY. UNITED STATES OF AMERICA:   COUNTRY
 SRVC.            Unknown:   SERVICE COMPANY
 DATE.        03-OCT-1978:   LOGDATE
 API .       490251071800:   API NUMBER
~CURVE INFORMATION
#MNEM.UNIT       API CODE    CURVE DESCRIPTION
#----------   ------------   ------------------------------
 DEPT.F                  :   
 SPR .MV     05 010 01 00:   SPONTANEOUS POTENTIAL FROM RES.
 GRD .GAPI   45 310 01 00:   GAMMA RAY FROM DENSITY LOG
 CALD.IN     45 280 60 00:   CALIPER
 RHOB.G/C3   45 350 01 00:   BULK DENSITY
 DPHI.DEC    45 890 12 00:   DENSITY POROSITY SANDSTONE
 CORR.G/C3   45 356 01 00:   DENSITY CORRECTION
 SN  .OHMM   05 040 16 00:   SHORT NORMAL 16"
 IL  .OHMM   05 120 00 00:   INDUCTION LOG
~PARAMETER INFORMATION
#MNEM.UNIT          VALUE    DESCRIPTION
#----------   ------------   ------------------------------
 PD  .                 GL:   PERMANENT DATUM
 EPD .F              5129:   ELEVATION PERMANENT DATUM
 LMF .                 KB:   LOG MEASURED FROM
 DAPD.F                 4:   FEET ABOVE PERMANENT DATUM
 DMF .                 KB:   DRILLING MEASURED FROM
 EKB .F              5133:   KELLING BUSHING
 EGL .F              5129:   GROUND LEVEL
 DATE.            10-3-78:   RUN DATE
 RUN .                  1:   RUN NUMBER
 DD  .F               521:   DEPTH DRILLER
 DL  .F               520:   DEPTH LOGGER
 BLI .F               514:   BOTTOM LOG INTERVAL
 TLI .F                46:   TOP LOG INTERVAL
 CS  .IN            8.625:   CASING SIZE
 CBL .F                44:   CASING BOTTOM LOGGER
 BS  .IN            7.875:   BIT SIZE
 BSD .F               521:   BIT SIZE AT DEPTH
 DFT .                KCL:   DRILLING FLUID TYPE
 DFD .                8.7:   DRILLING FLUID DENSITY
 DFV .                 34:   DRILLING FLUID VISCOSITY
 DFPH.                  9:   DRILLING FLUID PH
 DFL .               10.8:   DRILLING FLUID LOSS
 MSS .            MUD PIT:   MUD SAMPLE SOURCE
 RMS .OHMM            .24:   RESISTIVITY MUD SAMPLE
 MST .F                54:   MUD SAMPLE TEMPERATURE
 RMF .OHMM            .22:   RESISTIVITY MUD FILTRATE SAMPLE
 MFST.F                60:   MUD FILTRATE SAMPLE TEMPERATURE
 RMC .OHMM             .3:   RESISTIVITY MUD CAKE
 MCST.F                64:   MUD CAKE SAMPLE TEMPERATURE
 MFSS.               MEAS:   MUD FILTRATE SAMPLE SOURCE
 MCSS.               MEAS:   MUD CAKE SAMPLE SOURCE
 BHT .F                60:   BOTTOM HOLE TEMPERATURE
 TCS .HRS               3:   TIME CURCULATED STOPPED
 MRT .F                60:   MAXIMUM RECORDED TEMPERATURE
 LUN .               2958:   LOGGING UNIT NUMBER
 LUL .               CASP:   LOGGING UNIT LOCATION
 ENGI.             MILLER:   RECORDING ENGINEER
 WITN.           DINSMORE:   WITNESSED BY
 CLNT.            A2DTECH:   CLIENT CODE
 ORIG.       2", 5" PRINT:   ORIGIN OF DATA
 UWI .       490251071800:   UNIQUE WELL ID
 DICO. A2D Technologies, Inc.:   DIGITIZING COMPANY
~OTHER INFORMATION
~A   DEPT      SPR         GRD      CALD       RHOB       DPHI       CORR         SN         IL   
   31.0000  -999.2500    79.1865  -999.2500  -999.2500  -999.2500  -999.2500  -999.2500  -999.2500
   31.5000  -999.2500    73.7166  -999.2500  -999.2500  -999.2500  -999.2500  -999.2500  -999.2500
   32.0000  -999.2500    75.0986  -999.2500  -999.2500  -999.2500  -999.2500  -999.2500  -999.2500
   32.5000  -999.2500    76.6641  -999.2500  -999.2500  -999.2500  -999.2500  -999.2500  -999.2500
   33.0000  -999.2500    77.3655  -999.2500  -999.2500  -999.2500  -999.2500  -999.2500  -999.2500
   33.5000  -999.2500    78.6994  -999.2500  -999.2500  -999.2500  -999.2500  -999.2500  -999.2500
   34.0000  -999.2500    79.8123  -999.2500  -999.2500  -999.2500  -999.2500  -999.2500  -999.2500
   34.5000  -999.2500    79.7978  -999.2500  -999.2500  -999.2500  -999.2500  -999.2500  -999.2500
   35.0000  -999.2500    79.7150  -999.2500  -999.2500  -999.2500  -999.2500  -999.2500  -999.2500
   35.5000  -999.2500    77.9248  -999.2500  -999.2500  -999.2500  -999.2500  -999.2500  -999.2500
   36.0000  -999.2500    76.2406  -999.2500  -999.2500  -999.2500  -999.2500  -999.2500  -999.2500
   36.5000  -999.2500    76.1904  -999.2500  -999.2500  -999.2500  -999.2500  -999.2500  -999.2500
   37.0000  -999.2500    76.7992  -999.2500  -999.2500  -999.2500  -999.2500  -999.2500  -999.2500
   37.5000  -999.2500    77.6428  -999.2500  -999.2500  -999.2500  -999.2500  -999.2500  -999.2500
   38.0000  -999.2500    78.4242  -999.2500  -999.2500  -999.2500  -999.2500  -999.2500  -999.2500
   38.5000  -999.2500    78.4819  -999.2500  -999.2500  -999.2500  -999.2500  -999.2500  -999.2500
   39.0000  -999.2500    78.5593  -999.2500  -999.2500  -999.2500  -999.2500  -999.2500  -999.2500
   39.5000  -999.2500    78.1036  -999.2500  -999.2500  -999.2500  -999.2500  -999.2500  -999.2500
   40.0000  -999.2500    77.3563  -999.2500  -999.2500  -999.2500  -999.2500  -999.2500  -999.2500
   40.5000  -999.2500    77.2154  -999.2500  -999.2500  -999.2500  -999.2500  -999.2500  -999.2500
   41.0000  -999.2500    77.0613  -999.2500  -999.2500  -999.2500  -999.2500  -999.2500  -999.2500
   41.5000  -999.2500    77.4862  -999.2500  -999.2500  -999.2500  -999.2500  -999.2500  -999.2500
   42.0000  -999.2500    80.5750  -999.2500  -999.2500  -999.2500  -999.2500  -999.2500  -999.2500
   42.5000  -999.2500    83.9626  -999.2500  -999.2500  -999.2500  -999.2500  -999.2500  -999.2500
   43.0000  -999.2500    84.6081  -999.2500  -999.2500  -999.2500  -999.2500  -999.2500  -999.2500
   43.5000  -999.2500    85.7564  -999.2500  -999.2500  -999.2500  -999.2500  -999.2500  -999.2500
   44.0000  -999.2500    89.9851     7.9830     2.0015     0.1186    -0.0667  -999.2500  -999.2500
   44.5000  -999.2500    96.8282     8.0277     2.0022     0.1186     0.0641  -999.2500  -999.2500
   45.0000  -999.2500   103.7041     7.7200     2.4855     0.1184     0.0858  -999.2500  -999.2500
   45.5000  -999.2500   106.0597     7.6101     2.4980     0.1182     0.0862  -999.2500  -999.2500
   46.0000  -999.2500   102.6281     7.5424     2.4876     0.1211     0.0768  -999.2500  -999.2500
   46.5000  -999.2500    99.3255     7.3912     2.4773     0.1262     0.0450  -999.2500  -999.2500
   47.0000    23.4623   101.3047     7.3342     2.4708     0.1313     0.0174     6.4646     3.3686
   47.5000    16.9147   104.4047     7.2873     2.4623     0.1364     0.0175     6.5849     3.3071
   48.0000     9.7909   106.1450     7.2950     2.4538     0.1415     0.0159     6.7584     3.2527
   48.5000     6.3660   113.2572     7.3020     2.4452     0.1463     0.0138     6.9809     3.2904
   49.0000     2.0857   121.2255     7.3160     2.4439     0.1458     0.0118     7.2709     3.8222
   49.5000    -2.5251   126.0563     7.3578     2.4461     0.1441     0.0099     7.5727     5.1509
   50.0000    -7.9722   125.8452     7.4076     2.4484     0.1423     0.0062     7.8845     7.7078
   50.5000   -12.2863   125.0626     7.4939     2.4511     0.1402     0.0033     8.1889    10.2032
   51.0000   -13.9820   124.2269     7.5773     2.4565     0.1373     0.0029     8.2539     8.3345
   51.5000   -15.7214   123.7854     7.6635     2.4611     0.1344     0.0023     8.3247     8.2328
   52.0000   -17.5313   123.4444     7.6886     2.4639     0.1316     0.0019     8.3948     8.1311
   52.5000   -15.8918   123.3923     7.6966     2.4683     0.1298     0.0035     8.4851     8.0332
   53.0000   -13.5316   125.3191     7.7062     2.4685     0.1287     0.0099     8.3424     7.9353
   53.5000   -14.2501   126.2248     7.7275     2.4673     0.1289     0.0161     8.1571     7.8383
   54.0000   -15.0801   124.7793     7.7486     2.4591     0.1329     0.0224     8.0196     7.7378
   54.5000   -15.8430   123.1425     7.7546     2.4520     0.1384     0.0276     7.8826     7.5402
   55.0000   -16.1692   122.7139     7.7340     2.4510     0.1400     0.0267     7.7484     7.3373
   55.5000   -16.5452   121.8145     7.7114     2.4499     0.1416     0.0258     7.6164     7.1398
   56.0000   -19.0519   121.3089     7.9312     2.4434     0.1432     0.0282     7.4576     6.9508
   56.5000   -20.8277   121.7144     7.9428     2.4333     0.1567     0.0336     7.5790     6.7690
   57.0000   -22.2020   122.7958     7.7930     2.4277     0.1533     0.0446     7.7388     6.5920
   57.5000   -23.1778   124.0060     7.7751     2.4399     0.1478     0.0553     7.9020     6.4196
   58.0000   -23.9310   123.9100     7.7508     2.4523     0.1416     0.0647     8.1040     6.3180
   58.5000   -24.6815   121.1339     7.6947     2.4626     0.1335     0.0685     8.1024     6.5113
   59.0000   -25.3738   120.9088     7.6678     2.4699     0.1279     0.0724     8.1022     6.6547
   59.5000   -25.6726   118.5150     7.6788     2.4762     0.1238     0.0762     8.1017     6.8008
   60.0000   -26.0479   115.4952     7.6894     2.4780     0.1239     0.0800     8.2577     7.2408
   60.5000   -26.6885   112.9402     7.7002     2.4753     0.1255     0.0842     8.4068     7.4977
   61.0000   -26.9391   112.7468     7.7108     2.4727     0.1272     0.0946     8.3808     7.7079
   61.5000   -27.1743   111.8447     7.7209     2.4704     0.1289     0.1080     8.3592     7.8887
   62.0000   -27.4058   110.4425     7.7448     2.4718     0.1258     0.1253     8.3377     8.0285
   62.5000   -27.7823   113.5777     7.7697     2.4800     0.1220     0.1431     8.1980     7.9116
   63.0000   -28.2062   114.7133     7.7948     2.4880     0.1183     0.1478     7.9977     7.8012
   63.5000   -28.6337   116.1392     7.8197     2.4962     0.1142     0.1401     7.8024     7.6923
   64.0000   -29.0644   117.3808     7.8446     2.4990     0.1122     0.1314     7.6745     7.5850
   64.5000   -29.2623   117.1173     7.8698     2.4939     0.1145     0.1242     7.5802     7.4791
   65.0000   -29.2660   114.4204     7.8826     2.4908     0.1170     0.1289     7.4576     7.3748
   65.5000   -29.2662   111.2346     7.8048     2.4992     0.1071     0.1364     7.5036     7.3214
   66.0000   -29.2656   107.7602     7.7362     2.5192     0.0966     0.1370     7.5716     7.3299
   66.5000   -29.2632   102.9248     7.6745     2.5375     0.0874     0.1044     7.6402     7.3357
   67.0000   -29.3768    99.2283     7.6213     2.5178     0.0966     0.0592     7.7094     7.3415
   67.5000   -29.5211   100.9056     7.6158     2.4805     0.1130     0.0281     7.7793     7.3472
   68.0000   -29.6661   103.5077     7.6093     2.4796     0.1250     0.0180     7.8499     7.3530
   68.5000   -29.8109   103.6090     7.6037     2.4838     0.1214     0.0152     7.9204     7.3588
   69.0000   -29.9557   101.5858     7.6039     2.4891     0.1168     0.0137     7.9608     7.3646
   69.5000   -30.1004   100.4182     7.6111     2.4957     0.1121     0.0141     7.9705     7.3704
   70.0000   -30.2451   101.5727     7.6499     2.5009     0.1090     0.0145     7.9807     7.3762
   70.5000   -30.3899   101.8610     7.6880     2.4898     0.1165     0.0149     7.9910     7.3820
   71.0000   -30.5346   101.9626     7.7262     2.4768     0.1256     0.0154     8.0014     7.3885
