~VERSION INFORMATION
 VERS.                2.0:   CWLS LOG ASCII STANDARD - VERSION 2.0
 WRAP.                 NO:   ONE LINE PER DEPTH STEP
~WELL INFORMATION
#MNEM.UNIT      DATA TYPE    INFORMATION
#----------   ------------   ------------------------------
 STRT.F            0.0000:   START DEPTH
 STOP.F          546.0000:   STOP DEPTH
 STEP.F            0.5000:   STEP LENGTH
 NULL.          -999.2500:   NO VALUE
 COMP. LAWRENCE/ALLISON INC:   COMPANY
 WELL.   NPR 3 #76-21SX10:   WELL
 FLD .             TEAPOT:   FIELD
 LOC .      S10 T38N R78W:   LOCATION
 CNTY.            NATRONA:   COUNTY
 STAT.            WYOMING:   STATE
 CTRY. UNITED STATES OF AMERICA:   COUNTRY
 SRVC.      Dresser Atlas:   SERVICE COMPANY
 DATE.        22-JUL-1984:   LOGDATE
 API .       490251097000:   API NUMBER
~CURVE INFORMATION
#MNEM.UNIT       API CODE    CURVE DESCRIPTION
#----------   ------------   ------------------------------
 DEPT.F                  :   
 CALD.IN     45 280 60 00:   CALIPER FROM DENSITY LOG
 DEN .G/C3   45 350 01 00:   COMPENSATED BULK DENSTIY
 CORR.G/C3   45 356 01 00:   DENSITY CORRECTION
 DPHI.DEC    45 890 12 00:   POROSITY DENSITY SANDSTONE
 CNC .DEC    42 890 03 00:   NEUTRON POROSITY SANDSTONE
 GRR .GAPI   07 310 01 00:   GAMMA RAY
 SPR .MV     07 010 01 00:   SPONTANEOUS POTENTIAL
 RILD.OHMM   07 120 46 00:   INDUCTION LOG DEEP RESISTIVITY
 RILM.OHMM   07 120 44 00:   INDUCTION LOG MEDIUM RESISTIVITY
 RFOC.OHMM   07 220 04 00:   RESISTIVITY FOCUSED LOG
 AC  .US/F   60 520 00 00:   ACCOUSTIC
~PARAMETER INFORMATION
#MNEM.UNIT          VALUE    DESCRIPTION
#----------   ------------   ------------------------------
 PD  .                 GL:   PERMANENT DATUM
 EPD .F              5167:   ELEVATION PERMANENT DATUM
 LMF .                 GL:   LOG MEASURED FROM
 DMF .                 GL:   DRILLING MEASURED FROM
 EGL .F              5167:   GROUND LEVEL
 DATE.        22-JUL-1984:   RUN DATE
 RUN .                  1:   RUN NUMBER
 DD  .F               551:   DEPTH DRILLER
 DL  .F               547:   DEPTH LOGGER
 BLI .F               544:   BOTTOM LOG INTERVAL
 CS  .IN            9.625:   CASING SIZE
 CBD .F                40:   CASING BOTTOM DRILLER
 CBL .F                42:   CASING BOTTOM LOGGER
 BS  .IN            7.875:   BIT SIZE
 BSD .F               551:   BIT SIZE AT DEPTH
 DFT .        KCL POLYMER:   DRILLING FLUID TYPE
 MSS .           FLOWLINE:   MUD SAMPLE SOURCE
 RMS .OHMM           .193:   RESISTIVITY MUD SAMPLE
 MST .F                75:   MUD SAMPLE TEMPERATURE
 RMF .OHMM           .144:   RESISTIVITY MUD FILTRATE SAMPLE
 MFST.F                75:   MUD FILTRATE SAMPLE TEMPERATURE
 RMC .OHMM            .24:   RESISTIVITY MUD CAKE
 MCST.F                74:   MUD CAKE SAMPLE TEMPERATURE
 MFSS.               CALC:   MUD FILTRATE SAMPLE SOURCE
 MCSS.               CALC:   MUD CAKE SAMPLE SOURCE
 TCS .HRS               5:   TIME CURCULATED STOPPED
 MRT .F                90:   MAXIMUM RECORDED TEMPERATURE
 LUN .               6274:   LOGGING UNIT NUMBER
 LUL .               GLTE:   LOGGING UNIT LOCATION
 ENGI.             RAUTIO:   RECORDING ENGINEER
 WITN.              FIVAS:   WITNESSED BY
 CLNT.            A2DTECH:   CLIENT CODE
 ORIG.       2", 5" PRINT:   ORIGIN OF DATA
 UWI .       490251097000:   UNIQUE WELL ID
 DICO. A2D Technologies, Inc.:   DIGITIZING COMPANY
~OTHER INFORMATION
~A    DEPT    CALD        DEN       CORR       DPHI        CNC         GRR       SPR       RILD       RILM       RFOC         AC   
# ...
   61.0000     8.5030     2.4800     0.0550     0.1040     0.2894   129.1030     5.2470     7.9990     7.7940  -999.2500  -999.2500
   61.5000     8.5900     2.4790     0.0390     0.1020     0.2878   130.4890     4.0350     7.9130     7.7340  -999.2500  -999.2500
   62.0000     8.6370     2.4760     0.0240     0.1040     0.2865   130.0600     3.2710     7.8290     7.6750  -999.2500  -999.2500
   62.5000     8.6250     2.4690     0.0140     0.1070     0.2902   128.1560     6.7480     7.7300     7.6150  -999.2500  -999.2500
   63.0000     8.6140     2.4620     0.0220     0.1110     0.2976   126.7840     7.9090     7.6130     7.5370  -999.2500  -999.2500
   63.5000     8.6030     2.4560     0.0250     0.1160     0.2916   128.7850     6.2710     7.4970     7.4090  -999.2500  -999.2500
   64.0000     8.5920     2.4490     0.0250     0.1210     0.2703   131.4060     0.6250     7.3800     7.2810  -999.2500  -999.2500
   64.5000     8.5800     2.4500     0.0340     0.1220     0.2666   133.4200    -1.3810     7.2770     7.1000  -999.2500  -999.2500
   65.0000     8.5690     2.4540     0.0440     0.1190     0.2722   134.6630    -1.7770     7.2050     7.0720  -999.2500  -999.2500
   65.5000     8.5570     2.4560     0.0540     0.1170     0.2714   135.9050    -1.8570     7.1330     7.0410  -999.2500  -999.2500
   66.0000     8.5440     2.4510     0.0380     0.1190     0.2714   136.5640    -1.2470     7.0750     7.0100  -999.2500  -999.2500
   66.5000     8.5320     2.4430     0.0170     0.1230     0.2728   135.6650     1.3410     7.0360     6.9710  -999.2500  -999.2500
   67.0000     8.5310     2.4430     0.0170     0.1250     0.2740   136.4250     5.8010     7.0830     6.9850  -999.2500  -999.2500
   67.5000     8.5450     2.4500     0.0260     0.1220     0.2749   139.4520     7.2190     7.1250     7.0030  -999.2500  -999.2500
   68.0000     8.5600     2.4560     0.0350     0.1180     0.2801   139.0690     8.3580     7.1660     7.0210  -999.2500  -999.2500
   68.5000     8.5640     2.4620     0.0400     0.1150     0.2866   135.0640     8.5190     7.2220     7.0600  -999.2500  -999.2500
   69.0000     8.5640     2.4650     0.0360     0.1130     0.2860   132.4300     7.9940     7.2780     7.1720  -999.2500  -999.2500
   69.5000     8.5640     2.4610     0.0320     0.1140     0.2769   131.3360     8.3300     7.3770     7.2850  -999.2500  -999.2500
   70.0000     8.5640     2.4570     0.0280     0.1160     0.2673   131.5160    12.8330     7.5000     7.3970  -999.2500  -999.2500
   70.5000     8.5640     2.4530     0.0280     0.1190     0.2648   129.9380    20.1060     7.6230     7.5020  -999.2500  -999.2500
   71.0000     8.5640     2.4590     0.0350     0.1170     0.2780   127.4480    18.9070     7.7380     7.6230  -999.2500  -999.2500
   71.5000     8.5640     2.4640     0.0440     0.1140     0.2850   126.2390    15.9090     7.8360     7.7360  -999.2500  -999.2500
   72.0000     8.5640     2.4700     0.0540     0.1100     0.2893   126.9400    11.2800     7.9330     7.8490  -999.2500  -999.2500
   72.5000     8.5650     2.4760     0.0610     0.1050     0.2880   127.2190     5.8160     8.0760     7.9470  -999.2500  -999.2500
   73.0000     8.5660     2.4820     0.0640     0.1030     0.2854   126.9540     2.6840     8.1010     8.0130  -999.2500  -999.2500
   73.5000     8.5670     2.4840     0.0670     0.1010     0.2808   126.6850     2.0100     8.1260     8.0790  -999.2500  -999.2500
   74.0000     8.5680     2.4870     0.0510     0.0990     0.2709   127.7120     2.2740     8.1470     8.1470  -999.2500  -999.2500
   74.5000     8.5690     2.4890     0.0340     0.0970     0.2585   130.2140     2.1800     8.1170     8.1160  -999.2500  -999.2500
   75.0000     8.5700     2.4930     0.0380     0.0960     0.2557   132.3730     0.9620     8.0920     8.0850  -999.2500  -999.2500
   75.5000     8.5710     2.4970     0.0410     0.0940     0.2652   130.2100    -0.1830     8.0670     7.9760  -999.2500  -999.2500
   76.0000     8.5720     2.4970     0.0450     0.0920     0.2741   127.3840    -1.0630     8.0420     7.8530  -999.2500  -999.2500
   76.5000     8.5730     2.4870     0.0400     0.0960     0.2722   129.3980    -0.8500     8.0170     7.9260  -999.2500  -999.2500
   77.0000     8.5740     2.4710     0.0340     0.1020     0.2703   131.5850     0.2970     7.9930     7.8960  -999.2500  -999.2500
   77.5000     8.5750     2.4630     0.0330     0.1100     0.2721   133.7130     4.2610     7.9700     7.8300  -999.2500  -999.2500
   78.0000     8.5760     2.4600     0.0450     0.1150     0.2736   133.1520     8.2580     7.9470     7.7820  -999.2500  -999.2500
   78.5000     8.5770     2.4660     0.0620     0.1130     0.2690   131.6870     8.5780     7.9260     7.7820  -999.2500  -999.2500
   79.0000     8.5780     2.4710     0.0840     0.1090     0.2785   130.5060     8.1080     7.9410     7.7820  -999.2500  -999.2500
   79.5000     8.5790     2.4730     0.1030     0.1070     0.2914   130.8090     7.6190     7.9540     7.7820  -999.2500  -999.2500
   80.0000     8.5800     2.4690     0.0700     0.1080     0.2930   131.0760     6.8930     7.9680     7.7820  -999.2500  -999.2500
   80.5000     8.5810     2.4630     0.0360     0.1110     0.2780   131.2740     6.0290     7.9820     7.8150  -999.2500  -999.2500
   81.0000     8.5820     2.4570     0.0150     0.1150     0.2680   130.9390     5.1630     7.9960     7.8760  -999.2500  -999.2500
   81.5000     8.5830     2.4540     0.0220     0.1180     0.2630   130.7060     4.2930     8.0830     7.9450  -999.2500  -999.2500
   82.0000     8.5820     2.4570     0.0310     0.1180     0.2590   125.8220     3.3210     8.2290     8.0520  -999.2500  -999.2500
   82.5000     8.5730     2.4660     0.0410     0.1130     0.2620   120.6210     1.9490     8.3740     8.1590  -999.2500  -999.2500
   83.0000     8.5650     2.4710     0.0440     0.1090     0.2660   121.1970     0.5820     8.6100     8.4110  -999.2500  -999.2500
   83.5000     8.5570     2.4700     0.0460     0.1070     0.2680   122.1060    -0.2100     8.9010     8.8470  -999.2500  -999.2500
   84.0000     8.5500     2.4640     0.0480     0.1120     0.2640   120.8150    -0.6830     9.1770     8.9250  -999.2500  -999.2500
   84.5000     8.5010     2.4580     0.0490     0.1160     0.2580   120.3830    -1.8530     9.2680     9.0010  -999.2500  -999.2500
   85.0000     8.4260     2.4610     0.0460     0.1140     0.2510   120.7170    -3.1160     9.3470     9.1970  -999.2500  -999.2500
   85.5000     8.4260     2.4630     0.0410     0.1130     0.2500   121.2250    -4.4300     9.5590     9.4330  -999.2500  -999.2500
   86.0000     8.4260     2.4550     0.0260     0.1170     0.2540   122.6650    -6.4540     9.7990     9.5930  -999.2500  -999.2500
   86.5000     8.4260     2.4470     0.0110     0.1220     0.2590   124.0900    -8.2980    10.0580     9.7850  -999.2500  -999.2500
   87.0000     8.4190     2.4480    -0.0010     0.1230     0.2540   123.6380    -9.8220    10.2250    10.0010  -999.2500  -999.2500
   87.5000     8.4130     2.4570     0.0130     0.1160     0.2480   122.2380   -11.3550    10.4050    10.2350  -999.2500  -999.2500
   88.0000     8.4070     2.4670     0.0260     0.1110     0.2490   120.8670   -14.9530    10.5850    10.4290  -999.2500  -999.2500
   88.5000     8.4280     2.4670     0.0110     0.1100     0.2500   119.8320   -19.5890    10.9190    10.6810  -999.2500  -999.2500
   89.0000     8.4520     2.4630    -0.0070     0.1130     0.2520   118.8900   -29.7050    11.2710    11.0870  -999.2500  -999.2500
   89.5000     8.4780     2.4580    -0.0130     0.1170     0.2540   117.9230   -52.9740    11.5010    11.4170  -999.2500  -999.2500
   90.0000     8.5020     2.4590    -0.0090     0.1140     0.2520   118.6340   -58.1480    11.7310    11.6310  -999.2500  -999.2500
   90.5000     8.5220     2.4730     0.0140     0.1070     0.2490   118.6070   -37.5820    11.8890    11.7540  -999.2500  -999.2500
   91.0000     8.4790     2.4860     0.0230     0.1010     0.2470   115.2030   -12.8520    11.9500    11.7540  -999.2500  -999.2500
