~VERSION INFORMATION
 VERS.                2.0:   CWLS LOG ASCII STANDARD - VERSION 2.0
 WRAP.                 NO:   ONE LINE PER DEPTH STEP
~WELL INFORMATION
#MNEM.UNIT      DATA TYPE    INFORMATION
#----------   ------------   ------------------------------
 STRT.F            0.0000:   START DEPTH
 STOP.F          774.0000:   STOP DEPTH
 STEP.F            0.5000:   STEP LENGTH
 NULL.          -999.2500:   NO VALUE
 COMP. LAWRENCE/ALLISON INC:   COMPANY
 WELL. SX 11 WP #37-53-11:   WELL
 FLD .             TEAPOT:   FIELD
 LOC .      S11 T38N R78W:   LOCATION
 CNTY.            NATRONA:   COUNTY
 STAT.            WYOMING:   STATE
 CTRY. UNITED STATES OF AMERICA:   COUNTRY
 SRVC.            Unknown:   SERVICE COMPANY
 DATE.        19-SEP-1984:   LOGDATE
 API .       490251098900:   API NUMBER
~CURVE INFORMATION
#MNEM.UNIT       API CODE    CURVE DESCRIPTION
#----------   ------------   ------------------------------
 DEPT.F                  :   
 GRR .GAPI   07 310 01 00:   GAMMA RAY FROM RES. LOG.
 SPR .MV     07 010 01 00:   SPONTANEOUS POTENTIAL
 RFOC.OHMM   07 220 04 00:   RESISTIVITY FOCUSED LOG
 ILD .OHMM   07 120 46 00:   INDUCTION LOG DEEP RESISTIVITY
 RILM.OHMM   07 120 44 00:   INDUCTION LOG MEDIUM RESISTIVITY
 CALD.IN     45 280 60 00:   CALIPER
 DEN .G/C3   45 350 01 00:   COMPENSATED BULK DENSTIY
 CORR.G/C3   45 356 01 00:   DENSITY CORRECTION
 PORD.DEC    45 890 12 00:   POROSITY DENSITY SANDSTONE
 AC  .US/F   60 520 00 00:   ACOUSTIC SONIC
 CNC .DEC    42 890 03 00:   NEUTRON POROSITY SANDSTONE
~PARAMETER INFORMATION
#MNEM.UNIT          VALUE    DESCRIPTION
#----------   ------------   ------------------------------
 PD  .                 GL:   PERMANENT DATUM
 EPD .F              5153:   ELEVATION PERMANENT DATUM
 LMF .                 GL:   LOG MEASURED FROM
 DMF .                 GL:   DRILLING MEASURED FROM
 EGL .F              5153:   GROUND LEVEL
 DATE.       19-SEPT-1984:   RUN DATE
 RUN .                  1:   RUN NUMBER
 DD  .F               785:   DEPTH DRILLER
 DL  .F               774:   DEPTH LOGGER
 BLI .F               772:   BOTTOM LOG INTERVAL
 CS  .IN            8.625:   CASING SIZE
 CBD .F                42:   CASING BOTTOM DRILLER
 CBL .F                41:   CASING BOTTOM LOGGER
 BS  .IN            7.875:   BIT SIZE
 BSD .F               785:   BIT SIZE AT DEPTH
 DFT .          KCL WATER:   DRILLING FLUID TYPE
 MSS .           FLOWLINE:   MUD SAMPLE SOURCE
 RMS .OHMM            .27:   RESISTIVITY MUD SAMPLE
 MST .F                82:   MUD SAMPLE TEMPERATURE
 TCS .HRS               2:   TIME CURCULATED STOPPED
 MRT .F               100:   MAXIMUM RECORDED TEMPERATURE
 LUN .               6274:   LOGGING UNIT NUMBER
 LUL .               GLTE:   LOGGING UNIT LOCATION
 ENGI.         HINDS/MACK:   RECORDING ENGINEER
 WITN.             STRONG:   WITNESSED BY
 CLNT.            A2DTECH:   CLIENT CODE
 ORIG.   1", 2", 5" PRINT:   ORIGIN OF DATA
 UWI .       490251098900:   UNIQUE WELL ID
 DICO. A2D Technologies, Inc.:   DIGITIZING COMPANY
~OTHER INFORMATION
~A    DEPT      GRR       SPR       RFOC        ILD       RILM       CALD        DEN       CORR       PORD         AC        CNC   
# ...
  488.0000   116.2515   -44.5652     7.5756     5.0529     6.0307     8.1219     2.4780     0.0173     0.1195   109.0023     0.3197
  488.5000   118.7081   -44.9268     7.4104     5.0393     5.8573     8.1216     2.4709     0.0153     0.1233   111.0943     0.3277
  489.0000   123.3014   -45.2911     6.6682     5.0253     5.8568     8.1213     2.4604     0.0119     0.1342   112.4414     0.3265
  489.5000   128.1081   -45.6429     5.8997     5.0125     6.0268     8.1210     2.4386     0.0086     0.1474   112.7137     0.3137
  490.0000   130.7041   -45.3213     5.0954     5.0681     6.1705     8.1207     2.4164     0.0053     0.1606   110.8529     0.3022
  490.5000   124.5234   -44.9226     5.3983     5.1240     6.3177     8.1204     2.4092     0.0062     0.1552   108.4529     0.3002
  491.0000   120.7091   -44.5237     6.1616     5.1808     6.4683     8.1201     2.4314     0.0102     0.1464   106.0529     0.3029
  491.5000   118.2964   -44.1258     7.0330     5.2355     6.6226     8.1197     2.4465     0.0201     0.1379   105.1484     0.3089
  492.0000   115.8758   -43.7267     7.7818     5.4915     6.7805     8.1194     2.4460     0.0056     0.1363   104.6337     0.3126
  492.5000   114.9742   -43.3249     7.6599     5.7999     6.9421     8.1191     2.4391    -0.0119     0.1419   104.1190     0.3049
  493.0000   118.5874   -43.3285     7.5627     6.1255     7.1003     8.1188     2.4322    -0.0218     0.1463   103.6043     0.3014
  493.5000   122.4768   -43.4018     7.4666     6.3228     7.1003     8.1185     2.4253    -0.0311     0.1506   103.0895     0.2988
  494.0000   120.1045   -43.4764     7.4333     6.4194     7.1003     8.1182     2.4198    -0.0375     0.1540   102.5749     0.2923
  494.5000   115.3800   -43.5501     7.5164     6.1501     7.1003     8.1179     2.4212    -0.0279     0.1534   102.0775     0.2792
  495.0000   113.5396   -43.6238     7.5742     5.8268     6.8903     8.1175     2.4303    -0.0184     0.1493   102.4098     0.2752
  495.5000   115.1739   -43.6974     7.6325     5.5205     6.6530     8.1172     2.4399    -0.0090     0.1428   102.7313     0.2867
  496.0000   117.2145   -43.7710     7.7108     5.2302     6.4238     8.1169     2.4476    -0.0054     0.1379   102.9722     0.2976
  496.5000   115.7388   -43.8447     6.9040     4.9552     6.2025     8.1166     2.4407    -0.0118     0.1415   101.2948     0.3084
  497.0000   113.6313   -43.9184     6.2251     4.8445     6.0760     8.1163     2.4312    -0.0179     0.1457    99.3282     0.3150
  497.5000   108.7186   -43.9922     5.6129     4.7586     6.0643     8.1161     2.4369    -0.0168     0.1471    97.3615     0.3150
  498.0000   100.7167   -44.0596     5.5439     4.6738     6.0511     8.1161     2.4474    -0.0102     0.1380    96.8092     0.3158
  498.5000    99.8340   -44.0635     6.7303     4.6154     6.0374     8.1161     2.4566    -0.0263     0.1319   100.4158     0.3223
  499.0000   106.1765   -44.0351     6.8448     4.7812     6.0200     8.1161     2.4526    -0.0319     0.1323   102.5903     0.3249
  499.5000   114.1685   -43.5554     6.6117     5.0322     6.1143     8.1161     2.4444    -0.0245     0.1393   103.9630     0.3229
  500.0000   121.0526   -43.0872     6.4194     5.2965     6.2454     8.1161     2.4426    -0.0163     0.1411   102.9614     0.3070
  500.5000   118.7097   -42.6472     6.7807     5.5746     6.5834     8.1161     2.4493    -0.0080     0.1368   102.1839     0.2994
  501.0000   115.5577   -42.5342     7.3308     5.8674     6.9067     8.1161     2.4601     0.0005     0.1321   101.4811     0.2753
  501.5000   112.4229   -42.4126     7.8534     6.1755     7.2459     8.1161     2.4658     0.0096     0.1276   101.1704     0.2485
  502.0000   112.8345   -42.2751     7.9651     6.4998     7.6017     8.1161     2.4697     0.0192     0.1239   100.8870     0.2415
  502.5000   113.9492   -41.6973     8.0884     6.7303     7.9381     8.1161     2.4692     0.0091     0.1242   100.6035     0.2548
  503.0000   115.0504   -41.0717     8.2136     6.8674     8.0336     8.1161     2.4683    -0.0060     0.1252   100.3201     0.2702
  503.5000   116.1509   -40.4308     8.3410     7.0073     8.1315     8.1161     2.4608    -0.0219     0.1288   100.0366     0.2876
  504.0000   117.2421   -40.2135     8.4694     7.1165     8.2299     8.1161     2.4534    -0.0307     0.1340    99.8812     0.2981
  504.5000   118.3307   -40.1007     8.6011     7.1639     8.3288     8.1161     2.4467    -0.0303     0.1383    99.8482     0.2869
  505.0000   119.0397   -39.9910     8.7343     7.2109     8.4059     8.1161     2.4479    -0.0067     0.1377    99.8151     0.2754
  505.5000   116.2358   -39.8803     8.8559     7.2585     8.4626     8.1161     2.4490     0.0127     0.1371    99.7360     0.2715
  506.0000   111.0423   -39.7691     8.9092     7.3208     8.5202     8.1161     2.4450    -0.0112     0.1388    99.4004     0.2704
  506.5000   108.3164   -39.6417     8.9631     7.4541     8.5781     8.1161     2.4444    -0.0395     0.1395    98.8285     0.2714
  507.0000   110.9390   -39.4878     9.0173     7.5897     8.6365     8.1161     2.4513    -0.0573     0.1351    98.5805     0.2688
  507.5000   114.7086   -39.3343     9.0715     7.7282     8.6952     8.1161     2.4582    -0.0473     0.1307    98.3996     0.2642
  508.0000   116.7282   -39.1803     9.0937     7.8679     8.7664     8.1161     2.4649    -0.0223     0.1271    98.3996     0.2613
  508.5000   116.1351   -39.0275     9.0224     7.9450     8.6678     8.1161     2.4699    -0.0080     0.1248    98.3996     0.2695
  509.0000   114.1785   -38.9229     8.9632     7.9902     8.5457     8.1161     2.4685     0.0013     0.1247    98.8227     0.2743
  509.5000   112.6572   -38.9970     8.7845     7.9986     8.4254     8.1161     2.4640     0.0098     0.1283    99.2195     0.2720
  510.0000   113.5639   -39.0670     8.4442     7.9988     8.3067     8.1161     2.4563     0.0143     0.1326    99.5925     0.2678
  510.5000   114.3017   -39.1366     8.1171     7.9987     8.1467     8.1161     2.4488     0.0070     0.1368    99.4930     0.2636
  511.0000   114.1443   -39.2063     7.9257     8.0519     8.2113     8.1161     2.4416     0.0002     0.1411    98.3813     0.2595
  511.5000   114.7396   -39.2759     8.1609     8.1167     8.3152     8.1161     2.4379    -0.0062     0.1431    96.9924     0.2553
  512.0000   114.4594   -39.3454     8.5459     8.1821     8.5934     8.1161     2.4423    -0.0048     0.1397    95.6036     0.2509
  512.5000   111.9822   -39.4150     8.9490     8.2479     9.1127     8.1161     2.4488    -0.0034     0.1359    94.7456     0.2493
  513.0000   109.3335   -39.4842     9.3718     8.2974     9.5201     8.1161     2.4552    -0.0018     0.1316    94.2211     0.2606
  513.5000   106.0699   -39.6827     9.8143     8.0943     9.4333     8.1161     2.4641    -0.0084     0.1270    93.9170     0.2708
  514.0000   102.9754   -39.9315    10.1528     7.3083     9.2619     8.1161     2.4723    -0.0133     0.1224    94.1490     0.2720
  514.5000   100.7413   -40.1811    10.0604     6.5128     7.6938     8.1161     2.4783    -0.0193     0.1179    96.4596     0.2813
  515.0000   102.6073   -40.4312     9.9885     5.8039     6.4667     8.1161     2.4798    -0.0250     0.1203   100.8334     0.2908
  515.5000   108.4371   -40.6810     9.1071     5.1701     5.9044     8.1161     2.4559    -0.0270     0.1407   105.9892     0.3003
  516.0000   117.1903   -40.9253     7.0769     5.0866     5.9034     8.1161     2.4072    -0.0224     0.1907   113.0991     0.3070
  516.5000   120.2598   -40.9278     4.8188     5.0601     6.5232     8.1161     2.2623     0.0310     0.2675   113.1946     0.3019
  517.0000   120.3001   -40.4547     3.9496     5.0352     7.1323     8.1161     2.2085     0.0769     0.2791   106.0134     0.2890
  517.5000   118.2714   -39.9897     4.3799     5.0123     7.7939     8.1162     2.2470     0.0316     0.2381   100.5846     0.2653
  518.0000   116.0427   -39.5239     6.3962     5.3023     8.4407     8.1154     2.3433    -0.0119     0.1892    95.1335     0.2429
