~VERSION INFORMATION
 VERS.                2.0:   CWLS LOG ASCII STANDARD - VERSION 2.0
 WRAP.                 NO:   ONE LINE PER DEPTH STEP
~WELL INFORMATION
#MNEM.UNIT      DATA TYPE    INFORMATION
#----------   ------------   ------------------------------
 STRT.F           11.5000:   START DEPTH
 STOP.F          583.0000:   STOP DEPTH
 STEP.F            0.5000:   STEP LENGTH
 NULL.          -999.2500:   NO VALUE
 COMP.    FENIX & SCISSON:   COMPANY
 WELL.      41 SX 3 #41-3:   WELL
 FLD .             TEAPOT:   FIELD
 LOC .       S3 T38N R78W:   LOCATION
 CNTY.            NATRONA:   COUNTY
 STAT.            WYOMING:   STATE
 CTRY. UNITED STATES OF AMERICA:   COUNTRY
 SRVC.            Unknown:   SERVICE COMPANY
 DATE.        01-DEC-1978:   LOGDATE
 API .       490251074000:   API NUMBER
~CURVE INFORMATION
#MNEM.UNIT       API CODE    CURVE DESCRIPTION
#----------   ------------   ------------------------------
 DEPT.F                  :   
 SPR .MV     05 010 01 00:   SPONTANEOUS POTENTIAL FROM RES.
 SN  .OHMM   05 040 16 00:   SHORT NORMAL 16"
 IL  .OHMM   05 120 00 00:   INDUCTION LOG
 GRD .GAPI   45 310 01 00:   GAMMA RAY FROM DENSITY LOG
 CALD.IN     45 280 60 00:   CALIPER
 DEN .G/C3   45 350 01 00:   COMPENSATED BULK DENSTIY
 CORR.G/C3   45 356 01 00:   DENSITY CORRECTION
 DPHI.DEC    45 890 12 00:   DENSITY POROSITY SANDSTONE
~PARAMETER INFORMATION
#MNEM.UNIT          VALUE    DESCRIPTION
#----------   ------------   ------------------------------
 PD  .                 GL:   PERMANENT DATUM
 EPD .F              5150:   ELEVATION PERMANENT DATUM
 LMF .                 KB:   LOG MEASURED FROM
 DAPD.F                 4:   FEET ABOVE PERMANENT DATUM
 DMF .                 KB:   DRILLING MEASURED FROM
 EKB .F              5154:   KELLING BUSHING
 EGL .F              5150:   GROUND LEVEL
 DATE.            12-1-78:   RUN DATE
 RUN .                  1:   RUN NUMBER
 DD  .F               600:   DEPTH DRILLER
 DL  .F               582:   DEPTH LOGGER
 BLI .F               576:   BOTTOM LOG INTERVAL
 TLI .F                42:   TOP LOG INTERVAL
 CS  .IN            8.625:   CASING SIZE
 CBD .F                40:   CASING BOTTOM DRILLER
 CBL .F                41:   CASING BOTTOM LOGGER
 BS  .IN            7.875:   BIT SIZE
 BSD .F               600:   BIT SIZE AT DEPTH
 DFT .                KCL:   DRILLING FLUID TYPE
 DFD .                8.8:   DRILLING FLUID DENSITY
 DFV .                 35:   DRILLING FLUID VISCOSITY
 DFPH.               11.2:   DRILLING FLUID PH
 DFL .               11.6:   DRILLING FLUID LOSS
 MSS .          FLOW LINE:   MUD SAMPLE SOURCE
 RMS .OHMM            .36:   RESISTIVITY MUD SAMPLE
 MST .F                52:   MUD SAMPLE TEMPERATURE
 RMF .OHMM            .36:   RESISTIVITY MUD FILTRATE SAMPLE
 MFST.F                55:   MUD FILTRATE SAMPLE TEMPERATURE
 RMC .OHMM            .42:   RESISTIVITY MUD CAKE
 MCST.F                60:   MUD CAKE SAMPLE TEMPERATURE
 MFSS.           MEASURED:   MUD FILTRATE SAMPLE SOURCE
 MCSS.           MEASURED:   MUD CAKE SAMPLE SOURCE
 RMB .OHMM            .32:   RESISTIVITY MUD AT BHT
 BHT .F                58:   BOTTOM HOLE TEMPERATURE
 MRT .F                58:   MAXIMUM RECORDED TEMPERATURE
 LUN .               2958:   LOGGING UNIT NUMBER
 LUL .                CPR:   LOGGING UNIT LOCATION
 ENGI.            ROLLINS:   RECORDING ENGINEER
 WITN.              AMEND:   WITNESSED BY
 CLNT.            A2DTECH:   CLIENT CODE
 ORIG.       2", 5" PRINT:   ORIGIN OF DATA
 UWI .       490251074000:   UNIQUE WELL ID
 DICO. A2D Technologies, Inc.:   DIGITIZING COMPANY
~OTHER INFORMATION
~A   DEPT      SPR         SN         IL         GRD      CALD        DEN       CORR       DPHI   
# ...
  254.5000   -34.5340     9.0969     9.3287    97.7826     8.0483     2.4601     0.0348     0.1372
  255.0000   -34.5271     9.0911     9.3127    94.6044     8.0483     2.4595     0.0323     0.1390
  255.5000   -34.5202     9.0853     9.2968    92.3046     8.0483     2.4588     0.0299     0.1408
  256.0000   -34.5134     9.0795     9.2809    92.5503     8.0483     2.4582     0.0273     0.1400
  256.5000   -34.5064     9.0737     9.2650    94.4138     8.0483     2.4578     0.0278     0.1358
  257.0000   -34.4988     9.0679     9.2492    97.5119     8.0483     2.4617     0.0290     0.1305
  257.5000   -34.4976     9.0621     9.2333   100.7150     8.0483     2.4666     0.0301     0.1319
  258.0000   -34.6262     9.0563     9.2176   101.9702     8.0483     2.4714     0.0300     0.1335
  258.5000   -34.7572     9.0505     9.1814   101.5277     8.0483     2.4683     0.0272     0.1359
  259.0000   -34.8875     9.0448     9.0631   100.2330     8.0483     2.4646     0.0245     0.1400
  259.5000   -35.0177     9.0390     8.9464    98.8794     8.0483     2.4590     0.0229     0.1440
  260.0000   -35.1480     8.9872     8.8313    95.8327     8.0483     2.4505     0.0231     0.1480
  260.5000   -35.2858     8.8985     8.7175    95.3937     8.0483     2.4421     0.0241     0.1494
  261.0000   -35.5191     8.8106     8.6053    95.7696     8.0483     2.4423     0.0251     0.1499
  261.5000   -35.7689     8.7236     8.4945    96.1719     8.0483     2.4431     0.0260     0.1504
  262.0000   -36.0192     8.6375     8.3853    96.8103     8.0483     2.4438     0.0269     0.1483
  262.5000   -36.2696     8.5522     8.2777    98.4002     8.0483     2.4446     0.0279     0.1464
  263.0000   -36.5198     8.4697     8.1706   100.0229     8.0483     2.4431     0.0288     0.1514
  263.5000   -36.7704     8.2396     8.0086    98.9472     8.0483     2.4388     0.0298     0.1549
  264.0000   -37.0221     8.0229     7.6535    97.1195     8.0483     2.4343     0.0307     0.1527
  264.5000   -37.2683     7.8115     7.3141    96.0694     8.0483     2.4340     0.0317     0.1472
  265.0000   -37.2779     7.6485     7.2056    96.1948     8.0483     2.4418     0.0326     0.1395
  265.5000   -37.2766     7.5195     7.1622    98.0218     8.0483     2.4522     0.0315     0.1376
  266.0000   -37.2763     7.3927     7.1069   100.2267     8.0483     2.4624     0.0289     0.1382
  266.5000   -37.2759     7.3067     7.2238   101.1110     8.0483     2.4578     0.0268     0.1414
  267.0000   -37.2758     7.5190     7.3745   100.1621     8.0483     2.4514     0.0279     0.1476
  267.5000   -37.2843     7.6850     7.5798    98.9858     8.0483     2.4451     0.0329     0.1524
  268.0000   -36.8396     7.8547     7.7732    97.8001     8.0483     2.4396     0.0377     0.1494
  268.5000   -36.1903     8.0285     8.0882    96.6223     8.0483     2.4425     0.0410     0.1467
  269.0000   -36.0851     8.2060     8.0797    95.6535     8.0483     2.4455     0.0374     0.1448
  269.5000   -36.0827     8.2680     8.0597    95.5777     8.0483     2.4479     0.0331     0.1451
  270.0000   -36.0835     8.3155     8.0398    95.5265     8.0483     2.4487     0.0288     0.1453
  270.5000   -36.0834     8.2885     8.0199    96.0448     8.0483     2.4476     0.0245     0.1456
  271.0000   -36.0574     8.2610     8.0001    96.5961     8.0483     2.4464     0.0207     0.1471
  271.5000   -35.8783     8.2336     7.9804    97.5031     8.0483     2.4451     0.0202     0.1496
  272.0000   -35.6950     8.2064     7.9606   100.3248     8.0483     2.4437     0.0195     0.1447
  272.5000   -35.7650     8.1792     7.9410   103.2642     8.0483     2.4484     0.0189     0.1398
  273.0000   -35.8531     8.1521     7.9214   104.0618     8.0483     2.4539     0.0190     0.1357
  273.5000   -36.1456     8.1250     7.9018   103.4967     8.0483     2.4594     0.0190     0.1388
  274.0000   -36.5378     8.0981     7.8822   104.0118     8.0483     2.4614     0.0191     0.1443
  274.5000   -36.7368     7.9989     7.8227   104.7539     8.0483     2.4545     0.0192     0.1468
  275.0000   -36.8312     7.8590     7.6256   104.7423     8.0483     2.4478     0.0192     0.1510
  275.5000   -36.9245     7.7216     7.4335   103.7951     8.0483     2.4411     0.0193     0.1550
  276.0000   -37.0168     7.5817     7.2395   100.7849     8.0483     2.4343     0.0194     0.1575
  276.5000   -37.0779     7.4508     6.6700    97.5697     8.0483     2.4278     0.0194     0.1557
  277.0000   -37.0771     7.3171     6.3027    94.5773     8.0483     2.4344     0.0195     0.1489
  277.5000   -37.1298     7.1738     6.3437    90.5416     8.0483     2.4425     0.0196     0.1428
  278.0000   -37.5709     7.0035     6.3746    86.9849     8.0483     2.4505     0.0197     0.1388
  278.5000   -38.0138     6.7237     6.4056    92.3287     8.0483     2.4546     0.0197     0.1474
  279.0000   -38.0701     6.7395     6.4368    98.0768     8.0483     2.4478     0.0198     0.1495
  279.5000   -38.0086     6.7735     6.4682   101.6281     8.0483     2.4409     0.0199     0.1468
  280.0000   -37.7180     6.9833     6.6258   103.7084     8.0483     2.4459     0.0199     0.1401
  280.5000   -37.4327     7.3073     6.8637   105.5174     8.0483     2.4561     0.0200     0.1353
  281.0000   -37.1485     7.5811     7.1429   105.7676     8.0481     2.4665     0.0201     0.1341
  281.5000   -36.8650     7.8192     7.4422   102.0246     8.0409     2.4677     0.0202     0.1329
  282.0000   -36.6625     8.0648     7.7539    98.4842     8.0334     2.4679     0.0202     0.1332
  282.5000   -36.6227     8.3181     8.0787   100.3354     8.0258     2.4689     0.0203     0.1349
  283.0000   -36.5799     8.5515     8.2824   102.2651     8.0183     2.4686     0.0204     0.1365
  283.5000   -36.5373     8.5719     8.3663    99.4391     8.0108     2.4652     0.0204     0.1356
  284.0000   -36.4979     8.5924     8.4408    96.3997     8.0032     2.4662     0.0205     0.1327
  284.5000   -36.2335     8.6129     8.5103    95.4981     7.9957     2.4683     0.0206     0.1305
  285.0000   -35.8885     8.6732     8.5885    95.9863     7.9932     2.4713     0.0206     0.1295
  285.5000   -35.7822     8.8588     8.6776    97.2819     8.0056     2.4741     0.0207     0.1254
  286.0000   -35.6854     9.0483     8.7676    99.8583     8.0175     2.4778     0.0208     0.1210
  286.5000   -35.5879     9.2049     8.8582   102.0514     8.0295     2.4942     0.0209     0.1192
  287.0000   -35.4903     9.1926     8.9529   102.7206     7.9990     2.5132     0.0209     0.1183
  287.5000   -35.3931     9.1802     8.9418   103.8003     7.9595     2.5061     0.0203     0.1182
  288.0000   -35.2872     9.1678     8.9305   104.6009     8.0116     2.4953     0.0198     0.1220
  288.5000   -34.9851     9.1554     8.9189   104.1949     8.0439     2.4843     0.0193     0.1301
  289.0000   -34.6950     9.1430     8.9074   103.7500     8.0389     2.4738     0.0187     0.1314
  289.5000   -34.6908     9.1306     8.8958   103.1146     8.0328     2.4716     0.0182     0.1305
  290.0000   -34.6912     9.1182     8.8841   101.7197     8.0266     2.4719     0.0177     0.1290
  290.5000   -34.6903     9.1059     8.8711   100.3604     8.0205     2.4746     0.0171     0.1275
  291.0000   -34.5529     9.0936     8.9139    98.9821     8.0144     2.4774     0.0166     0.1219
  291.5000   -34.2238     9.0813     8.9548    97.4771     8.0095     2.4835     0.0161     0.1113
  292.0000   -34.1370     9.0690     8.8340    97.0869     8.0096     2.5039     0.0155     0.1138
  292.5000   -34.2022     9.0567     8.6876    97.1414     8.0097     2.5022     0.0150     0.1176
  293.0000   -34.2666     9.0445     8.5437    99.1635     8.0097     2.4949     0.0162     0.1214
  293.5000   -34.5325     9.0016     8.3926   101.1398     8.0097     2.4878     0.0187     0.1250
  294.0000   -34.7910     8.9001     8.3445   102.9861     8.0097     2.4808     0.0211     0.1277
  294.5000   -35.0477     8.7933     8.2789   101.0622     8.0097     2.4757     0.0229     0.1285
