~VERSION INFORMATION
 VERS.                2.0:   CWLS LOG ASCII STANDARD - VERSION 2.0
 WRAP.                 NO:   ONE LINE PER DEPTH STEP
~WELL INFORMATION
#MNEM.UNIT      DATA TYPE    INFORMATION
#----------   ------------   ------------------------------
 STRT.F           43.0000:   START DEPTH
 STOP.F          551.0000:   STOP DEPTH
 STEP.F            0.5000:   STEP LENGTH
 NULL.          -999.2500:   NO VALUE
 COMP. FENIX & SCISSON INC:   COMPANY
 WELL.   NPR 3  27-S #3-3:   WELL
 FLD .             TEAPOT:   FIELD
 LOC .       S3 T38N R78W:   LOCATION
 CNTY.            NATRONA:   COUNTY
 STAT.            WYOMING:   STATE
 CTRY. UNITED STATES OF AMERICA:   COUNTRY
 SRVC.           BIRDWELL:   SERVICE COMPANY
 DATE.        07-OCT-1978:   LOGDATE
 API .       490251071600:   API NUMBER
~CURVE INFORMATION
#MNEM.UNIT       API CODE    CURVE DESCRIPTION
#----------   ------------   ------------------------------
 DEPT.F                  :   
 SPR .MV     05 010 01 00:   SPONTANEOUS POTENTIAL FROM RES.
 SN  .OHMM   05 040 16 00:   SHORT NORMAL 16"
 ILD .OHMM   05 120 46 00:   INDUCTION LOG DEEP
 GRD .GAPI   45 310 01 00:   GAMMA RAY FROM DENSITY LOG
 CALD.IN     45 280 60 00:   CALIPER
 RHOB.G/C3   45 350 01 00:   BULK DENSITY
 CORR.G/C3   45 356 01 00:   DENSITY CORRECTION
 DPHI.DEC    45 890 12 00:   DENSITY POROSITY SANDSTONE
~PARAMETER INFORMATION
#MNEM.UNIT          VALUE    DESCRIPTION
#----------   ------------   ------------------------------
 PD  .                 GL:   PERMANENT DATUM
 EPD .F              5241:   ELEVATION PERMANENT DATUM
 LMF .                 KB:   LOG MEASURED FROM
 DAPD.F                 4:   FEET ABOVE PERMANENT DATUM
 DMF .                 KB:   DRILLING MEASURED FROM
 EKB .F              5245:   KELLING BUSHING
 EGL .F              5241:   GROUND LEVEL
 DATE.            10-7-78:   RUN DATE
 RUN .                  1:   RUN NUMBER
 DD  .F               552:   DEPTH DRILLER
 DL  .F               551:   DEPTH LOGGER
 BLI .F               545:   BOTTOM LOG INTERVAL
 TLI .F                48:   TOP LOG INTERVAL
 CS  .IN            8.625:   CASING SIZE
 CBL .F                43:   CASING BOTTOM LOGGER
 BS  .IN            7.875:   BIT SIZE
 BSD .F               552:   BIT SIZE AT DEPTH
 DFT .                KCL:   DRILLING FLUID TYPE
 DFD .                8.7:   DRILLING FLUID DENSITY
 DFV .                 38:   DRILLING FLUID VISCOSITY
 DFPH.                  9:   DRILLING FLUID PH
 DFL .                 38:   DRILLING FLUID LOSS
 MSS .            MUD PIT:   MUD SAMPLE SOURCE
 RMS .OHMM            .24:   RESISTIVITY MUD SAMPLE
 MST .F                48:   MUD SAMPLE TEMPERATURE
 RMF .OHMM             .2:   RESISTIVITY MUD FILTRATE SAMPLE
 MFST.F                62:   MUD FILTRATE SAMPLE TEMPERATURE
 RMC .OHMM             .3:   RESISTIVITY MUD CAKE
 MCST.F                62:   MUD CAKE SAMPLE TEMPERATURE
 MFSS.               MEAS:   MUD FILTRATE SAMPLE SOURCE
 MCSS.               MEAS:   MUD CAKE SAMPLE SOURCE
 TCS .HRS               3:   TIME CURCULATED STOPPED
 LUN .               2958:   LOGGING UNIT NUMBER
 LUL .               CASP:   LOGGING UNIT LOCATION
 ENGI.             MILLER:   RECORDING ENGINEER
 WITN.              AMEND:   WITNESSED BY
 CLNT.            A2DTECH:   CLIENT CODE
 ORIG.       2", 5" PRINT:   ORIGIN OF DATA
 UWI .       490251071600:   UNIQUE WELL ID
 DICO. A2D Technologies, Inc.:   DIGITIZING COMPANY
~OTHER INFORMATION
~A   DEPT      SPR         SN        ILD        GRD         CALD       RHOB      CORR        DPHI 
# ...
  286.0000   -33.4537     6.2593     7.1985   106.0304     8.2995     2.4796    -0.0017     0.1203
  286.5000   -33.4783     6.2593     7.1526   105.9624     8.2937     2.4720    -0.0021     0.1258
  287.0000   -33.5032     6.2593     7.0527   103.9024     8.2879     2.4642    -0.0024     0.1313
  287.5000   -33.5277     6.2593     6.8481   102.2660     8.2821     2.4508    -0.0028     0.1389
  288.0000   -33.5502     6.2593     6.6181   101.5845     8.2763     2.4374    -0.0012     0.1475
  288.5000   -33.4534     6.1503     6.2999   101.1422     8.2705     2.4240     0.0041     0.1562
  289.0000   -33.2021     6.0093     5.9970   101.7136     8.2647     2.4107     0.0111     0.1643
  289.5000   -32.9689     5.9225     5.7972   102.2464     8.2589     2.4091     0.0180     0.1618
  290.0000   -32.8919     5.9339     5.6885   102.4483     8.2531     2.4257     0.0192     0.1549
  290.5000   -32.8214     5.9422     5.5896   102.2474     8.2473     2.4627     0.0112     0.1353
  291.0000   -32.7678     5.9506     5.5013   101.9988     8.2415     2.4828     0.0022     0.1192
  291.5000   -32.7688     5.9591     5.5326   104.7600     8.2356     2.4835     0.0031     0.1169
  292.0000   -32.7689     5.9674     5.5722   106.8430     8.2291     2.4844     0.0049     0.1169
  292.5000   -32.7689     5.9736     5.6782   106.8281     8.2227     2.4807     0.0042     0.1198
  293.0000   -32.7689     6.1213     6.0489   106.8345     8.2162     2.4757     0.0036     0.1229
  293.5000   -32.7689     6.3028     6.4437   106.8327     8.2097     2.4781     0.0029     0.1218
  294.0000   -32.7689     6.4905     6.8644   106.8327     8.2033     2.4817     0.0076     0.1207
  294.5000   -32.7689     6.6767     7.3125   106.8327     8.1973     2.4840     0.0130     0.1196
  295.0000   -32.7689     6.7458     7.4467   106.8327     8.1972     2.4850     0.0182     0.1185
  295.5000   -32.7689     6.8133     7.5165   106.8327     8.1972     2.4862     0.0216     0.1175
  296.0000   -32.7689     6.8838     7.5862   106.8327     8.1972     2.4921     0.0247     0.1125
  296.5000   -32.7689     6.9640     7.6570   106.8327     8.1972     2.5025     0.0269     0.1071
  297.0000   -32.7689     7.0453     7.7281   106.8327     8.1972     2.5037     0.0265     0.1051
  297.5000   -32.7689     7.1274     7.8419   106.8327     8.1972     2.5047     0.0247     0.1046
  298.0000   -32.7689     7.2105     7.9548   106.8327     8.1973     2.5039     0.0231     0.1041
  298.5000   -32.7689     7.2542     7.9510   106.8322     8.2029     2.4971     0.0214     0.1064
  299.0000   -32.7689     7.2542     7.9466   106.8288     8.2148     2.4924     0.0198     0.1112
  299.5000   -32.7689     7.2542     7.9422   106.8353     8.2267     2.4921     0.0198     0.1117
  300.0000   -32.7689     7.2542     7.9379   107.1154     8.2357     2.4916     0.0216     0.1121
  300.5000   -32.7689     7.2542     7.9335   108.4864     8.2115     2.4870     0.0235     0.1156
  301.0000   -32.7689     7.2542     7.9292   109.8702     8.1877     2.4866     0.0253     0.1165
  301.5000   -32.7689     7.2542     7.9248   109.9790     8.1631     2.4874     0.0280     0.1149
  302.0000   -32.7689     7.2542     7.9205   106.7337     8.1621     2.4936     0.0380     0.1130
  302.5000   -32.7689     7.2542     7.9161   106.7170     8.1684     2.4950     0.0466     0.1112
  303.0000   -32.7689     7.2542     7.9117   106.3514     8.1750     2.4940     0.0594     0.1094
  303.5000   -32.7689     7.2542     7.9074   104.4050     8.1815     2.5022     0.0721     0.1048
  304.0000   -32.7689     7.2542     7.9031   104.3075     8.1880     2.5148     0.0728     0.0978
  304.5000   -32.7687     7.2543     7.8987   105.3263     8.1945     2.5102     0.0728     0.0998
  305.0000   -32.7705     7.2541     7.8944   107.4033     8.2010     2.5044     0.0763     0.1036
  305.5000   -32.7579     7.2558     7.8903   109.2416     8.2075     2.4994     0.0876     0.1054
  306.0000   -33.3462     7.2532     7.8868   108.9241     8.2140     2.5045     0.0926     0.1036
  306.5000   -34.1411     6.9819     7.8818   108.6296     8.2205     2.5166     0.0853     0.0957
  307.0000   -34.9539     6.9434     7.7279   109.0607     8.2271     2.5289     0.0720     0.0908
  307.5000   -35.3625     6.9065     7.5906   109.6825     8.2336     2.5315     0.0498     0.0894
  308.0000   -35.3927     6.8699     7.4557   109.7217     8.2401     2.5264     0.0250     0.0947
  308.5000   -35.4163     6.8335     7.2542   109.5916     8.2466     2.5089     0.0089     0.1039
  309.0000   -35.4384     6.8008     6.9915   109.4471     8.2531     2.4891     0.0100     0.1121
  309.5000   -35.4612     6.8152     6.7384   109.7032     8.2596     2.4804     0.0108     0.1184
  310.0000   -35.4840     6.8283     6.4944   110.2449     8.2661     2.4714     0.0116     0.1247
  310.5000   -35.5068     6.8414     6.3758   110.7921     8.2725     2.4683     0.0124     0.1277
  311.0000   -35.5296     6.8599     6.4554   110.9671     8.2764     2.4667     0.0120     0.1285
  311.5000   -35.5524     6.8638     6.4976   108.7809     8.2748     2.4653     0.0095     0.1293
  312.0000   -35.5753     6.4348     6.1035   104.6692     8.2732     2.4508     0.0070     0.1345
  312.5000   -35.5981     6.1232     5.8198   102.6873     8.2717     2.4350     0.0045     0.1433
  313.0000   -35.6209     5.8266     5.5488   103.2893     8.2701     2.4271     0.0028     0.1520
  313.5000   -35.6437     5.5444     5.2904   104.6499     8.2686     2.4180     0.0023     0.1603
  314.0000   -35.6665     5.2759     5.0440   105.3728     8.2670     2.3842     0.0018     0.1714
  314.5000   -35.6893     5.0204     4.7908   105.2720     8.2654     2.3494     0.0014     0.1939
  315.0000   -35.7121     4.7772     4.5330   103.4828     8.2639     2.3148     0.0046     0.2164
  315.5000   -35.7349     4.5040     4.1946   100.7617     8.2623     2.2804     0.0135     0.2389
  316.0000   -35.7577     4.2084     3.7155   100.4530     8.2608     2.2601     0.0221     0.2417
  316.5000   -35.7805     3.9301     3.0776   100.5095     8.2592     2.2608     0.0289     0.2392
  317.0000   -35.8033     3.6695     3.0483   100.5515     8.2577     2.2984     0.0271     0.2290
  317.5000   -35.8262     3.4061     3.0161   100.5902     8.2515     2.3419     0.0184     0.1938
  318.0000   -35.8490     3.4061     2.9937   100.6378     8.2421     2.3855     0.0098     0.1773
  318.5000   -35.8718     3.4061     3.0214   101.1719     8.2325     2.3946     0.0049     0.1725
  319.0000   -35.8951     3.5017     3.0214   103.1645     8.2231     2.3987     0.0048     0.1648
  319.5000   -35.9205     3.7308     3.3866   106.1858     8.2159     2.4252     0.0047     0.1535
  320.0000   -35.9361     3.9521     3.8754   109.1701     8.2127     2.4511     0.0045     0.1355
  320.5000   -35.6935     4.1865     3.8396   109.3900     8.2095     2.4771     0.0044     0.1193
  321.0000   -34.6169     4.4348     4.3414   109.3147     8.2062     2.4841     0.0042     0.1182
  321.5000   -34.5534     4.6979     4.7159   109.2303     8.2029     2.4880     0.0041     0.1154
  322.0000   -34.5614     4.9765     5.1503   109.6218     8.1998     2.4915     0.0040     0.1132
  322.5000   -34.5673     5.2717     5.4962   116.2195     8.2057     2.4908     0.0038     0.1113
  323.0000   -34.5183     5.5523     5.9182   117.0098     8.2566     2.4874     0.0037     0.1147
  323.5000   -33.7267     5.6617     6.0155   117.0019     8.3082     2.4861     0.0036     0.1167
  324.0000   -33.1573     5.7629     6.1471   116.9931     8.2903     2.4872     0.0034     0.1159
  324.5000   -33.1687     5.8142     6.1042   116.9920     8.2571     2.4883     0.0033     0.1152
  325.0000   -33.1671     5.7476     6.0180   116.9920     8.2189     2.4866     0.0032     0.1186
  325.5000   -33.1673     5.7036     5.9152   116.9891     8.1736     2.4731     0.0030     0.1260
  326.0000   -33.1673     5.6556     5.8156   116.9859     8.1403     2.4581     0.0068     0.1335
