~VERSION INFORMATION
 VERS.                2.0:   CWLS LOG ASCII STANDARD - VERSION 2.0
 WRAP.                 NO:   ONE LINE PER DEPTH STEP
~WELL INFORMATION
#MNEM.UNIT      DATA TYPE    INFORMATION
#----------   ------------   ------------------------------
 STRT.F          390.0000:   START DEPTH
 STOP.F         2628.0000:   STOP DEPTH
 STEP.F            0.5000:   STEP LENGTH
 NULL.          -999.2500:   NO VALUE
 COMP. FENIX & SCISSON INC:   COMPANY
 WELL.    25 SHX 11 #3-11:   WELL
 FLD .             TEAPOT:   FIELD
 LOC .      S11 T38N R78W:   LOCATION
 CNTY.            NATRONA:   COUNTY
 STAT.            WYOMING:   STATE
 CTRY. UNITED STATES OF AMERICA:   COUNTRY
 SRVC.              Welex:   SERVICE COMPANY
 DATE.        15-MAY-1980:   LOGDATE
 API .       490251081900:   API NUMBER
~CURVE INFORMATION
#MNEM.UNIT       API CODE    CURVE DESCRIPTION
#----------   ------------   ------------------------------
 DEPT.F                  :   
 CALD.IN     45 280 60 00:   CALIPER
 GRD .GAPI   45 310 01 00:   GAMMA RAY FROM DENSITY LOG
 RHOB.G/C3   45 350 01 00:   BULK DENSITY
 DPHI.DEC    45 890 12 00:   DENSITY POROSITY SANDSTONE
 CORR.G/C3   45 356 01 00:   DENSITY CORRECTION
~PARAMETER INFORMATION
#MNEM.UNIT          VALUE    DESCRIPTION
#----------   ------------   ------------------------------
 PD  .                 GL:   PERMANENT DATUM
 EPD .F              5163:   ELEVATION PERMANENT DATUM
 LMF .                 KB:   LOG MEASURED FROM
 DAPD.F                10:   FEET ABOVE PERMANENT DATUM
 DMF .                 KB:   DRILLING MEASURED FROM
 EKB .F              5173:   KELLING BUSHING
 EGL .F              5163:   GROUND LEVEL
 DATE.            5-15-80:   RUN DATE
 RUN .                  1:   RUN NUMBER
 DD  .F              2625:   DEPTH DRILLER
 DL  .F              2630:   DEPTH LOGGER
 BLI .F              2628:   BOTTOM LOG INTERVAL
 TLI .F               400:   TOP LOG INTERVAL
 CS  .IN            9.625:   CASING SIZE
 CBD .F               645:   CASING BOTTOM DRILLER
 BS  .IN             8.75:   BIT SIZE
 BSD .F              2625:   BIT SIZE AT DEPTH
 DFT .        AIR DRILLED:   DRILLING FLUID TYPE
 TCS .HRS               2:   TIME CURCULATED STOPPED
 MRT .F               116:   MAXIMUM RECORDED TEMPERATURE
 ENGI.            BENTSEN:   RECORDING ENGINEER
 WITN.           DINSMORE:   WITNESSED BY
 CLNT.            A2DTECH:   CLIENT CODE
 ORIG.           5" PRINT:   ORIGIN OF DATA
 UWI .       490251081900:   UNIQUE WELL ID
 DICO. A2D Technologies, Inc.:   DIGITIZING COMPANY
~OTHER INFORMATION
~A   DEPT     CALD         GRD      RHOB       DPHI       CORR   
# ...
 1549.0000     8.9136    85.6450     2.4872     0.0415     0.0454
 1549.5000     8.9158    86.2118     2.4715     0.0495     0.0308
 1550.0000     8.9180    86.2060     2.4566     0.0595     0.0162
 1550.5000     8.9201    85.7579     2.4509     0.0562     0.0145
 1551.0000     8.9207    84.6065     2.4643     0.0524     0.0184
 1551.5000     8.9174    83.4243     2.4401     0.0685    -0.0042
 1552.0000     8.9141    82.8796     2.4568     0.0585    -0.0034
 1552.5000     8.9108    82.6235     2.4674     0.0500     0.0046
 1553.0000     8.9076    83.0061     2.4640     0.0532     0.0130
 1553.5000     8.9044    83.7681     2.4441     0.0597     0.0041
 1554.0000     8.9009    84.5495     2.4223     0.0795    -0.0067
 1554.5000     8.8769    84.6905     2.4370     0.0705    -0.0106
 1555.0000     8.8514    85.3403     2.4562     0.0590     0.0078
 1555.5000     8.8259    86.4142     2.4650     0.0525     0.0186
 1556.0000     8.8016    86.6691     2.4846     0.0411     0.0394
 1556.5000     8.8170    86.4485     2.5077     0.0278     0.0705
 1557.0000     8.8423    86.2165     2.5162     0.0229     0.0670
 1557.5000     8.8677    85.9975     2.4901     0.0342     0.0448
 1558.0000     8.8934    86.1290     2.5059     0.0281     0.0474
 1558.5000     8.9015    87.1220     2.5061     0.0273     0.0433
 1559.0000     8.9016    88.3486     2.4941     0.0346     0.0338
 1559.5000     8.9016    89.2611     2.5180     0.0228     0.0534
 1560.0000     8.9016    89.2413     2.5242     0.0140     0.0688
 1560.5000     8.9016    89.0007     2.5062     0.0240     0.0553
 1561.0000     8.9016    88.1652     2.4895     0.0339     0.0394
 1561.5000     8.9016    87.3108     2.5008     0.0314     0.0494
 1562.0000     8.9016    87.3692     2.5110     0.0241     0.0511
 1562.5000     8.9016    87.8203     2.5239     0.0165     0.0528
 1563.0000     8.9016    87.6657     2.5029     0.0164     0.0521
 1563.5000     8.9016    86.6189     2.4843     0.0345     0.0256
 1564.0000     8.9016    85.5779     2.4828     0.0400     0.0153
 1564.5000     8.9017    84.5362     2.5217     0.0185     0.0494
 1565.0000     8.8955    83.5057     2.5006     0.0300     0.0355
 1565.5000     8.8854    83.0631     2.4842     0.0395     0.0229
 1566.0000     8.8815    83.5537     2.5013     0.0331     0.0346
 1566.5000     8.8858    84.0288     2.4715     0.0459     0.0264
 1567.0000     8.8925    84.4023     2.4715     0.0475     0.0278
 1567.5000     8.8993    84.3449     2.4897     0.0382     0.0349
 1568.0000     8.9060    84.1052     2.4888     0.0334     0.0389
 1568.5000     8.9128    83.8728     2.4904     0.0370     0.0388
 1569.0000     8.9195    83.6410     2.5015     0.0305     0.0423
 1569.5000     8.9263    83.4091     2.5108     0.0260     0.0450
 1570.0000     8.9331    83.1770     2.5008     0.0222     0.0378
 1570.5000     8.9404    82.9348     2.5047     0.0274     0.0324
 1571.0000     8.9256    82.8751     2.4886     0.0382     0.0176
 1571.5000     8.9031    82.8888     2.5084     0.0266     0.0328
 1572.0000     8.8806    83.6437     2.5287     0.0112     0.0734
 1572.5000     8.8625    84.4589     2.5196     0.0201     0.0612
 1573.0000     8.8743    84.8406     2.5052     0.0281     0.0490
 1573.5000     8.8856    84.3430     2.4994     0.0328     0.0513
 1574.0000     8.8969    83.8627     2.4899     0.0389     0.0391
 1574.5000     8.9082    83.3770     2.4731     0.0465     0.0240
 1575.0000     8.9200    83.1850     2.4585     0.0553     0.0155
 1575.5000     8.8951    83.0253     2.4633     0.0536     0.0208
 1576.0000     8.8522    82.1662     2.4661     0.0533     0.0245
 1576.5000     8.8091    81.3204     2.4489     0.0596     0.0143
 1577.0000     8.7834    80.4831     2.4450     0.0669     0.0044
 1577.5000     8.8248    79.9439     2.4642     0.0545     0.0178
 1578.0000     8.8676    80.4836     2.4785     0.0407     0.0332
 1578.5000     8.8810    80.9935     2.4694     0.0522     0.0257
 1579.0000     8.8910    81.3704     2.4663     0.0532     0.0122
 1579.5000     8.9060    81.3651     2.4479     0.0625    -0.0015
 1580.0000     8.8935    81.4526     2.4384     0.0685    -0.0022
 1580.5000     8.8388    81.8212     2.4638     0.0554     0.0191
 1581.0000     8.7789    82.1924     2.4877     0.0394     0.0406
 1581.5000     8.7917    82.4342     2.4987     0.0294     0.0622
 1582.0000     8.8818    82.8915     2.4907     0.0324     0.0580
 1582.5000     8.9360    82.8160     2.4943     0.0338     0.0535
 1583.0000     8.9383    82.6189     2.5018     0.0306     0.0577
 1583.5000     8.9267    82.4293     2.4879     0.0353     0.0405
 1584.0000     8.9152    82.3965     2.4761     0.0471     0.0213
 1584.5000     8.9040    83.1712     2.4849     0.0425     0.0267
 1585.0000     8.8927    83.7068     2.4965     0.0346     0.0429
 1585.5000     8.8811    83.1703     2.5259     0.0210     0.0633
 1586.0000     8.8608    84.2282     2.5317     0.0100     0.0662
 1586.5000     8.8405    84.3839     2.5160     0.0213     0.0578
 1587.0000     8.8938    83.9194     2.5230     0.0144     0.0630
 1587.5000     8.9423    83.4457     2.5237     0.0167     0.0614
 1588.0000     8.9396    83.3660     2.5429     0.0009     0.0715
 1588.5000     8.9377    84.2277     2.5314     0.0091     0.0745
 1589.0000     8.9359    85.0684     2.5098     0.0223     0.0626
 1589.5000     8.9341    85.2009     2.4886     0.0352     0.0462
 1590.0000     8.9323    85.0735     2.4775     0.0440     0.0313
 1590.5000     8.9305    85.1683     2.4813     0.0407     0.0346
 1591.0000     8.9286    85.7299     2.4595     0.0560     0.0244
 1591.5000     8.9268    86.1470     2.4757     0.0485     0.0302
 1592.0000     8.9251    85.5244     2.4631     0.0459     0.0268
 1592.5000     8.9232    84.9857     2.4555     0.0581     0.0117
 1593.0000     8.9189    84.9981     2.4654     0.0538     0.0144
 1593.5000     8.9000    85.0002     2.4715     0.0479     0.0226
 1594.0000     8.8812    84.9984     2.4640     0.0507     0.0128
 1594.5000     8.8624    84.8898     2.4574     0.0560     0.0030
 1595.0000     8.8435    84.5956     2.4705     0.0513     0.0095
 1595.5000     8.8245    84.3040     2.4906     0.0425     0.0280
 1596.0000     8.8213    84.0141     2.4736     0.0391     0.0251
 1596.5000     8.8212    83.7888     2.4668     0.0520     0.0111
 1597.0000     8.8214    83.5374     2.4726     0.0487     0.0159
 1597.5000     8.8253    83.2451     2.4919     0.0425     0.0310
 1598.0000     8.8292    82.8876     2.5030     0.0294     0.0453
 1598.5000     8.8332    82.8905     2.4851     0.0439     0.0253
 1599.0000     8.8367    83.4469     2.4789     0.0342     0.0315
 1599.5000     8.8396    84.6565     2.5013     0.0281     0.0493
 1600.0000     8.8608    85.9088     2.4836     0.0419     0.0344
 1600.5000     8.8613    86.1614     2.4692     0.0522     0.0181
 1601.0000     8.8615    85.7347     2.4578     0.0604     0.0063
 1601.5000     8.8615    85.2928     2.4708     0.0507     0.0142
 1602.0000     8.8614    84.8506     2.4799     0.0396     0.0287
 1602.5000     8.8615    84.4189     2.4673     0.0469     0.0374
 1603.0000     8.8589    84.7723     2.4565     0.0592     0.0123
 1603.5000     8.8543    85.1859     2.4555     0.0590     0.0126
 1604.0000     8.8497    85.5911     2.4574     0.0576     0.0170
 1604.5000     8.8451    85.5462     2.4626     0.0550     0.0234
 1605.0000     8.8428    85.4351     2.4716     0.0471     0.0245
 1605.5000     8.8522    85.3284     2.4879     0.0401     0.0354
 1606.0000     8.8611    85.4970     2.4905     0.0366     0.0482
 1606.5000     8.8615    85.8793     2.4741     0.0479     0.0296
 1607.0000     8.8627    86.5247     2.4626     0.0545     0.0100
 1607.5000     8.8696    86.4906     2.4540     0.0608    -0.0013
 1608.0000     8.8763    87.4047     2.4635     0.0552     0.0086
 1608.5000     8.8817    86.9565     2.4571     0.0600    -0.0046
 1609.0000     8.8756    86.2297     2.4737     0.0520     0.0097
 1609.5000     8.8666    85.5051     2.4664     0.0520     0.0149
