~VERSION INFORMATION
 VERS.                2.0:   CWLS LOG ASCII STANDARD - VERSION 2.0
 WRAP.                 NO:   ONE LINE PER DEPTH STEP
~WELL INFORMATION
#MNEM.UNIT      DATA TYPE    INFORMATION
#----------   ------------   ------------------------------
 STRT.F           32.0000:   START DEPTH
 STOP.F          738.0000:   STOP DEPTH
 STEP.F            0.5000:   STEP LENGTH
 NULL.          -999.2500:   NO VALUE
 COMP. FENIX & SCISSON INC:   COMPANY
 WELL.       NPR-3 #43-34:   WELL
 FLD .             TEAPOT:   FIELD
 LOC .      S34 T39N R78W:   LOCATION
 CNTY.            NATRONA:   COUNTY
 STAT.            WYOMING:   STATE
 CTRY. UNITED STATES OF AMERICA:   COUNTRY
 SRVC.            Unknown:   SERVICE COMPANY
 DATE.        26-AUG-1978:   LOGDATE
 API .       490251069900:   API NUMBER
~CURVE INFORMATION
#MNEM.UNIT       API CODE    CURVE DESCRIPTION
#----------   ------------   ------------------------------
 DEPT.F                  :   
 GRD .GAPI   45 310 01 00:   GAMMA RAY FROM DENSITY LOG
 CALD.IN     45 280 60 00:   CALIPER
 RHOB.G/C3   45 350 01 00:   BULK DENSITY
 DPHI.DEC    45 890 12 00:   DENSITY POROSITY SANDSTONE
 CORR.G/C3   45 356 01 00:   DENSITY CORRECTION
 SPR .MV     05 010 01 00:   SPONTANEOUS POTENTIAL FROM RES.
 SN  .OHMM   05 040 16 00:   SHORT NORMAL 16"
 ILD .OHMM   05 120 46 00:   INDUCTION LOG DEEP
~PARAMETER INFORMATION
#MNEM.UNIT          VALUE    DESCRIPTION
#----------   ------------   ------------------------------
 PD  .                 GL:   PERMANENT DATUM
 EPD .F              5110:   ELEVATION PERMANENT DATUM
 LMF .                 KB:   LOG MEASURED FROM
 DAPD.F                 4:   FEET ABOVE PERMANENT DATUM
 DMF .                 KB:   DRILLING MEASURED FROM
 EKB .F              5114:   KELLING BUSHING
 EGL .F              5110:   GROUND LEVEL
 DATE.            8-26-78:   RUN DATE
 RUN .                  1:   RUN NUMBER
 DD  .F               748:   DEPTH DRILLER
 DL  .F               738:   DEPTH LOGGER
 BLI .F               732:   BOTTOM LOG INTERVAL
 TLI .F                40:   TOP LOG INTERVAL
 CS  .IN            8.625:   CASING SIZE
 CBD .F                40:   CASING BOTTOM DRILLER
 CBL .F                40:   CASING BOTTOM LOGGER
 BS  .IN            7.875:   BIT SIZE
 BSD .F               748:   BIT SIZE AT DEPTH
 DFT .                KCL:   DRILLING FLUID TYPE
 DFD .                8.7:   DRILLING FLUID DENSITY
 DFV .                 33:   DRILLING FLUID VISCOSITY
 DFPH.                  9:   DRILLING FLUID PH
 DFL .                 10:   DRILLING FLUID LOSS
 MSS .          FLOW LINE:   MUD SAMPLE SOURCE
 RMS .OHMM            .36:   RESISTIVITY MUD SAMPLE
 MST .F                80:   MUD SAMPLE TEMPERATURE
 RMF .OHMM             .3:   RESISTIVITY MUD FILTRATE SAMPLE
 MFST.F                80:   MUD FILTRATE SAMPLE TEMPERATURE
 RMC .OHMM            .48:   RESISTIVITY MUD CAKE
 MCST.F                82:   MUD CAKE SAMPLE TEMPERATURE
 MFSS.               MEAS:   MUD FILTRATE SAMPLE SOURCE
 MCSS.               MEAS:   MUD CAKE SAMPLE SOURCE
 TCS .HRS               2:   TIME CURCULATED STOPPED
 LUN .               2958:   LOGGING UNIT NUMBER
 LUL .               CASP:   LOGGING UNIT LOCATION
 ENGI.             MILLER:   RECORDING ENGINEER
 WITN.              AMEND:   WITNESSED BY
 CLNT.            A2DTECH:   CLIENT CODE
 ORIG.           5" PRINT:   ORIGIN OF DATA
 UWI .       490251069900:   UNIQUE WELL ID
 DICO. A2D Technologies, Inc.:   DIGITIZING COMPANY
~OTHER INFORMATION
~A   DEPT       GRD      CALD       RHOB       DPHI       CORR        SPR         SN        ILD   
# ...
  558.5000    47.9835     7.0580     2.3019     0.2262     0.0414   -21.1236    12.3592    13.9345
  559.0000    47.5536     7.0786     2.3021     0.2162     0.0415   -21.1046    12.3201    13.9064
  559.5000    47.6037     7.0873     2.3192     0.2046     0.0415   -21.4237    12.2812    13.9019
  560.0000    49.5841     7.0955     2.3397     0.1957     0.0415   -21.7410    12.2309    15.1193
  560.5000    53.3667     7.1040     2.3603     0.1932     0.0415   -22.0600    12.3268    15.1038
  561.0000    56.9901     7.1125     2.3612     0.1897     0.0415   -22.0813    12.5190    15.3412
  561.5000    60.6371     7.1209     2.3635     0.1838     0.0435   -22.2876    12.7142    15.5328
  562.0000    64.3770     7.1289     2.3788     0.1779     0.0492   -23.8326    12.9125    15.7992
  562.5000    64.8391     7.1405     2.3826     0.1720     0.0641   -24.0619    13.0503    15.9671
  563.0000    63.1885     7.1862     2.3984     0.1691     0.0644   -24.0380    13.1705    15.9671
  563.5000    62.7366     7.2245     2.3998     0.1809     0.0548   -23.8948    13.1002    15.7593
  564.0000    62.5568     7.2621     2.3849     0.1861     0.0457   -23.7515    13.0364    15.3977
  564.5000    63.0065     7.2995     2.3702     0.1902     0.0454   -23.6099    12.9718    15.1103
  565.0000    68.2448     7.3406     2.3661     0.1999     0.0454   -23.4576    12.9074    14.9996
  565.5000    68.8141     7.3562     2.3540     0.2104     0.0468   -23.0352    12.8434    14.8351
  566.0000    67.9596     7.3551     2.3363     0.2210     0.0509   -22.8541    12.8061    15.0090
  566.5000    62.7537     7.3535     2.3194     0.2202     0.0602   -22.7502    12.9384    15.2968
  567.0000    57.6989     7.3520     2.3188     0.2016     0.0693   -22.6649    13.0449    15.5900
  567.5000    57.6425     7.3505     2.3447     0.1862     0.0785   -23.1075    13.3367    15.8889
  568.0000    59.2022     7.3491     2.3683     0.1708     0.0877   -23.7513    13.6276    16.1145
  568.5000    60.8068     7.3476     2.3917     0.1554     0.0968   -24.5651    13.7833    16.1395
  569.0000    63.6849     7.3462     2.4150     0.1450     0.1060   -25.3839    13.6572    16.2335
  569.5000    68.2169     7.3447     2.4385     0.1360     0.1151   -26.2004    13.9418    16.4135
  570.0000    67.9742     7.3433     2.4558     0.1250     0.1233   -27.0211    14.2103    16.7181
  570.5000    69.6775     7.3418     2.4685     0.1328     0.1226   -27.4176    14.5682    16.7958
  571.0000    71.6616     7.3404     2.4652     0.1394     0.1202   -27.4658    14.4947    16.8724
  571.5000    72.7609     7.3389     2.4483     0.1467     0.1044   -27.5222    14.3620    17.0282
  572.0000    71.8684     7.3374     2.4405     0.1564     0.0854   -27.5770    14.2288    17.0270
  572.5000    70.7157     7.3330     2.4228     0.1671     0.0743   -27.5926    14.0968    17.0284
  573.0000    70.6921     7.3254     2.4057     0.1703     0.0755   -27.3603    13.9670    17.0282
  573.5000    70.6987     7.3128     2.4019     0.1733     0.0786   -27.1258    13.9106    17.0282
  574.0000    69.8676     7.2665     2.3939     0.1779     0.0828   -26.9524    13.9153    17.0282
  574.5000    68.2995     7.2342     2.3877     0.1795     0.0871   -26.7347    13.9277    17.0282
  575.0000    66.6195     7.2275     2.3847     0.1825     0.0913   -26.5191    13.9401    17.0282
  575.5000    61.0806     7.2204     2.3794     0.1852     0.0956   -26.4383    13.9526    17.0282
  576.0000    62.2110     7.2133     2.3740     0.1777     0.0924   -26.3813    13.9650    17.0282
  576.5000    64.2304     7.2062     2.3851     0.1722     0.0845   -26.3135    13.9775    17.0282
  577.0000    65.5137     7.1991     2.3970     0.1717     0.0768   -26.2394    13.9900    17.0282
  577.5000    64.0938     7.1919     2.3993     0.1727     0.0660   -26.5425    14.0025    17.0282
  578.0000    61.9288     7.1852     2.3941     0.1787     0.0551   -26.9096    14.0150    17.0282
  578.5000    63.1415     7.1791     2.3869     0.1807     0.0442   -26.9160    14.0276    17.0276
  579.0000    64.4013     7.1469     2.3844     0.1781     0.0332   -27.0435    14.0396    17.0490
  579.5000    65.4539     7.0972     2.3864     0.1775     0.0314   -27.0301    14.0252    17.0732
  580.0000    63.1553     7.0549     2.3863     0.1788     0.0314   -27.0486    13.9980    17.0972
  580.5000    60.6946     7.0558     2.3851     0.1801     0.0315   -27.4194    13.9703    17.1213
  581.0000    59.7045     7.0570     2.3839     0.1807     0.0315   -27.7749    13.9427    17.1453
  581.5000    61.6905     7.0215     2.3828     0.1801     0.0317   -28.0189    13.9152    17.1695
  582.0000    64.0838     6.9929     2.3821     0.1798     0.0318   -28.2528    13.8877    17.1855
  582.5000    66.1724     6.9619     2.3824     0.1795     0.0320   -28.5709    13.8603    16.6797
  583.0000    66.1163     6.9565     2.3834     0.1803     0.0322   -28.8895    13.8330    16.4772
  583.5000    66.0868     6.8971     2.3842     0.1812     0.0323   -29.2049    13.8057    16.2771
  584.0000    67.0426     6.8056     2.3831     0.1819     0.0325   -29.4095    13.7827    16.1145
  584.5000    71.2137     6.7953     2.3822     0.1791     0.0327   -29.4417    13.7832    16.0531
  585.0000    74.8541     6.7954     2.3826     0.1765     0.0328   -29.4794    13.7833    15.9748
  585.5000    72.4242     6.7956     2.3870     0.1738     0.0330   -29.5163    13.7833    15.8969
  586.0000    69.5438     6.7956     2.3925     0.1781     0.0331   -29.5533    13.7833    15.8210
  586.5000    70.0814     6.7956     2.3885     0.1787     0.0333   -29.5909    13.7833    15.7116
  587.0000    69.8252     6.7956     2.3840     0.1748     0.0334   -29.5923    13.7833    15.5796
  587.5000    67.8096     6.7956     2.3842     0.1682     0.0344   -29.5749    13.7833    15.5328
  588.0000    65.7817     6.7955     2.3987     0.1607     0.0355   -29.5570    13.7833    15.5328
  588.5000    65.0963     6.7952     2.4131     0.1662     0.0329   -29.5391    13.7833    15.5328
  589.0000    66.0387     6.8085     2.4066     0.1720     0.0302   -29.5212    13.7833    15.5330
  589.5000    67.0040     6.8231     2.3982     0.1759     0.0273   -29.5034    13.7833    15.5314
  590.0000    69.4913     6.8376     2.3894     0.1741     0.0245   -29.4855    13.7833    15.5388
  590.5000    73.0376     6.8521     2.3899     0.1732     0.0216   -29.4676    13.7833    15.6869
  591.0000    72.9439     6.8667     2.3940     0.1769     0.0215   -29.4498    13.7833    15.6338
  591.5000    71.5560     6.8813     2.3903     0.1805     0.0224   -29.4319    13.7833    15.5957
  592.0000    70.1420     6.8954     2.3821     0.1839     0.0234   -29.4137    13.7833    15.5576
  592.5000    70.0896     6.8974     2.3752     0.1839     0.0244   -29.4071    13.7833    15.4370
  593.0000    70.0913     6.9049     2.3751     0.1847     0.0253   -29.4632    13.7835    15.1638
  593.5000    70.5650     6.9125     2.3752     0.1875     0.0263   -29.5240    13.7553    14.8955
  594.0000    71.2139     6.9233     2.3693     0.1943     0.0273   -29.5847    13.7065    14.8351
  594.5000    70.7959     6.9452     2.3594     0.1952     0.0282   -29.6449    13.6577    15.0258
  595.0000    69.0162     6.9668     2.3572     0.1919     0.0291   -29.7065    13.6089    15.1103
  595.5000    67.9418     6.9885     2.3597     0.1821     0.0316   -29.7727    13.5602    15.0637
  596.0000    68.4652     7.0102     2.3718     0.1732     0.0314   -30.0861    13.5323    15.0249
  596.5000    70.6744     7.0323     2.3840     0.1691     0.0315   -30.4592    13.5323    14.9862
  597.0000    70.0862     7.0366     2.3963     0.1690     0.0301   -30.8316    13.5322    14.9476
  597.5000    69.4956     7.0165     2.4003     0.1689     0.0280   -31.2069    13.5322    14.9091
  598.0000    70.5405     6.9954     2.4011     0.1687     0.0261   -31.5810    13.5320    14.8707
  598.5000    70.5956     6.9959     2.4011     0.1671     0.0235   -31.7836    13.5335    14.8351
