~VERSION INFORMATION
 VERS.                2.0:   CWLS LOG ASCII STANDARD - VERSION 2.0
 WRAP.                 NO:   ONE LINE PER DEPTH STEP
~WELL INFORMATION
#MNEM.UNIT      DATA TYPE    INFORMATION
#----------   ------------   ------------------------------
 STRT.F            0.0000:   START DEPTH
 STOP.F          596.0000:   STOP DEPTH
 STEP.F            0.1000:   STEP LENGTH
 NULL.          -999.2500:   NO VALUE
 COMP. BROWN JOHN E&C INC:   COMPANY
 WELL.    72-5 SX-3 #72-3:   WELL
 FLD .             TEAPOT:   FIELD
 LOC .       S3 T38N R78W:   LOCATION
 CNTY.            NATRONA:   COUNTY
 STAT.            WYOMING:   STATE
 CTRY. UNITED STATES OF AMERICA:   COUNTRY
 SRVC.      Western Atlas:   SERVICE COMPANY
 DATE.        15-APR-1992:   LOGDATE
 API .       490252250900:   API NUMBER
~CURVE INFORMATION
#MNEM.UNIT       API CODE    CURVE DESCRIPTION
#----------   ------------   ------------------------------
 DEPT.F                  :   
 GRR .GAPI   07 310 01 00:   GAMMA RAY
 RILD.OHMM   07 120 46 00:   INDUCTION LOG DEEP RESISTIVITY
 RILM.OHMM   07 120 44 00:   INDUCTION LOG MEDIUM RESISTIVITY
~PARAMETER INFORMATION
#MNEM.UNIT          VALUE    DESCRIPTION
#----------   ------------   ------------------------------
 PD  .                 GL:   PERMANENT DATUM
 EPD .F              5132:   ELEVATION PERMANENT DATUM
 LMF .                 KB:   LOG MEASURED FROM
 DAPD.F                 5:   FEET ABOVE PERMANENT DATUM
 DMF .                 KB:   DRILLING MEASURED FROM
 EKB .F              5137:   KELLING BUSHING
 EDF .F              5136:   DRILLING FLOOR
 EGL .F              5132:   GROUND LEVEL
 DATE.        15-APR-1992:   RUN DATE
 RUN .                  1:   RUN NUMBER
 DD  .F               605:   DEPTH DRILLER
 DL  .F               599:   DEPTH LOGGER
 BLI .F               596:   BOTTOM LOG INTERVAL
 TLI .F                46:   TOP LOG INTERVAL
 CS  .IN            8.625:   CASING SIZE
 CBD .F                48:   CASING BOTTOM DRILLER
 CBL .F                46:   CASING BOTTOM LOGGER
 BS  .IN            7.875:   BIT SIZE
 BSD .F               605:   BIT SIZE AT DEPTH
 DFT .                AIR:   DRILLING FLUID TYPE
 LUN .            HL-6321:   LOGGING UNIT NUMBER
 LUL .        RK. SPRINGS:   LOGGING UNIT LOCATION
 ENGI.            TRIBBLE:   RECORDING ENGINEER
 WITN.             STRONG:   WITNESSED BY
 CLNT.            A2DTECH:   CLIENT CODE
 ORIG.           5" PRINT:   ORIGIN OF DATA
 UWI .       490252250900:   UNIQUE WELL ID
 DICO. A2D Technologies, Inc.:   DIGITIZING COMPANY
~OTHER INFORMATION
~A    DEPT     GRR       RILD       RILM   
# ...
  509.6000    91.2240    13.8691    13.7849
  509.7000    90.9927    13.8147    13.7281
  509.8000    90.7426    13.7718    13.7239
  509.9000    90.6091    13.7535    13.6317
  510.0000    90.4849    13.6751    13.6314
  510.1000    89.9970    13.5973    13.6310
  510.2000    89.9939    13.5199    13.6028
  510.3000    89.5994    13.4842    13.5254
  510.4000    89.1022    13.4600    13.4408
  510.5000    88.5212    13.3833    13.3719
  510.6000    87.7770    13.2959    13.2958
  510.7000    86.9481    13.2314    13.2201
  510.8000    86.2885    13.1560    13.1449
  510.9000    86.1964    13.0811    13.0688
  511.0000    86.5475    13.0186    12.9957
  511.1000    87.0386    13.0183    12.9217
  511.2000    87.5393    12.9490    12.8482
  511.3000    87.7786    12.8753    12.7751
  511.4000    88.2089    12.8019    12.7023
  511.5000    88.5697    12.7468    12.6182
  511.6000    88.8881    12.7452    12.5582
  511.7000    89.3793    12.6727    12.5298
  511.8000    89.9450    12.6005    12.5027
  511.9000    90.3614    12.5685    12.4315
  512.0000    90.6990    12.5448    12.3549
  512.1000    90.9431    12.4733    12.3546
  512.2000    91.1460    12.3929    12.3061
  512.3000    91.1423    12.3926    12.2361
  512.4000    90.6737    12.3474    12.1823
  512.5000    90.0000    12.3056    12.1819
  512.6000    89.1353    12.2927    12.1816
  512.7000    88.1437    12.2193    12.1281
  512.8000    87.1522    12.2189    12.0961
  512.9000    85.9722    12.1686    12.0745
  513.0000    85.3697    12.0993    12.0113
  513.1000    84.7694    12.0483    12.0109
  513.2000    84.4485    12.0480    12.0106
  513.3000    84.4455    12.0476    11.9679
  513.4000    84.4421    11.9925    11.9264
  513.5000    84.6626    11.9631    11.9260
  513.6000    84.9066    11.9395    11.9257
  513.7000    85.2620    11.8791    11.8623
  513.8000    85.7531    11.8787    11.8421
  513.9000    86.2454    11.8189    11.8417
  514.0000    86.7354    11.7954    11.8414
  514.1000    87.4172    11.7666    11.8411
  514.2000    88.1553    11.7126    11.8407
  514.3000    88.6576    11.7123    11.8404
  514.4000    88.6320    11.7120    11.8401
  514.5000    88.3481    11.7116    11.8178
  514.6000    87.7044    11.6776    11.7570
  514.7000    86.9601    11.6294    11.7567
  514.8000    86.3175    11.6291    11.7564
  514.9000    85.7744    11.6287    11.7560
  515.0000    84.9999    11.5745    11.7285
  515.1000    84.2859    11.5471    11.6736
  515.2000    83.7228    11.5232    11.6732
  515.3000    83.2257    11.4661    11.6729
  515.4000    82.7976    11.4657    11.6726
  515.5000    82.5475    11.4655    11.6723
  515.6000    82.2540    11.4651    11.6720
  515.7000    82.2515    11.4648    11.6716
  515.8000    82.2485    11.4645    11.6712
  515.9000    82.3378    11.4642    11.6710
  516.0000    82.5459    11.4639    11.6707
  516.1000    82.5422    11.4635    11.6476
  516.2000    82.7670    11.4291    11.5888
  516.3000    83.1824    11.3831    11.5884
  516.4000    83.5579    11.3827    11.5881
  516.5000    83.7424    11.3824    11.5878
  516.6000    83.7467    11.3821    11.5875
  516.7000    84.2377    11.3818    11.5872
  516.8000    84.7289    11.3815    11.5868
  516.9000    85.0812    11.3812    11.5865
  517.0000    85.3252    11.3808    11.5862
  517.1000    85.5962    11.3805    11.5859
  517.2000    86.1451    11.4249    11.5856
  517.3000    86.3603    11.4597    11.5852
  517.4000    86.7663    11.4594    11.5849
  517.5000    87.1515    11.4590    11.5308
  517.6000    87.4457    11.4587    11.5037
  517.7000    87.9484    11.4584    11.5033
  517.8000    88.4279    11.4581    11.5030
  517.9000    88.7338    11.4578    11.5027
  518.0000    88.9778    11.4574    11.5024
  518.1000    89.2951    11.4571    11.5021
  518.2000    89.7517    11.4568    11.4729
  518.3000    89.7480    11.4565    11.4214
  518.4000    89.9539    11.4562    11.4211
  518.5000    90.1979    11.4452    11.4207
  518.6000    90.3455    11.3757    11.3717
  518.7000    90.3831    11.3754    11.3406
  518.8000    90.6422    11.3751    11.3214
  518.9000    90.6394    11.3748    11.2611
  519.0000    90.8121    11.3587    11.2607
  519.1000    90.9364    11.2950    11.2072
  519.2000    90.9971    11.2946    11.1818
  519.3000    91.2334    11.2943    11.1815
  519.4000    91.2297    11.2584    11.1812
  519.5000    91.4262    11.2150    11.1808
  519.6000    91.6703    11.2147    11.1805
  519.7000    91.8273    11.2144    11.1802
  519.8000    91.8553    11.2141    11.1799
  519.9000    92.1239    11.1732    11.1796
  520.0000    92.1212    11.1354    11.1793
  520.1000    92.2844    11.1351    11.1790
  520.2000    92.4182    11.1347    11.1787
  520.3000    92.4695    11.1345    11.1784
  520.4000    92.7151    11.1341    11.1780
  520.5000    92.7121    11.1338    11.1777
  520.6000    92.7091    11.1335    11.1774
  520.7000    92.7061    11.1332    11.1771
  520.8000    92.7030    11.1328    11.1768
  520.9000    92.6783    11.1326    11.1765
  521.0000    92.3935    11.1323    11.1762
  521.1000    92.3909    11.1320    11.1758
  521.2000    92.2312    11.1317    11.1755
  521.3000    92.0818    11.1313    11.1752
  521.4000    92.0339    11.1310    11.1749
  521.5000    91.7726    11.1723    11.1746
  521.6000    91.2978    11.2085    11.1743
  521.7000    90.9805    11.2081    11.1740
  521.8000    90.7304    11.2078    11.1737
  521.9000    90.4804    11.2075    11.1734
  522.0000    90.2183    11.2072    11.1731
  522.1000    89.6328    11.2069    11.1790
  522.2000    88.8175    11.2066    11.2507
  522.3000    88.1207    11.2063    11.2504
  522.4000    87.6235    11.2059    11.2501
  522.5000    87.1617    11.2056    11.2498
  522.6000    86.8907    11.2053    11.2495
  522.7000    86.8879    11.2050    11.2491
  522.8000    87.0554    11.2047    11.2488
  522.9000    87.2994    11.2044    11.2485
  523.0000    87.6019    11.2041    11.2482
  523.1000    88.0879    11.2038    11.2479
  523.2000    88.0849    11.2034    11.2476
  523.3000    88.2755    11.2031    11.2472
  523.4000    88.3818    11.2028    11.2469
  523.5000    88.3788    11.2025    11.2466
  523.6000    88.3758    11.2022    11.2463
  523.7000    88.3724    11.2019    11.2460
  523.8000    88.3697    11.2016    11.2457
  523.9000    88.5277    11.2013    11.2454
  524.0000    88.8766    11.2009    11.2451
  524.1000    89.3188    11.2006    11.2177
  524.2000    89.5696    11.2003    11.1662
  524.3000    89.8068    11.2000    11.1659
  524.4000    90.0509    11.1997    11.1656
  524.5000    90.4233    11.1994    11.1653
  524.6000    90.8420    11.1991    11.1649
  524.7000    91.1025    11.1988    11.1646
  524.8000    91.6722    11.1984    11.1643
  524.9000    92.0846    11.1981    11.1639
  525.0000    92.5756    11.1978    11.1637
  525.1000    93.0668    11.1975    11.1634
  525.2000    93.5580    11.1972    11.1631
  525.3000    94.0816    11.1626    11.1628
  525.4000    94.5402    11.1186    11.1624
  525.5000    95.0315    11.1183    11.1621
  525.6000    95.4037    11.1179    11.1618
  525.7000    95.7734    11.1177    11.1615
  525.8000    96.4977    11.1173    11.1612
  525.9000    96.7903    11.1170    11.1609
  526.0000    97.3817    11.1167    11.1606
  526.1000    97.9779    11.1164    11.1126
  526.2000    98.6412    11.1161    11.0823
  526.3000    99.6563    11.1158    11.0820
  526.4000   101.0179    11.1155    11.0817
  526.5000   101.9003    11.1152    11.0813
  526.6000   102.5548    11.1149    11.0811
  526.7000   102.9365    11.1146    11.0427
  526.8000   103.1273    11.1142    11.0033
  526.9000   103.1242    11.1139    11.0030
  527.0000   103.1212    11.1136    11.0027
  527.1000   102.9297    11.1133    10.9453
  527.2000   102.5470    11.1130    10.9255
  527.3000   102.0498    11.1127    10.9252
  527.4000   101.5321    11.1124    10.9249
  527.5000   100.6814    11.1121    10.9246
  527.6000    99.8315    11.1004    10.9243
  527.7000    99.1521    11.0341    10.8764
