~VERSION INFORMATION
 VERS.                2.0:   CWLS LOG ASCII STANDARD - VERSION 2.0
 WRAP.                 NO:   ONE LINE PER DEPTH STEP
~WELL INFORMATION
#MNEM.UNIT      DATA TYPE    INFORMATION
#----------   ------------   ------------------------------
 STRT.F          717.0000:   START DEPTH
 STOP.F         2448.0000:   STOP DEPTH
 STEP.F            0.5000:   STEP LENGTH
 NULL.          -999.2500:   NO VALUE
 COMP.   FLUOR DANIEL INC:   COMPANY
 WELL. NAVAL PETROLEUM RESERVE 3X27 #34-27:   WELL
 FLD .             TEAPOT:   FIELD
 LOC .      S27 T39N R78W:   LOCATION
 CNTY.            NATRONA:   COUNTY
 STAT.            WYOMING:   STATE
 CTRY. UNITED STATES OF AMERICA:   COUNTRY
 SRVC.            Unknown:   SERVICE COMPANY
 DATE.        17-MAY-1996:   LOGDATE
 API .       490252279300:   API NUMBER
~CURVE INFORMATION
#MNEM.UNIT       API CODE    CURVE DESCRIPTION
#----------   ------------   ------------------------------
 DEPT.F                  :   
 TGAS.TC/CC  91 830 01 00:   TOTAL GAS UNIT
 ROP .FT/HR  91 810 01 00:   RAT OF DRILLING PENETRATION
~PARAMETER INFORMATION
#MNEM.UNIT          VALUE    DESCRIPTION
#----------   ------------   ------------------------------
 EPD .F              5039:   ELEVATION PERMANENT DATUM
 EKB .F              5049:   KELLING BUSHING
 EGL .F              5039:   GROUND LEVEL
 DATE.        17-MAY-1996:   RUN DATE
 RUN .                  1:   RUN NUMBER
 ENGI.     R.HUSK/C.TOWER:   RECORDING ENGINEER
 CLNT.            A2DTECH:   CLIENT CODE
 ORIG.           5" PRINT:   ORIGIN OF DATA
 UWI .       490252279300:   UNIQUE WELL ID
 DICO. A2D Technologies, Inc.:   DIGITIZING COMPANY
~OTHER INFORMATION
~A   DEPT       TGAS        ROP 
# ...
  838.5000     1.1345     0.6673
  839.0000     1.1345     0.6673
  839.5000     1.1345     0.6673
  840.0000     1.1407     0.6673
  840.5000     1.3235     0.6673
  841.0000     1.3235     0.6673
  841.5000     1.3235     0.6673
  842.0000     1.3235     0.6673
  842.5000     1.3235     0.6673
  843.0000     1.3235     0.6673
  843.5000     1.1345     0.6767
  844.0000     1.1345     0.6779
  844.5000     1.1345     0.6861
  845.0000     1.1345     0.6955
  845.5000     1.1345     0.6955
  846.0000     1.1345     0.6955
  846.5000     1.1345     0.6955
  847.0000     1.1345     0.6955
  847.5000     0.9454     0.5921
  848.0000     0.9454     0.5075
  848.5000     0.9454     0.5075
  849.0000     0.9454     0.5075
  849.5000     0.9454     0.5075
  850.0000     0.7563     0.5075
  850.5000     0.8869     0.5075
  851.0000     1.1586     0.5075
  851.5000     1.1698     0.5075
  852.0000     1.1809     0.5075
  852.5000     1.1921     0.5075
  853.0000     1.0113     0.5075
  853.5000     1.0253     0.5075
  854.0000     1.0364     0.5075
  854.5000     1.0476     0.5075
  855.0000     1.0588     0.5075
  855.5000     1.2592     0.5075
  856.0000     1.2706     0.5075
  856.5000     1.2840     0.5075
  857.0000     1.2933     0.5075
  857.5000     1.3063     0.5075
  858.0000     1.1256     0.5075
  858.5000     1.1396     0.5075
  859.0000     0.9589     0.5075
  859.5000     0.9728     0.5075
  860.0000     0.9839     0.5075
  860.5000     0.9951     0.5075
  861.0000     1.0062     0.5075
  861.5000     1.0174     0.5075
  862.0000     1.0286     0.5075
  862.5000     0.8506     0.5075
  863.0000     0.8622     0.5075
  863.5000     0.8757     0.5075
  864.0000     0.6978     0.5075
  864.5000     0.7061     0.5075
  865.0000     0.3419     0.5075
  865.5000     0.3041     0.5075
  866.0000     0.1476     0.5075
  866.5000     0.0000     0.5075
  867.0000     0.0076     0.5075
  867.5000     0.0189     0.5075
  868.0000     0.0307     0.5075
  868.5000     0.0418     0.5075
  869.0000     0.0530     0.5075
  869.5000     0.0643     0.5075
  870.0000     0.0756     0.5075
  870.5000     0.2783     0.5075
  871.0000     0.2894     0.5075
  871.5000     0.3006     0.5075
  872.0000     0.3361     0.5075
  872.5000     0.5119     0.5075
  873.0000     0.5218     0.5075
  873.5000     0.5332     0.5075
  874.0000     0.5454     0.5075
  874.5000     0.5565     0.5075
  875.0000     0.7568     0.5075
  875.5000     0.7676     0.5075
  876.0000     0.7791     0.5075
  876.5000     0.7903     0.4981
  877.0000     0.8017     0.4887
  877.5000     1.0021     0.4887
  878.0000     1.0155     0.4793
  878.5000     1.0267     0.4793
  879.0000     1.2269     0.4699
  879.5000     1.2381     0.4699
  880.0000     1.2492     0.4699
  880.5000     1.4494     0.4605
  881.0000     1.4606     0.4417
  881.5000     1.6608     0.4323
  882.0000     1.4829     0.4135
  882.5000     1.4940     0.4041
  883.0000     1.5052     0.4041
  883.5000     1.5164     0.4041
  884.0000     1.5275     0.4041
  884.5000     1.3495     0.4041
  885.0000     1.3635     0.4135
  885.5000     1.3746     0.4135
  886.0000     1.1939     0.4135
  886.5000     1.2079     0.4041
  887.0000     1.2190     0.4041
  887.5000     1.0383     0.4041
  888.0000     1.0522     0.4041
  888.5000     1.0634     0.4041
  889.0000     1.0745     0.4135
  889.5000     1.2747     0.4041
  890.0000     1.2859     0.4048
  890.5000     1.2971     0.4135
  891.0000     1.1191     0.4135
  891.5000     1.1307     0.4135
  892.0000     0.9523     0.4135
  892.5000     0.5881     0.4135
  893.0000     0.5993     0.4041
  893.5000     0.6104     0.4041
  894.0000     0.6216     0.4135
  894.5000     0.8218     0.4135
  895.0000     0.8330     0.4229
  895.5000     0.8441     0.4229
  896.0000     1.0443     0.4323
  896.5000     1.0555     0.4323
  897.0000     1.0666     0.4323
  897.5000     1.2669     0.4323
  898.0000     1.2782     0.4323
  898.5000     1.4786     0.4323
  899.0000     1.4922     0.4323
  899.5000     1.6924     0.4323
  900.0000     1.7008     0.4323
  900.5000     1.5610     0.4323
  901.0000     1.4319     0.4323
  901.5000     1.3028     0.4323
  902.0000     1.1724     0.4323
  902.5000     0.8035     0.4323
  903.0000     0.8331     0.4323
  903.5000     1.0116     0.4323
  904.0000     0.8313     0.4295
  904.5000     1.0320     0.4256
  905.0000     1.0413     0.4229
  905.5000     1.0506     0.4229
  906.0000     1.0599     0.4229
  906.5000     1.0692     0.4229
  907.0000     1.0784     0.4229
  907.5000     1.0877     0.4229
  908.0000     1.0970     0.4229
  908.5000     1.1063     0.4229
  909.0000     1.1156     0.4229
  909.5000     1.1250     0.4323
  910.0000     1.1597     0.4323
  910.5000     1.3325     0.4323
  911.0000     1.1527     0.4323
  911.5000     1.1643     0.4323
  912.0000     1.1736     0.6297
  912.5000     1.1829     0.6297
  913.0000     1.0008     0.6297
  913.5000     1.0124     0.6297
  914.0000     1.0217     0.6297
  914.5000     1.0309     0.6391
  915.0000     1.0402     0.6391
  915.5000     0.8603     0.6391
  916.0000     0.8697     0.6391
  916.5000     0.8792     0.6297
  917.0000     0.8887     0.6391
  917.5000     0.8999     0.6297
  918.0000     0.7178     0.6297
  918.5000     0.7279     0.6391
  919.0000     0.7387     0.6391
  919.5000     0.7468     0.6401
  920.0000     0.7572     0.6579
  920.5000     0.7673     0.6579
  921.0000     0.7752     0.6485
  921.5000     0.7847     0.6297
  922.0000     0.7944     0.6203
  922.5000     0.8036     0.6203
  923.0000     0.8130     0.6203
  923.5000     0.8225     0.6203
  924.0000     0.8338     0.6297
  924.5000     0.8431     0.6297
  925.0000     0.8524     0.6297
  925.5000     0.8617     0.6297
  926.0000     0.8710     0.6280
  926.5000     0.8802     0.6297
  927.0000     0.8895     0.6297
  927.5000     0.7074     0.6297
  928.0000     0.5276     0.6297
  928.5000     0.5392     0.6297
  929.0000     0.5485     0.6297
  929.5000     0.5578     0.6297
  930.0000     0.5672     0.6297
  930.5000     0.5767     0.6297
  931.0000     0.5861     0.6391
  931.5000     0.5972     0.6391
  932.0000     0.6065     0.6391
  932.5000     0.6145     0.6391
  933.0000     0.6251     0.6391
  933.5000     0.6344     0.6391
  934.0000     0.6656     0.6391
  934.5000     0.8420     0.6421
  935.0000     0.9643     0.6451
  935.5000     1.0494     0.6481
  936.0000     1.0589     0.6512
  936.5000     1.0683     0.6542
  937.0000     1.0777     0.6573
  937.5000     1.0872     0.6579
  938.0000     1.0984     0.6579
  938.5000     1.1077     0.6579
  939.0000     1.1155     0.6579
  939.5000     1.1263     0.6579
  940.0000     1.1355     0.6579
  940.5000     1.3339     0.6579
  941.0000     1.3432     0.6579
  941.5000     1.3525     0.6485
  942.0000     1.3617     0.5793
  942.5000     1.3708     0.5545
  943.0000     1.3803     0.5545
  943.5000     1.3897     0.5451
  944.0000     1.4067     0.5545
  944.5000     1.5972     0.5545
  945.0000     1.4174     0.5545
  945.5000     1.6166     0.5545
  946.0000     1.6274     0.5545
  946.5000     1.6367     0.5545
  947.0000     1.6460     0.5545
  947.5000     1.4639     0.5545
  948.0000     1.4748     0.5545
  948.5000     1.4848     0.5545
  949.0000     1.4940     0.5545
  949.5000     1.5032     0.5545
  950.0000     1.5126     0.5545
  950.5000     1.2271     0.5545
  951.0000     1.3350     0.5545
  951.5000     1.5296     0.5545
  952.0000     1.7244     0.5545
  952.5000     1.9202     0.5545
  953.0000     2.1148     0.5639
  953.5000     2.1203     0.5639
  954.0000     2.1259     0.5545
  954.5000     2.3205     0.5545
  955.0000     2.3260     0.5545
  955.5000     2.3315     0.5639
  956.0000     2.1479     0.5639
  956.5000     2.1536     0.5639
  957.0000     2.1592     0.5638
  957.5000     2.1659     0.5636
  958.0000     1.9824     0.5634
  958.5000     1.9879     0.5631
  959.0000     1.9934     0.5629
  959.5000     1.9985     0.5626
