~VERSION INFORMATION
 VERS.                2.0:   CWLS LOG ASCII STANDARD - VERSION 2.0
 WRAP.                 NO:   ONE LINE PER DEPTH STEP
~WELL INFORMATION
#MNEM.UNIT      DATA TYPE    INFORMATION
#----------   ------------   ------------------------------
 STRT.F           64.0000:   START DEPTH
 STOP.F          532.0000:   STOP DEPTH
 STEP.F            0.5000:   STEP LENGTH
 NULL.          -999.2500:   NO VALUE
 COMP.       F D SERV INC:   COMPANY
 WELL.  81-3 SX 10 #81-10:   WELL
 FLD .             TEAPOT:   FIELD
 LOC .      S10 T38N R78W:   LOCATION
 CNTY.            NATRONA:   COUNTY
 STAT.            WYOMING:   STATE
 CTRY. UNITED STATES OF AMERICA:   COUNTRY
 SRVC.     Atlas Wireline:   SERVICE COMPANY
 DATE.        29-JAN-1993:   LOGDATE
 API .       490252258400:   API NUMBER
~CURVE INFORMATION
#MNEM.UNIT       API CODE    CURVE DESCRIPTION
#----------   ------------   ------------------------------
 DEPT.F                  :   
 C13 .IN     45 280 13 00:   
 ZCOR.G/C3   45 356 01 00:   DENSITY CORRECTION
 ZDEN.G/C3   45 350 01 00:   BULK DENSITY
 GRD .GAPI   45 310 01 00:   GAMMA RAY FROM DENSITY LOG
 PORS.DEC    42 890 00 00:   
 PORZ.DEC    45 890 00 00:   DENSITY POROSITY
 RILD.OHMM   07 120 46 00:   INDUCTION LOG DEEP RESISTIVITY
 RILM.OHMM   07 120 44 00:   INDUCTION LOG MEDIUM RESISTIVITY
~PARAMETER INFORMATION
#MNEM.UNIT          VALUE    DESCRIPTION
#----------   ------------   ------------------------------
 PD  .                 GL:   PERMANENT DATUM
 EPD .F              5161:   ELEVATION PERMANENT DATUM
 LMF .                 KB:   LOG MEASURED FROM
 DAPD.F                10:   FEET ABOVE PERMANENT DATUM
 DMF .                 KB:   DRILLING MEASURED FROM
 EKB .F              5171:   KELLING BUSHING
 EDF .F              5170:   DRILLING FLOOR
 EGL .F              5161:   GROUND LEVEL
 DATE.        29-JAN-1993:   RUN DATE
 RUN .                  1:   RUN NUMBER
 DD  .F               536:   DEPTH DRILLER
 DL  .F               536:   DEPTH LOGGER
 BLI .F               527:   BOTTOM LOG INTERVAL
 TLI .F                96:   TOP LOG INTERVAL
 CS  .IN            8.625:   CASING SIZE
 CBD .F                96:   CASING BOTTOM DRILLER
 CBL .F                96:   CASING BOTTOM LOGGER
 BS  .IN            7.875:   BIT SIZE
 BSD .F               536:   BIT SIZE AT DEPTH
 DFT .                AIR:   DRILLING FLUID TYPE
 MRT .F                65:   MAXIMUM RECORDED TEMPERATURE
 LUN .            HL-6274:   LOGGING UNIT NUMBER
 LUL .             CASPER:   LOGGING UNIT LOCATION
 ENGI.        P.RASMUSSEN:   RECORDING ENGINEER
 WITN.           G.STRONG:   WITNESSED BY
 CLNT.            A2DTECH:   CLIENT CODE
 ORIG.           5" PRINT:   ORIGIN OF DATA
 UWI .       490252258400:   UNIQUE WELL ID
 DICO. A2D Technologies, Inc.:   DIGITIZING COMPANY
~OTHER INFORMATION
~A   DEPT      C13       ZCOR       ZDEN        GRD       PORS       PORZ       RILD       RILM   
# ...
  469.0000     8.2051     0.0049     2.5039    97.0594     0.2605     0.0880    10.9203    10.5209
  469.5000     8.2047     0.0079     2.5009    96.4512     0.2597     0.0877    10.6949    10.3768
  470.0000     8.2041     0.0064     2.4986    97.3491     0.2609     0.0910    10.4743    10.1638
  470.5000     8.2037     0.0005     2.5009    99.1506     0.2621     0.0925    10.3295     9.9552
  471.0000     8.2033    -0.0025     2.5031   100.6509     0.2633     0.0904    10.1100     9.6817
  471.5000     8.2028     0.0005     2.5062   100.3425     0.2642     0.0883     9.8393     9.4847
  472.0000     8.2024     0.0066     2.5091    99.7343     0.2647     0.0847     9.5699     9.4197
  472.5000     8.2020     0.0126     2.5091    99.7285     0.2653     0.0847     9.2436     9.2906
  473.0000     8.2014     0.0156     2.5068   101.2288     0.2668     0.0862     8.5649     8.9118
  473.5000     8.1860     0.0121     2.5015   103.3957     0.2689     0.0877     8.1592     8.4323
  474.0000     8.1856     0.0082     2.4970   105.7339     0.2707     0.0916     7.9601     7.9225
  474.5000     8.1851     0.0084     2.4948   107.8366     0.2728     0.0946     7.4801     7.2400
  475.0000     8.1847     0.0142     2.4947   109.3369     0.2743     0.0949     6.9323     6.5705
  475.5000     8.1992     0.0157     2.4940   110.5359     0.2795     0.0946     6.2063     5.7199
  476.0000     8.1988     0.0098     2.4789   114.2046     0.2875     0.1093     5.7918     5.0490
  476.5000     8.1983     0.0053     2.4436   124.6796     0.2941     0.1228     5.6343     4.8434
  477.0000     8.1979     0.0161     2.4286   126.7837     0.2974     0.1355     5.6350     5.2642
  477.5000     8.1974     0.0293     2.4661   120.4512     0.2953     0.1279     5.7942     5.9646
  478.0000     8.1969     0.0338     2.5044   112.9154     0.2833     0.1147     6.0409     6.5278
  478.5000     8.1965     0.0323     2.5419   105.0783     0.2757     0.0841     6.4749     6.9971
  479.0000     8.1961     0.0294     2.5539    99.3012     0.2721     0.0627     7.0857     7.8732
  479.5000     8.1956     0.0263     2.5562    99.0412     0.2706     0.0573     7.8301     8.7979
  480.0000     8.1952     0.0220     2.5441    99.0355     0.2715     0.0612     8.9076     9.3004
  480.5000     8.1947     0.0175     2.5396    99.0297     0.2721     0.0654     9.5476     9.6292
  481.0000     8.1942     0.0131     2.5366    99.0240     0.2724     0.0684    10.0231     9.6969
  481.5000     8.1986     0.0056     2.5336    99.0181     0.2733     0.0714    10.3084     9.7652
  482.0000     8.2085     0.0042     2.5328   100.2158     0.2745     0.0726    10.6708     9.9022
  482.5000     8.2079     0.0102     2.5321   102.6197     0.2748     0.0711    10.8211     9.9718
  483.0000     8.2075     0.0162     2.5380   105.0236     0.2727     0.0678    10.8977    10.1117
  483.5000     8.1920     0.0192     2.5373   107.4275     0.2705     0.0672    10.9749    10.3970
  484.0000     8.2013     0.0222     2.5343   108.6265     0.2693     0.0699    11.1297    10.6163
  484.5000     8.2062     0.0222     2.5350   108.3181     0.2693     0.0705    11.3649    10.8402
  485.0000     8.2057     0.0178     2.5388   107.1076     0.2690     0.0678    11.4453    10.9924
  485.5000     8.2053     0.0163     2.5470   105.8970     0.2696     0.0642    11.6065    11.2244
  486.0000     8.2048     0.0313     2.5537   104.6864     0.2696     0.0612    11.6188    11.4611
  486.5000     8.2043     0.0343     2.5605   103.1746     0.2696     0.0549    11.7718    11.6220
  487.0000     8.2039     0.0343     2.5635   103.8594     0.2681     0.0527    11.8552    11.7851
  487.5000     8.2103     0.0344     2.5627   105.2701     0.2654     0.0536    12.1056    11.8680
  488.0000     8.2180     0.0254     2.5574   105.5670     0.2630     0.0561    12.2761    12.0346
  488.5000     8.2175     0.0225     2.5582   105.5598     0.2605     0.0554    12.4493    12.1192
  489.0000     8.2171     0.0210     2.5589   105.5541     0.2581     0.0557    12.6246    12.2043
  489.5000     8.2166     0.0300     2.5574   104.5964     0.2551     0.0566    12.6262    12.2902
  490.0000     8.2162     0.0330     2.5581   102.2279     0.2533     0.0551    12.8040    12.3766
  490.5000     8.2158     0.0271     2.5588   100.1137     0.2521     0.0542    12.9847    12.3774
  491.0000     8.2153     0.0196     2.5588    97.6983     0.2512     0.0566    12.9864    12.3782
  491.5000     8.2230     0.0152     2.5543    97.0916     0.2503     0.0605    13.0784    12.4652
  492.0000     8.2294     0.0197     2.5475    98.5904     0.2491     0.0635    13.1710    12.5529
  492.5000     8.2440     0.0303     2.5453    97.6796     0.2481     0.0671    13.2647    12.6411
  493.0000     8.2435     0.0257     2.5407    95.5654     0.2478     0.0695    13.2846    12.6419
  493.5000     8.2431     0.0198     2.5332    94.3548     0.2485     0.0719    13.3603    12.7308
  494.0000     8.2426     0.0258     2.5302    93.7466     0.2502     0.0716    13.3621    12.6436
  494.5000     8.2422     0.0258     2.5354    97.6565     0.2514     0.0682    13.3639    12.5570
  495.0000     8.2267     0.0183     2.5437   100.7430     0.2532     0.0641    13.3660    12.5040
  495.5000     8.2263     0.0109     2.5474   102.4643     0.2541     0.0629    13.3678    12.4721
  496.0000     8.2258     0.0080     2.5482   102.4571     0.2547     0.0617    13.2768    12.3867
  496.5000     8.2253     0.0095     2.5482   100.9453     0.2550     0.0614    13.1843    12.3019
  497.0000     8.2214     0.0170     2.5481    99.7348     0.2553     0.0614    13.0077    12.2179
  497.5000     8.2245     0.0201     2.5481    98.1827     0.2556     0.0617    12.8304    12.1342
  498.0000     8.2240     0.0186     2.5474    96.4086     0.2556     0.0614    12.6560    12.0513
  498.5000     8.2086     0.0141     2.5473    95.8004     0.2562     0.0614    12.5703    11.9688
  499.0000     8.2080     0.0111     2.5481    97.3007     0.2567     0.0617    12.3990    11.8869
  499.5000     8.2076     0.0231     2.5481    97.5976     0.2579     0.0611    12.2747    11.8055
  500.0000     8.2222     0.0277     2.5529    97.2892     0.2592     0.0578    12.0637    11.4833
  500.5000     8.2218     0.0277     2.5631    97.9066     0.2600     0.0497    11.8157    11.4906
  501.0000     8.2213     0.0291     2.5773    99.6988     0.2606     0.0424    11.7341    11.2352
  501.5000     8.2209     0.0306     2.5855   101.2048     0.2612     0.0382    11.5727    11.0152
  502.0000     8.2204     0.0321     2.5839   101.2048     0.2621     0.0420    11.4929    11.0152
  502.5000     8.2199     0.0306     2.5757   101.2048     0.2634     0.0473    11.4136    10.9391
  503.0000     8.2045     0.0201     2.5704   102.4096     0.2657     0.0488    11.1789    10.7884
  503.5000     8.1890     0.0157     2.5657   103.9157     0.2699     0.0503    11.0251    10.4932
  504.0000     8.1585     0.0247     2.5583   103.6145     0.2739     0.0569    10.7984     9.5885
  504.5000     8.1430     0.0396     2.5553   103.6496     0.2778     0.0602    10.6499     9.0710
  505.0000     8.1276     0.0456     2.5538   105.1205     0.2796     0.0545    10.5034     8.9461
  505.5000     8.1121     0.0381     2.5688   107.5301     0.2808     0.0493    10.2875     9.1342
  506.0000     8.1117     0.0277     2.5740   109.6386     0.2814     0.0455    10.1460     9.3262
  506.5000     8.1113     0.0185     2.5709   110.2410     0.2814     0.0515    10.0064     9.5885
  507.0000     8.1107     0.0127     2.5649   111.1546     0.2814     0.0545     9.8007     9.7901
  507.5000     8.1103     0.0187     2.5641   112.3494     0.2814     0.0533     9.8007     9.7225
  508.0000     8.1099     0.0232     2.5664   114.3374     0.2802     0.0503     9.7330     9.6553
  508.5000     8.1095     0.0127     2.5648  -999.2500     0.2790     0.0509     9.8007     9.5885
  509.0000     8.1090     0.0142     2.5611  -999.2500     0.2781     0.0545     9.8688     9.5885
