~VERSION INFORMATION
 VERS.                2.0:   CWLS LOG ASCII STANDARD - VERSION 2.0
 WRAP.                 NO:   ONE LINE PER DEPTH STEP
~WELL INFORMATION
#MNEM.UNIT      DATA TYPE    INFORMATION
#----------   ------------   ------------------------------
 STRT.F            0.0000:   START DEPTH
 STOP.F          596.0000:   STOP DEPTH
 STEP.F            0.1000:   STEP LENGTH
 NULL.          -999.2500:   NO VALUE
 COMP. BROWN JOHN E&C INC:   COMPANY
 WELL.    72-5 SX-3 #72-3:   WELL
 FLD .             TEAPOT:   FIELD
 LOC .       S3 T38N R78W:   LOCATION
 CNTY.            NATRONA:   COUNTY
 STAT.            WYOMING:   STATE
 CTRY. UNITED STATES OF AMERICA:   COUNTRY
 SRVC.      Western Atlas:   SERVICE COMPANY
 DATE.        15-APR-1992:   LOGDATE
 API .       490252250900:   API NUMBER
~CURVE INFORMATION
#MNEM.UNIT       API CODE    CURVE DESCRIPTION
#----------   ------------   ------------------------------
 DEPT.F                  :   
 GRR .GAPI   07 310 01 00:   GAMMA RAY
 RILD.OHMM   07 120 46 00:   INDUCTION LOG DEEP RESISTIVITY
 RILM.OHMM   07 120 44 00:   INDUCTION LOG MEDIUM RESISTIVITY
~PARAMETER INFORMATION
#MNEM.UNIT          VALUE    DESCRIPTION
#----------   ------------   ------------------------------
 PD  .                 GL:   PERMANENT DATUM
 EPD .F              5132:   ELEVATION PERMANENT DATUM
 LMF .                 KB:   LOG MEASURED FROM
 DAPD.F                 5:   FEET ABOVE PERMANENT DATUM
 DMF .                 KB:   DRILLING MEASURED FROM
 EKB .F              5137:   KELLING BUSHING
 EDF .F              5136:   DRILLING FLOOR
 EGL .F              5132:   GROUND LEVEL
 DATE.        15-APR-1992:   RUN DATE
 RUN .                  1:   RUN NUMBER
 DD  .F               605:   DEPTH DRILLER
 DL  .F               599:   DEPTH LOGGER
 BLI .F               596:   BOTTOM LOG INTERVAL
 TLI .F                46:   TOP LOG INTERVAL
 CS  .IN            8.625:   CASING SIZE
 CBD .F                48:   CASING BOTTOM DRILLER
 CBL .F                46:   CASING BOTTOM LOGGER
 BS  .IN            7.875:   BIT SIZE
 BSD .F               605:   BIT SIZE AT DEPTH
 DFT .                AIR:   DRILLING FLUID TYPE
 LUN .            HL-6321:   LOGGING UNIT NUMBER
 LUL .        RK. SPRINGS:   LOGGING UNIT LOCATION
 ENGI.            TRIBBLE:   RECORDING ENGINEER
 WITN.             STRONG:   WITNESSED BY
 CLNT.            A2DTECH:   CLIENT CODE
 ORIG.           5" PRINT:   ORIGIN OF DATA
 UWI .       490252250900:   UNIQUE WELL ID
 DICO. A2D Technologies, Inc.:   DIGITIZING COMPANY
~OTHER INFORMATION
~A    DEPT     GRR       RILD       RILM   
# ...
   36.4000    55.6848  -999.2500  -999.2500
   36.5000    55.4343  -999.2500  -999.2500
   36.6000    55.1732  -999.2500  -999.2500
   36.7000    54.9333  -999.2500  -999.2500
   36.8000    54.6828  -999.2500  -999.2500
   36.9000    54.5600  -999.2500  -999.2500
   37.0000    54.5576  -999.2500  -999.2500
   37.1000    54.5551  -999.2500  -999.2500
   37.2000    54.5524  -999.2500  -999.2500
   37.3000    54.5503  -999.2500  -999.2500
   37.4000    54.7038  -999.2500  -999.2500
   37.5000    54.9495  -999.2500  -999.2500
   37.6000    55.1952  -999.2500  -999.2500
   37.7000    55.4496  -999.2500  -999.2500
   37.8000    55.9257  -999.2500  -999.2500
   37.9000    56.4194  -999.2500  -999.2500
   38.0000    57.0424  -999.2500  -999.2500
   38.1000    57.7099  -999.2500  -999.2500
   38.2000    58.2230  -999.2500  -999.2500
   38.3000    59.0712  -999.2500  -999.2500
   38.4000    59.4941  -999.2500  -999.2500
   38.5000    60.3030  -999.2500  -999.2500
   38.6000    61.0877  -999.2500  -999.2500
   38.7000    61.4865  -999.2500  -999.2500
   38.8000    61.1805  -999.2500  -999.2500
   38.9000    60.9374  -999.2500  -999.2500
   39.0000    60.5010  -999.2500  -999.2500
   39.1000    60.0024  -999.2500  -999.2500
   39.2000    59.4279  -999.2500  -999.2500
   39.3000    58.6812  -999.2500  -999.2500
   39.4000    57.8324  -999.2500  -999.2500
   39.5000    57.4020  -999.2500  -999.2500
   39.6000    57.2218  -999.2500  -999.2500
   39.7000    57.2194  -999.2500  -999.2500
   39.8000    57.2663  -999.2500  -999.2500
   39.9000    57.5175  -999.2500  -999.2500
   40.0000    57.7576  -999.2500  -999.2500
   40.1000    57.8158  -999.2500  -999.2500
   40.2000    57.9459  -999.2500  -999.2500
   40.3000    58.1915  -999.2500  -999.2500
   40.4000    58.4372  -999.2500  -999.2500
   40.5000    58.7148  -999.2500  -999.2500
   40.6000    58.7127  -999.2500  -999.2500
   40.7000    58.8711  -999.2500  -999.2500
   40.8000    59.0109  -999.2500  -999.2500
   40.9000    59.0085  -999.2500  -999.2500
   41.0000    59.0060  -999.2500  -999.2500
   41.1000    59.2477  -999.2500  -999.2500
   41.2000    59.4933  -999.2500  -999.2500
   41.3000    59.7390  -999.2500  -999.2500
   41.4000    59.9847  -999.2500  -999.2500
   41.5000    60.2303  -999.2500  -999.2500
   41.6000    60.5064  -999.2500  -999.2500
   41.7000    60.7216  -999.2500  -999.2500
   41.8000    60.9673  -999.2500  -999.2500
   41.9000    61.2129  -999.2500  -999.2500
   42.0000    61.4586  -999.2500  -999.2500
   42.1000    61.7066  -999.2500  -999.2500
   42.2000    61.9499  -999.2500  -999.2500
   42.3000    62.1956  -999.2500  -999.2500
   42.4000    62.4412  -999.2500  -999.2500
   42.5000    62.6061  -999.2500  -999.2500
   42.6000    62.6295  -999.2500  -999.2500
   42.7000    62.9040  -999.2500  -999.2500
   42.8000    63.1208  -999.2500  -999.2500
   42.9000    63.2024  -999.2500  -999.2500
   43.0000    63.2000  -999.2500  -999.2500
   43.1000    63.1976  -999.2500  -999.2500
   43.2000    63.1951  -999.2500  -999.2500
   43.3000    62.9454  -999.2500  -999.2500
   43.4000    62.6949  -999.2500  -999.2500
   43.5000    62.5818  -999.2500  -999.2500
   43.6000    62.4970  -999.2500  -999.2500
   43.7000    62.2190  -999.2500  -999.2500
   43.8000    61.6652  -999.2500  -999.2500
   43.9000    61.4424  -999.2500  -999.2500
   44.0000    60.8606  -999.2500  -999.2500
   44.1000    60.1139  -999.2500  -999.2500
   44.2000    59.4230  -999.2500  -999.2500
   44.3000    58.9261  -999.2500  -999.2500
   44.4000    58.9236  -999.2500  -999.2500
   44.5000    58.9212  -999.2500  -999.2500
   44.6000    58.9188  -999.2500  -999.2500
   44.7000    59.0844  -999.2500  -999.2500
   44.8000    59.6364  -999.2500  -999.2500
   44.9000    60.7294  -999.2500  -999.2500
   45.0000    61.8384  -999.2500  -999.2500
   45.1000    63.2437  -999.2500  -999.2500
   45.2000    65.1791  -999.2500  -999.2500
   45.3000    67.8295  -999.2500  -999.2500
   45.4000    71.0448  -999.2500  -999.2500
   45.5000    73.5232  -999.2500  -999.2500
   45.6000    76.9794  -999.2500  -999.2500
   45.7000    80.2764  -999.2500  -999.2500
   45.8000    83.0796  -999.2500  -999.2500
   45.9000    85.4966  -999.2500  -999.2500
   46.0000    87.6725  -999.2500  -999.2500
   46.1000    89.6848     5.1601  1957.4674
   46.2000    91.2396     4.9462  1930.3531
   46.3000    92.1358     4.6635  1909.4077
   46.4000    92.4525     4.3290  1879.9556
   46.5000    92.2061     4.2839  1695.7766
   46.6000    92.2036     4.2521  1146.7429
   46.7000    92.2012     4.2392   112.3959
   46.8000    92.3410     4.2451    17.6916
   46.9000    92.5867     4.2704    10.9431
   47.0000    92.8970     4.3443     6.3555
   47.1000    93.7065     4.5223     4.6024
   47.2000    94.1551     4.9500     3.9449
   47.3000    94.6489     5.6400     3.7809
   47.4000    95.0271     6.5088     3.8423
   47.5000    95.2727     7.4664     3.9248
   47.6000    95.5128     9.2829     4.0154
   47.7000    95.5098    15.0230     4.1338
   47.8000    95.7067    36.3722     4.3324
   47.9000    95.8085   122.4866     4.7611
   48.0000    95.8061   373.8124     5.0385
   48.1000    95.8036  1656.8527     5.5726
   48.2000    95.8010  1962.2051     6.1387
   48.3000    95.7988  1984.7328     6.5285
   48.4000    95.7964  2000.0000     6.9422
   48.5000    95.9111  2000.0000     7.2800
   48.6000    96.1568  2000.0000     7.6333
   48.7000    96.3952  2000.0000     7.9676
   48.8000    96.3923  2000.0000     8.3403
   48.9000    96.7911  2000.0000     8.8743
   49.0000    97.1394  2000.0000     9.3440
   49.1000    97.3850  2000.0000    10.0230
   49.2000    97.6663  2000.0000    11.2173
   49.3000    98.1986  2000.0000    13.0007
   49.4000    98.6537  2000.0000    15.5198
   49.5000    98.8000  2000.0000    20.4934
   49.6000    98.6788  1999.0718    24.3883
   49.7000    98.3644  1986.0725    32.0184
   49.8000    97.8659  1976.3911    41.6122
   49.9000    97.2747  1001.9950    52.2371
   50.0000    96.4413    72.8334    64.8669
   50.1000    95.4179    28.7926    65.2390
   50.2000    94.3944    23.1613    64.7495
   50.3000    93.9339    21.9367    63.4236
   50.4000    93.8513    21.2408    57.2385
   50.5000    93.6020    20.8812    42.2784
   50.6000    93.3222    20.6441    28.0639
   50.7000    92.8863    20.4166    26.1910
   50.8000    92.5511    20.2815    24.1867
   50.9000    92.1958    20.2815    22.4316
   51.0000    91.7495    20.2109    20.6801
   51.1000    91.4951    20.1403    17.9511
   51.2000    91.0085    20.1403    15.7355
   51.3000    90.3249    20.1403    13.7372
   51.4000    89.5806    20.0327    12.5371
   51.5000    88.8364    20.0000    12.0378
   51.6000    88.0517    20.0000    11.7201
   51.7000    86.6355    20.0000    11.6441
   51.8000    85.7855    19.9954    11.8168
   51.9000    85.4200    19.8607    12.2439
   52.0000    85.5192    19.8607    12.8151
   52.1000    85.8103    19.8607    13.4562
   52.2000    86.3236    19.8607    14.3587
   52.3000    86.5592    19.8607    15.1724
   52.4000    86.9867    19.8607    16.4178
   52.5000    87.3535    19.7570    17.8298
   52.6000    87.6699    19.7224    19.1071
   52.7000    88.1630    19.6698    19.9448
   52.8000    88.7367    19.5578    20.0778
   52.9000    89.3563    19.4464    19.9826
   53.0000    90.2485    19.3358    19.7320
   53.1000    91.0446    19.2258    19.4398
   53.2000    91.4573    19.0545    19.2018
   53.3000    91.4550    18.8382    18.8562
   53.4000    91.4533    18.6114    18.4582
   53.5000    91.0980    18.2632    18.1155
   53.6000    90.6012    17.9853    17.8085
   53.7000    90.1701    17.5465    17.5325
   53.8000    89.9107    17.0527    17.3297
   53.9000    89.3227    16.5516    16.9825
   54.0000    89.1192    15.9924    16.8257
   54.1000    89.0164    15.5439    16.6351
   54.2000    89.1055    14.9763    16.4809
   54.3000    89.3865    14.4788    16.3874
   54.4000    89.9199    14.0966    16.2868
   54.5000    90.3727    13.7936    16.1176
