~VERSION INFORMATION
 VERS.                2.0:   CWLS LOG ASCII STANDARD - VERSION 2.0
 WRAP.                 NO:   ONE LINE PER DEPTH STEP
~WELL INFORMATION
#MNEM.UNIT      DATA TYPE    INFORMATION
#----------   ------------   ------------------------------
 STRT.F           30.0000:   START DEPTH
 STOP.F          509.0000:   STOP DEPTH
 STEP.F            0.5000:   STEP LENGTH
 NULL.          -999.2500:   NO VALUE
 COMP. FENIX & SCISSON INC:   COMPANY
 WELL.   NPR 3 #45 SX 3-3:   WELL
 FLD .             TEAPOT:   FIELD
 LOC .       S3 T38N R78W:   LOCATION
 CNTY.            NATRONA:   COUNTY
 STAT.            WYOMING:   STATE
 CTRY. UNITED STATES OF AMERICA:   COUNTRY
 SRVC.            Unknown:   SERVICE COMPANY
 DATE.        05-OCT-1978:   LOGDATE
 API .       490251071700:   API NUMBER
~CURVE INFORMATION
#MNEM.UNIT       API CODE    CURVE DESCRIPTION
#----------   ------------   ------------------------------
 DEPT.F                  :   
 SPR .MV     05 010 01 00:   SPONTANEOUS POTENTIAL FROM RES.
 SN  .OHMM   05 040 16 00:   SHORT NORMAL 16"
 ILD .OHMM   05 120 46 00:   INDUCTION LOG DEEP
 GRD .GAPI   45 310 01 00:   GAMMA RAY FROM DENSITY LOG
 CALD.IN     45 280 60 00:   CALIPER
 RHOB.G/C3   45 350 01 00:   BULK DENSITY
 DPHI.DEC    45 890 12 00:   DENSITY POROSITY SANDSTONE
 CORR.G/C3   45 356 01 00:   DENSITY CORRECTION
~PARAMETER INFORMATION
#MNEM.UNIT          VALUE    DESCRIPTION
#----------   ------------   ------------------------------
 PD  .                 GL:   PERMANENT DATUM
 EPD .F              5188:   ELEVATION PERMANENT DATUM
 LMF .                 KB:   LOG MEASURED FROM
 DAPD.F                 4:   FEET ABOVE PERMANENT DATUM
 DMF .                 KB:   DRILLING MEASURED FROM
 EKB .F              5192:   KELLING BUSHING
 EGL .F              5188:   GROUND LEVEL
 DATE.            10-5-78:   RUN DATE
 RUN .                  1:   RUN NUMBER
 DD  .F               510:   DEPTH DRILLER
 DL  .F               509:   DEPTH LOGGER
 BLI .F               503:   BOTTOM LOG INTERVAL
 TLI .F                48:   TOP LOG INTERVAL
 CS  .IN            8.625:   CASING SIZE
 CBL .F                46:   CASING BOTTOM LOGGER
 BS  .IN            7.875:   BIT SIZE
 BSD .F               510:   BIT SIZE AT DEPTH
 DFT .                KCL:   DRILLING FLUID TYPE
 DFD .                8.7:   DRILLING FLUID DENSITY
 DFV .                 37:   DRILLING FLUID VISCOSITY
 DFPH.                  9:   DRILLING FLUID PH
 DFL .               10.4:   DRILLING FLUID LOSS
 MSS .            MUD PIT:   MUD SAMPLE SOURCE
 RMS .OHMM            .28:   RESISTIVITY MUD SAMPLE
 MST .F                58:   MUD SAMPLE TEMPERATURE
 RMF .OHMM            .32:   RESISTIVITY MUD FILTRATE SAMPLE
 MFST.F                54:   MUD FILTRATE SAMPLE TEMPERATURE
 RMC .OHMM            .24:   RESISTIVITY MUD CAKE
 MCST.F                56:   MUD CAKE SAMPLE TEMPERATURE
 MFSS.               MEAS:   MUD FILTRATE SAMPLE SOURCE
 MCSS.               MEAS:   MUD CAKE SAMPLE SOURCE
 BHT .F                64:   BOTTOM HOLE TEMPERATURE
 TCS .HRS               2:   TIME CURCULATED STOPPED
 MRT .F                64:   MAXIMUM RECORDED TEMPERATURE
 LUN .               2958:   LOGGING UNIT NUMBER
 LUL .               CASP:   LOGGING UNIT LOCATION
 ENGI.             MILLER:   RECORDING ENGINEER
 WITN.           DINSMORE:   WITNESSED BY
 CLNT.            A2DTECH:   CLIENT CODE
 ORIG.       2", 5" PRINT:   ORIGIN OF DATA
 UWI .       490251071700:   UNIQUE WELL ID
 DICO. A2D Technologies, Inc.:   DIGITIZING COMPANY
~OTHER INFORMATION
~A   DEPT      SPR         SN        ILD         GRD      CALD       RHOB       DPHI       CORR   
# ...
  313.5000     1.5984    17.8293    25.4026    72.9935     7.5085     2.3844     0.1818     0.1189
  314.0000     1.2824    17.7347    25.0430    73.9997     7.5090     2.4044     0.1686     0.1124
  314.5000     1.2889    17.6323    24.6852    74.1996     7.5095     2.4229     0.1559     0.1049
  315.0000     1.2896    17.5305    24.5270    74.3472     7.5100     2.4291     0.1545     0.0903
  315.5000     1.2897    17.4293    24.4312    73.9415     7.5105     2.4291     0.1538     0.0673
  316.0000     1.2897    17.3286    24.2644    73.5214     7.5110     2.4249     0.1566     0.0417
  316.5000     1.2897    17.2286    23.9667    73.1569     7.5115     2.4120     0.1699     0.0157
  317.0000     1.2897    17.1291    23.6729    73.1664     7.5121     2.4021     0.1715     0.0085
  317.5000     1.2897    17.0282    23.2675    73.1672     7.5125     2.4016     0.1714     0.0052
  318.0000     1.2897    17.0139    22.6871    73.1673     7.5131     2.4022     0.1712     0.0043
  318.5000     1.2897    16.9993    22.1871    73.1673     7.5136     2.4026     0.1709     0.0032
  319.0000     1.2897    16.9848    21.9679    73.1673     7.5141     2.4031     0.1708     0.0021
  319.5000     1.2897    16.9702    21.7509    73.1673     7.5146     2.4036     0.1687     0.0010
  320.0000     1.2897    16.9556    21.5975    73.1673     7.5151     2.4041     0.1668    -0.0001
  320.5000     1.2897    16.9411    21.5309    73.1673     7.5156     2.4034     0.1672    -0.0012
  321.0000     1.2897    16.9266    21.4612    73.1673     7.5161     2.4025     0.1695    -0.0024
  321.5000     1.2897    16.9121    21.4301    73.1673     7.5166     2.4017     0.1692    -0.0009
  322.0000     1.2897    16.8977    22.2284    73.1673     7.5171     2.4010     0.1683     0.0009
  322.5000     1.2897    16.8828    22.1472    73.1673     7.5176     2.4000     0.1711     0.0028
  323.0000     1.2901    16.8729    22.0277    73.1673     7.5181     2.3932     0.1762     0.0047
  323.5000     1.2895    16.9578    22.1816    73.1673     7.5187     2.3861     0.1823     0.0066
  324.0000     1.2551    17.0249    22.3300    73.1673     7.5192     2.3812     0.1825     0.0092
  324.5000     1.1019    17.0927    22.4783    73.1673     7.5195     2.3886     0.1803     0.0126
  325.0000     0.9541    17.1607    22.6424    73.1673     7.5135     2.3992     0.1723     0.0199
  325.5000     0.8065    17.2290    22.9886    73.1672     7.5000     2.4041     0.1695     0.0282
  326.0000     0.6588    17.2981    23.3792    73.1817     7.4865     2.4090     0.1680     0.0317
  326.5000     0.5114    17.3438    23.5230    73.2069     7.4730     2.4205     0.1566     0.0322
  327.0000     0.3631    17.3442    23.5689    73.2323     7.4595     2.4445     0.1411     0.0273
  327.5000     0.2919    17.3442    23.6147    73.2577     7.4461     2.4727     0.1255     0.0145
  328.0000     0.2785    17.3442    23.6616    73.2831     7.4326     2.5030     0.1100     0.0011
  328.5000     0.2662    17.3442    23.7073    73.3074     7.4191     2.5069     0.1044    -0.0107
  329.0000     0.2541    17.3445    23.1879    73.3326     7.4056     2.4743     0.1168    -0.0095
  329.5000     0.2419    17.3426    22.6424    73.3340     7.3921     2.4431     0.1393    -0.0085
  330.0000     0.2296    17.3491    22.4631    74.6817     7.3812     2.4121     0.1635    -0.0076
  330.5000     0.2174    17.0836    22.2802    76.5544     7.3899     2.3819     0.1915    -0.0067
  331.0000     0.2051    16.8627    22.0988    78.4997     7.3982     2.3665     0.1932    -0.0058
  331.5000     0.1929    16.8129    21.5727    78.4915     7.4066     2.3630     0.1951    -0.0048
  332.0000     0.1806    16.7633    20.8446    78.4158     7.4147     2.3676     0.1921    -0.0044
  332.5000     0.1684    16.7138    20.6399    78.3491     7.4143     2.3732     0.1880    -0.0042
  333.0000     0.1562    16.6644    20.4396    78.2841     7.3958     2.3789     0.1848    -0.0041
  333.5000     0.1439    16.6152    20.2408    78.2191     7.3777     2.3798     0.1837    -0.0039
  334.0000     0.1318    16.5662    20.0540    78.1541     7.3594     2.3805     0.1834    -0.0037
  334.5000     0.1196    16.5173    19.8947    78.0891     7.3412     2.3812     0.1832    -0.0035
  335.0000     0.1067    16.4685    19.7375    78.0241     7.3231     2.3819     0.1830    -0.0034
  335.5000     0.0507    16.4138    19.5814    77.9592     7.3048     2.3845     0.1828    -0.0032
  336.0000    -0.0941    16.4646    19.4265    77.8941     7.2870     2.3877     0.1792    -0.0030
  336.5000    -0.2375    16.5231    19.2727    77.8290     7.2432     2.3898     0.1783    -0.0029
  337.0000    -0.3810    16.5821    19.1200    77.7603     7.1894     2.3872     0.1783    -0.0027
  337.5000    -0.5244    16.6411    19.0136    77.8313     7.1348     2.3782     0.1837    -0.0025
  338.0000    -0.6678    16.7008    19.0140    77.9386     7.0799     2.3692     0.1939    -0.0008
  338.5000    -0.8112    16.8284    19.0140    78.0467     7.0542     2.3600     0.1985     0.0010
  339.0000    -0.9540    16.9851    19.0140    78.1562     7.0425     2.3593     0.1954     0.0028
  339.5000    -1.0963    17.1432    19.0140    78.2633     7.0310     2.3761     0.1885     0.0046
  340.0000    -1.2809    17.2163    19.0140    78.2276     7.0195     2.3977     0.1776     0.0064
  340.5000    -1.4540    17.2583    19.0139    77.5530     7.0080     2.4195     0.1653     0.0069
  341.0000    -1.8774    17.2996    19.0140    76.7245     7.0066     2.4411     0.1530     0.0054
  341.5000    -2.3239    17.3442    19.0125    74.5660     7.0160     2.4705     0.1311     0.0038
  342.0000    -2.7652    17.6651    19.0862    72.3802     7.0252     2.4992     0.1132     0.0060
  342.5000    -3.0761    18.0055    19.2123    71.1348     7.0349     2.5252     0.0983     0.0095
  343.0000    -3.0537    18.3537    19.3399    69.8422     7.0608     2.5395     0.0890     0.0129
  343.5000    -3.0387    18.8802    20.2730    67.5591     7.1441     2.5578     0.0821     0.0170
  344.0000    -3.0226    19.5474    21.4716    65.3525     7.2245     2.5763     0.0659     0.0116
  344.5000    -3.0066    20.0968    22.6991    63.6778     7.3050     2.5945     0.0526     0.0059
  345.0000    -2.9907    20.0963    24.1102    64.3721     7.3804     2.5954     0.0538     0.0014
  345.5000    -2.9747    20.0954    25.0021    65.0224     7.4052     2.5859     0.0570     0.0015
  346.0000    -2.9588    20.0921    25.2933    66.2111     7.4280     2.5721     0.0656     0.0015
  346.5000    -2.9429    19.2255    25.5163    67.6095     7.4515     2.5452     0.0856     0.0023
  347.0000    -2.9269    18.4242    24.6150    69.0478     7.4423     2.5164     0.1055     0.0046
  347.5000    -2.9109    17.6563    23.1687    71.6301     7.4138     2.4797     0.1255     0.0155
  348.0000    -2.8942    16.9205    21.7569    74.2076     7.3849     2.4476     0.1416     0.0308
  348.5000    -2.8737    16.2153    20.7719    76.6485     7.3538     2.4276     0.1572     0.0463
  349.0000    -3.0601    15.5394    19.9083    78.1783     7.3137     2.4139     0.1647     0.0617
  349.5000    -3.2723    14.8918    18.0070    78.8108     7.2733     2.4113     0.1640     0.0733
  350.0000    -3.4852    14.6686    15.6762    78.9345     7.2315     2.4160     0.1619     0.0714
  350.5000    -3.6976    14.6072    15.6903    79.0468     7.2019     2.4241     0.1561     0.0693
  351.0000    -3.9100    14.4357    15.7183    79.1599     7.1747     2.4325     0.1529     0.0567
  351.5000    -4.1199    14.1651    15.7463    79.2793     7.1474     2.4323     0.1518     0.0428
  352.0000    -4.2876    14.1704    15.7745    79.6128     7.1233     2.4300     0.1531     0.0366
  352.5000    -4.3471    14.1684    15.8031    80.2678     7.1576     2.4260     0.1550     0.0348
  353.0000    -4.4099    14.1688    15.8202    80.7545     7.1936     2.4227     0.1553     0.0339
  353.5000    -4.5345    14.1697    15.6987    80.7815     7.2292     2.4243     0.1541     0.0435
