~VERSION INFORMATION
 VERS.                2.0:   CWLS LOG ASCII STANDARD - VERSION 2.0
 WRAP.                 NO:   ONE LINE PER DEPTH STEP
~WELL INFORMATION
#MNEM.UNIT      DATA TYPE    INFORMATION
#----------   ------------   ------------------------------
 STRT.F          534.0000:   START DEPTH
 STOP.F         1820.0000:   STOP DEPTH
 STEP.F            0.5000:   STEP LENGTH
 NULL.          -999.2500:   NO VALUE
 COMP.   FLUOR DANIEL INC:   COMPANY
 WELL. NAVAL PETROLEUM RESERVE 3 X-29 #45-29:   WELL
 FLD .             TEAPOT:   FIELD
 LOC .      S29 T39N R78W:   LOCATION
 CNTY.            NATRONA:   COUNTY
 STAT.            WYOMING:   STATE
 CTRY. UNITED STATES OF AMERICA:   COUNTRY
 SRVC.            Unknown:   SERVICE COMPANY
 DATE.        30-SEP-1994:   LOGDATE
 API .       490252265100:   API NUMBER
~CURVE INFORMATION
#MNEM.UNIT       API CODE    CURVE DESCRIPTION
#----------   ------------   ------------------------------
 DEPT.F                  :   
 ROP .FT/HR  91 810 01 00:   RAT OF DRILLING PENETRATION
 TGAS.TC/CC  91 830 01 00:   TOTAL GAS UNIT
~PARAMETER INFORMATION
#MNEM.UNIT          VALUE    DESCRIPTION
#----------   ------------   ------------------------------
 EKB .F              5023:   KELLING BUSHING
 EGL .F              5013:   GROUND LEVEL
 DATE.        30-SEP-1994:   RUN DATE
 RUN .                  1:   RUN NUMBER
 BLI .F              1820:   BOTTOM LOG INTERVAL
 TLI .F               540:   TOP LOG INTERVAL
 WITN.     C.TOWER/R.HUSK:   WITNESSED BY
 CLNT.            A2DTECH:   CLIENT CODE
 ORIG.           5" PRINT:   ORIGIN OF DATA
 UWI .       490252265100:   UNIQUE WELL ID
 DICO. A2D Technologies, Inc.:   DIGITIZING COMPANY
~OTHER INFORMATION
~A   DEPT        ROP       TGAS 
# ...
 1627.5000     0.5085     1.4748
 1628.0000     0.5023     1.4672
 1628.5000     0.4991     1.4582
 1629.0000     0.4991     1.0727
 1629.5000     0.4991     1.0653
 1630.0000     0.5085     1.0580
 1630.5000     0.5085     1.0513
 1631.0000     0.5085     1.2341
 1631.5000     0.5085     1.4143
 1632.0000     0.5085     1.5957
 1632.5000     0.5085     1.6875
 1633.0000     0.5085     1.7700
 1633.5000     0.5085     1.7620
 1634.0000     0.5179     1.7534
 1634.5000     0.5273     1.7461
 1635.0000     0.5273     1.7395
 1635.5000     0.5273     1.7313
 1636.0000     0.5273     1.5349
 1636.5000     0.5273     1.3384
 1637.0000     0.5273     1.1420
 1637.5000     0.5273     1.1345
 1638.0000     0.5273     0.9363
 1638.5000     0.5273     0.9289
 1639.0000     0.5367     0.7336
 1639.5000     0.5461     0.7251
 1640.0000     0.5367     0.9076
 1640.5000     0.5367     0.9000
 1641.0000     0.5367     0.9260
 1641.5000     0.5327     1.0739
 1642.0000     0.5273     1.2555
 1642.5000     0.5273     1.4372
 1643.0000     0.5273     1.6189
 1643.5000     0.5273     1.6097
 1644.0000     0.6121     1.6034
 1644.5000     0.6026     1.5949
 1645.0000     0.6026     1.5876
 1645.5000     0.6026     1.8046
 1646.0000     0.6044     1.9513
 1646.5000     0.6121     1.9436
 1647.0000     0.6215     2.1253
 1647.5000     0.6215     2.2532
 1648.0000     0.6309     2.2996
 1648.5000     0.6309     2.2904
 1649.0000     0.6309     2.2830
 1649.5000     0.6309     2.2757
 1650.0000     0.6309     2.2689
 1650.5000     0.5273     2.2609
 1651.0000     0.5367     2.2535
 1651.5000     0.5461     2.2462
 1652.0000     0.5461     2.0496
 1652.5000     0.5461     1.8514
 1653.0000     0.5483     1.8454
 1653.5000     0.5556     1.8367
 1654.0000     0.5650     1.8303
 1654.5000     0.4143     1.6329
 1655.0000     0.4143     1.6255
 1655.5000     0.4331     1.6185
 1656.0000     0.4376     1.6109
 1656.5000     0.4459     1.6015
 1657.0000     0.4520     1.4067
 1657.5000     0.4426     1.2101
 1658.0000     0.4426     1.0122
 1658.5000     0.4426     1.0048
 1659.0000     0.4426     0.9974
 1659.5000     0.4362     0.9901
 1660.0000     0.4331     0.9827
 1660.5000     0.4237     0.9756
 1661.0000     0.4143     0.9680
 1661.5000     0.4154     0.9605
 1662.0000     0.4237     0.9529
 1662.5000     0.4237     1.1349
 1663.0000     0.4237     1.1257
 1663.5000     0.4237     1.3074
 1664.0000     0.4289     1.3008
 1664.5000     0.4331     1.2933
 1665.0000     0.4426     1.2853
 1665.5000     0.4426     1.2773
 1666.0000     0.4426     1.2706
 1666.5000     0.4426     1.2630
 1667.0000     0.4426     1.2555
 1667.5000     0.4520     1.2466
 1668.0000     0.4520     1.2403
 1668.5000     0.4520     1.2328
 1669.0000     0.4520     1.2238
 1669.5000     0.4520     1.2176
 1670.0000     0.4520     1.2091
 1670.5000     0.4487     1.2025
 1671.0000     0.4426     1.1950
 1671.5000     0.4426     1.1874
 1672.0000     0.4426     1.1784
 1672.5000     0.4426     1.1723
 1673.0000     0.4426     1.1636
 1673.5000     0.4426     1.1563
 1674.0000     0.4426     1.5289
 1674.5000     0.4478     2.0869
 1675.0000     0.4520     3.2140
 1675.5000     0.4520     3.5849
 1676.0000     0.4520     3.9630
 1676.5000     0.4520     4.1372
 1677.0000     0.4520     3.3717
 1677.5000     0.4520     2.6080
 1678.0000     0.4520     2.2225
 1678.5000     0.4520     1.8370
 1679.0000     0.4520     1.6405
 1679.5000     0.4520     1.6332
 1680.0000     0.4520     1.6258
 1680.5000     0.4520     1.8076
 1681.0000     0.4426     1.6109
 1681.5000     0.4426     1.6034
 1682.0000     0.4426     1.4054
 1682.5000     0.6309     1.3992
 1683.0000     0.6403     1.3907
 1683.5000     0.6403     1.3840
 1684.0000     0.6497     1.3759
 1684.5000     0.6497     1.3685
 1685.0000     0.6497     1.5504
 1685.5000     0.5085     1.5429
 1686.0000     0.4237     1.5353
 1686.5000     0.4426     1.5263
 1687.0000     0.4426     1.5189
 1687.5000     0.4331     1.5115
 1688.0000     0.4331     1.3151
 1688.5000     0.4331     1.3077
 1689.0000     0.4237     1.3003
 1689.5000     0.4237     1.2930
 1690.0000     0.4143     1.4747
 1690.5000     0.4143     1.4672
 1691.0000     0.4143     1.4597
 1691.5000     0.4143     1.4507
 1692.0000     0.4237     1.2555
 1692.5000     0.4237     1.2479
 1693.0000     0.4237     1.2395
 1693.5000     0.4143     1.2328
 1694.0000     0.4143     1.2248
 1694.5000     0.4143     1.2174
 1695.0000     0.4143     1.2101
 1695.5000     0.4158     1.2025
 1696.0000     0.4237     1.1953
 1696.5000     0.4331     1.3770
 1697.0000     0.4331     1.3689
 1697.5000     0.4331     1.3613
 1698.0000     0.4331     1.3530
 1698.5000     0.4426     1.3456
 1699.0000     0.4520     1.1492
 1699.5000     0.4520     1.1418
 1700.0000     0.4718     1.1345
 1700.5000     0.4800     1.3152
 1701.0000     0.4609     1.4959
 1701.5000     0.4607     1.4854
 1702.0000     0.4605     1.4771
 1702.5000     0.4602     1.4687
 1703.0000     0.4600     1.4604
 1703.5000     0.4597     1.4520
 1704.0000     0.4595     1.4436
 1704.5000     0.4593     1.4353
 1705.0000     0.4590     1.4269
 1705.5000     0.4588     1.4179
 1706.0000     0.4624     1.4918
 1706.5000     0.4678     1.5923
 1707.0000     0.4675     1.5826
 1707.5000     0.4673     1.4287
 1708.0000     0.4670     1.3765
 1708.5000     0.4574     1.3680
 1709.0000     0.4572     1.3595
 1709.5000     0.4569     1.3496
 1710.0000     0.4567     1.0630
 1710.5000     0.4565     0.9547
 1711.0000     0.4562     0.9464
 1711.5000     0.4560     0.9380
 1712.0000     0.4557     0.9303
 1712.5000     0.4555     1.0911
 1713.0000     0.4553     1.2914
 1713.5000     0.4550     1.2829
 1714.0000     0.4548     1.2744
 1714.5000     0.4640     1.2659
 1715.0000     0.4731     1.2574
 1715.5000     0.4823     1.2472
 1716.0000     0.4915     1.2403
 1716.5000     0.5165     1.2318
 1717.0000     0.5287     1.4124
 1717.5000     0.5379     1.5940
 1718.0000     0.5282     1.5836
 1718.5000     0.5280     1.5759
 1719.0000     0.5278     1.5674
 1719.5000     0.5315     1.5585
 1720.0000     0.5367     1.5501
 1720.5000     0.5459     1.5863
 1721.0000     0.5457     1.7225
 1721.5000     0.5454     1.9032
 1722.0000     0.5452     1.8945
 1722.5000     0.5449     1.8844
 1723.0000     0.5542     1.8761
 1723.5000     0.5539     2.0930
 1724.0000     0.5590     2.2396
 1724.5000     0.5629     2.2291
 1725.0000     0.5626     2.4107
 1725.5000     0.5624     2.4015
 1726.0000     0.5621     2.3931
 1726.5000     0.5631     2.1961
 1727.0000     0.5762     2.1876
 1727.5000     0.5803     2.1790
 1728.0000     0.5895     2.1681
 1728.5000     0.5892     1.7839
 1729.0000     0.5796     1.7607
 1729.5000     0.5793     1.3888
 1730.0000     0.5791     1.3788
 1730.5000     0.5789     1.3704
 1731.0000     0.5786     1.3621
 1731.5000     0.5741     1.3537
 1732.0000     0.5687     1.7235
 1732.5000     0.5685     1.9249
 1733.0000     0.5589     2.2761
 1733.5000     0.5586     2.4201
 1734.0000     0.5584     2.4478
 1734.5000     0.5676     2.4381
 1735.0000     0.5627     2.4297
 1735.5000     0.5577     2.6104
 1736.0000     0.5574     2.6017
 1736.5000     0.5572     2.4025
 1737.0000     0.5569     2.3941
 1737.5000     0.5567     2.3858
 1738.0000     0.5565     2.1883
 1738.5000     0.5468     2.1320
 1739.0000     0.5466     1.9834
 1739.5000     0.5464     1.7851
 1740.0000     0.5461     1.7773
 1740.5000     0.5459     1.9575
 1741.0000     0.5480     1.9491
 1741.5000     0.5549     1.9409
 1742.0000     0.5640     1.9324
 1742.5000     0.5732     2.1124
 1743.0000     0.6106     2.1044
 1743.5000     0.6579     2.2850
 1744.0000     0.6667     2.2750
 1744.5000     0.6664     2.2667
 1745.0000     0.6756     2.0692
 1745.5000     0.6753     2.0619
 1746.0000     0.6751     1.9780
 1746.5000     0.6749     1.8551
 1747.0000     0.6652     1.7876
 1747.5000     0.5332     1.6493
 1748.0000     0.5141     1.5227
 1748.5000     0.5139     1.4436
