~VERSION INFORMATION
 VERS.                2.0:   CWLS LOG ASCII STANDARD - VERSION 2.0
 WRAP.                 NO:   ONE LINE PER DEPTH STEP
~WELL INFORMATION
#MNEM.UNIT      DATA TYPE    INFORMATION
#----------   ------------   ------------------------------
 STRT.F           34.0000:   START DEPTH
 STOP.F          616.0000:   STOP DEPTH
 STEP.F            0.5000:   STEP LENGTH
 NULL.          -999.2500:   NO VALUE
 COMP. FENIX & SCISSON INC:   COMPANY
 WELL. NAVAL PETROLEUM RESERVE 3 S-10 #86-10:   WELL
 FLD .             TEAPOT:   FIELD
 LOC .      S10 T38N R78W:   LOCATION
 CNTY.            NATRONA:   COUNTY
 STAT.            WYOMING:   STATE
 CTRY. UNITED STATES OF AMERICA:   COUNTRY
 SRVC.              Welex:   SERVICE COMPANY
 DATE.        12-APR-1977:   LOGDATE
 API .       490251033800:   API NUMBER
~CURVE INFORMATION
#MNEM.UNIT       API CODE    CURVE DESCRIPTION
#----------   ------------   ------------------------------
 DEPT.F                  :   
 CALD.IN     45 280 60 00:   CALIPER FROM DENSITY LOG
 GRD .GAPI   45 310 01 00:   GAMMA RAY FROM DENSITY LOG
 CORR.G/C3   45 356 01 00:   DENSITY CORRECTION
 DPHI.DEC    45 890 12 00:   DENSITY POROSITY SANDSTONE
 RHOB.G/C3   45 350 01 00:   BULK DENSITY
 SPR .MV     07 010 01 00:   SPONTANEOUS POTENTIAL
 ILD .OHMM   07 120 46 00:   INDUCTION LOG DEEP
 ILM .OHMM   07 120 44 00:   INDUCTION LOG MEDIUM
 SGRD.OHMM   07 221 05 00:   SHALLOW SHORT GUARD RESISTIVITY
~PARAMETER INFORMATION
#MNEM.UNIT          VALUE    DESCRIPTION
#----------   ------------   ------------------------------
 PD  .                 GL:   PERMANENT DATUM
 EPD .F              5240:   ELEVATION PERMANENT DATUM
 LMF .                 KB:   LOG MEASURED FROM
 DAPD.F                 5:   FEET ABOVE PERMANENT DATUM
 DMF .                 KB:   DRILLING MEASURED FROM
 EKB .F              5245:   KELLING BUSHING
 EGL .F              5240:   GROUND LEVEL
 DATE.        12-APR-1977:   RUN DATE
 RUN .                  1:   RUN NUMBER
 DD  .F               625:   DEPTH DRILLER
 DL  .F               617:   DEPTH LOGGER
 BLI .F               615:   BOTTOM LOG INTERVAL
 TLI .F                35:   TOP LOG INTERVAL
 CS  .IN            8.625:   CASING SIZE
 BS  .IN            7.875:   BIT SIZE
 BSD .F               625:   BIT SIZE AT DEPTH
 DFT .           KCL- GEL:   DRILLING FLUID TYPE
 DFD .                8.8:   DRILLING FLUID DENSITY
 BHT .F                68:   BOTTOM HOLE TEMPERATURE
 TCS .HRS            0100:   TIME CURCULATED STOPPED
 MRT .F                68:   MAXIMUM RECORDED TEMPERATURE
 ENGI.        E. CALLAHAN:   RECORDING ENGINEER
 WITN.            R. LYON:   WITNESSED BY
 CLNT.            A2DTECH:   CLIENT CODE
 ORIG.           5" PRINT:   ORIGIN OF DATA
 UWI .       490251033800:   UNIQUE WELL ID
 DICO. A2D Technologies, Inc.:   DIGITIZING COMPANY
~OTHER INFORMATION
~A   DEPT     CALD        GRD       CORR       DPHI         RHOB      SPR        ILD        ILM       SGRD   
# ...
  289.5000     7.7767   116.7588     0.0621     0.1173     2.4539   -69.3114     6.1124     7.4656    10.5029
  290.0000     7.6589   116.9146     0.0517     0.1254     2.4420   -69.1617     6.3538     7.4635     9.6643
  290.5000     7.6004   117.0703     0.0428     0.1286     2.4435   -69.0120     6.5757     7.4617     9.7977
  291.0000     7.6162   117.6712     0.0354     0.1214     2.4601   -68.8623     6.7584     7.5641    10.2116
  291.5000     7.7357   118.4204     0.0295     0.1124     2.4751   -68.4132     6.9466     7.8832    10.4247
  292.0000     7.8405   119.9115     0.0296     0.1052     2.4842   -68.1138     7.1391     8.1027    10.7155
  292.5000     7.9601   120.5123     0.0297     0.1049     2.4887   -67.6647     7.2874     8.3862    10.8633
  293.0000     8.0351   120.5197     0.0283     0.1054     2.4880   -67.2156     7.3869     8.6797    11.1667
  293.5000     8.0805   119.9336     0.0285     0.1078     2.4798   -67.0659     7.5398     8.7992    11.3993
  294.0000     8.0963   119.0508     0.0286     0.1123     2.4694   -67.0659     7.6953     8.9199    11.6373
  294.5000     8.1120   118.4644     0.0287     0.1099     2.4784   -67.0659     7.7471     9.0422    11.7161
  295.0000     8.1129   118.7689     0.0273     0.1053     2.4875   -67.0659     7.7988     9.1030    11.6336
  295.5000     8.0987   119.0730     0.0275     0.1041     2.4883   -67.2156     7.9053     9.1641    11.2133
  296.0000     8.0847   119.6738     0.0276     0.1059     2.4846   -67.5150     7.9580     9.2257    11.9569
  296.5000     8.0859   121.1649     0.0262     0.1080     2.4816   -67.6647     7.9553     9.2876    11.9552
  297.0000     8.0867   122.8043     0.0263     0.1073     2.4802   -68.2635     7.9531     9.2209    11.6272
  297.5000     8.0876   123.4174     0.0264     0.1025     2.4915   -68.7126     7.9509     9.1551    11.5455
  298.0000     8.0885   123.2641     0.0250     0.1001     2.4968   -69.3114     7.9487     9.1530    11.6240
  298.5000     8.0894   123.2716     0.0237     0.1070     2.4751   -69.9102     7.8917     9.0250    11.7031
  299.0000     8.0903   123.2790     0.0193     0.1120     2.4684   -70.5090     7.7811     8.8988    11.9470
  299.5000     8.0912   123.2864     0.0194     0.1120     2.4692   -71.1078     7.7253     8.6537    11.5391
  300.0000     8.0921   123.1454     0.0255     0.1084     2.4771   -71.7066     7.5643     8.4739    11.2225
  300.5000     8.0929   122.7917     0.0307     0.1055     2.4851   -71.2575     7.3558     8.3554    11.0645
  301.0000     8.0936   121.8259     0.0349     0.1026     2.4881   -70.6587     7.1530     8.2385    10.9844
  301.5000     8.0943   120.3496     0.0379     0.1035     2.4889   -70.6587     6.9078     8.0673    10.6808
  302.0000     8.0950   122.4340     0.0395     0.1092     2.4823   -70.6587     6.6711     7.7909    10.3856
  302.5000     8.0808   123.6283     0.0426     0.1182     2.4531   -70.8084     6.3538     7.5241     9.8229
  303.0000     8.0817   123.4872     0.0442     0.1214     2.4456   -71.7066     6.0517     7.2162     9.2907
  303.5000     8.0824   123.0495     0.0488     0.1244     2.4427   -71.8563     5.7242     6.8257     8.7873
  304.0000     8.0681   121.8698     0.0504     0.1336     2.4331   -71.7066     5.3400     6.4118     8.3689
  304.5000     8.0690   117.2777     0.0490     0.1437     2.4109   -71.2575     4.8456     5.9401     7.8609
  305.0000     8.0698   114.9112     0.0461     0.1538     2.3888   -70.9581     4.4892     5.5032     7.2320
  305.5000     8.0705   113.5832     0.0417     0.1648     2.3703   -70.6587     4.1019     5.1695     6.5620
  306.0000     8.0564   111.3590     0.0343     0.1761     2.3465   -70.2096     3.7479     4.5311     5.9540
  306.5000     8.0571   113.3324     0.0269     0.1874     2.3239   -70.0599     3.4009     3.7836     5.3281
  307.0000     8.0430   114.6439     0.0195     0.1987     2.3067   -69.9102     3.1864     3.4332     4.5426
  307.5000     8.0438   113.8007     0.0151     0.2115     2.2963   -69.4611     2.9320     3.2474     3.6897
  308.0000     8.0445   113.1746     0.0137     0.2151     2.3008   -69.0120     2.7613     3.1799     3.0388
  308.5000     8.0453   114.5191     0.0108     0.2051     2.3239   -68.7126     2.6852     3.2235     3.1665
  309.0000     8.0460   116.3068     0.0124     0.1778     2.3475   -68.2635     2.6844     3.3133     3.7894
  309.5000     8.0467   121.2103     0.0140     0.1659     2.3792   -67.8144     2.7427     3.4293     5.0657
  310.0000     8.0476   123.7399     0.0186     0.1446     2.4109   -67.5150     2.8435     3.5248     5.6568
  310.5000     8.0333   124.9323     0.0217     0.1331     2.4426   -67.0659     3.0643     3.8293     4.0009
  311.0000     8.0343   123.6043     0.0249     0.1106     2.4773   -66.4671     3.3594     4.3972     5.8115
  311.5000     8.0350   125.2455     0.0281     0.1012     2.4901   -65.8683     3.7476     4.8774     8.7388
  312.0000     8.0506   126.5881     0.0326     0.0991     2.4835   -65.2695     4.0954     5.3356     9.0433
  312.5000     8.0513   128.0791     0.0357     0.0997     2.4865   -64.8204     4.5411     5.7169     8.9778
  313.0000     8.0520   128.3831     0.0403     0.0994     2.4911   -64.6707     4.9293     6.0831     8.9128
  313.5000     8.0528   128.8356     0.0434     0.0979     2.4956   -64.8204     5.2101     6.2529     8.6067
  314.0000     8.0683   129.4363     0.0465     0.0987     2.4994   -65.4192     5.4619     6.3823     8.1969
  314.5000     8.0691   130.3339     0.0526     0.0972     2.4965   -65.8683     5.6133     6.4698     8.2510
  315.0000     8.0846   131.0930     0.0572     0.0966     2.4891   -65.2695     5.6490     6.5137     8.4796
  315.5000     8.1002   133.2077     0.0618     0.0990     2.4846   -65.1198     5.5689     6.4407     8.7146
  316.0000     8.1009   134.0653     0.0649     0.1079     2.4697   -64.8204     5.4912     6.2632     9.0183
  316.5000     8.1017   133.4807     0.0695     0.1163     2.4548   -65.1198     5.3403     6.0905     9.2043
  317.0000     8.1024   132.8945     0.0727     0.1220     2.4406   -65.2695     5.2291     5.9226     9.0121
  317.5000     8.0735   132.3084     0.0758     0.1261     2.4367   -66.4671     5.1558     5.7993     7.5255
  318.0000     8.0593   130.8320     0.0774     0.1201     2.4504   -67.0659     5.0485     5.6394     5.6256
  318.5000     8.0008   130.6891     0.0775     0.1204     2.4475   -66.9162     4.9093     5.4839     6.1957
  319.0000     7.9718   131.5885     0.0760     0.1225     2.4401   -66.4671     4.8741     5.5205     7.7824
  319.5000     7.9425   131.2990     0.0702     0.1234     2.4462   -66.4671     4.8058     5.6739     7.7797
  320.0000     7.8388   131.4547     0.0598     0.1137     2.4576   -67.5150     4.8045     5.9538     6.2322
  320.5000     7.7795   131.6104     0.0539     0.1092     2.4690   -68.4132     4.9039     5.9939     8.3892
  321.0000     7.7670   131.0243     0.0480     0.1089     2.4764   -69.4611     5.0401     5.9505     8.6217
  321.5000     7.7680   129.9930     0.0420     0.1071     2.4883   -70.2096     5.2161     6.0737     8.0983
  322.0000     7.7835   129.5549     0.0376     0.1028     2.4997   -70.5090     5.4735     6.2857     7.8202
  322.5000     7.8139   129.5625     0.0348     0.0992     2.5042   -70.0599     5.7435     6.6417     8.8544
  323.0000     7.8295   129.4214     0.0331     0.0971     2.4863   -69.6108     5.9441     6.9694     9.6845
  323.5000     7.8747   129.2804     0.0305     0.1004     2.4878   -68.9826     6.2807     7.3640    10.2322
  324.0000     7.9348   129.2878     0.0291     0.1019     2.4954   -68.7126     6.5000     7.6212    10.5888
  324.5000     8.0394   129.1467     0.0307     0.1003     2.4977   -68.7391     6.6806     7.8329    10.8072
  325.0000     8.0847   129.1543     0.0323     0.1012     2.4948   -69.0620     6.8189     8.0505    11.0301
  325.5000     8.0854   129.0129     0.0309     0.1012     2.4896   -70.2802     6.8643     8.2171    11.1028
