~VERSION INFORMATION
 VERS.                2.0:   CWLS LOG ASCII STANDARD - VERSION 2.0
 WRAP.                 NO:   ONE LINE PER DEPTH STEP
~WELL INFORMATION
#MNEM.UNIT      DATA TYPE    INFORMATION
#----------   ------------   ------------------------------
 STRT.F           23.0000:   START DEPTH
 STOP.F         2536.0000:   STOP DEPTH
 STEP.F            0.5000:   STEP LENGTH
 NULL.          -999.2500:   NO VALUE
 COMP. FENIX & SCISSON INC:   COMPANY
 WELL.     14 SHX 3 #14-3:   WELL
 FLD .             TEAPOT:   FIELD
 LOC .       S3 T38N R78W:   LOCATION
 CNTY.            NATRONA:   COUNTY
 STAT.            WYOMING:   STATE
 CTRY. UNITED STATES OF AMERICA:   COUNTRY
 SRVC.           BIRDWELL:   SERVICE COMPANY
 DATE.        20-MAR-1979:   LOGDATE
 API .       490251073900:   API NUMBER
~CURVE INFORMATION
#MNEM.UNIT       API CODE    CURVE DESCRIPTION
#----------   ------------   ------------------------------
 DEPT.F                  :   
 SPR .MV     07 010 01 00:   SPONTANEOUS POTENTIAL
 SN  .OHMM   07 040 16 00:   SHORT NORMAL 16'
 IL  .OHMM   07 120 00 00:   INDUCTION LOG
 GRD .GAPI   45 310 01 00:   GAMMA RAY FROM DENSITY LOG
 CALD.IN     45 280 60 00:   CALIPER
 CORR.G/C3   45 356 01 00:   DENSITY CORRECTION
 DEN .G/C3   45 350 01 00:   
 DPHI.DEC    45 890 12 00:   DENSITY POROSITY SANDSTONE
~PARAMETER INFORMATION
#MNEM.UNIT          VALUE    DESCRIPTION
#----------   ------------   ------------------------------
 PD  .                 GL:   PERMANENT DATUM
 EPD .F              5208:   ELEVATION PERMANENT DATUM
 LMF .                 KB:   LOG MEASURED FROM
 DAPD.F                10:   FEET ABOVE PERMANENT DATUM
 DMF .                 KB:   DRILLING MEASURED FROM
 EKB .F              5218:   KELLING BUSHING
 EGL .F              5208:   GROUND LEVEL
 DATE.            3-20-79:   RUN DATE
 RUN .                  1:   RUN NUMBER
 DD  .F              2580:   DEPTH DRILLER
 DL  .F              2536:   DEPTH LOGGER
 BLI .F              2536:   BOTTOM LOG INTERVAL
 TLI .F               400:   TOP LOG INTERVAL
 CS  .IN            9.625:   CASING SIZE
 CBL .F               680:   CASING BOTTOM LOGGER
 BS  .IN             8.75:   BIT SIZE
 BSD .F              2580:   BIT SIZE AT DEPTH
 DFT .                AIR:   DRILLING FLUID TYPE
 TCS .HRS               6:   TIME CURCULATED STOPPED
 LUN .               2959:   LOGGING UNIT NUMBER
 LUL .             CASPER:   LOGGING UNIT LOCATION
 ENGI.            ROLLINS:   RECORDING ENGINEER
 WITN.           DINSMORE:   WITNESSED BY
 CLNT.            A2DTECH:   CLIENT CODE
 ORIG. 1", 2", 2.5", 5" PRINT:   ORIGIN OF DATA
 UWI .       490251073900:   UNIQUE WELL ID
 DICO. A2D Technologies, Inc.:   DIGITIZING COMPANY
~OTHER INFORMATION
~A   DEPT      SPR         SN         IL        GRD       CALD       CORR        DEN       DPHI   
# ...
 1157.0000  -999.2500  -999.2500  -999.2500   156.7615    10.0382     0.0655     2.5256     0.0113
 1157.5000  -999.2500  -999.2500  -999.2500   158.0790    10.0435     0.0656     2.5299     0.0099
 1158.0000  -999.2500  -999.2500  -999.2500   162.4598    10.0488     0.0657     2.5241     0.0126
 1158.5000  -999.2500  -999.2500  -999.2500   167.1568    10.0541     0.0655     2.5190     0.0153
 1159.0000  -999.2500  -999.2500  -999.2500   170.8912    10.0594     0.0657     2.5133     0.0184
 1159.5000  -999.2500  -999.2500  -999.2500   173.5575    10.0647     0.0663     2.5074     0.0192
 1160.0000  -999.2500  -999.2500  -999.2500   177.7135    10.0700     0.0769     2.5126     0.0184
 1160.5000  -999.2500  -999.2500  -999.2500   175.4546    10.0753     0.0860     2.5235     0.0171
 1161.0000  -999.2500  -999.2500  -999.2500   169.7958    10.0807     0.0937     2.5095     0.0160
 1161.5000  -999.2500  -999.2500  -999.2500   172.3675    10.0859     0.0952     2.5143     0.0147
 1162.0000  -999.2500  -999.2500  -999.2500   173.7192    10.0913     0.1174     2.5328     0.0092
 1162.5000  -999.2500  -999.2500  -999.2500   170.1778    10.0966     0.1260     2.5368     0.0067
 1163.0000  -999.2500  -999.2500  -999.2500   171.7229    10.1019     0.1227     2.5328     0.0095
 1163.5000  -999.2500  -999.2500  -999.2500   174.9580    10.1072     0.1380     2.5341     0.0012
 1164.0000  -999.2500  -999.2500  -999.2500   175.8567    10.1125     0.1543     2.5568    -0.0080
 1164.5000  -999.2500  -999.2500  -999.2500   177.3922    10.1178     0.1646     2.5838    -0.0162
 1165.0000  -999.2500  -999.2500  -999.2500   180.7717    10.1231     0.1358     2.5774    -0.0055
 1165.5000  -999.2500  -999.2500  -999.2500   179.8122    10.1284     0.1102     2.5481     0.0041
 1166.0000  -999.2500  -999.2500  -999.2500   175.9664    10.1337     0.0815     2.5296     0.0105
 1166.5000  -999.2500  -999.2500  -999.2500   171.8510    10.1391     0.0673     2.5339     0.0076
 1167.0000  -999.2500  -999.2500  -999.2500   174.6642    10.1413     0.0657     2.5419     0.0044
 1167.5000  -999.2500  -999.2500  -999.2500   180.3074    10.1411     0.0579     2.5398     0.0056
 1168.0000  -999.2500  -999.2500  -999.2500   182.0557    10.1411     0.0485     2.5283     0.0105
 1168.5000  -999.2500  -999.2500  -999.2500   170.5386    10.1412     0.0494     2.5255     0.0127
 1169.0000  -999.2500  -999.2500  -999.2500   164.0155    10.1411     0.0588     2.5296     0.0099
 1169.5000  -999.2500  -999.2500  -999.2500   165.6220    10.1412     0.0675     2.5324     0.0079
 1170.0000  -999.2500  -999.2500  -999.2500   166.8652    10.1411     0.0705     2.5289     0.0094
 1170.5000  -999.2500  -999.2500  -999.2500   165.3989    10.1411     0.0714     2.5196     0.0137
 1171.0000  -999.2500  -999.2500  -999.2500   163.9359    10.1413     0.0727     2.5097     0.0180
 1171.5000  -999.2500  -999.2500  -999.2500   162.2465    10.1390     0.0738     2.5041     0.0216
 1172.0000  -999.2500  -999.2500  -999.2500   159.4666    10.1331     0.0930     2.5015     0.0216
 1172.5000  -999.2500  -999.2500  -999.2500   160.8707    10.1275     0.1187     2.5221     0.0128
 1173.0000  -999.2500  -999.2500  -999.2500   164.7120    10.1219     0.1442     2.5442    -0.0024
 1173.5000  -999.2500  -999.2500  -999.2500   166.2274    10.1161     0.1578     2.5684    -0.0148
 1174.0000  -999.2500  -999.2500  -999.2500   162.8420    10.1105     0.1458     2.5810    -0.0091
 1174.5000  -999.2500  -999.2500  -999.2500   165.8922    10.1048     0.1298     2.5613    -0.0019
 1175.0000  -999.2500  -999.2500  -999.2500   163.6624    10.0991     0.1160     2.5432     0.0053
 1175.5000  -999.2500  -999.2500  -999.2500   160.5524    10.0934     0.0984     2.5225     0.0125
 1176.0000  -999.2500  -999.2500  -999.2500   156.7936    10.0877     0.1071     2.5101     0.0172
 1176.5000  -999.2500  -999.2500  -999.2500   155.7020    10.0821     0.1341     2.5235    -0.0002
 1177.0000  -999.2500  -999.2500  -999.2500   157.7469    10.0764     0.1404     2.5478     0.0042
 1177.5000  -999.2500  -999.2500  -999.2500   155.6370    10.0707     0.1198     2.5201     0.0148
 1178.0000  -999.2500  -999.2500  -999.2500   158.5401    10.0650     0.1016     2.4925     0.0253
 1178.5000  -999.2500  -999.2500  -999.2500   161.2043    10.0594     0.1132     2.4616     0.0359
 1179.0000  -999.2500  -999.2500  -999.2500   161.8755    10.0537     0.1627     2.4340     0.0465
 1179.5000  -999.2500  -999.2500  -999.2500   162.8505    10.0480     0.2082     2.4124     0.0596
 1180.0000  -999.2500  -999.2500  -999.2500   165.5544    10.0423     0.2492     2.4606     0.0429
 1180.5000  -999.2500  -999.2500  -999.2500   168.4530    10.0366     0.1779     2.5247    -0.0010
 1181.0000  -999.2500  -999.2500  -999.2500   169.5740    10.0309     0.1111     2.5461     0.0160
 1181.5000  -999.2500  -999.2500  -999.2500   168.3058    10.0253     0.0530     2.5237     0.0123
 1182.0000  -999.2500  -999.2500  -999.2500   167.3638    10.0196     0.0443     2.5333     0.0071
 1182.5000  -999.2500  -999.2500  -999.2500   166.3293    10.0139     0.0358     2.5217     0.0131
 1183.0000  -999.2500  -999.2500  -999.2500   165.3261    10.0082     0.0370     2.5110     0.0184
 1183.5000  -999.2500  -999.2500  -999.2500   164.3538    10.0025     0.0463     2.5194     0.0108
 1184.0000  -999.2500  -999.2500  -999.2500   163.7824     9.9969     0.0551     2.5355     0.0014
 1184.5000  -999.2500  -999.2500  -999.2500   163.3702     9.9911     0.0622     2.5463     0.0041
 1185.0000  -999.2500  -999.2500  -999.2500   162.2620     9.9856     0.0647     2.5415     0.0079
 1185.5000  -999.2500  -999.2500  -999.2500   160.1232     9.9802     0.0674     2.5371     0.0057
 1186.0000  -999.2500  -999.2500  -999.2500   161.1884     9.9819     0.0700     2.5377     0.0065
 1186.5000  -999.2500  -999.2500  -999.2500   163.9316     9.9837     0.0720     2.5306     0.0102
 1187.0000  -999.2500  -999.2500  -999.2500   166.2875     9.9858     0.0801     2.5252     0.0135
 1187.5000  -999.2500  -999.2500  -999.2500   165.4313     9.9877     0.0944     2.5338     0.0095
 1188.0000  -999.2500  -999.2500  -999.2500   163.1859     9.9897     0.1081     2.5415     0.0059
 1188.5000  -999.2500  -999.2500  -999.2500   164.2074     9.9917     0.1219     2.5463     0.0022
 1189.0000  -999.2500  -999.2500  -999.2500   167.1125     9.9937     0.1354     2.5490    -0.0014
 1189.5000  -999.2500  -999.2500  -999.2500   169.8215     9.9957     0.1504     2.5631    -0.0051
 1190.0000  -999.2500  -999.2500  -999.2500   170.9426     9.9976     0.1547     2.5711    -0.0087
 1190.5000  -999.2500  -999.2500  -999.2500   170.6740     9.9996     0.1577     2.5735    -0.0124
 1191.0000  -999.2500  -999.2500  -999.2500   169.1358    10.0016     0.1685     2.5809    -0.0156
 1191.5000  -999.2500  -999.2500  -999.2500   167.7019    10.0036     0.1763     2.5899    -0.0156
 1192.0000  -999.2500  -999.2500  -999.2500   167.2352    10.0055     0.1649     2.5844    -0.0122
 1192.5000  -999.2500  -999.2500  -999.2500   169.7954    10.0075     0.1430     2.5769    -0.0108
 1193.0000  -999.2500  -999.2500  -999.2500   168.9553    10.0095     0.1313     2.5764    -0.0133
 1193.5000  -999.2500  -999.2500  -999.2500   167.0124    10.0114     0.1268     2.5805    -0.0128
 1194.0000  -999.2500  -999.2500  -999.2500   164.8257    10.0135     0.1258     2.5750    -0.0115
 1194.5000  -999.2500  -999.2500  -999.2500   165.5227    10.0154     0.1274     2.5737    -0.0134
 1195.0000  -999.2500  -999.2500  -999.2500   163.2989    10.0173     0.1364     2.5832    -0.0148
 1195.5000  -999.2500  -999.2500  -999.2500   159.0273    10.0201     0.1223     2.5778    -0.0090
 1196.0000  -999.2500  -999.2500  -999.2500   155.9640    10.0134     0.1005     2.5634    -0.0014
 1196.5000  -999.2500  -999.2500  -999.2500   159.6940     9.9998     0.0788     2.5498     0.0063
 1197.0000  -999.2500  -999.2500  -999.2500   161.2555     9.9872     0.0638     2.5357     0.0095
