~VERSION INFORMATION
 VERS.                2.0:   CWLS LOG ASCII STANDARD - VERSION 2.0
 WRAP.                 NO:   ONE LINE PER DEPTH STEP
~WELL INFORMATION
#MNEM.UNIT      DATA TYPE    INFORMATION
#----------   ------------   ------------------------------
 STRT.F           20.0000:   START DEPTH
 STOP.F          698.0000:   STOP DEPTH
 STEP.F            0.5000:   STEP LENGTH
 NULL.          -999.2500:   NO VALUE
 COMP. FENIX & SCISSON INC:   COMPANY
 WELL.    52 SX 34 #52-34:   WELL
 FLD .             TEAPOT:   FIELD
 LOC .      S34 T39N R78W:   LOCATION
 CNTY.            NATRONA:   COUNTY
 STAT.            WYOMING:   STATE
 CTRY. UNITED STATES OF AMERICA:   COUNTRY
 SRVC.            Unknown:   SERVICE COMPANY
 DATE.        26-JAN-1979:   LOGDATE
 API .       490251077100:   API NUMBER
~CURVE INFORMATION
#MNEM.UNIT       API CODE    CURVE DESCRIPTION
#----------   ------------   ------------------------------
 DEPT.F                  :   
 SPR .MV     05 010 01 00:   SPONTANEOUS POTENTIAL FROM RES.
 CALD.IN     45 280 60 00:   CALIPER
 GRD .GAPI   45 310 01 00:   GAMMA RAY FROM DENSITY LOG
 CORR.G/C3   45 356 01 00:   DENSITY CORRECTION
 RHOB.G/C3   45 350 01 00:   BULK DENSITY
 ILD .OHMM   05 120 46 00:   INDUCTION LOG DEEP
 SN  .OHMM   05 040 16 00:   SHORT NORMAL 16"
 DPHI.DEC    45 890 12 00:   DENSITY POROSITY SANDSTONE
~PARAMETER INFORMATION
#MNEM.UNIT          VALUE    DESCRIPTION
#----------   ------------   ------------------------------
 PD  .                 GL:   PERMANENT DATUM
 EPD .F              5072:   ELEVATION PERMANENT DATUM
 LMF .                 KB:   LOG MEASURED FROM
 DAPD.F                 4:   FEET ABOVE PERMANENT DATUM
 DMF .                 KB:   DRILLING MEASURED FROM
 EKB .F              5076:   KELLING BUSHING
 EGL .F              5072:   GROUND LEVEL
 DATE.            1-26-79:   RUN DATE
 RUN .                  1:   RUN NUMBER
 DD  .F               688:   DEPTH DRILLER
 DL  .F               698:   DEPTH LOGGER
 BLI .F               691:   BOTTOM LOG INTERVAL
 TLI .F                30:   TOP LOG INTERVAL
 CS  .IN            8.625:   CASING SIZE
 CBD .F                40:   CASING BOTTOM DRILLER
 CBL .F                20:   CASING BOTTOM LOGGER
 BS  .IN            7.875:   BIT SIZE
 BSD .F               688:   BIT SIZE AT DEPTH
 DFT .                KCL:   DRILLING FLUID TYPE
 DFD .                8.9:   DRILLING FLUID DENSITY
 DFV .                 39:   DRILLING FLUID VISCOSITY
 DFPH.                 10:   DRILLING FLUID PH
 DFL .                 10:   DRILLING FLUID LOSS
 MSS .           FLOWLINE:   MUD SAMPLE SOURCE
 RMS .OHMM             .3:   RESISTIVITY MUD SAMPLE
 MST .F                60:   MUD SAMPLE TEMPERATURE
 RMF .OHMM            .22:   RESISTIVITY MUD FILTRATE SAMPLE
 MFST.F                66:   MUD FILTRATE SAMPLE TEMPERATURE
 MFSS.           MEASURED:   MUD FILTRATE SAMPLE SOURCE
 MCSS.           MEASURED:   MUD CAKE SAMPLE SOURCE
 RMB .OHMM            .25:   RESISTIVITY MUD AT BHT
 BHT .F                70:   BOTTOM HOLE TEMPERATURE
 TCS .HRS               7:   TIME CURCULATED STOPPED
 MRT .F                70:   MAXIMUM RECORDED TEMPERATURE
 LUN .               3006:   LOGGING UNIT NUMBER
 LUL .             CASPER:   LOGGING UNIT LOCATION
 ENGI.            ROLLINS:   RECORDING ENGINEER
 WITN.              AMEND:   WITNESSED BY
 CLNT.            A2DTECH:   CLIENT CODE
 ORIG.       2", 5" PRINT:   ORIGIN OF DATA
 UWI .       490251077100:   UNIQUE WELL ID
 DICO. A2D Technologies, Inc.:   DIGITIZING COMPANY
~OTHER INFORMATION
~A   DEPT      SPR         CALD       GRD      CORR       RHOB        ILD         SN       DPHI   
# ...
  303.5000   -46.7881     8.0977   100.9292     0.0211     2.4976     7.3597     7.8092     0.1062
  304.0000   -46.7881     8.0943    98.4313     0.0207     2.5025     7.3597     7.8301     0.1022
  304.5000   -46.7881     8.0997    98.2749     0.0203     2.5073     7.3597     7.8524     0.1030
  305.0000   -46.7881     8.1325   103.7485     0.0199     2.5041     7.3597     7.8904     0.1103
  305.5000   -46.7881     7.9944   108.2247     0.0197     2.4955     7.3591     7.9313     0.1143
  306.0000   -46.7881     8.0853   108.1496     0.0158     2.4873     7.3969     7.9724     0.1139
  306.5000   -46.7881     8.0922   106.5533     0.0114     2.4893     7.4720     8.0136     0.1123
  307.0000   -46.7881     7.9808   108.3809     0.0075     2.4918     7.5561     8.0552     0.1115
  307.5000   -46.7881     7.9548   110.6079     0.0078     2.4940     7.6462     8.0969     0.1123
  308.0000   -46.7881     7.9566   110.3978     0.0081     2.4936     7.7374     8.1388     0.1151
  308.5000   -46.7881     8.0111   105.3243     0.0084     2.4927     7.8297     8.1808     0.1179
  309.0000   -46.7881     8.0652   102.4023     0.0086     2.4851     7.9261     8.2243     0.1214
  309.5000   -46.7881     8.0490   102.1470     0.0089     2.4775     7.9219     8.2209     0.1251
  310.0000   -46.7881     8.0195   102.9536     0.0092     2.4701     7.9179     8.2165     0.1251
  310.5000   -46.7881     8.0344   103.8542     0.0095     2.4699     7.9137     8.2121     0.1250
  311.0000   -46.7881     8.0603   103.7663     0.0132     2.4699     7.9094     8.2078     0.1249
  311.5000   -46.7881     8.0734   103.7187     0.0171     2.4699     7.9052     8.2034     0.1249
  312.0000   -46.7881     8.0702   104.4377     0.0210     2.4699     7.9010     8.1990     0.1248
  312.5000   -46.7881     8.0022   106.0152     0.0200     2.4699     7.8967     8.1946     0.1247
  313.0000   -46.7882     7.9357   105.5196     0.0183     2.4699     7.8925     8.1902     0.1243
  313.5000   -46.7878     7.8955   105.4649     0.0166     2.4722     7.8883     8.1858     0.1223
  314.0000   -46.7728     7.8956   106.2964     0.0149     2.4759     7.8841     8.1815     0.1216
  314.5000   -46.6906     7.8952   106.7898     0.0134     2.4742     7.8799     8.1771     0.1224
  315.0000   -46.6076     7.8952   106.7216     0.0138     2.4720     7.8756     8.1727     0.1233
  315.5000   -46.5898     7.8953   106.6508     0.0142     2.4709     7.8714     8.1684     0.1235
  316.0000   -46.5893     7.8952   105.4052     0.0146     2.4713     7.8672     8.1640     0.1231
  316.5000   -46.5894     7.8952   103.4066     0.0149     2.4716     7.8630     8.1596     0.1227
  317.0000   -46.5894     7.8956   103.4532     0.0153     2.4719     7.8588     8.1553     0.1232
  317.5000   -46.5894     7.8957   103.0798     0.0155     2.4722     7.8531     8.1494     0.1237
  318.0000   -46.5894     7.9542   103.1784     0.0151     2.4726     7.8700     8.1669     0.1243
  318.5000   -46.5894     7.9699   103.2525     0.0147     2.4729     7.9075     8.2057     0.1235
  319.0000   -46.5894     7.9645   102.4645     0.0142     2.4730     7.9453     8.2450     0.1214
  319.5000   -46.5894     7.9587   101.5669     0.0137     2.4799     7.9834     8.2846     0.1188
  320.0000   -46.5894     7.9536    99.1782     0.0118     2.4819     8.0916     8.3969     0.1193
  320.5000   -46.5896     7.9503    95.5460     0.0083     2.4811     8.2477     8.5588     0.1198
  321.0000   -46.5895     7.9470    93.5224     0.0054     2.4812     8.3908     8.7073     0.1150
  321.5000   -46.5852     7.9437    98.3793     0.0055     2.4908     8.5363     8.8583     0.1120
  322.0000   -46.7668     7.9404    97.9355     0.0055     2.4931     8.6844     9.0119     0.1104
  322.5000   -47.0075     7.9372    95.9456     0.0055     2.4985     8.8350     9.1683     0.1098
  323.0000   -47.1896     7.9389    92.4971     0.0055     2.4961     8.9883     9.3273     0.1115
  323.5000   -47.1854     7.9542    90.6802     0.0055     2.4920     9.1442     9.4891     0.1130
  324.0000   -47.1852     7.9690    92.0400     0.0055     2.4889     9.3028     9.6537     0.1129
  324.5000   -47.1854     7.9838    93.8968     0.0060     2.4898     9.4161     9.7854     0.1127
  325.0000   -47.1854     7.9986    95.2821     0.0071     2.4860     9.5020     9.8974     0.1205
  325.5000   -47.1854     8.0135    97.3512     0.0081     2.4762     9.5888    10.0145     0.1262
  326.0000   -47.1854     8.0342   100.0186     0.0092     2.4664     9.6763    10.1500     0.1308
  326.5000   -47.1854     8.1242    99.0724     0.0127     2.4563     9.7647    10.2874     0.1319
  327.0000   -47.1854     8.1671    97.1615     0.0171     2.4557     9.8537    10.4271     0.1319
  327.5000   -47.1854     8.1579    95.1323     0.0215     2.4578     9.9887    10.5691     0.1319
  328.0000   -47.1854     8.1295    89.9594     0.0259     2.4561     9.9779    10.7568     0.1312
  328.5000   -47.1854     8.0355    89.9601     0.0285     2.4572     9.9566    10.7400     0.1295
  329.0000   -47.1854     8.0184    90.5686     0.0301     2.4628     9.9351    10.7157     0.1279
  329.5000   -47.1854     8.0044    91.2040     0.0314     2.4639     9.9136    10.6913     0.1288
  330.0000   -47.1854     7.9899    92.8080     0.0309     2.4609     9.8707    10.6671     0.1322
  330.5000   -47.1855     7.9750    94.5001     0.0305     2.4554     9.7547    10.5942     0.1355
  331.0000   -47.1924     7.9786    95.3563     0.0300     2.4528     9.6395    10.4916     0.1333
  331.5000   -47.2317     7.9835    95.2202     0.0296     2.4533     9.5258    10.3899     0.1282
  332.0000   -47.2708     7.9883    92.3239     0.0291     2.4649     9.4136    10.2892     0.1247
  332.5000   -47.3099     7.9921    89.9452     0.0287     2.4713     9.3589    10.1895     0.1266
  333.0000   -47.3489     8.0275    92.3052     0.0282     2.4685     9.3524    10.0819     0.1279
  333.5000   -47.3834     8.0688    95.7684     0.0277     2.4658     9.3459    10.0819     0.1278
  334.0000   -47.3766     8.1108    96.3576     0.0260     2.4631     9.3395    10.0819     0.1276
  334.5000   -47.3693     8.1008    95.1870     0.0188     2.4698     9.3331    10.0819     0.1263
  335.0000   -47.3622     8.0874    93.4443     0.0100     2.4773     9.3266    10.0819     0.1191
  335.5000   -47.3551     8.0742    89.8991     0.0035     2.4845     9.3202    10.0819     0.1141
  336.0000   -47.3481     8.0613    86.4106     0.0091     2.4948     9.3138    10.0819     0.1090
  336.5000   -47.3410     8.0551    86.2760     0.0127     2.5048     9.3074    10.0819     0.1050
  337.0000   -47.3340     8.0593    86.7891     0.0088     2.5046     9.3010    10.0819     0.1163
  337.5000   -47.3269     8.0635    86.0092     0.0054     2.4874     9.2946    10.0819     0.1275
  338.0000   -47.3198     8.0677    84.6162     0.0060     2.4681     9.2882    10.0819     0.1396
  338.5000   -47.3127     8.0711    86.7242     0.0099     2.4474     9.2818    10.0818     0.1432
  339.0000   -47.3057     8.1151    88.9242     0.0134     2.4379     9.2760    10.0818     0.1455
  339.5000   -47.2986     8.1709    89.2956     0.0136     2.4320     9.2754    10.0838     0.1461
  340.0000   -47.2915     8.1743    92.2968     0.0140     2.4292     9.2760     9.9843     0.1468
  340.5000   -47.2845     8.1761    94.0645     0.0145     2.4288     9.2760     9.8399     0.1476
  341.0000   -47.2774     8.1780    92.4486     0.0149     2.4300     9.1085     9.6977     0.1428
  341.5000   -47.2703     8.1800    89.3056     0.0153     2.4366     8.9506     9.5576     0.1380
  342.0000   -47.2633     8.1821    94.5648     0.0158     2.4471     8.7955     9.4196     0.1374
  342.5000   -47.2562     8.1841    94.1076     0.0162     2.4479     8.6431     9.2836     0.1387
  343.0000   -47.2491     8.1861    93.5805     0.0167     2.4444     8.4933     9.1495     0.1391
  343.5000   -47.2421     8.1881    92.9762     0.0171     2.4444     8.3462     9.0174     0.1374
