~VERSION INFORMATION
 VERS.                2.0:   CWLS LOG ASCII STANDARD - VERSION 2.0
 WRAP.                 NO:   ONE LINE PER DEPTH STEP
~WELL INFORMATION
#MNEM.UNIT      DATA TYPE    INFORMATION
#----------   ------------   ------------------------------
 STRT.F           34.0000:   START DEPTH
 STOP.F          555.0000:   STOP DEPTH
 STEP.F            0.5000:   STEP LENGTH
 NULL.          -999.2500:   NO VALUE
 COMP. FENIX & SCISSON-U.S. NAVY:   COMPANY
 WELL.    NPR #3 #17-S-11:   WELL
 FLD .             TEAPOT:   FIELD
 LOC .      S11 T38N R78W:   LOCATION
 CNTY.            NATRONA:   COUNTY
 STAT.            WYOMING:   STATE
 CTRY. UNITED STATES OF AMERICA:   COUNTRY
 SRVC.       Schlumberger:   SERVICE COMPANY
 DATE.        20-FEB-1977:   LOGDATE
 API .       490251028100:   API NUMBER
~CURVE INFORMATION
#MNEM.UNIT       API CODE    CURVE DESCRIPTION
#----------   ------------   ------------------------------
 DEPT.F                  :   
 SPR .MV     07 010 01 00:   SPONTANEOUS POTENTIAL
 ILD .OHMM   07 120 46 00:   INDUCTION LOG DEEP
 ILM .OHMM   07 120 44 00:   INDUCTION LOG MEDIUM
 LL8 .OHMM   07 220 08 00:   LATEROLOG-8 RES.
 CALD.IN     45 280 60 00:   CALIPER FROM DENSITY LOG
 GRD .GAPI   45 310 01 00:   GAMMA RAY FROM DENSITY LOG
 CORR.G/C3   45 356 01 00:   DENSITY CORRECTION
 RHOB.G/C3   45 350 01 00:   BULK DENSITY
 DPHI.DEC    45 890 12 00:   DENSITY POROSITY SANDSTONE
~PARAMETER INFORMATION
#MNEM.UNIT          VALUE    DESCRIPTION
#----------   ------------   ------------------------------
 PD  .                 GL:   PERMANENT DATUM
 EPD .F              5204:   ELEVATION PERMANENT DATUM
 LMF .                 GL:   LOG MEASURED FROM
 DMF .                 GL:   DRILLING MEASURED FROM
 EKB .F              5209:   KELLING BUSHING
 EGL .F              5204:   GROUND LEVEL
 DATE.        20-FEB-1977:   RUN DATE
 RUN .                  1:   RUN NUMBER
 DD  .F               556:   DEPTH DRILLER
 DL  .F               556:   DEPTH LOGGER
 BLI .F               555:   BOTTOM LOG INTERVAL
 TLI .F                42:   TOP LOG INTERVAL
 CS  .IN            8.625:   CASING SIZE
 CBD .F                42:   CASING BOTTOM DRILLER
 CBL .F                42:   CASING BOTTOM LOGGER
 BS  .IN            7.875:   BIT SIZE
 BSD .F               556:   BIT SIZE AT DEPTH
 DFT .            KCL MUD:   DRILLING FLUID TYPE
 DFD .                8.8:   DRILLING FLUID DENSITY
 DFV .                 33:   DRILLING FLUID VISCOSITY
 DFPH.                8.0:   DRILLING FLUID PH
 DFL .                7.6:   DRILLING FLUID LOSS
 MSS .           FLOWLINE:   MUD SAMPLE SOURCE
 RMS .OHMM            .44:   RESISTIVITY MUD SAMPLE
 MST .F                66:   MUD SAMPLE TEMPERATURE
 RMF .OHMM            .41:   RESISTIVITY MUD FILTRATE SAMPLE
 MFST.F                66:   MUD FILTRATE SAMPLE TEMPERATURE
 MFSS.               MEAS:   MUD FILTRATE SAMPLE SOURCE
 TCS .HRS               3:   TIME CURCULATED STOPPED
 LUN .               7680:   LOGGING UNIT NUMBER
 LUL .               CSPR:   LOGGING UNIT LOCATION
 ENGI.             TAYLOR:   RECORDING ENGINEER
 WITN.               JAPP:   WITNESSED BY
 CLNT.            A2DTECH:   CLIENT CODE
 ORIG.           5" PRINT:   ORIGIN OF DATA
 UWI .       490251028100:   UNIQUE WELL ID
 DICO. A2D Technologies, Inc.:   DIGITIZING COMPANY
~OTHER INFORMATION
~A   DEPT      SPR        ILD        ILM        LL8       CALD        GRD       CORR       RHOB       DPHI   
# ...
  399.0000   -44.6638    18.9146    17.7079    22.8198     8.1729    79.6465     0.0305     2.4963     0.0903
  399.5000   -44.5207    20.8498    19.4558    23.4535     8.1729    69.0086     0.0379     2.5000     0.0916
  400.0000   -44.3754    21.6778    20.5845    24.5048     8.1730    61.5570     0.0469     2.4787     0.1117
  400.5000   -44.8404    22.2586    20.8618    25.9988     8.1730    57.9082     0.0431     2.4383     0.1244
  401.0000   -44.5455    22.8394    21.1390    30.8926     8.1730    59.2569     0.0370     2.4051     0.1415
  401.5000   -44.2470    23.2769    21.4252    33.5517     8.1731    61.0580     0.0709     2.3991     0.1530
  402.0000   -43.7985    23.2720    21.7211    29.7316     8.1731    64.2166     0.0834     2.4354     0.1367
  402.5000   -43.5019    23.2663    21.7175    27.8124     8.1731    65.1149     0.0721     2.4488     0.1262
  403.0000   -43.0552    23.2616    21.7146    27.4194     8.1731    58.9953     0.0481     2.4202     0.1304
  403.5000   -42.9103    23.0964    21.7116    27.0319     8.1732    56.7172     0.0263     2.3908     0.1616
  404.0000   -42.6140    22.9324    21.7087    27.0210     8.1732    56.2627     0.0203     2.4096     0.1677
  404.5000   -42.6216    22.7695    21.7058    27.0101     8.1732    59.4191     0.0427     2.3765     0.1728
  405.0000   -42.7826    22.6078    21.7029    26.9991     8.1732    60.5436     0.0299     2.3622     0.1764
  405.5000   -42.9419    22.6033    21.6999    26.9883     8.1733    61.2135     0.0434     2.3592     0.1728
  406.0000   -43.1013    22.5987    21.6963    27.5428     8.1731    61.2025     0.0523     2.3705     0.1821
  406.5000   -43.1086    22.5940    21.6934    28.3608     8.1726    60.9674     0.0253     2.3539     0.1800
  407.0000   -43.1160    22.5884    21.6905    30.7370     8.1722    59.6011     0.0125     2.3592     0.1752
  407.5000   -43.2754    22.5839    21.6876    28.0833     8.1717    58.2348     0.0342     2.3759     0.1689
  408.0000   -43.5867    22.2687    21.2388    26.7455     8.1713    58.6785     0.0619     2.3848     0.1701
  408.5000   -43.7462    21.8065    20.6558    25.6483     8.1708    60.7058     0.0423     2.3170     0.2111
  409.0000   -43.9072    21.2064    20.2284    25.4612     8.1703    60.6803     0.0258     2.2782     0.2165
  409.5000   -43.9146    20.7662    19.8098    25.4510     8.1699    59.5181     0.0363     2.2911     0.2075
  410.0000   -43.7700    20.4764    19.5341    25.6175     8.1694    60.9034     0.0400     2.3198     0.1901
  410.5000   -43.4734    20.3310    19.5314    26.1437     8.1690    64.2882     0.0392     2.3485     0.1813
  411.0000   -43.1750    20.4682    19.5288    27.0684     8.1685    68.1255     0.0391     2.3621     0.1708
  411.5000   -42.5763    20.7494    19.7992    27.4180     8.1681    71.0578     0.0391     2.3708     0.1630
  412.0000   -42.4316    21.3268    20.4933    25.9294     8.1676    73.5377     0.0413     2.3893     0.1546
  412.5000   -41.9831    21.9214    21.0661    26.4622     8.1672    72.8501     0.0450     2.3999     0.1501
  413.0000   -41.8385    23.3264    22.4178    27.3820     8.1667    68.7689     0.0479     2.4029     0.1498
  413.5000   -41.5419    24.1434    23.2185    29.1285     8.1663    64.0089     0.0381     2.4015     0.1535
  414.0000   -41.5512    24.8165    23.5250    30.3532     8.1658    60.5973     0.0109     2.3962     0.1700
  414.5000   -41.4047    25.1575    23.5210    29.7150     7.9233    60.1448     0.0260     2.3691     0.1827
  415.0000   -41.4139    25.1524    23.5179    28.2995     7.6960    60.3625     0.0328     2.3375     0.1989
  415.5000   -41.4213    24.9726    23.3524    26.9230     7.8921    61.7089     0.0297     2.3074     0.2185
  416.0000   -41.4287    24.2854    23.1882    25.8432     8.1035    63.9625     0.0102     2.2916     0.2011
  416.5000   -41.4362    23.2923    22.8662    27.1139     8.1635    66.4424     0.0319     2.3059     0.2020
  417.0000   -41.4453    22.9673    22.3930    30.6952     8.1631    65.0761     0.0266     2.3128     0.2053
  417.5000   -41.4526    22.8042    21.9296    33.1076     8.1626    63.0310     0.0445     2.3241     0.1945
  418.0000   -41.4600    22.6422    21.6244    29.2212     8.1622    61.2123     0.0370     2.3294     0.1770
  418.5000   -41.6193    22.1722    21.0308    26.6983     8.1617    64.8233     0.0234     2.3581     0.1622
  419.0000   -41.6267    21.7119    20.4535    25.0773     8.1613    67.9834     0.0174     2.3800     0.1569
  419.5000   -41.6341    21.4089    19.8920    24.8945     8.1608    67.0211     0.0174     2.3966     0.1611
  420.0000   -41.6415    20.9635    19.3459    24.8844     8.1604    63.6634     0.0241     2.3989     0.1524
  420.5000   -41.6489    20.5283    18.9456    24.6725     8.1599    64.1070     0.0450     2.4051     0.1452
  421.0000   -41.6580    19.9634    18.8124    22.8822     8.1595    65.6819     0.0322     2.4103     0.1558
  421.5000   -41.6654    19.4141    18.5510    21.3448     8.1590    66.5781     0.0367     2.3908     0.1488
  422.0000   -41.5208    19.0111    18.4200    21.0431     8.1585    66.7977     0.0411     2.4021     0.1615
  422.5000   -41.5282    18.7458    18.1642    20.7457     8.1580    67.6916     0.0336     2.3795     0.1594
  423.0000   -41.5356    18.6127    18.0364    20.5945     8.1728    68.3637     0.0471     2.3931     0.1519
  423.5000   -41.5429    18.3530    17.7860    20.3034     8.1723    69.0314     0.0438     2.4037     0.1546
  424.0000   -41.5509    18.2225    17.4179    20.0165     8.1718    69.7013     0.0327     2.4053     0.1471
  424.5000   -41.5578    18.2180    17.1760    19.5899     8.1866    69.9187     0.0387     2.3993     0.1547
  425.0000   -41.4131    18.2144    17.0552    19.2981     8.2012    69.1931     0.0236     2.3925     0.1589
  425.5000   -41.4223    18.2107    16.9352    19.0457     8.2159    68.3151     0.0408     2.3896     0.1456
  426.0000   -41.4297    18.2070    16.9324    19.0380     8.2154    68.3063     0.0498     2.3941     0.1396
  426.5000   -41.2850    18.2033    16.9301    19.2953     8.2453    68.5259     0.0655     2.4160     0.1348
  427.0000   -41.2924    18.3261    17.0461    19.4233     8.2751    68.7433     0.0797     2.4402     0.1312
  427.5000   -41.1478    18.3224    17.0432    19.8205     8.2745    68.9607     0.0469     2.4493     0.1430
  428.0000   -41.3072    18.4460    17.0409    20.0884     8.2741    68.2709     0.0256     2.4275     0.1403
  428.5000   -41.1626    18.4422    17.0386    20.2197     8.2736    68.2270     0.0345     2.4215     0.1440
  429.0000   -41.1702    18.1840    17.0363    20.2048     8.2732    68.7057     0.0315     2.4147     0.1531
  429.5000   -41.1791    18.0549    17.0340    19.9255     8.2576    68.9232     0.0539     2.4027     0.1551
  430.0000   -41.0345    18.0512    17.0312    19.7785     8.2572    67.1795     0.0479     2.3981     0.1566
  430.5000   -41.0419    17.9230    17.0289    19.7705     8.2567    65.9643     0.0359     2.3985     0.1554
  431.0000   -41.0493    17.7958    17.0266    19.7625     8.2411    68.4419     0.0358     2.4081     0.1503
  431.5000   -41.0567    17.7922    17.0243    19.6184     8.2256    71.1480     0.0335     2.3998     0.1470
  432.0000   -41.2160    17.6658    17.0220    19.4754     8.2250    73.1754     0.0155     2.3802     0.1636
  432.5000   -41.2234    17.6622    17.1380    19.4675     8.2246    73.6213     0.0184     2.3757     0.1582
  433.0000   -41.0788    17.5367    17.0175    19.1924     8.2241    73.3840     0.0214     2.3909     0.1528
  433.5000   -41.2400    17.5324    17.0151    18.9211     8.2086    73.3751     0.0326     2.4120     0.1468
  434.0000   -41.0935    17.4079    16.7783    18.7639     8.2081    73.5928     0.0288     2.4098     0.1546
  434.5000   -41.1027    17.2842    16.6603    18.6443     8.2077    73.8107     0.0183     2.3743     0.1628
  435.0000   -41.2602    17.1615    16.3156    18.6368     8.1921    74.2536     0.0130     2.3692     0.1709
