~VERSION INFORMATION
 VERS.                2.0:   CWLS LOG ASCII STANDARD - VERSION 2.0
 WRAP.                 NO:   ONE LINE PER DEPTH STEP
~WELL INFORMATION
#MNEM.UNIT      DATA TYPE    INFORMATION
#----------   ------------   ------------------------------
 STRT.M            0.0000:   START DEPTH
 STOP.M          642.0000:   STOP DEPTH
 STEP.M            0.1000:   STEP LENGTH
 NULL.          -999.2500:   NO VALUE
 COMP.   FLUOR DANIEL INC:   COMPANY
 WELL.     71-1 X 3 #71-3:   WELL
 FLD .             TEAPOT:   FIELD
 LOC .       S3 T38N R78W:   LOCATION
 CNTY.            NATRONA:   COUNTY
 STAT.            WYOMING:   STATE
 CTRY. UNITED STATES OF AMERICA:   COUNTRY
 SRVC.      Western Atlas:   SERVICE COMPANY
 DATE.        04-JAN-1995:   LOGDATE
 API .       490252267900:   API NUMBER
~CURVE INFORMATION
#MNEM.UNIT       API CODE    CURVE DESCRIPTION
#----------   ------------   ------------------------------
 DEPT.M                  :   
 RILD.OHMM   07 120 46 00:   INDUCTION LOG DEEP RESISTIVITY
 RILM.OHMM   07 120 44 00:   INDUCTION LOG MEDIUM RESISTIVITY
 GRR .GAPI   07 310 01 00:   GAMMA RAY
~PARAMETER INFORMATION
#MNEM.UNIT          VALUE    DESCRIPTION
#----------   ------------   ------------------------------
 PD  .                 GL:   PERMANENT DATUM
 EPD .F              5123:   ELEVATION PERMANENT DATUM
 LMF .                 KB:   LOG MEASURED FROM
 DAPD.F                10:   FEET ABOVE PERMANENT DATUM
 DMF .                 KB:   DRILLING MEASURED FROM
 EKB .F              5133:   KELLING BUSHING
 EDF .F              5132:   DRILLING FLOOR
 EGL .F              5123:   GROUND LEVEL
 DATE.        04-JAN-1995:   RUN DATE
 RUN .                  1:   RUN NUMBER
 DD  .F               647:   DEPTH DRILLER
 DL  .F               650:   DEPTH LOGGER
 BLI .F               642:   BOTTOM LOG INTERVAL
 TLI .F                96:   TOP LOG INTERVAL
 CS  .IN            9.625:   CASING SIZE
 CBD .F                96:   CASING BOTTOM DRILLER
 CBL .F                96:   CASING BOTTOM LOGGER
 BS  .IN             8.75:   BIT SIZE
 BSD .F               647:   BIT SIZE AT DEPTH
 DFT .                AIR:   DRILLING FLUID TYPE
 MRT .F                91:   MAXIMUM RECORDED TEMPERATURE
 LUN .            HL 6530:   LOGGING UNIT NUMBER
 LUL .             CASPER:   LOGGING UNIT LOCATION
 ENGI.        VERN RAUTIO:   RECORDING ENGINEER
 WITN.        GARY STRONG:   WITNESSED BY
 CLNT.            A2DTECH:   CLIENT CODE
 ORIG.           5" PRINT:   ORIGIN OF DATA
 UWI .       490252267900:   UNIQUE WELL ID
 DICO. A2D Technologies, Inc.:   DIGITIZING COMPANY
~OTHER INFORMATION
~A    DEPT    RILD       RILM        GRR   
# ...
  127.4000     7.1576     7.4305   127.1819
  127.5000     7.1575     7.4304   127.6284
  127.6000     7.1574     7.4303   128.3206
  127.7000     7.1410     7.3962   128.8356
  127.8000     7.1077     7.3543   129.3023
  127.9000     7.1076     7.3275   129.7932
  128.0000     7.1075     7.3274   130.2840
  128.1000     7.0785     7.3273   130.6459
  128.2000     7.0581     7.3272   130.6533
  128.3000     7.0580     7.3271   130.9467
  128.4000     7.0579     7.3085   130.9462
  128.5000     7.0578     7.2762   130.8046
  128.6000     7.0577     7.2761   130.5583
  128.7000     7.0344     7.2760   130.3120
  128.8000     7.0087     7.2759   130.0374
  128.9000     7.0035     7.2537   129.8193
  129.0000     6.9600     7.2253   129.5730
  129.1000     6.9600     7.2252   129.2220
  129.2000     6.9599     7.2251   128.7299
  129.3000     6.9598     7.2250   128.2217
  129.4000     6.9597     7.2249   127.7458
  129.5000     6.9596     7.2248   127.4350
  129.6000     6.9595     7.2247   127.1887
  129.7000     6.9594     7.2246   126.8054
  129.8000     6.9593     7.1860   126.0918
  129.9000     6.9592     7.1744   125.8011
  130.0000     6.9591     7.1743   125.3978
  130.1000     6.9590     7.1742   125.0508
  130.2000     6.9589     7.1741   124.7158
  130.3000     6.9588     7.1740   124.2560
  130.4000     6.9587     7.1412   123.9854
  130.5000     6.9586     7.1242   123.7634
  130.6000     6.9585     7.1241   123.5170
  130.7000     6.9584     7.1240   123.3795
  130.8000     6.9583     7.1239   123.3789
  130.9000     6.9582     7.1238   123.3782
  131.0000     6.9581     7.1508   123.3776
  131.1000     6.9594     7.1732   123.7476
  131.2000     7.0064     7.1819   124.2385
  131.3000     7.0063     7.2230   124.6568
  131.4000     7.0062     7.2229   124.9341
  131.5000     7.0201     7.2228   125.7914
  131.6000     7.0548     7.2446   125.9964
  131.7000     7.0547     7.2730   126.5396
  131.8000     7.0546     7.2761   127.0908
  131.9000     7.0545     7.3234   127.3359
  132.0000     7.0721     7.3234   127.6012
  132.1000     7.1034     7.3492   128.0518
  132.2000     7.1033     7.3908   128.0350
  132.3000     7.1032     7.4255   127.7887
  132.4000     7.1337     7.4254   127.4860
  132.5000     7.1525     7.4650   126.9940
  132.6000     7.1524     7.5072   126.5019
  132.7000     7.1554     7.5289   126.0099
  132.8000     7.2020     7.5510   125.5178
  132.9000     7.2366     7.6341   125.0258
  133.0000     7.2520     7.6339   124.5337
  133.1000     7.2681     7.6687   123.9691
  133.2000     7.3092     7.7121   123.9686
  133.3000     7.3530     7.7712   124.1210
  133.4000     7.3530     7.8486   124.3662
  133.5000     7.3826     7.8485   124.6516
  133.6000     7.4243     7.8882   125.1746
  133.7000     7.4663     7.9329   125.6332
  133.8000     7.5085     7.9778   125.9509
  133.9000     7.5594     8.0229   126.1960
  134.0000     7.5593     8.0690   126.3807
  134.1000     7.6087     8.1140   126.3801
  134.2000     7.6648     8.1599   126.3795
  134.3000     7.6751     8.1816   126.3789
  134.4000     7.7717     8.2095   126.2413
  134.5000     7.7716     8.2958   125.9950
  134.6000     7.8303     8.2957   125.7003
  134.7000     7.8995     8.3354   124.8658
  134.8000     7.9442     8.3533   123.3708
  134.9000     7.9899     8.3717   121.8072
  135.0000     8.0792     8.4191   120.4330
  135.1000     8.1014     8.4698   119.2038
  135.2000     8.1499     8.5147   117.9142
  135.3000     8.2144     8.5286   116.5117
  135.4000     8.2210     8.5284   115.0368
  135.5000     8.3290     8.5283   113.9245
  135.6000     8.3289     8.5282   113.2512
  135.7000     8.3288     8.5281   112.7752
  135.8000     8.3471     8.5280   113.0766
  135.9000     8.3866     8.5279   113.4709
  136.0000     8.3864     8.5277   113.9617
  136.1000     8.3863     8.5220   114.4526
  136.2000     8.3862     8.4685   114.9998
  136.3000     8.3861     8.4684   116.0948
  136.4000     8.3741     8.4367   116.9643
  136.5000     8.3278     8.3889   118.4300
  136.6000     8.3277     8.3512   120.1495
  136.7000     8.3276     8.3511   121.8205
  136.8000     8.3008     8.3279   123.3426
  136.9000     8.2538     8.3042   124.5304
  137.0000     8.2072     8.2929   125.7583
  137.1000     8.1555     8.2789   126.8614
  137.2000     8.1147     8.2321   127.8437
  137.3000     8.0989     8.1781   128.7897
  137.4000     8.0595     8.1393   129.0790
  137.5000     7.9778     8.1213   129.2800
  137.6000     7.9317     8.1035   129.5251
  137.7000     7.8879     8.0505   129.7702
  137.8000     7.8766     7.9535   129.9832
  137.9000     7.8303     7.9534   129.9824
  138.0000     7.7549     7.8904   129.9819
  138.1000     7.7111     7.8435   129.8161
  138.2000     7.6605     7.8214   129.5698
  138.3000     7.6604     7.7350   129.2711
  138.4000     7.6077     7.7349   128.7710
  138.5000     7.5382     7.6658   128.2870
  138.6000     7.4956     7.6280   127.7950
  138.7000     7.4502     7.5989   127.4318
  138.8000     7.4111     7.5226   127.1855
  138.9000     7.3402     7.5225   126.9553
  139.0000     7.2769     7.4849   126.9546
  139.1000     7.2358     7.4425   126.9541
  139.2000     7.1948     7.4184   127.1025
  139.3000     7.1542     7.4099   127.2550
  139.4000     7.1138     7.3668   127.2906
  139.5000     7.0961     7.3263   127.5558
  139.6000     7.0826     7.2848   127.5553
  139.7000     7.0469     7.2649   127.5547
  139.8000     7.0468     7.2529   127.5541
  139.9000     7.0116     7.2144   127.4971
  140.0000     6.9720     7.2143   127.2508
  140.1000     6.9493     7.1802   126.7587
  140.2000     6.9492     7.1642   126.2667
  140.3000     6.9491     7.1487   125.6417
  140.4000     6.9490     7.1144   124.9805
  140.5000     6.9198     7.1143   124.4884
  140.6000     6.9008     7.1142   123.9238
  140.7000     6.9007     7.1141   123.5043
  140.8000     6.9006     7.1140   123.3184
  140.9000     6.9005     7.1139   123.3178
  141.0000     6.9004     7.1138   123.3172
  141.1000     6.9003     7.1137   123.3166
  141.2000     6.9151     7.1136   123.3160
  141.3000     6.9482     7.1362   123.4886
  141.4000     6.9481     7.1766   123.6169
  141.5000     6.9480     7.2128   123.6768
  141.6000     6.9479     7.2127   123.9178
  141.7000     6.9478     7.2126   123.9172
  141.8000     6.9477     7.2392   123.9166
  141.9000     6.9482     7.2627   123.9160
  142.0000     6.9875     7.2707   123.8348
  142.1000     7.0270     7.3131   123.5885
  142.2000     7.0444     7.3130   123.3099
  142.3000     7.0576     7.3747   123.3094
  142.4000     7.0933     7.4151   122.9945
  142.5000     7.0932     7.4150   122.5025
  142.6000     7.1284     7.4174   122.0104
  142.7000     7.1687     7.4664   121.4942
  142.8000     7.2093     7.4664   121.0264
  142.9000     7.2421     7.4918   120.5343
  143.0000     7.2419     7.5182   120.1632
  143.1000     7.2816     7.5244   119.9168
  143.2000     7.3228     7.5704   119.6705
  143.3000     7.3642     7.6099   119.3757
  143.4000     7.4058     7.6229   119.1778
  143.5000     7.4453     7.6228   118.7905
  143.6000     7.4452     7.6331   118.3831
  143.7000     7.4801     7.6762   118.1086
  143.8000     7.5225     7.7197   117.5601
  143.9000     7.5489     7.7290   116.6894
  144.0000     7.5615     7.7779   115.5448
  144.1000     7.6542     7.8369   114.4204
  144.2000     7.6541     7.8368   113.5335
  144.3000     7.6540     7.8367   113.0254
  144.4000     7.6741     7.8755   113.0248
  144.5000     7.7175     7.8911   113.2054
  144.6000     7.7607     7.9098   113.4506
  144.7000     7.7606     7.9459   113.6272
  144.8000     7.7605     7.9458   113.6508
  144.9000     7.7848     7.9457   114.2301
  145.0000     7.8143     7.9456   114.8338
  145.1000     7.8186     7.9455   115.8605
  145.2000     7.8685     7.9453   116.9999
  145.3000     7.8684     7.9452   118.0144
  145.4000     7.8683     7.9451   119.3631
  145.5000     7.8682     7.9450   120.4703
