~VERSION INFORMATION
 VERS.                2.0:   CWLS LOG ASCII STANDARD - VERSION 2.0
 WRAP.                 NO:   ONE LINE PER DEPTH STEP
~WELL INFORMATION
#MNEM.UNIT      DATA TYPE    INFORMATION
#----------   ------------   ------------------------------
 STRT.F          714.0000:   START DEPTH
 STOP.F         2268.0000:   STOP DEPTH
 STEP.F            0.5000:   STEP LENGTH
 NULL.          -999.2500:   NO VALUE
 COMP. LAWRENCE/ALLISON INC:   COMPANY
 WELL. 25-1-STX 10 #25-10:   WELL
 FLD .             TEAPOT:   FIELD
 LOC .      S10 T38N R78W:   LOCATION
 CNTY.            NATRONA:   COUNTY
 STAT.            WYOMING:   STATE
 CTRY. UNITED STATES OF AMERICA:   COUNTRY
 SRVC.            Unknown:   SERVICE COMPANY
 DATE.        07-JUN-1991:   LOGDATE
 API .       490251091300:   API NUMBER
~CURVE INFORMATION
#MNEM.UNIT       API CODE    CURVE DESCRIPTION
#----------   ------------   ------------------------------
 DEPT.F                  :   
 TGAS.UNITS  91 830 01 00:   TOTAL GAS FROM HOTWIRE
 ROP .MIN/FT 91 810 01 00:   RATE OF DRILLING PENETRATION
~PARAMETER INFORMATION
#MNEM.UNIT          VALUE    DESCRIPTION
#----------   ------------   ------------------------------
 EKB .F              5243:   KELLING BUSHING
 EGL .F              5233:   GROUND LEVEL
 DATE.             6-8-91:   RUN DATE
 BLI .F              2280:   BOTTOM LOG INTERVAL
 TLI .F              1680:   TOP LOG INTERVAL
 CS  .IN            9.625:   CASING SIZE
 CBD .F               740:   CASING BOTTOM DRILLER
 ENGI.              TOWER:   RECORDING ENGINEER
 WITN.               HUSK:   WITNESSED BY
 CLNT.            A2DTECH:   CLIENT CODE
 ORIG.           5" PRINT:   ORIGIN OF DATA
 UWI .       490251091300:   UNIQUE WELL ID
 DICO. A2D Technologies, Inc.:   DIGITIZING COMPANY
~OTHER INFORMATION
~A   DEPT     TGAS          ROP 
# ...
 2050.5000   447.0884     0.5657
 2051.0000   445.7596     0.5561
 2051.5000   443.9382     0.5646
 2052.0000   439.5150     0.5727
 2052.5000   437.2356     0.5725
 2053.0000   434.9933     0.5723
 2053.5000   430.5688     0.5721
 2054.0000   423.5751     0.5718
 2054.5000   414.6836     0.5716
 2055.0000   408.6421     0.5714
 2055.5000   402.7227     0.5712
 2056.0000   394.5004     0.5710
 2056.5000   387.2453     0.5708
 2057.0000   378.8775     0.5706
 2057.5000   364.1181     0.5703
 2058.0000   355.5061     0.5701
 2058.5000   346.8942     0.5699
 2059.0000   331.7919     0.5697
 2059.5000   316.6896     0.5695
 2060.0000   299.4238     0.5722
 2060.5000   281.9493     0.5766
 2061.0000   268.5930     0.5688
 2061.5000   255.2363     0.5727
 2062.0000   243.1008     0.5883
 2062.5000   241.2198     0.6155
 2063.0000   240.8830     0.6651
 2063.5000   239.1490     0.6976
 2064.0000   239.7190     0.6974
 2064.5000   242.5920     0.6972
 2065.0000   247.7690     0.6970
 2065.5000   255.2515     0.6968
 2066.0000   265.0367     0.6965
 2066.5000   275.3736     0.6963
 2067.0000   283.4038     0.6961
 2067.5000   291.1653     0.6850
 2068.0000   300.1438     0.6632
 2068.5000   309.1222     0.6305
 2069.0000   318.1010     0.6086
 2069.5000   327.0817     0.5868
 2070.0000   334.6890     0.5642
 2070.5000   341.4321     0.5423
 2071.0000   349.6854     0.5297
 2071.5000   360.2457     0.5102
 2072.0000   374.7586     0.5100
 2072.5000   391.3787     0.5097
 2073.0000   406.5649     0.5095
 2073.5000   419.5876     0.5093
 2074.0000   426.1198     0.5091
 2074.5000   426.1618     0.5089
 2075.0000   426.2037     0.5087
 2075.5000   426.2455     0.5084
 2076.0000   426.2885     0.5082
 2076.5000   426.3317     0.5080
 2077.0000   426.3750     0.5078
 2077.5000   426.4182     0.5142
 2078.0000   426.1299     0.5112
 2078.5000   423.9390     0.5071
 2079.0000   421.2763     0.5148
 2079.5000   416.8514     0.5340
 2080.0000   412.4282     0.5390
 2080.5000   408.6872     0.5495
 2081.0000   404.9895     0.5601
 2081.5000   398.3318     0.5816
 2082.0000   391.6719     0.6030
 2082.5000   385.9786     0.6245
 2083.0000   381.5553     0.6462
 2083.5000   374.9228     0.6565
 2084.0000   366.0307     0.6551
 2084.5000   355.8906     0.6413
 2085.0000   344.7653     0.6127
 2085.5000   330.8654     0.5877
 2086.0000   315.2733     0.5577
 2086.5000   304.2636     0.5470
 2087.0000   295.3707     0.5386
 2087.5000   286.4765     0.5357
 2088.0000   275.8929     0.5246
 2088.5000   267.2809     0.5244
 2089.0000   258.6690     0.5134
 2089.5000   250.0570     0.5132
 2090.0000   245.7720     0.5022
 2090.5000   239.3236     0.5020
 2091.0000   230.7116     0.5126
 2091.5000   221.9013     0.5123
 2092.0000   215.3791     0.5121
 2092.5000   211.3662     0.5119
 2093.0000   211.4151     0.5117
 2093.5000   211.4570     0.5169
 2094.0000   211.4989     0.5329
 2094.5000   209.3773     0.5398
 2095.0000   209.4231     0.5541
 2095.5000   209.4664     0.5583
 2096.0000   209.8489     0.5741
 2096.5000   212.5364     0.5964
 2097.0000   216.5663     0.6074
 2097.5000   219.3924     0.6132
 2098.0000   223.2831     0.6113
 2098.5000   224.8702     0.5998
 2099.0000   225.6739     0.6030
 2099.5000   227.9515     0.5986
 2100.0000   229.3269     0.5952
 2100.5000   230.3418     0.5950
 2101.0000   232.6898     0.5948
 2101.5000   233.2354     0.5902
 2102.0000   232.1827     0.5847
 2102.5000   233.4375     0.5792
 2103.0000   234.6923     0.5742
 2103.5000   234.8654     0.5882
 2104.0000   236.3374     0.6180
 2104.5000   238.7453     0.6742
 2105.0000   239.7115     0.6804
 2105.5000   239.8846     0.6751
 2106.0000   240.0577     0.6831
 2106.5000   240.2308     0.6832
 2107.0000   240.4373     0.6833
 2107.5000   242.7683     0.6877
 2108.0000   245.0993     0.6852
 2108.5000   247.4302     0.6581
 2109.0000   249.7612     0.6299
 2109.5000   249.9287     0.6077
 2110.0000   250.0961     0.5915
 2110.5000   248.0337     0.5804
 2111.0000   246.1042     0.5760
 2111.5000   246.2885     0.5761
 2112.0000   246.4615     0.5762
 2112.5000   246.6346     0.5763
 2113.0000   246.8077     0.5764
 2113.5000   246.9808     0.5765
 2114.0000   247.1539     0.5766
 2114.5000   247.3270     0.5767
 2115.0000   246.7789     0.5769
 2115.5000   244.7171     0.5770
 2116.0000   242.6543     0.5879
 2116.5000   240.5912     0.5988
 2117.0000   237.5191     0.6097
 2117.5000   233.2212     0.6323
 2118.0000   228.9232     0.6647
 2118.5000   224.6253     0.6760
 2119.0000   220.3261     0.6859
 2119.5000   218.7693     0.6752
 2120.0000   217.5000     0.6773
 2120.5000   216.9519     0.6839
 2121.0000   217.1250     0.6729
 2121.5000   217.2981     0.6648
 2122.0000   217.5047     0.6683
 2122.5000   217.6721     0.6759
 2123.0000   220.0031     0.6760
 2123.5000   220.1706     0.6673
 2124.0000   220.3381     0.6356
 2124.5000   220.5056     0.5810
 2125.0000   222.8366     0.5087
 2125.5000   225.3171     0.4248
 2126.0000   229.9612     0.3600
 2126.5000   235.0376     0.3412
 2127.0000   244.4408     0.3413
 2127.5000   255.7914     0.3486
 2128.0000   266.7107     0.3449
 2128.5000   276.3347     0.3495
 2129.0000   290.1856     0.3526
 2129.5000   306.0643     0.3782
 2130.0000   316.1531     0.4286
 2130.5000   325.2682     0.4503
 2131.0000   335.7892     0.4396
 2131.5000   345.6649     0.4397
 2132.0000   354.7813     0.4398
 2132.5000   363.8964     0.4183
 2133.0000   373.0116     0.3641
 2133.5000   385.9057     0.3423
 2134.0000   396.8905     0.3320
 2134.5000   405.7118     0.3332
 2135.0000   416.6966     0.3460
 2135.5000   425.5180     0.3684
 2136.0000   427.8489     0.3866
 2136.5000   428.0192     0.3867
 2137.0000   428.1840     0.3840
 2137.5000   424.0245     0.3666
 2138.0000   424.1920     0.3437
 2138.5000   421.8969     0.3438
 2139.0000   419.0421     0.3439
 2139.5000   412.5086     0.3486
 2140.0000   406.5155     0.3599
 2140.5000   402.8296     0.3868
 2141.0000   400.0809     0.4315
 2141.5000   396.5405     0.4763
 2142.0000   394.4781     0.5148
 2142.5000   392.4157     0.5484
 2143.0000   389.3796     0.5820
 2143.5000   385.0817     0.6156
 2144.0000   379.6659     0.6492
 2144.5000   373.1325     0.6351
 2145.0000   366.5991     0.6017
 2145.5000   360.0656     0.5510
 2146.0000   353.5322     0.5186
 2146.5000   344.0429     0.5079
 2147.0000   334.5853     0.5080
 2147.5000   324.1920     0.5081
 2148.0000   316.5779     0.5191
 2148.5000   306.6967     0.5733
 2149.0000   296.6269     0.6180
 2149.5000   286.8458     0.6856
 2150.0000   276.9231     0.7684
 2150.5000   268.1541     0.9099
 2151.0000   260.6110     1.1237
 2151.5000   254.0776     1.4334
 2152.0000   246.1715     1.7548
 2152.5000   238.8440     1.7605
 2153.0000   232.3106     1.7662
 2153.5000   224.1932     1.7719
 2154.0000   215.4254     1.7102
 2154.5000   211.4470     1.4216
 2155.0000   209.4509     1.0703
 2155.5000   209.6185     0.8975
 2156.0000   207.6225     0.7987
 2156.5000   209.9535     0.7484
 2157.0000   210.1154     0.7095
 2157.5000   212.4530     0.6701
 2158.0000   215.9427     0.6192
 2158.5000   218.3508     0.6105
 2159.0000   223.3551     0.6330
 2159.5000   228.8648     0.6628
 2160.0000   234.9508     0.7042
 2160.5000   243.3444     0.7166
 2161.0000   250.8759     0.7167
 2161.5000   257.7563     0.7276
 2162.0000   270.2931     0.7277
 2162.5000   281.2779     0.7062
 2163.0000   294.4262     0.6738
 2163.5000   305.4110     0.6523
 2164.0000   316.3957     0.6199
 2164.5000   329.5440     0.6092
 2165.0000   338.3654     0.6104
 2165.5000   345.2450     0.6454
 2166.0000   352.2686     0.7003
 2166.5000   361.3838     0.7395
 2167.0000   369.9228     0.7396
 2167.5000   374.9301     0.7397
 2168.0000   381.8090     0.7350
 2168.5000   387.6773     0.7100
 2169.0000   390.0859     0.6673
 2169.5000   391.8461     0.6108
 2170.0000   392.7400     0.5935
 2170.5000   394.3557     0.6077
 2171.0000   395.3944     0.6106
 2171.5000   395.9277     0.6216
