~VERSION INFORMATION
 VERS.                2.0:   CWLS LOG ASCII STANDARD - VERSION 2.0
 WRAP.                 NO:   ONE LINE PER DEPTH STEP
~WELL INFORMATION
#MNEM.UNIT      DATA TYPE    INFORMATION
#----------   ------------   ------------------------------
 STRT.F           12.0000:   START DEPTH
 STOP.F          549.0000:   STOP DEPTH
 STEP.F            0.5000:   STEP LENGTH
 NULL.          -999.2500:   NO VALUE
 COMP. LAWRENCE/ALLISON INC:   COMPANY
 WELL.  58-64-1 SX 3 #3-3:   WELL
 FLD .             TEAPOT:   FIELD
 LOC .       S3 T38N R78W:   LOCATION
 CNTY.            NATRONA:   COUNTY
 STAT.            WYOMING:   STATE
 CTRY. UNITED STATES OF AMERICA:   COUNTRY
 SRVC.      Dresser Atlas:   SERVICE COMPANY
 DATE.        05-DEC-1984:   LOGDATE
 API .       490251117800:   API NUMBER
~CURVE INFORMATION
#MNEM.UNIT       API CODE    CURVE DESCRIPTION
#----------   ------------   ------------------------------
 DEPT.F                  :   
 RFOC.OHMM   07 220 04 00:   RESISTIVITY FOCUSED LOG
 RILD.OHMM   07 120 46 00:   INDUCTION LOG DEEP RESISTIVITY
 RILM.OHMM   07 120 44 00:   INDUCTION LOG MEDIUM RESISTIVITY
 SPR .MV     07 010 01 00:   SPONTANEOUS POTENTIAL
 CALD.IN     45 280 60 00:   CALIPER FROM DENSITY LOG
 CNC .DEC    42 890 03 00:   NEUTRON POROSITY SANDSTONE
 CORR.G/C3   45 356 01 00:   DENSITY CORRECTION
 DEN .G/C3   45 350 01 00:   COMPENSATED BULK DENSTIY
 GRD .GAPI   45 310 01 00:   GAMMA RAY FROM DENSITY LOG
 PORD.DEC    45 890 12 00:   POROSITY DENSITY SANDSTONE
 DT  .US/F   60 520 00 00:   INTERVAL TRANSIT TIME
~PARAMETER INFORMATION
#MNEM.UNIT          VALUE    DESCRIPTION
#----------   ------------   ------------------------------
 PD  .                 GL:   PERMANENT DATUM
 EPD .F              5188:   ELEVATION PERMANENT DATUM
 LMF .                 KB:   LOG MEASURED FROM
 DMF .                 KB:   DRILLING MEASURED FROM
 EGL .F              5188:   GROUND LEVEL
 DATE.         5-DEC-1984:   RUN DATE
 RUN .                  1:   RUN NUMBER
 DD  .F               556:   DEPTH DRILLER
 DL  .F               551:   DEPTH LOGGER
 BLI .F               549:   BOTTOM LOG INTERVAL
 CS  .IN            8.625:   CASING SIZE
 CBD .F                20:   CASING BOTTOM DRILLER
 CBL .F                20:   CASING BOTTOM LOGGER
 BS  .IN            7.875:   BIT SIZE
 BSD .F               556:   BIT SIZE AT DEPTH
 DFT .          KCL WATER:   DRILLING FLUID TYPE
 MSS .           FLOWLINE:   MUD SAMPLE SOURCE
 RMS .OHMM            .36:   RESISTIVITY MUD SAMPLE
 MST .F                70:   MUD SAMPLE TEMPERATURE
 RMF .OHMM            .26:   RESISTIVITY MUD FILTRATE SAMPLE
 MFST.F                70:   MUD FILTRATE SAMPLE TEMPERATURE
 RMC .OHMM            .46:   RESISTIVITY MUD CAKE
 MCST.F                70:   MUD CAKE SAMPLE TEMPERATURE
 MFSS.               CALC:   MUD FILTRATE SAMPLE SOURCE
 MCSS.               CALC:   MUD CAKE SAMPLE SOURCE
 RMB .OHMM            .29:   RESISTIVITY MUD AT BHT
 BHT .F                85:   BOTTOM HOLE TEMPERATURE
 TCS .HRS               3:   TIME CURCULATED STOPPED
 MRT .F               100:   MAXIMUM RECORDED TEMPERATURE
 LUN .               6274:   LOGGING UNIT NUMBER
 LUL .               GLTE:   LOGGING UNIT LOCATION
 ENGI.             RAUTIO:   RECORDING ENGINEER
 WITN.       GROOMS/LUERS:   WITNESSED BY
 CLNT.            A2DTECH:   CLIENT CODE
 ORIG.         2.5" PRINT:   ORIGIN OF DATA
 UWI .       490251117800:   UNIQUE WELL ID
 DICO. A2D Technologies, Inc.:   DIGITIZING COMPANY
~OTHER INFORMATION
~A   DEPT     RFOC       RILD       RILM        SPR       CALD        CNC       CORR        DEN         GRD      PORD         DT   
# ...
  500.0000     8.9237     7.8836     7.8735   -54.5086     8.0451     0.2759     0.0121     2.5008   119.1475     0.1067   100.6335
  500.5000     8.9201     7.9400     7.9805   -55.1363     8.0453     0.2728     0.0242     2.5007   119.1386     0.1073   100.1785
  501.0000     8.6717     7.9964     7.9772   -55.7639     8.0454     0.2723     0.0302     2.4992   119.7386     0.1104    99.8678
  501.5000     8.6681     8.0527     7.9129   -55.7873     8.0455     0.2749     0.0332     2.4931   120.3366     0.1134    99.4095
  502.0000     8.5474     8.0849     7.8684   -55.6535     8.0456     0.2786     0.0180     2.4825   120.9362     0.1159    98.9512
  502.5000     8.1952     8.0820     7.8671   -55.9654     8.0458     0.2824     0.0058     2.4794   120.9268     0.1177    98.6764
  503.0000     7.9676     8.0792     7.8658   -56.8847     8.0459     0.2869     0.0057     2.4855   121.5258     0.1189    99.1493
  503.5000     8.0764     7.9649     7.8644   -57.8040     8.0460     0.2730     0.0120     2.4947   122.1732     0.1104    99.6058
  504.0000     8.5357     7.8521     7.6438   -58.1256     8.0461     0.2576     0.0211     2.5038   123.3317     0.1037    99.9376
  504.5000     8.6524     7.6253     7.4200   -58.4271     8.0463     0.2606     0.0308     2.5084   123.1438     0.1007   100.3680
  505.0000     8.6394     7.1937     7.0082   -58.0927     8.0464     0.2754     0.0480     2.5115   120.6383     0.0984   100.5229
  505.5000     8.5268     6.6151     6.6194   -57.7824     8.0465     0.2867     0.0396     2.5112   119.0486     0.1014   100.6418
  506.0000     8.4061     6.2763     6.3776   -57.2332     8.0466     0.2934     0.0218     2.5089   119.2259     0.1074   100.6425
  506.5000     8.1491     6.1875     6.3765   -57.6254     8.0467     0.2876     0.0104     2.5006   121.7295     0.1150   100.7941
  507.0000     7.6294     6.2722     6.3754   -58.5588     8.0465     0.2809     0.0097     2.4892   126.1056     0.1200   100.9915
  507.5000     6.4470     6.2698     6.4637   -58.7766     8.0463     0.2788     0.0189     2.4802   129.9139     0.1216   101.6968
  508.0000     6.7823     6.2969     6.4624   -58.4788     8.0461     0.2847     0.0267     2.4800   132.4012     0.1137   102.5138
  508.5000     7.1763     6.4426     6.5017   -58.4878     8.0460     0.2849     0.0391     2.4869   129.1500     0.1068   103.5834
  509.0000     7.4445     6.5683     6.6425   -58.4954     8.0458     0.2799     0.0397     2.4955   126.2780     0.1022   104.6531
  509.5000     7.7636     6.8499     6.7851   -58.1991     8.0456     0.2751     0.0355     2.5065   125.6612     0.0982   105.6873
  510.0000     8.0964     6.9475     7.0371   -57.9027     8.0454     0.2854     0.0476     2.5126   123.8286     0.0950   105.7969
  510.5000     8.5079     7.3006     7.4204   -57.9117     8.0452     0.2957     0.0566     2.5186   121.9960     0.0926   104.3100
  511.0000     8.9287     7.7885     7.8437   -57.9191     8.0451     0.2971     0.0505     2.5217   121.3792     0.0914   102.9985
  511.5000     9.2300     8.6097     8.4074   -57.9266     8.0449     0.2873     0.0293     2.5247   120.1545     0.0903   101.8584
  512.0000     9.4872     8.9736     8.8870   -57.6292     8.0447     0.2704     0.0171     2.5277   120.7536     0.0891   100.7179
  512.5000     9.4840     9.0963     9.1362   -57.6375     8.0445     0.2608     0.0292     2.5307   121.3526     0.0867    99.8040
  513.0000     9.6140     9.0932     9.2626   -57.6449     8.0444     0.2572     0.0412     2.5337   123.2321     0.0855    99.1257
  513.5000     9.6103     9.0901     9.2611   -57.6523     8.0442     0.2598     0.0415     2.5337   126.9998     0.0843    98.5166
  514.0000     9.4743     9.0870     9.2595   -57.6598     8.0440     0.2642     0.0477     2.5338   130.4445     0.0825    97.9398
  514.5000     9.3402     9.0839     9.2579   -57.3632     8.0438     0.2685     0.0545     2.5403   130.1753     0.0806    97.4881
  515.0000     9.3370     9.2081     9.0023   -57.3708     8.0437     0.2735     0.0669     2.5489   127.6697     0.0801    97.0363
  515.5000     9.3338     9.0777     8.8764   -57.3784     8.0435     0.2766     0.0713     2.5452   125.1641     0.0857    96.5846
  516.0000     9.4614     9.0746     8.7522   -57.3860     8.0433     0.2736     0.0425     2.5347   122.6586     0.0924    96.8870
  516.5000     9.7306     8.9410     8.7507   -57.3936     8.0431     0.2764     0.0214     2.5236   121.0203     0.0968    97.3402
  517.0000     9.9960     8.6976     8.7492   -57.4012     8.0429     0.2787     0.0242     2.5209   118.8633     0.0942    97.6426
  517.5000     9.9924     8.5744     8.7476   -57.4088     8.0428     0.2806     0.0319     2.5221   115.4255     0.0918    97.7942
  518.0000     9.9889     8.5915     8.7849   -57.4164     8.0426     0.2781     0.0365     2.5274   113.6008     0.0894    97.6441
  518.5000     9.9855     8.6888     8.8674   -57.3138     8.0424     0.2747     0.0347     2.5313   114.5546     0.0870    97.1924
  519.0000    10.1223     8.7159     8.8656   -57.1261     8.0422     0.2713     0.0407     2.5344   118.8011     0.0852    96.5898
  519.5000    10.0776     8.8046     8.8640   -56.8313     8.0421     0.2692     0.0406     2.5396   120.6159     0.0882    96.2888
  520.0000     9.9751     8.9249     8.8625   -56.8389     8.0419     0.2672     0.0345     2.5335   118.7833     0.0931    95.9880
  520.5000     9.9716     8.9213     8.8609   -56.8465     8.0417     0.2708     0.0436     2.5214   118.1665     0.0968    96.2904
  521.0000     9.8304     8.9181     8.8591   -56.8556     8.0415     0.2769     0.0526     2.5123   118.1576     0.0980    96.8945
  521.5000     9.5693     8.7919     8.8576   -56.8630     8.0413     0.2835     0.0587     2.5122   119.3646     0.0974    97.8002
  522.0000     9.2927     8.6075     8.8561   -56.8705     8.0412     0.2872     0.0524     2.5168   119.3557     0.0956    98.4042
  522.5000     9.0337     8.1340     8.7322   -57.1819     8.0410     0.2902     0.0371     2.5183   120.6028     0.0956    99.0083
  523.0000     8.9057     8.0793     8.1440   -57.4932     8.0408     0.2921     0.0343     2.5168   121.2341     0.0959    99.6124
  523.5000     8.9021     8.0760     8.0302   -57.5007     8.0406     0.2933     0.0353     2.5167   121.1520     0.0984    99.9203
  524.0000     8.8991     8.0732     8.0288   -57.8120     8.0405     0.2927     0.0416     2.5122   120.5350     0.1009   100.2233
  524.5000     9.0211     8.0705     8.0274   -57.8195     8.0403     0.2903     0.0299     2.5106   120.5258     0.1035   100.5289
  525.0000     9.1439     8.0677     8.0261   -57.8269     8.0401     0.2873     0.0098     2.5109   122.9485     0.1025   100.8220
  525.5000     9.2692     8.0650     8.0247   -57.8343     8.0399     0.2843     0.0098     2.5121   126.6837     0.1000   100.8228
  526.0000     9.2657     8.0622     8.0233   -57.8419     8.0398     0.2812     0.0141     2.5151   129.2767     0.1031   100.8235
  526.5000     9.3925     8.0595     8.0219   -57.8204     8.0396     0.2789     0.0158     2.5111  -999.2500     0.1081   100.5003
  527.0000     9.3891     8.0567     8.1330   -57.5527     8.0394     0.2777     0.0097     2.5028  -999.2500     0.1128   100.1704
  527.5000     9.3859     8.0540     8.1315   -57.5608     8.0392     0.2796     0.0066     2.4935  -999.2500     0.1153    99.9207
  528.0000     9.3827     8.0513     8.1566   -57.5684     8.0390     0.2864     0.0035     2.4864  -999.2500     0.1147    99.9216
  528.5000     9.2499     8.0485     8.2427   -57.5760     8.0389     0.2909     0.0035     2.4893  -999.2500     0.1123    99.9223
  529.0000     9.2467     8.0457     8.2411   -57.5836     8.0387     0.2917     0.0034     2.4955  -999.2500     0.1087    99.9231
  529.5000     9.2275     8.1557     8.2397   -57.5912     8.0385     0.2870     0.0094     2.4999  -999.2500     0.1063    99.8819
  530.0000     9.1126     8.1527     8.2382   -57.5988     8.0383     0.2771     0.0215     2.5009  -999.2500     0.1069    99.6228
