~VERSION INFORMATION
 VERS.                2.0:   CWLS LOG ASCII STANDARD - VERSION 2.0
 WRAP.                 NO:   ONE LINE PER DEPTH STEP
~WELL INFORMATION
#MNEM.UNIT      DATA TYPE    INFORMATION
#----------   ------------   ------------------------------
 STRT.F            0.0000:   START DEPTH
 STOP.F          561.0000:   STOP DEPTH
 STEP.F            0.1000:   STEP LENGTH
 NULL.          -999.2500:   NO VALUE
 COMP.       F D SERV INC:   COMPANY
 WELL.  83-1 sx 10 #83-10:   WELL
 FLD .             TEAPOT:   FIELD
 LOC .      S10 T38N R78W:   LOCATION
 CNTY.            NATRONA:   COUNTY
 STAT.            WYOMING:   STATE
 CTRY. UNITED STATES OF AMERICA:   COUNTRY
 SRVC.     Atlas Wireline:   SERVICE COMPANY
 DATE.        10-DEC-1992:   LOGDATE
 API .       490252258000:   API NUMBER
~CURVE INFORMATION
#MNEM.UNIT       API CODE    CURVE DESCRIPTION
#----------   ------------   ------------------------------
 DEPT.F                  :   
 GRR .GAPI   07 310 01 00:   GAMMA RAY
 RILD.OHMM   07 120 46 00:   INDUCTION LOG DEEP RESISTIVITY
 RILM.OHMM   07 120 44 00:   INDUCTION LOG MEDIUM RESISTIVITY
~PARAMETER INFORMATION
#MNEM.UNIT          VALUE    DESCRIPTION
#----------   ------------   ------------------------------
 PD  .                 GL:   PERMANENT DATUM
 EPD .F              5170:   ELEVATION PERMANENT DATUM
 LMF .                 KB:   LOG MEASURED FROM
 DAPD.F                10:   FEET ABOVE PERMANENT DATUM
 DMF .                 KB:   DRILLING MEASURED FROM
 EKB .F              5180:   KELLING BUSHING
 EDF .F              5179:   DRILLING FLOOR
 EGL .F              5170:   GROUND LEVEL
 DATE.        10-DEC-1992:   RUN DATE
 RUN .                  1:   RUN NUMBER
 DD  .F               567:   DEPTH DRILLER
 DL  .F               569:   DEPTH LOGGER
 BLI .F               560:   BOTTOM LOG INTERVAL
 TLI .F                97:   TOP LOG INTERVAL
 CS  .IN            8.625:   CASING SIZE
 CBD .F                97:   CASING BOTTOM DRILLER
 CBL .F                97:   CASING BOTTOM LOGGER
 BS  .IN            7.875:   BIT SIZE
 BSD .F               567:   BIT SIZE AT DEPTH
 DFT .           AIR FOAM:   DRILLING FLUID TYPE
 MRT .F                65:   MAXIMUM RECORDED TEMPERATURE
 LUN .           HL- 6274:   LOGGING UNIT NUMBER
 LUL .             CASPER:   LOGGING UNIT LOCATION
 ENGI.       P. RASMUSSEN:   RECORDING ENGINEER
 WITN.          G. STRONG:   WITNESSED BY
 CLNT.            A2DTECH:   CLIENT CODE
 ORIG.           5" PRINT:   ORIGIN OF DATA
 UWI .       490252258000:   UNIQUE WELL ID
 DICO. A2D Technologies, Inc.:   DIGITIZING COMPANY
~OTHER INFORMATION
~A    DEPT      GRR      RILD       RILM   
# ...
  418.6000    97.8934    13.5634    13.2284
  418.7000    97.6473    13.6215    13.2291
  418.8000    97.6487    13.6309    13.2299
  418.9000    97.4278    13.7185    13.3014
  419.0000    97.3475    13.7192    13.3235
  419.1000    97.3487    13.7200    13.3243
  419.2000    97.3499    13.7208    13.3250
  419.3000    97.3894    13.7533    13.3396
  419.4000    97.6559    13.8185    13.4194
  419.5000    97.6571    13.8192    13.4203
  419.6000    97.4543    13.8201    13.4850
  419.7000    97.1980    13.8908    13.5152
  419.8000    96.9416    13.9184    13.5159
  419.9000    96.6852    13.9600    13.5167
  420.0000    96.4491    14.0175    13.5174
  420.1000    96.4505    14.0183    13.5183
  420.2000    96.2197    14.0191    13.5189
  420.3000    95.9633    14.0199    13.5197
  420.4000    95.7070    14.0206    13.5204
  420.5000    95.5448    14.0214    13.5212
  420.6000    95.4979    14.0222    13.5219
  420.7000    95.2437    14.0032    13.5227
  420.8000    95.2451    13.9261    13.5234
  420.9000    95.2461    13.9271    13.5242
  421.0000    95.2473    13.9277    13.5249
  421.1000    95.3705    13.9285    13.5257
  421.2000    95.6293    13.8864    13.5265
  421.3000    95.9484    13.8331    13.5272
  421.4000    96.7697    13.8339    13.5280
  421.5000    97.2544    13.8347    13.5287
  421.6000    97.9667    13.7393    13.4740
  421.7000    98.8905    13.7400    13.3959
  421.8000   100.1301    13.7407    13.3182
  421.9000   101.5604    13.7053    13.2409
  422.0000   102.5796    13.6466    13.1617
  422.1000   103.4551    13.6474    13.1624
  422.2000   103.9037    13.6482    13.1631
  422.3000   104.4200    13.5757    13.1638
  422.4000   104.8044    13.4964    13.1323
  422.5000   105.0632    13.4611    13.0742
  422.6000   105.2819    13.4619    13.0749
  422.7000   105.2832    13.4474    13.0757
  422.8000   105.2844    13.3697    13.0097
  422.9000   105.2856    13.3706    12.9866
  423.0000   105.1269    13.3054    12.9873
  423.1000   104.8706    13.2789    12.9880
  423.2000   104.4101    13.2424    12.9887
  423.3000   103.3147    13.1880    12.9895
  423.4000   101.3464    13.1796    12.9902
  423.5000   100.6464    13.0977    12.9909
  423.6000   100.0628    13.0984    12.9468
  423.7000    99.5489    13.0991    12.9024
  423.8000    99.2267    13.0551    12.9031
  423.9000    99.2778    13.0094    12.9008
  424.0000    99.5326    13.0102    12.8153
  424.1000    99.5340    13.0077    12.8160
  424.2000    99.9664    12.9212    12.8167
  424.3000   100.3130    12.9218    12.7805
  424.4000   100.5718    12.8705    12.7063
  424.5000   100.9863    12.7952    12.6419
  424.6000   101.7283    12.7204    12.6427
  424.7000   102.2726    12.6566    12.6434
  424.8000   102.7610    12.6575    12.5878
  424.9000   102.8819    12.5860    12.5572
  425.0000   102.8832    12.5125    12.5579
  425.1000   102.8844    12.4393    12.5431
  425.2000   102.8856    12.3665    12.4724
  425.3000   102.8868    12.3122    12.4732
  425.4000   102.8882    12.3079    12.4121
  425.5000   102.8892    12.2280    12.3401
  425.6000   102.8904    12.2286    12.2685
  425.7000   103.0254    12.1780    12.1974
  425.8000   103.2842    12.1449    12.1346
  425.9000   103.5011    12.1456    12.1354
  426.0000   103.5023    12.1338    12.0699
  426.1000   103.8072    12.0624    12.0000
  426.2000   104.0158    12.0632    11.9304
  426.3000   104.2746    12.0058    11.8877
  426.4000   104.5334    11.9805    11.8746
  426.5000   104.7921    11.9489    11.8068
  426.6000   105.0270    11.8984    11.8075
  426.7000   105.0283    11.8922    11.8081
  426.8000   104.5585    11.8170    11.7638
  426.9000   104.2341    11.8176    11.7276
  427.0000   103.8342    11.8183    11.7088
  427.1000   103.3203    11.7799    11.6477
  427.2000   102.7546    11.7373    11.6485
  427.3000   101.9772    11.7380    11.6491
  427.4000   100.7881    11.7387    11.6497
  427.5000   100.1366    11.7394    11.6504
  427.6000    99.7082    11.7400    11.6510
  427.7000    99.5775    11.7406    11.6517
  427.8000    99.5788    11.7751    11.6523
  427.9000    99.5800    11.8242    11.6531
  428.0000    99.5812    11.8249    11.7099
  428.1000    99.8278    11.8256    11.7355
  428.2000   100.0866    11.8262    11.7361
  428.3000   100.4989    11.8808    11.7555
  428.4000   101.1229    11.9104    11.8192
  428.5000   101.8968    11.9400    11.8200
  428.6000   102.6707    11.9952    11.8206
  428.7000   103.5352    11.9994    11.8212
  428.8000   104.2186    12.0807    11.8594
  428.9000   104.9925    12.1438    11.9299
  429.0000   105.7664    12.1666    12.0132
  429.1000   106.5403    12.2043    12.1570
  429.2000   107.2705    12.2775    12.2425
  429.3000   107.7912    12.3511    12.3013
  429.4000   108.3996    12.4270    12.4201
  429.5000   108.4006    12.5721    12.5676
  429.6000   108.4018    12.6627    12.7166
  429.7000   108.4030    12.8325    12.8674
  429.8000   108.4042    13.0976    13.0365
  429.9000   108.2151    13.3704    13.3143
  430.0000   108.1032    13.5367    13.5746
  430.1000   107.9683    13.8047    13.7735
  430.2000   107.7119    14.1794    13.9086
  430.3000   107.4556    14.5439    14.0181
  430.4000   107.1976    14.7497    14.2732
  430.5000   106.2885    14.8381    14.6909
  430.6000   105.8695    14.9762    15.1302
  430.7000   105.1915    15.3353    15.9311
  430.8000   104.4200    15.7695    16.7733
  430.9000   103.6485    16.0823    17.3231
  431.0000   102.8247    16.4054    17.7350
  431.1000   101.4398    16.7004    18.2084
  431.2000   100.2515    17.0005    18.5910
  431.3000    98.7728    17.3170    19.1930
  431.4000    97.0826    17.7629    19.6400
  431.5000    95.3809    18.1596    19.9913
  431.6000    93.7825    18.5135    20.6241
  431.7000    91.9724    18.8464    21.5186
  431.8000    89.6123    19.2756    21.8895
  431.9000    86.9740    19.8297    22.2801
  432.0000    85.1025    20.3169    22.6774
  432.1000    83.9440    21.3075    23.1968
  432.2000    82.8328    21.9675    23.8881
  432.3000    81.4736    22.6721    24.5919
  432.4000    79.6043    23.3547    25.2561
  432.5000    78.8619    24.1033    25.9119
  432.6000    78.2924    24.9331    26.7954
  432.7000    78.0904    25.5578    27.5915
  432.8000    77.9816    26.1461    28.2482
  432.9000    77.7894    27.0254    28.8967
  433.0000    77.7906    27.8042    29.4357
  433.1000    77.7919    28.4005    29.6025
  433.2000    77.7930    28.9107    29.9139
  433.3000    77.9781    29.4403    30.3744
  433.4000    78.2369    30.2328    30.8417
  433.5000    78.4036    30.7122    31.1667
  433.6000    78.4049    31.2647    31.3589
  433.7000    78.4063    31.8269    31.7854
  433.8000    78.7110    32.3989    32.1082
  433.9000    78.9238    32.9483    32.4895
  434.0000    79.1826    33.3486    32.8751
  434.1000    79.3214    34.0568    33.2652
  434.2000    79.3966    34.3854    33.6351
  434.3000    79.6273    34.6677    33.8470
  434.4000    79.6286    34.8755    34.0363
  434.5000    80.1092    35.0846    34.0866
  434.6000    80.6256    35.2763    34.0885
  434.7000    81.2898    35.2785    34.1690
  434.8000    82.1657    35.4708    34.3299
  434.9000    83.1412    35.5295    34.3318
  435.0000    83.8948    35.4161    34.3340
  435.1000    84.1895    35.2862    34.1664
  435.2000    84.4124    35.2882    34.0998
  435.3000    84.6712    35.2901    34.1017
  435.4000    84.8000    35.0468    34.1036
  435.5000    84.8012    35.0485    34.0835
  435.6000    84.8024    34.9151    33.8715
  435.7000    84.8037    34.7109    33.6894
  435.8000    84.5552    34.5682    33.4941
  435.9000    84.7063    34.5464    33.2998
  436.0000    84.9651    34.3316    33.1802
  436.1000    85.2239    34.3334    33.1064
  436.2000    85.4167    34.1818    32.7237
  436.3000    85.4579    34.0983    32.5017
  436.4000    86.0262    34.0198    32.3454
  436.5000    86.4906    33.8208    32.1578
  436.6000    86.8212    33.6229    31.9713
  436.7000    87.0800    33.3992    31.8382
