~VERSION INFORMATION
 VERS.                2.0:   CWLS LOG ASCII STANDARD - VERSION 2.0
 WRAP.                 NO:   ONE LINE PER DEPTH STEP
~WELL INFORMATION
#MNEM.UNIT      DATA TYPE    INFORMATION
#----------   ------------   ------------------------------
 STRT.F            0.0000:   START DEPTH
 STOP.F          530.0000:   STOP DEPTH
 STEP.F            0.5000:   STEP LENGTH
 NULL.          -999.2500:   NO VALUE
 COMP. FENIX & SCISSON INC:   COMPANY
 WELL.      74 SX 3 #74-3:   WELL
 FLD .             TEAPOT:   FIELD
 LOC .       S3 T38N R78W:   LOCATION
 CNTY.            NATRONA:   COUNTY
 STAT.            WYOMING:   STATE
 CTRY. UNITED STATES OF AMERICA:   COUNTRY
 SRVC.            Unknown:   SERVICE COMPANY
 DATE.        20-SEP-1978:   LOGDATE
 API .       490251072200:   API NUMBER
~CURVE INFORMATION
#MNEM.UNIT       API CODE    CURVE DESCRIPTION
#----------   ------------   ------------------------------
 DEPT.F                  :   
 CALD.IN     45 280 60 00:   CALIPER
 GRD .GAPI   45 310 01 00:   GAMMA RAY FROM DENSITY LOG
 RHOB.G/C3   45 350 01 00:   BULK DENSITY
 DPHI.DEC    45 890 12 00:   DENSITY POROSITY SANDSTONE
 CORR.G/C3   45 356 01 00:   DENSITY CORRECTION
 SPR .MV     05 010 01 00:   SPONTANEOUS POTENTIAL FROM RES.
 SN  .OHMM   05 040 16 00:   SHORT NORMAL 16"
 ILD .OHMM   05 120 46 00:   INDUCTION LOG DEEP
~PARAMETER INFORMATION
#MNEM.UNIT          VALUE    DESCRIPTION
#----------   ------------   ------------------------------
 PD  .                 GL:   PERMANENT DATUM
 EPD .F              5139:   ELEVATION PERMANENT DATUM
 LMF .                 KB:   LOG MEASURED FROM
 DAPD.F                 4:   FEET ABOVE PERMANENT DATUM
 DMF .                 KB:   DRILLING MEASURED FROM
 EKB .F              5143:   KELLING BUSHING
 EGL .F              5139:   GROUND LEVEL
 DATE.            9-20-78:   RUN DATE
 RUN .                  1:   RUN NUMBER
 DD  .F               532:   DEPTH DRILLER
 DL  .F               530:   DEPTH LOGGER
 BLI .F               524:   BOTTOM LOG INTERVAL
 TLI .F                40:   TOP LOG INTERVAL
 CS  .IN            8.625:   CASING SIZE
 CBD .F                40:   CASING BOTTOM DRILLER
 CBL .F                40:   CASING BOTTOM LOGGER
 BS  .IN            7.875:   BIT SIZE
 BSD .F               532:   BIT SIZE AT DEPTH
 DFT .                KCL:   DRILLING FLUID TYPE
 DFD .                8.8:   DRILLING FLUID DENSITY
 DFV .                 38:   DRILLING FLUID VISCOSITY
 DFPH.                  9:   DRILLING FLUID PH
 DFL .                6.2:   DRILLING FLUID LOSS
 MSS .                PIT:   MUD SAMPLE SOURCE
 BHT .F                69:   BOTTOM HOLE TEMPERATURE
 TCS .HRS               3:   TIME CURCULATED STOPPED
 MRT .F                69:   MAXIMUM RECORDED TEMPERATURE
 LUN .               2958:   LOGGING UNIT NUMBER
 LUL .             CASPER:   LOGGING UNIT LOCATION
 ENGI.           REYNOLDS:   RECORDING ENGINEER
 WITN.           DINSMORE:   WITNESSED BY
 CLNT.            A2DTECH:   CLIENT CODE
 ORIG.       2", 5" PRINT:   ORIGIN OF DATA
 UWI .       490251072200:   UNIQUE WELL ID
 DICO. A2D Technologies, Inc.:   DIGITIZING COMPANY
~OTHER INFORMATION
~A    DEPT    CALD         GRD      RHOB       DPHI       CORR        SPR         SN        ILD   
# ...
  364.5000     7.3410    62.0089     2.3600     0.1889     0.0138   -20.4951    19.0380    21.8986
  365.0000     7.2969    61.7969     2.3597     0.1909     0.0118   -20.4951    18.9085    21.8243
  365.5000     7.3259    61.1196     2.3556     0.1924     0.0098   -20.4951    18.7799    21.7506
  366.0000     7.3803    60.1161     2.3479     0.1929     0.0078   -20.4948    18.6521    21.6774
  366.5000     7.2637    59.0879     2.3445     0.1934     0.0059   -20.4942    18.5253    21.6005
  367.0000     6.9679    58.0741     2.3479     0.1930     0.0048   -20.4967    18.4073    21.2588
  367.5000     7.0740    57.6584     2.3523     0.1906     0.0045   -20.6422    18.2962    20.9089
  368.0000     7.1679    57.2225     2.3567     0.1883     0.0041   -21.1413    18.1858    20.5648
  368.5000     6.8243    59.2942     2.3603     0.1846     0.0038   -21.6448    18.0761    20.2269
  369.0000     6.7720    60.4967     2.3639     0.1808     0.0034   -21.9929    17.9674    19.8944
  369.5000     6.8847    59.6148     2.3741     0.1771     0.0031   -22.2302    17.9475    19.7004
  370.0000     6.9740    57.2313     2.3787     0.1760     0.0027   -22.1300    17.9278    19.8971
  370.5000     6.9828    55.8609     2.3804     0.1800     0.0024   -21.9261    17.9079    20.1416
  371.0000     6.9893    56.7151     2.3776     0.1839     0.0021   -21.8424    17.8881    20.3890
  371.5000     6.9309    58.1723     2.3688     0.1878     0.0017   -21.7705    17.8684    20.6286
  372.0000     7.0790    59.6383     2.3601     0.1918     0.0014   -21.6998    17.8486    20.6286
  372.5000     7.2232    61.1093     2.3514     0.1957     0.0010   -21.6285    17.8289    20.6286
  373.0000     7.2824    61.5288     2.3448     0.1991     0.0023   -21.5563    17.8082    20.6283
  373.5000     7.1331    60.8298     2.3435     0.1955     0.0036   -21.4906    17.7385    20.6269
  374.0000     7.2078    58.7685     2.3458     0.1891     0.0050   -21.6060    17.6411    20.6217
  374.5000     7.4346    55.6883     2.3531     0.1851     0.0055   -21.7305    17.5436    20.6390
  375.0000     7.2849    55.2453     2.3623     0.1851     0.0060   -21.8587    17.3934    19.8794
  375.5000     7.5306    55.3588     2.3632     0.1851     0.0065   -21.9857    17.1001    19.3912
  376.0000     7.2444    56.7452     2.3636     0.1855     0.0070   -22.5661    16.8184    18.9151
  376.5000     7.4744    58.2511     2.3631     0.1874     0.0076   -23.1348    16.6055    18.4506
  377.0000     7.4475    59.7665     2.3626     0.1893     0.0081   -23.5586    16.3928    17.9674
  377.5000     7.4080    61.0278     2.3620     0.1911     0.0086   -23.7730    16.1828    17.8332
  378.0000     7.3688    60.2102     2.3614     0.1835     0.0091   -23.9900    16.0362    17.6903
  378.5000     7.4534    59.2873     2.3661     0.1763     0.0100   -24.2070    15.9415    17.5486
  379.0000     7.5584    60.6559     2.3773     0.1686     0.0109   -24.4245    15.8473    17.4080
  379.5000     7.4807    62.2796     2.3882     0.1701     0.0117   -24.4556    15.7537    17.2685
  380.0000     7.3209    64.0298     2.3894     0.1731     0.0126   -24.4558    15.6606    17.1301
  380.5000     7.4409    64.1464     2.3865     0.1748     0.0135   -24.4583    15.5681    16.9929
  381.0000     7.3268    61.9033     2.3849     0.1740     0.0143   -24.6111    15.4762    16.8568
  381.5000     7.5420    60.7623     2.3858     0.1724     0.0157   -24.9465    15.3848    16.7217
  382.0000     7.4300    60.7385     2.3869     0.1654     0.0197   -25.2519    15.2939    16.5877
  382.5000     7.3441    60.7914     2.3958     0.1532     0.0237   -24.9520    15.2234    16.4548
  383.0000     7.6056    60.7044     2.4080     0.1491     0.0277   -24.6790    15.2442    16.3230
  383.5000     7.3435    59.9763     2.4207     0.1469     0.0297   -25.0863    15.2614    16.1921
  384.0000     7.4287    59.2527     2.4277     0.1480     0.0306   -25.4497    15.2788    16.0625
  384.5000     7.4222    58.2351     2.4274     0.1490     0.0314   -25.3873    15.2961    15.9404
  385.0000     7.1909    56.8433     2.4269     0.1497     0.0323   -25.3311    15.3134    15.9404
  385.5000     7.2513    55.4618     2.4265     0.1487     0.0332   -25.2767    15.3308    16.0086
  386.0000     7.2501    54.0677     2.4261     0.1484     0.0341   -25.2224    15.3487    16.0631
  386.5000     7.1983    53.5494     2.4257     0.1514     0.0350   -25.1681    15.3671    16.1178
  387.0000     7.1052    54.1645     2.4254     0.1511     0.0359   -25.1137    15.4748    16.1726
  387.5000     7.0206    54.2829     2.4252     0.1506     0.0367   -25.0594    15.5777    16.2276
  388.0000     6.9784    54.2948     2.4250     0.1432     0.0400   -25.0051    15.6813    16.2828
  388.5000     6.9002    54.6818     2.4292     0.1333     0.0451   -24.9506    15.7943    16.3382
  389.0000     6.7233    55.5155     2.4424     0.1235     0.0503   -24.8963    15.7943    16.3869
  389.5000     6.8316    55.2368     2.4767     0.1137     0.0492   -24.8502    15.5701    16.1514
  390.0000     6.8917    54.9399     2.4908     0.1060     0.0348   -24.8504    15.2898    15.9445
  390.5000     7.0776    54.6457     2.4794     0.1778     0.0203   -24.8436    14.7683    15.7403
  391.0000     6.8742    54.0728     2.4276     0.1897     0.0113   -25.1651    14.2577    15.5387
  391.5000     7.0072    51.4565     2.3776     0.1970     0.0187   -25.5627    14.1020    15.3397
  392.0000     7.1027    49.1949     2.3439     0.2023     0.0378   -25.9632    14.0457    15.1432
  392.5000     6.9999    49.5956     2.3382     0.1690     0.0693   -26.3697    13.9919    14.9493
  393.0000     6.8813    52.2753     2.3841     0.1690     0.1000   -26.3501    13.9381    14.7577
  393.5000     6.9779    54.9417     2.3900     0.1642     0.1162   -26.2450    13.8842    14.5688
  394.0000     6.9936    57.4864     2.4035     0.1547     0.1336   -26.1379    13.8305    14.3822
  394.5000     6.9634    59.7110     2.4199     0.1452     0.1423   -26.0318    13.7571    14.2730
  395.0000     6.8940    59.1740     2.4364     0.1357     0.1430   -25.9258    13.7872    14.3926
  395.5000     6.8895    58.4496     2.4474     0.1241     0.1420   -25.8199    13.8384    14.4781
  396.0000     6.8899    58.4532     2.4582     0.1349     0.1347   -25.7137    13.8892    14.5641
  396.5000     6.8904    59.1335     2.4661     0.1453     0.1163   -25.6079    13.9403    14.6507
  397.0000     6.8744    59.1370     2.4451     0.1504     0.1021   -25.5035    13.9914    14.7377
  397.5000     6.8535    58.9158     2.4267     0.1546     0.0984   -25.5193    14.0428    14.8253
  398.0000     6.8435    59.1128     2.4190     0.1576     0.1008   -25.6797    14.0944    14.9134
  398.5000     6.8271    59.9473     2.4134     0.1606     0.1032   -25.8392    14.1421    15.0020
  399.0000     6.8113    62.4013     2.4078     0.1629     0.1057   -25.9974    14.1083    15.0837
  399.5000     6.7940    64.6155     2.4027     0.1645     0.1098   -26.1505    14.0699    15.1470
  400.0000     6.8475    64.0424     2.3989     0.1661     0.1208   -25.9586    14.0315    15.2232
  400.5000     6.9299    63.0352     2.4005     0.1516     0.1712   -25.6902    13.9660    15.0851
  401.0000     6.8584    62.0139     2.4260     0.1256     0.2341   -25.4319    13.8740    14.8141
  401.5000     6.7358    60.9984     2.4682     0.1024     0.2864   -25.2918    13.7824    14.5481
  402.0000     6.9664    60.1194     2.5037     0.1116     0.2912   -25.4510    13.6915    14.2868
  402.5000     6.8844    60.1376     2.4918     0.1359     0.2558   -25.6095    13.6012    14.0125
  403.0000     6.5872    59.9995     2.4678     0.1606     0.2033   -25.6253    13.5115    13.9417
  403.5000     6.8904    59.0815     2.4243     0.1538     0.1850   -25.6017    13.4224    13.8659
  404.0000     6.7375    59.9606     2.4056     0.1258     0.2113   -25.5769    13.3814    13.7909
  404.5000     6.7609    60.8976     2.4608     0.0948     0.2391   -25.5525    13.3819    13.7562
