~VERSION INFORMATION
 VERS.                2.0:   CWLS LOG ASCII STANDARD - VERSION 2.0
 WRAP.                 NO:   ONE LINE PER DEPTH STEP
~WELL INFORMATION
#MNEM.UNIT      DATA TYPE    INFORMATION
#----------   ------------   ------------------------------
 STRT.F         1304.0000:   START DEPTH
 STOP.F         2900.0000:   STOP DEPTH
 STEP.F            0.5000:   STEP LENGTH
 NULL.          -999.2500:   NO VALUE
 COMP.   FLUOR DANIEL INC:   COMPANY
 WELL. NAVAL PETROLEUM RESERVE 3 SHX- #18-14:   WELL
 FLD .             TEAPOT:   FIELD
 LOC .      S14 T38N R78W:   LOCATION
 CNTY.            NATRONA:   COUNTY
 STAT.            WYOMING:   STATE
 CTRY. UNITED STATES OF AMERICA:   COUNTRY
 SRVC.            Unknown:   SERVICE COMPANY
 DATE.        17-APR-1995:   LOGDATE
 API .       490252270800:   API NUMBER
~CURVE INFORMATION
#MNEM.UNIT       API CODE    CURVE DESCRIPTION
#----------   ------------   ------------------------------
 DEPT.F                  :   
 ROP .FT/HR  91 810 01 00:   RAT OF DRILLING PENETRATION
 TGAS.TC/CC  91 830 01 00:   TOTAL GAS UNIT
~PARAMETER INFORMATION
#MNEM.UNIT          VALUE    DESCRIPTION
#----------   ------------   ------------------------------
 EKB .F              5271:   KELLING BUSHING
 EGL .F              5281:   GROUND LEVEL
 DATE.        17-APR-1995:   RUN DATE
 RUN .                  1:   RUN NUMBER
 BLI .F              2900:   BOTTOM LOG INTERVAL
 TLI .F              1310:   TOP LOG INTERVAL
 WITN.     C.TOWER/R.HUSK:   WITNESSED BY
 CLNT.            A2DTECH:   CLIENT CODE
 ORIG.           5" PRINT:   ORIGIN OF DATA
 UWI .       490252270800:   UNIQUE WELL ID
 DICO. A2D Technologies, Inc.:   DIGITIZING COMPANY
~OTHER INFORMATION
~A  DEPT         ROP     TGAS   
# ...
 2033.0000     0.5429    47.7392
 2033.5000     0.5430    47.7337
 2034.0000     0.5431    47.7282
 2034.5000     0.5432    47.5340
 2035.0000     0.5433    47.3396
 2035.5000     0.5434    47.5216
 2036.0000     0.6759    47.3274
 2036.5000     0.6813    47.3226
 2037.0000     0.6866    47.3164
 2037.5000     0.6920    47.3113
 2038.0000     0.7981    47.3057
 2038.5000     0.7982    47.1112
 2039.0000     0.7983    47.2943
 2039.5000     0.7984    47.2887
 2040.0000     0.7985    47.2819
 2040.5000     0.7986    47.2764
 2041.0000     0.7987    47.2709
 2041.5000     0.7988    47.2654
 2042.0000     0.7989    47.2599
 2042.5000     0.7990    47.2543
 2043.0000     0.7991    47.2488
 2043.5000     0.7992    47.2433
 2044.0000     0.7992    47.2377
 2044.5000     0.7993    47.2321
 2045.0000     0.7994    47.2254
 2045.5000     0.7995    47.2199
 2046.0000     0.6870    47.2151
 2046.5000     0.6883    47.1540
 2047.0000     0.6897    47.0147
 2047.5000     0.6910    47.0092
 2048.0000     0.6923    47.1925
 2048.5000     0.6936    47.1868
 2049.0000     0.6950    47.1811
 2049.5000     0.6963    47.1744
 2050.0000     0.8076    47.1701
 2050.5000     0.8031    47.1682
 2051.0000     0.7987    47.1662
 2051.5000     0.7942    47.1643
 2052.0000     1.0181    47.1623
 2052.5000     1.0184    47.1603
 2053.0000     1.0186    47.1584
 2053.5000     1.0189    47.1566
 2054.0000     1.0192    47.1547
 2054.5000     1.0195    47.1528
 2055.0000     1.0198    47.1506
 2055.5000     1.0201    47.1487
 2056.0000     0.6531    47.1469
 2056.5000     0.6524    47.5224
 2057.0000     0.6517    47.5205
 2057.5000     0.6511    47.3300
 2058.0000     0.6504    46.9508
 2058.5000     0.6497    46.3829
 2059.0000     0.6490    46.0037
 2059.5000     0.6483    45.6245
 2060.0000     0.6477    45.4215
 2060.5000     0.6470    44.8374
 2061.0000     0.6479    44.1091
 2061.5000     0.6542    43.3525
 2062.0000     0.6606    42.7846
 2062.5000     0.6669    42.2168
 2063.0000     0.6733    41.4602
 2063.5000     0.6759    41.0810
 2064.0000     0.6758    40.7018
 2064.5000     0.6756    40.3226
 2065.0000     0.6755    40.1320
 2065.5000     0.6753    39.9415
 2066.0000     0.6752    39.9296
 2066.5000     0.6750    39.7491
 2067.0000     0.6749    39.9360
 2067.5000     0.6747    39.9337
 2068.0000     0.6745    39.9318
 2068.5000     0.6744    39.9300
 2069.0000     0.6742    39.7395
 2069.5000     0.6741    39.7376
 2070.0000     0.6739    39.5471
 2070.5000     0.6738    39.7340
 2071.0000     0.6736    39.5434
 2071.5000     0.6735    39.5415
 2072.0000     0.6733    39.5396
 2072.5000     0.6732    39.5374
 2073.0000     0.6730    39.5359
 2073.5000     0.6729    39.5337
 2074.0000     0.6727    39.5318
 2074.5000     0.8147    39.7735
 2075.0000     0.8161    39.9060
 2075.5000     0.8176    39.9037
 2076.0000     0.8190    39.7131
 2076.5000     0.8205    39.7113
 2077.0000     0.8219    39.7094
 2077.5000     0.8234    39.7264
 2078.0000     0.8248    39.8944
 2078.5000     1.1649    39.8921
 2079.0000     1.1596    39.8903
 2079.5000     1.1546    39.8884
 2080.0000     1.1496    39.6979
 2080.5000     1.0530    39.7548
 2081.0000     1.0345    39.8833
 2081.5000     1.0347    39.6928
 2082.0000     1.0256    39.8792
 2082.5000     0.8658    39.9687
 2083.0000     0.8661    40.0641
 2083.5000     0.8664    40.0623
 2084.0000     0.8667    40.0600
 2084.5000     0.8669    40.0582
 2085.0000     0.8672    40.0563
 2085.5000     0.8675    40.0545
 2086.0000     0.8678    39.8640
 2086.5000     0.8681    39.8621
 2087.0000     0.8684    39.8603
 2087.5000     0.8686    39.8584
 2088.0000     0.8689    39.8566
 2088.5000     0.5679    40.2321
 2089.0000     0.5681    40.6076
 2089.5000     0.5683    40.9831
 2090.0000     0.5685    41.5473
 2090.5000     0.5687    42.2997
 2091.0000     0.5689    42.4870
 2091.5000     0.5692    42.4847
 2092.0000     0.5694    42.7295
 2092.5000     0.5696    42.9026
 2093.0000     0.5698    43.0453
 2093.5000     0.5700    43.1612
 2094.0000     0.5702    43.2302
 2094.5000     0.5705    43.2283
 2095.0000     0.5707    43.2264
 2095.5000     0.5709    43.2242
 2096.0000     0.5711    43.0341
 2096.5000     0.5713    43.2209
 2097.0000     0.5715    43.2186
 2097.5000     0.5718    43.1185
 2098.0000     0.5720    43.0263
 2098.5000     0.5722    43.0244
 2099.0000     0.5724    43.0226
 2099.5000     0.5726    43.2094
 2100.0000     0.5729    43.2075
 2100.5000     0.5731    43.2414
 2101.0000     0.5729    43.2753
 2101.5000     0.5725    43.3092
 2102.0000     0.5720    43.3431
 2102.5000     0.5716    43.3773
 2103.0000     0.5711    43.1849
 2103.5000     0.5707    43.1804
 2104.0000     0.5702    43.1768
 2104.5000     0.5698    43.1731
 2105.0000     0.5693    43.3581
 2105.5000     0.5689    43.3545
 2106.0000     0.5684    43.3508
 2106.5000     0.5680    43.3471
 2107.0000     0.5675    43.3434
 2107.5000     0.5670    43.1502
 2108.0000     0.5666    43.1466
 2108.5000     0.5661    43.1429
 2109.0000     0.5657    43.3289
 2109.5000     0.5652    43.1356
 2110.0000     0.5648    43.1320
 2110.5000     0.5643    43.1283
 2111.0000     0.5639    43.1245
 2111.5000     0.5634    43.1201
 2112.0000     0.5630    43.1164
 2112.5000     0.5625    43.1447
 2113.0000     0.5621    43.2981
 2113.5000     0.5616    43.2941
 2114.0000     0.5613    43.4792
 2114.5000     0.5612    43.4743
 2115.0000     0.5611    43.0943
 2115.5000     0.5610    43.0899
 2116.0000     0.5609    43.0862
 2116.5000     0.5608    43.0826
 2117.0000     0.5607    43.0789
 2117.5000     0.5606    43.0753
 2118.0000     0.5605    42.8829
 2118.5000     0.5604    42.8792
 2119.0000     0.5603    43.0643
 2119.5000     0.5884    43.0597
 2120.0000     0.6635    43.0561
 2120.5000     0.6822    42.8637
 2121.0000     0.6633    43.0487
 2121.5000     0.6632    43.0451
 2122.0000     0.6632    43.0414
 2122.5000     0.6631    43.0377
 2123.0000     0.6630    43.0340
 2123.5000     0.6629    43.0302
 2124.0000     0.6628    43.0264
 2124.5000     0.6627    43.0226
 2125.0000     0.6626    43.0189
 2125.5000     0.6625    43.0151
 2126.0000     0.6624    43.0112
 2126.5000     0.6623    43.0075
 2127.0000     0.6622    43.0038
 2127.5000     0.6621    42.9994
 2128.0000     0.6620    43.1849
 2128.5000     0.6619    42.9920
 2129.0000     0.6614    42.9884
 2129.5000     0.6590    42.9847
 2130.0000     0.6567    43.1698
 2130.5000     0.6543    43.3548
 2131.0000     0.6519    43.3502
 2131.5000     0.6495    43.3472
 2132.0000     0.6471    43.3434
 2132.5000     0.6448    43.5279
 2133.0000     0.6423    43.3356
 2133.5000     0.6434    43.3319
 2134.0000     0.6446    43.5170
 2134.5000     0.6458    43.5132
 2135.0000     0.6469    43.5087
 2135.5000     0.6481    43.5050
 2136.0000     0.6493    43.3127
 2136.5000     0.6505    43.3091
 2137.0000     0.6516    43.3057
 2137.5000     0.6528    43.3019
 2138.0000     0.6540    43.2981
 2138.5000     0.6552    43.2943
 2139.0000     0.6563    43.2906
 2139.5000     0.6575    43.2862
 2140.0000     0.6587    43.2825
 2140.5000     0.6597    43.2792
 2141.0000     0.6596    43.2755
 2141.5000     0.6595    43.2716
 2142.0000     0.6594    43.4566
 2142.5000     0.6593    43.4528
 2143.0000     0.6592    43.4483
 2143.5000     0.6591    43.4447
 2144.0000     0.6590    43.2524
 2144.5000     0.6589    43.2487
 2145.0000     0.6588    43.4337
 2145.5000     0.6587    43.2414
 2146.0000     0.6586    43.2377
 2146.5000     0.6586    43.2338
 2147.0000     0.6585    43.4182
 2147.5000     0.6584    43.4145
 2148.0000     0.6583    43.2226
 2148.5000     0.6582    43.2189
 2149.0000     0.6581    43.2149
 2149.5000     0.6580    43.2112
 2150.0000     0.5168    43.2080
 2150.5000     0.5163    43.2060
 2151.0000     0.5158    43.2041
 2151.5000     0.5153    43.2021
 2152.0000     0.5148    43.2002
 2152.5000     0.5144    43.1982
 2153.0000     0.5139    43.1963
 2153.5000     0.5134    43.1943
 2154.0000     0.5129    43.1925
