~VERSION INFORMATION
 VERS.                2.0:   CWLS LOG ASCII STANDARD - VERSION 2.0
 WRAP.                 NO:   ONE LINE PER DEPTH STEP
~WELL INFORMATION
#MNEM.UNIT      DATA TYPE    INFORMATION
#----------   ------------   ------------------------------
 STRT.F          250.0000:   START DEPTH
 STOP.F         2527.0000:   STOP DEPTH
 STEP.F            0.5000:   STEP LENGTH
 NULL.          -999.2500:   NO VALUE
 COMP. FENIX & SCISSON INC:   COMPANY
 WELL.       NPR 3 #18-28:   WELL
 FLD .            WILDCAT:   FIELD
 LOC .      S28 T39N R78W:   LOCATION
 CNTY.            NATRONA:   COUNTY
 STAT.            WYOMING:   STATE
 CTRY. UNITED STATES OF AMERICA:   COUNTRY
 SRVC.            Unknown:   SERVICE COMPANY
 DATE.        01-MAY-1979:   LOGDATE
 API .       490251078000:   API NUMBER
~CURVE INFORMATION
#MNEM.UNIT       API CODE    CURVE DESCRIPTION
#----------   ------------   ------------------------------
 DEPT.F                  :   
 CORR.G/C3   45 356 01 00:   DENSITY CORRECTION
 DPHI.DEC    45 890 12 00:   DENSITY POROSITY SANDSTONE
 RHOB.G/C3   45 350 01 00:   BULK DENSITY
 CALD.IN     45 280 60 00:   CALIPER FROM DENSITY LOG
 GRD .GAPI   45 310 01 00:   GAMMA RAY FROM DENSITY LOG
~PARAMETER INFORMATION
#MNEM.UNIT          VALUE    DESCRIPTION
#----------   ------------   ------------------------------
 PD  .                 GL:   PERMANENT DATUM
 EPD .F              5079:   ELEVATION PERMANENT DATUM
 LMF .                 KB:   LOG MEASURED FROM
 DAPD.F                10:   FEET ABOVE PERMANENT DATUM
 DMF .                 KB:   DRILLING MEASURED FROM
 EKB .F              5089:   KELLING BUSHING
 EGL .F              5079:   GROUND LEVEL
 DATE.             5-1-79:   RUN DATE
 RUN .                  1:   RUN NUMBER
 DL  .F              2527:   DEPTH LOGGER
 BLI .F              2527:   BOTTOM LOG INTERVAL
 TLI .F               250:   TOP LOG INTERVAL
 CS  .IN            9.625:   CASING SIZE
 CBD .F               500:   CASING BOTTOM DRILLER
 CBL .F               495:   CASING BOTTOM LOGGER
 BS  .IN             8.75:   BIT SIZE
 DFT .                AIR:   DRILLING FLUID TYPE
 TCS .HRS              12:   TIME CURCULATED STOPPED
 LUL .             CASPER:   LOGGING UNIT LOCATION
 ENGI.         B. ROLLINS:   RECORDING ENGINEER
 WITN.           DINSMORE:   WITNESSED BY
 CLNT.            A2DTECH:   CLIENT CODE
 ORIG.           5" PRINT:   ORIGIN OF DATA
 UWI .       490251078000:   UNIQUE WELL ID
 DICO. A2D Technologies, Inc.:   DIGITIZING COMPANY
~OTHER INFORMATION
~A   DEPT     CORR       DPHI       RHOB       CALD         GRD  
# ...
 2080.0000     0.0503     0.0438     2.4958     9.0680   134.5211
 2080.5000     0.0496     0.0395     2.4946     9.0680   134.5535
 2081.0000     0.0350     0.0541     2.4595     9.0680   139.3904
 2081.5000     0.0212     0.0636     2.4497     9.0680   143.0375
 2082.0000     0.0261     0.0637     2.4529     9.0680   140.7592
 2082.5000     0.0349     0.0598     2.4600     9.0680   136.2664
 2083.0000     0.0349     0.0557     2.4652     9.0680   133.4389
 2083.5000     0.0393     0.0443     2.4725     9.0680   134.9007
 2084.0000     0.0573     0.0265     2.5064     9.0680   136.2917
 2084.5000     0.0803     0.0181     2.5348     9.0680   133.8660
 2085.0000     0.0825     0.0177     2.5337     9.0680   131.4611
 2085.5000     0.0767     0.0244     2.5117     9.0680   129.5999
 2086.0000     0.0627     0.0377     2.4927     9.0680   130.4790
 2086.5000     0.0472     0.0509     2.4741     9.0680   131.5723
 2087.0000     0.0318     0.0640     2.4555     9.0680   130.2340
 2087.5000     0.0209     0.0644     2.4469     9.0680   130.8203
 2088.0000     0.0231     0.0623     2.4526     9.0683   134.1713
 2088.5000     0.0219     0.0631     2.4452     9.0689   133.3552
 2089.0000     0.0151     0.0680     2.4366     9.0695   134.4432
 2089.5000     0.0172     0.0684     2.4383     9.0700   134.8045
 2090.0000     0.0276     0.0646     2.4412     9.0706   132.1202
 2090.5000     0.0365     0.0609     2.4505     9.0712   140.5641
 2091.0000     0.0349     0.0571     2.4599     9.0718   140.0503
 2091.5000     0.0370     0.0534     2.4692     9.0724   138.8199
 2092.0000     0.0387     0.0498     2.4769     9.0730   132.1597
 2092.5000     0.0335     0.0516     2.4667     9.0735   130.0378
 2093.0000     0.0283     0.0587     2.4549     9.0741   129.9554
 2093.5000     0.0231     0.0660     2.4432     9.0747   131.1984
 2094.0000     0.0216     0.0672     2.4467     9.0753   132.1689
 2094.5000     0.0426     0.0508     2.4644     9.0759   131.8564
 2095.0000     0.0544     0.0407     2.4848     9.0765   129.0058
 2095.5000     0.0586     0.0407     2.4898     9.0770   126.2450
 2096.0000     0.0589     0.0371     2.4916     9.0776   123.6620
 2096.5000     0.0726     0.0269     2.5110     9.0782   123.5191
 2097.0000     0.0896     0.0167     2.5316     9.0788   130.9157
 2097.5000     0.0808     0.0106     2.5447     9.0794   132.8666
 2098.0000     0.0567     0.0421     2.5122     9.0799   132.4473
 2098.5000     0.0401     0.0402     2.4921     9.0805   128.8454
 2099.0000     0.0374     0.0388     2.4981     9.0811   127.0706
 2099.5000     0.0308     0.0438     2.4938     9.0817   125.9683
 2100.0000     0.0212     0.0494     2.4835     9.0823   123.2449
 2100.5000     0.0247     0.0377     2.4922     9.0829   120.5415
 2101.0000     0.0331     0.0312     2.5029     9.0834   117.7922
 2101.5000     0.0347     0.0320     2.5043     9.0840   117.0553
 2102.0000     0.0287     0.0334     2.5009     9.0846   118.3681
 2102.5000     0.0248     0.0339     2.5003     9.0852   120.3925
 2103.0000     0.0253     0.0325     2.5039     9.0858   122.4232
 2103.5000     0.0257     0.0308     2.5071     9.0864   124.1744
 2104.0000     0.0261     0.0338     2.4967     9.0869   123.5729
 2104.5000     0.0265     0.0423     2.4865     9.0870   122.6257
 2105.0000     0.0269     0.0445     2.4840     9.0851   121.6904
 2105.5000     0.0247     0.0461     2.4799     9.0833   121.8914
 2106.0000     0.0223     0.0477     2.4756     9.0815   123.8413
 2106.5000     0.0176     0.0504     2.4713     9.0796   125.8714
 2107.0000     0.0128     0.0546     2.4695     9.0778   127.8708
 2107.5000     0.0079     0.0589     2.4649     9.0760   128.5111
 2108.0000     0.0051     0.0619     2.4507     9.0741   125.3881
 2108.5000     0.0052     0.0620     2.4474     9.0723   124.4892
 2109.0000     0.0102     0.0597     2.4581     9.0705   123.6400
 2109.5000     0.0205     0.0573     2.4700     9.0686   120.8292
 2110.0000     0.0307     0.0415     2.4822     9.0668   117.8518
 2110.5000     0.0338     0.0423     2.4844     9.0650   117.4783
 2111.0000     0.0313     0.0443     2.4838     9.0631   122.2501
 2111.5000     0.0284     0.0447     2.4854     9.0613   128.4096
 2112.0000     0.0277     0.0414     2.4887     9.0595   133.0504
 2112.5000     0.0345     0.0379     2.4917     9.0576   131.7841
 2113.0000     0.0415     0.0363     2.4911     9.0558   130.2318
 2113.5000     0.0387     0.0466     2.4766     9.0540   128.6815
 2114.0000     0.0318     0.0502     2.4718     9.0521   128.2414
 2114.5000     0.0253     0.0506     2.4728     9.0503   128.6318
 2115.0000     0.0249     0.0510     2.4738     9.0485   131.0126
 2115.5000     0.0250     0.0518     2.4745     9.0466   132.8927
 2116.0000     0.0207     0.0526     2.4731     9.0448   132.0110
 2116.5000     0.0132     0.0533     2.4693     9.0430   128.8678
 2117.0000     0.0070     0.0526     2.4669     9.0411   128.3312
 2117.5000     0.0058     0.0494     2.4762     9.0393   130.6138
 2118.0000     0.0185     0.0437     2.4856     9.0375   133.4870
 2118.5000     0.0261     0.0380     2.4936     9.0357   130.5052
 2119.0000     0.0228     0.0363     2.4905     9.0338   126.7168
 2119.5000     0.0246     0.0415     2.4876     9.0320   128.3824
 2120.0000     0.0257     0.0395     2.4768     9.0302   131.5834
 2120.5000     0.0189     0.0551     2.4622     9.0295   132.4392
 2121.0000     0.0095     0.0565     2.4606     9.0303   130.6444
 2121.5000     0.0119     0.0529     2.4638     9.0312   132.6399
 2122.0000     0.0173     0.0494     2.4733     9.0321   133.2193
 2122.5000     0.0226     0.0466     2.4785     9.0329   130.0569
 2123.0000     0.0279     0.0501     2.4705     9.0337   127.8268
 2123.5000     0.0332     0.0561     2.4606     9.0346   126.4114
 2124.0000     0.0369     0.0621     2.4509     9.0354   129.1757
 2124.5000     0.0325     0.0681     2.4411     9.0363   133.0691
 2125.0000     0.0247     0.0741     2.4312     9.0372   134.3579
 2125.5000     0.0168     0.0787     2.4220     9.0380   135.9083
 2126.0000     0.0089     0.0773     2.4237     9.0389   139.5469
 2126.5000     0.0011     0.0700     2.4328     9.0397   143.1622
 2127.0000    -0.0014     0.0663     2.4454     9.0406   144.7745
 2127.5000     0.0104     0.0598     2.4664     9.0414   138.4729
 2128.0000     0.0254     0.0411     2.4876     9.0423   132.6019
 2128.5000     0.0406     0.0336     2.4966     9.0431   126.7331
 2129.0000     0.0416     0.0374     2.4951     9.0440   123.2554
 2129.5000     0.0397     0.0420     2.4844     9.0448   124.3193
 2130.0000     0.0335     0.0463     2.4741     9.0457   127.3869
 2130.5000     0.0232     0.0514     2.4638     9.0465   130.0998
 2131.0000     0.0130     0.0565     2.4554     9.0474   125.7503
 2131.5000     0.0026     0.0617     2.4556     9.0482   125.7575
 2132.0000     0.0012     0.0668     2.4504     9.0491   129.7446
 2132.5000     0.0053     0.0724     2.4411     9.0499   132.5499
 2133.0000     0.0138     0.0712     2.4369     9.0508   133.8554
 2133.5000     0.0223     0.0695     2.4402     9.0516   134.2757
 2134.0000     0.0286     0.0694     2.4438     9.0525   134.5063
 2134.5000     0.0135     0.0720     2.4364     9.0533   132.1662
 2135.0000     0.0049     0.0744     2.4297     9.0542   128.9507
 2135.5000     0.0142     0.0726     2.4364     9.0550   125.6800
 2136.0000     0.0246     0.0612     2.4496     9.0559   122.4117
 2136.5000     0.0289     0.0573     2.4630     9.0567   119.1555
 2137.0000     0.0308     0.0593     2.4640     9.0576   115.8758
 2137.5000     0.0290     0.0614     2.4599     9.0584   114.4134
 2138.0000     0.0244     0.0634     2.4556     9.0593   116.2055
 2138.5000     0.0199     0.0656     2.4514     9.0601   118.1699
 2139.0000     0.0149     0.0649     2.4487     9.0610   119.7054
 2139.5000     0.0195     0.0597     2.4494     9.0618   118.1869
 2140.0000     0.0243     0.0545     2.4607     9.0627   116.5172
 2140.5000     0.0298     0.0493     2.4717     9.0635   114.8215
