~VERSION INFORMATION
 VERS.                2.0:   CWLS LOG ASCII STANDARD - VERSION 2.0
 WRAP.                 NO:   ONE LINE PER DEPTH STEP
~WELL INFORMATION
#MNEM.UNIT      DATA TYPE    INFORMATION
#----------   ------------   ------------------------------
 STRT.F           20.0000:   START DEPTH
 STOP.F          632.0000:   STOP DEPTH
 STEP.F            0.5000:   STEP LENGTH
 NULL.          -999.2500:   NO VALUE
 COMP. FENIX & SCISSON INC:   COMPANY
 WELL.    58 SX 34 #34-34:   WELL
 FLD .             TEAPOT:   FIELD
 LOC .      S34 T39N R78W:   LOCATION
 CNTY.            NATRONA:   COUNTY
 STAT.            WYOMING:   STATE
 CTRY. UNITED STATES OF AMERICA:   COUNTRY
 SRVC.            Unknown:   SERVICE COMPANY
 DATE.        30-JAN-1979:   LOGDATE
 API .       490251077300:   API NUMBER
~CURVE INFORMATION
#MNEM.UNIT       API CODE    CURVE DESCRIPTION
#----------   ------------   ------------------------------
 DEPT.F                  :   
 SPR .MV     05 010 01 00:   SPONTANEOUS POTENTIAL FROM RES.
 SN  .OHMM   05 040 16 00:   SHORT NORMAL 16"
 ILD .OHMM   05 120 46 00:   INDUCTION LOG DEEP
 CALD.IN     45 280 60 00:   CALIPER
 CORR.G/C3   45 356 01 00:   DENSITY CORRECTION
 RHOB.G/C3   45 350 01 00:   BULK DENSITY
 GRD .GAPI   45 310 01 00:   GAMMA RAY FROM DENSITY LOG
 DPHI.DEC    45 890 12 00:   DENSITY POROSITY SANDSTONE
~PARAMETER INFORMATION
#MNEM.UNIT          VALUE    DESCRIPTION
#----------   ------------   ------------------------------
 PD  .                 GL:   PERMANENT DATUM
 LMF .                 KB:   LOG MEASURED FROM
 DAPD.F                 4:   FEET ABOVE PERMANENT DATUM
 DMF .                 KB:   DRILLING MEASURED FROM
 DATE.            1-30-79:   RUN DATE
 RUN .                  1:   RUN NUMBER
 DD  .F               635:   DEPTH DRILLER
 DL  .F               632:   DEPTH LOGGER
 BLI .F               626:   BOTTOM LOG INTERVAL
 TLI .F                35:   TOP LOG INTERVAL
 CS  .IN            8.625:   CASING SIZE
 CBD .F                40:   CASING BOTTOM DRILLER
 CBL .F                35:   CASING BOTTOM LOGGER
 BS  .IN            7.875:   BIT SIZE
 BSD .F               635:   BIT SIZE AT DEPTH
 DFT .                KCL:   DRILLING FLUID TYPE
 DFD .                8.9:   DRILLING FLUID DENSITY
 DFV .                230:   DRILLING FLUID VISCOSITY
 DFPH.                  8:   DRILLING FLUID PH
 DFL .                 30:   DRILLING FLUID LOSS
 MSS .           FLOWLINE:   MUD SAMPLE SOURCE
 RMS .OHMM            .18:   RESISTIVITY MUD SAMPLE
 MST .F                62:   MUD SAMPLE TEMPERATURE
 RMF .OHMM            .14:   RESISTIVITY MUD FILTRATE SAMPLE
 MFST.F                59:   MUD FILTRATE SAMPLE TEMPERATURE
 RMC .OHMM            .24:   RESISTIVITY MUD CAKE
 MCST.F                60:   MUD CAKE SAMPLE TEMPERATURE
 MFSS.           MEASURED:   MUD FILTRATE SAMPLE SOURCE
 MCSS.           MEASURED:   MUD CAKE SAMPLE SOURCE
 RMB .OHMM            .17:   RESISTIVITY MUD AT BHT
 BHT .F                70:   BOTTOM HOLE TEMPERATURE
 TCS .HRS               4:   TIME CURCULATED STOPPED
 MRT .F                70:   MAXIMUM RECORDED TEMPERATURE
 LUN .               3006:   LOGGING UNIT NUMBER
 LUL .             CASPER:   LOGGING UNIT LOCATION
 ENGI.            ROLLINS:   RECORDING ENGINEER
 WITN.              AMEND:   WITNESSED BY
 CLNT.            A2DTECH:   CLIENT CODE
 ORIG.         2.5" PRINT:   ORIGIN OF DATA
 UWI .       490251077300:   UNIQUE WELL ID
 DICO. A2D Technologies, Inc.:   DIGITIZING COMPANY
~OTHER INFORMATION
~A   DEPT      SPR         SN        ILD       CALD       CORR       RHOB         GRD      DPHI   
# ...
  141.5000   -43.2940     6.6565     7.8884     8.2900     0.0247     2.4486   110.8665     0.1454
  142.0000   -43.2925     6.6801     7.8850     8.2984     0.0261     2.4473   106.0446     0.1429
  142.5000   -43.3101     6.7039     7.8786     8.3067     0.0275     2.4449   105.0796     0.1404
  143.0000   -43.1274     6.7278     7.8722     8.3149     0.0289     2.4413   107.9087     0.1382
  143.5000   -42.7948     6.7516     7.8658     8.3240     0.0302     2.4378   110.0613     0.1384
  144.0000   -42.4760     6.7753     7.8596     8.3227     0.0316     2.4349   109.4573     0.1394
  144.5000   -42.1648     6.7970     7.8532     8.3141     0.0329     2.4368   107.2014     0.1403
  145.0000   -41.3513     6.7998     7.8467     8.3058     0.0343     2.4421   105.1234     0.1413
  145.5000   -40.4678     6.8087     7.8404     8.2980     0.0357     2.4477   103.4058     0.1422
  146.0000   -40.4538     6.8177     7.8340     8.2916     0.0365     2.4535   106.6721     0.1416
  146.5000   -40.4405     6.8266     7.8277     8.2680     0.0370     2.4589   108.9600     0.1408
  147.0000   -40.4291     6.8354     7.8213     8.2287     0.0375     2.4645   107.4350     0.1400
  147.5000   -40.6018     6.8442     7.8150     8.1910     0.0379     2.4639   104.9656     0.1390
  148.0000   -40.8923     6.8531     7.8087     8.1571     0.0384     2.4588   105.7492     0.1382
  148.5000   -41.1683     6.8619     7.8023     8.1150     0.0389     2.4476   106.9999     0.1396
  149.0000   -41.4385     6.8708     7.7960     8.0744     0.0393     2.4417   106.7080     0.1410
  149.5000   -41.7144     6.8797     7.7897     7.8993     0.0399     2.4405   106.3564     0.1446
  150.0000   -41.9881     6.8886     7.7833     7.7450     0.0414     2.4388   105.9381     0.1472
  150.5000   -42.2616     6.8975     7.7770     7.5807     0.0423     2.4376   108.1329     0.1500
  151.0000   -42.5319     6.9064     7.7706     7.4210     0.0553     2.4322   111.1618     0.1528
  151.5000   -42.8085     6.9154     7.7643     7.2781     0.0758     2.4236   111.6086     0.1555
  152.0000   -42.8817     6.9243     7.7583     7.2325     0.0951     2.4158   109.4997     0.1574
  152.5000   -42.8605     6.9333     7.7511     7.2012     0.1142     2.4247   108.0855     0.1552
  153.0000   -42.8428     6.9422     7.7406     7.2721     0.1337     2.4416   109.1747     0.1518
  153.5000   -42.8282     6.9512     7.7460     7.3419     0.1519     2.4585   110.2086     0.1477
  154.0000   -42.8110     6.9602     7.7935     7.4484     0.1679     2.4692   108.2931     0.1435
  154.5000   -42.7946     6.9692     7.8326     7.5586     0.1833     2.4724   105.7329     0.1344
  155.0000   -42.7783     6.9782     7.8753     7.6870     0.1957     2.4763   105.2900     0.1229
  155.5000   -42.7618     6.9872     7.8890     7.8342     0.1989     2.4832   106.7721     0.1159
  156.0000   -42.7457     6.9963     7.8889     7.8680     0.2071     2.4939   108.2539     0.1106
  156.5000   -42.7296     7.0054     7.9167     7.8256     0.2148     2.5045   108.2613     0.1075
  157.0000   -42.7135     7.0144     7.9413     7.8124     0.1917     2.5015   107.6171     0.1123
  157.5000   -42.6973     7.0236     7.9661     7.8509     0.1453     2.4941   106.9145     0.1200
  158.0000   -42.6812     7.0329     7.9908     7.8855     0.0677     2.4865   106.1828     0.1277
  158.5000   -42.6650     7.0418     8.0157     7.9220     0.0312     2.4508   105.9111     0.1354
  159.0000   -42.6489     7.0491     8.0407     7.9585     0.0302     2.4406   105.9335     0.1382
  159.5000   -42.6328     7.0813     8.0659     7.9948     0.0267     2.4447   105.8754     0.1390
  160.0000   -42.6166     7.1420     8.0910     8.0309     0.0238     2.4449   106.4126     0.1400
  160.5000   -42.6005     7.1981     8.1163     8.0673     0.0248     2.4393   107.5102     0.1412
  161.0000   -42.5842     7.2557     8.1417     8.1055     0.0254     2.4341   107.9241     0.1425
  161.5000   -42.5680     7.3226     8.1672     8.1308     0.0262     2.4312   107.5636     0.1438
  162.0000   -42.5520     7.1876     8.1928     8.1390     0.0271     2.4321   108.9258     0.1454
  162.5000   -42.5350     7.2093     8.2184     8.1490     0.0279     2.4354   110.1447     0.1440
  163.0000   -42.5197     7.2296     8.2444     8.1593     0.0273     2.4395   111.5560     0.1422
  163.5000   -42.5038     7.2500     8.2694     8.1690     0.0257     2.4443   110.7914     0.1403
  164.0000   -42.4822     7.2704     8.2953     8.1789     0.0242     2.4491   109.3020     0.1398
  164.5000   -42.5245     7.2912     8.3212     8.1889     0.0227     2.4540   107.5300     0.1390
  165.0000   -42.6284     7.3115     8.3745     8.1992     0.0213     2.4575   107.5272     0.1382
  165.5000   -42.7265     7.3321     8.5188     8.2059     0.0202     2.4579   108.6938     0.1382
  166.0000   -42.8240     7.3527     8.6655     8.2058     0.0211     2.4586   109.7437     0.1383
  166.5000   -42.9231     7.3735     8.8148     8.2063     0.0218     2.4553   112.6592     0.1383
  167.0000   -43.0214     7.3943     8.9667     8.2053     0.0226     2.4519   115.1959     0.1384
  167.5000   -43.1199     7.4152     9.1211     8.2041     0.0235     2.4482   117.9719     0.1385
  168.0000   -43.2186     7.4361     9.1800     8.1674     0.0243     2.4478   120.5445     0.1386
  168.5000   -43.3169     7.4600     9.2126     8.1336     0.0272     2.4501   122.7118     0.1387
  169.0000   -43.4150     7.5353     9.2453     8.0501     0.0279     2.4526   122.1583     0.1388
  169.5000   -43.5144     7.6260     9.2781     7.9662     0.0274     2.4516   119.3675     0.1389
  170.0000   -43.6120     7.7181     9.3111     7.9802     0.0269     2.4514   114.6803     0.1390
  170.5000   -43.6972     7.8116     9.3441     8.0207     0.0264     2.4535   111.5633     0.1382
  171.0000   -43.7052     7.9065     9.3772     8.0610     0.0259     2.4558   111.6378     0.1373
  171.5000   -43.7127     8.0029     9.4105     8.1010     0.0255     2.4582   111.4974     0.1364
  172.0000   -43.7176     8.1002     9.4439     8.1445     0.0250     2.4607   110.7695     0.1355
  172.5000   -43.7235     8.1925     9.4774     8.1577     0.0245     2.4607   110.0567     0.1346
  173.0000   -43.7294     8.3463     9.5016     8.1255     0.0241     2.4616   110.5990     0.1333
  173.5000   -43.7351     8.3370     9.6547     8.0844     0.0247     2.4639   110.7730     0.1316
  174.0000   -43.7409     8.3380     9.8294     8.0371     0.0252     2.4671   111.0661     0.1290
  174.5000   -43.7467     8.3336    10.0072     7.9895     0.0257     2.4704   107.8758     0.1264
  175.0000   -43.7525     8.3153    10.1883     7.9399     0.0262     2.4739   107.8029     0.1238
  175.5000   -43.7584     8.2975    10.3726     7.9304     0.0267     2.4770   109.4999     0.1213
  176.0000   -43.7642     8.2795    10.5603     7.9471     0.0272     2.4852   111.0048     0.1223
  176.5000   -43.7701     8.2626    10.8234     7.9629     0.0279     2.4847   108.9624     0.1262
  177.0000   -43.7760     8.2454    10.8234     7.9630     0.0274     2.4763   107.2055     0.1301
  177.5000   -43.7818     8.2283    10.7943     7.9638     0.0250     2.4627   105.2750     0.1340
  178.0000   -43.7877     8.2113    10.7541     7.9634     0.0229     2.4493   106.7874     0.1376
  178.5000   -43.7935     8.1942    10.7140     7.9636     0.0203     2.4430   108.3431     0.1411
  179.0000   -43.7994     8.1772    10.6740     7.9637     0.0225     2.4367   110.0523     0.1445
  179.5000   -43.8052     8.1602    10.6342     7.9634     0.0254     2.4327   111.8384     0.1470
  180.0000   -43.8111     8.1432    10.5946     7.9642     0.0285     2.4328   112.5255     0.1470
  180.5000   -43.8169     8.1263    10.5551     7.9650     0.0314     2.4351   111.3486     0.1466
  181.0000   -43.8228     8.1095    10.5157     8.0272     0.0344     2.4370   112.0071     0.1453
  181.5000   -43.8287     8.0926    10.4765     8.0824     0.0373     2.4429   114.3261     0.1440
