~VERSION INFORMATION
 VERS.                2.0:   CWLS LOG ASCII STANDARD - VERSION 2.0
 WRAP.                 NO:   ONE LINE PER DEPTH STEP
~WELL INFORMATION
#MNEM.UNIT      DATA TYPE    INFORMATION
#----------   ------------   ------------------------------
 STRT.F            0.0000:   START DEPTH
 STOP.F          550.0000:   STOP DEPTH
 STEP.F            0.1000:   STEP LENGTH
 NULL.          -999.2500:   NO VALUE
 COMP.       F D SERV INC:   COMPANY
 WELL. NAVAL PETROLEUM RESERVE 3 SX-3 #77-4-3:   WELL
 FLD .          N.P.R. #3:   FIELD
 LOC .       S3 T38N R78W:   LOCATION
 CNTY.            NATRONA:   COUNTY
 STAT.            WYOMING:   STATE
 CTRY. UNITED STATES OF AMERICA:   COUNTRY
 SRVC.      Western Atlas:   SERVICE COMPANY
 DATE.        28-OCT-1992:   LOGDATE
 API .       490252255100:   API NUMBER
~CURVE INFORMATION
#MNEM.UNIT       API CODE    CURVE DESCRIPTION
#----------   ------------   ------------------------------
 DEPT.F                  :   
 GRR .GAPI   07 310 01 00:   GAMMA RAY FROM RESISTIVITY
 RILD.OHMM   07 120 46 00:   DEEP INDUCTION RESISTIVITY
 RILM.OHMM   07 120 44 00:   INDUCTION LOG MEDIUM RESISTIVITY
~PARAMETER INFORMATION
#MNEM.UNIT          VALUE    DESCRIPTION
#----------   ------------   ------------------------------
 PD  .                 GL:   PERMANENT DATUM
 EPD .F              5160:   ELEVATION PERMANENT DATUM
 LMF .                 KB:   LOG MEASURED FROM
 DAPD.F                10:   FEET ABOVE PERMANENT DATUM
 DMF .                 KB:   DRILLING MEASURED FROM
 EKB .F              5170:   KELLING BUSHING
 EDF .F              5169:   DRILLING FLOOR
 EGL .F              5160:   GROUND LEVEL
 DATE.        28-OCT-1992:   RUN DATE
 RUN .                  1:   RUN NUMBER
 DD  .F               555:   DEPTH DRILLER
 DL  .F               558:   DEPTH LOGGER
 BLI .F               550:   BOTTOM LOG INTERVAL
 CS  .IN            8.625:   CASING SIZE
 CBD .F                54:   CASING BOTTOM DRILLER
 CBL .F                54:   CASING BOTTOM LOGGER
 BS  .IN            7.875:   BIT SIZE
 BSD .F               555:   BIT SIZE AT DEPTH
 DFT .           AIR FOAM:   DRILLING FLUID TYPE
 TCS .HRS               1:   TIME CURCULATED STOPPED
 MRT .F                65:   MAXIMUM RECORDED TEMPERATURE
 LUN .            HL-6274:   LOGGING UNIT NUMBER
 LUL .             CASPER:   LOGGING UNIT LOCATION
 ENGI.             RAUTIO:   RECORDING ENGINEER
 WITN.     BRUCE ANDERSON:   WITNESSED BY
 CLNT.            A2DTECH:   CLIENT CODE
 ORIG.           5" PRINT:   ORIGIN OF DATA
 UWI .       490252255100:   UNIQUE WELL ID
 DICO. A2D Technologies, Inc.:   DIGITIZING COMPANY
~OTHER INFORMATION
~A    DEPT      GRR      RILD       RILM   
# ...
  182.0000   128.8016     9.0967     8.8484
  182.1000   128.6917     9.0970     8.8042
  182.2000   128.4447     9.0974     8.7868
  182.3000   128.2229     9.0978     8.7867
  182.4000   128.0591     9.0982     8.7983
  182.5000   127.8953     9.0986     8.8478
  182.6000   127.7314     9.0990     8.8476
  182.7000   127.6785     9.0572     8.8475
  182.8000   127.4538     9.0365     8.8474
  182.9000   126.9575     9.0369     8.8473
  183.0000   126.4773     9.0373     8.8472
  183.1000   126.4802     9.0377     8.8470
  183.2000   126.4822     9.0380     8.8469
  183.3000   126.4846     8.9999     8.8091
  183.4000   126.5861     8.9760     8.7853
  183.5000   126.7915     8.9764     8.7852
  183.6000   126.7940     8.9768     8.7797
  183.7000   127.5250     8.9772     8.7240
  183.8000   128.2755     8.9775     8.7239
  183.9000   129.3008     8.9779     8.7238
  184.0000   130.2961     8.9783     8.7236
  184.1000   130.7972     8.9787     8.7235
  184.2000   131.3404     8.9790     8.7234
  184.3000   131.3426     8.9795     8.7232
  184.4000   131.3450     8.9798     8.7231
  184.5000   131.2246     8.9802     8.7230
  184.6000   130.9776     8.9805     8.7229
  184.7000   130.7307     8.9809     8.7228
  184.8000   130.4487     8.9813     8.7227
  184.9000   130.2368     8.9817     8.7225
  185.0000   129.8288     8.9820     8.7224
  185.1000   129.3326     8.9824     8.7223
  185.2000   128.8363     8.9828     8.7222
  185.3000   128.3456     8.9832     8.7221
  185.4000   128.3480     8.9836     8.7219
  185.5000   128.3505     8.9839     8.7218
  185.6000   128.3529     8.9843     8.7217
  185.7000   128.3553     8.9847     8.7216
  185.8000   128.3577     8.9850     8.7214
  185.9000   128.3602     8.9854     8.7213
  186.0000   128.3625     8.9858     8.7212
  186.1000   128.3650     8.9862     8.7211
  186.2000   128.2352     8.9865     8.7210
  186.3000   128.0677     8.9869     8.7208
  186.4000   128.0435     8.9873     8.7207
  186.5000   127.7706     8.9877     8.7206
  186.6000   127.3265     8.9880     8.7205
  186.7000   126.8302     8.9884     8.7204
  186.8000   126.2163     9.0188     8.7202
  186.9000   125.4707     9.0520     8.7201
  187.0000   124.7371     9.0524     8.7200
  187.1000   124.1599     9.0528     8.7199
  187.2000   124.1619     9.0532     8.7197
  187.3000   124.1644     9.0535     8.7196
  187.4000   124.2699     9.0539     8.7195
  187.5000   124.4713     9.0543     8.7194
  187.6000   124.4737     9.0500     8.7193
  187.7000   124.4761     8.9922     8.7191
  187.8000   124.6727     8.9926     8.7190
  187.9000   124.7831     8.9929     8.7189
  188.0000   124.7855     8.9933     8.7188
  188.1000   124.8237     8.9937     8.7187
  188.2000   125.0926     8.9941     8.7185
  188.3000   125.0949     8.9945     8.7184
  188.4000   125.2769     8.9528     8.7183
  188.5000   125.4018     8.9327     8.7182
  188.6000   125.5525     8.9331     8.7180
  188.7000   126.0535     8.9335     8.7179
  188.8000   126.6178     8.9339     8.7178
  188.9000   127.4916     8.8849     8.7177
  189.0000   128.4914     8.8726     8.7176
  189.1000   129.4912     8.8729     8.7174
  189.2000   130.3122     8.8733     8.7173
  189.3000   130.5571     8.8737     8.7172
  189.4000   130.5600     8.8741     8.7171
  189.5000   130.7654     8.8744     8.6720
  189.6000   130.8665     8.8398     8.6564
  189.7000   130.9668     8.8136     8.6327
  189.8000   131.1734     8.8139     8.5961
  189.9000   131.1759     8.8143     8.5959
  190.0000   131.1783     8.8147     8.5958
  190.1000   131.1807     8.8150     8.5957
  190.2000   131.1831     8.8154     8.5956
  190.3000   131.1021     8.8158     8.5955
  190.4000   130.8552     8.8161     8.5953
  190.5000   130.5863     8.8165     8.5952
  190.6000   130.3613     8.8169     8.5951
  190.7000   129.9400     8.8172     8.6334
  190.8000   129.4437     8.8176     8.6549
  190.9000   128.9474     8.8180     8.6548
  191.0000   128.4512     8.8183     8.6547
  191.1000   127.8819     8.8187     8.6545
  191.2000   127.2459     8.8191     8.6544
  191.3000   126.1805     8.8194     8.6543
  191.4000   125.2576     8.8198     8.6542
  191.5000   124.7069     8.8057     8.6541
  191.6000   123.9661     8.7593     8.6540
  191.7000   123.9686     8.7597     8.6538
  191.8000   124.1692     8.7168     8.6537
  191.9000   124.5663     8.6673     8.6536
  192.0000   125.1601     8.6396     8.6535
  192.1000   125.9106     8.6399     8.6423
  192.2000   126.6998     8.6403     8.5926
  192.3000   127.4115     8.5906     8.5434
  192.4000   128.3457     8.5810     8.5333
  192.5000   128.9527     8.5814     8.5046
  192.6000   129.2044     8.5817     8.4739
  192.7000   129.4308     8.5821     8.4738
  192.8000   129.4335     8.5825     8.4737
  192.9000   129.4356     8.5828     8.4276
  193.0000   129.4381     8.5832     8.4147
  193.1000   129.3241     8.5835     8.4145
  193.2000   129.0772     8.5686     8.4144
  193.3000   128.8302     8.5246     8.4143
  193.4000   128.5418     8.5250     8.4142
  193.5000   128.1289     8.5254     8.4141
  193.6000   127.7873     8.5257     8.4466
  193.7000   127.4384     8.5261     8.4726
  193.8000   126.9913     8.5264     8.4725
  193.9000   126.7408     8.5268     8.4724
  194.0000   124.7774     8.5272     8.4722
  194.1000   123.9428     8.5275     8.4323
  194.2000   123.8671     8.5278     8.4132
  194.3000   124.0314     8.5282     8.4131
  194.4000   124.0338     8.5286     8.4130
  194.5000   124.0364     8.5289     8.4129
  194.6000   124.0387     8.5293     8.3660
  194.7000   124.0411     8.5296     8.3543
  194.8000   124.1692     8.5300     8.3542
  194.9000   124.3480     8.5303     8.3541
  195.0000   124.3706     8.5307     8.3481
  195.1000   124.6553     8.5311     8.2959
  195.2000   124.8741     8.4870     8.2958
  195.3000   125.1259     8.4725     8.2626
  195.4000   125.3776     8.4729     8.2380
  195.5000   125.5710     8.4601     8.2124
  195.6000   125.5678     8.4120     8.1238
  195.7000   125.2742     8.3567     8.1237
  195.8000   125.0739     8.3166     8.0843
  195.9000   124.8270     8.2394     8.0379
  196.0000   124.5801     8.1652     7.9537
  196.1000   124.2893     8.1187     7.8361
  196.2000   123.7753     8.0723     7.7908
  196.3000   123.5372     7.9810     7.6586
  196.4000   123.1025     7.9256     7.5615
  196.5000   122.4713     7.8549     7.4751
  196.6000   121.8079     7.7654     7.3747
  196.7000   121.2527     7.6833     7.2544
  196.8000   120.1646     7.6366     7.1658
  196.9000   119.4889     7.5557     7.0896
  197.0000   118.5700     7.5005     7.0086
  197.1000   117.8159     7.4579     6.9285
  197.2000   117.3873     7.4280     6.8493
  197.3000   117.1551     7.4214     6.7709
  197.4000   117.1581     7.3258     6.6834
  197.5000   117.3716     7.2896     6.6171
  197.6000   117.7821     7.2482     6.5660
  197.7000   118.3891     7.1887     6.5284
  197.8000   119.1396     7.1162     6.4909
  197.9000   119.8900     7.0757     6.4543
  198.0000   120.6405     7.0277     6.4542
  198.1000   121.7849     7.0279     6.4244
  198.2000   123.0341     6.9806     6.4093
  198.3000   124.1003     6.9313     6.4092
  198.4000   124.8121     6.9249     6.4091
  198.5000   125.3415     6.8837     6.4090
  198.6000   126.0495     6.8463     6.4089
  198.7000   126.6175     6.8074     6.4088
  198.8000   126.8592     6.7687     6.4087
  198.9000   126.9386     6.7425     6.4086
  199.0000   127.1662     6.7387     6.4085
  199.1000   127.1689     6.6962     6.4084
  199.2000   126.9503     6.6965     6.4084
  199.3000   126.5353     6.6968     6.4083
  199.4000   126.1543     6.7151     6.4082
  199.5000   125.8449     6.7441     6.4081
  199.6000   125.3389     6.7444     6.4080
  199.7000   124.4645     6.7448     6.4079
  199.8000   124.0540     6.7773     6.4385
  199.9000   123.5577     6.7924     6.4754
  200.0000   122.9607     6.7927     6.5279
  200.1000   122.2994     6.7942     6.6020
