~VERSION INFORMATION
 VERS.                2.0:   CWLS LOG ASCII STANDARD - VERSION 2.0
 WRAP.                 NO:   ONE LINE PER DEPTH STEP
~WELL INFORMATION
#MNEM.UNIT      DATA TYPE    INFORMATION
#----------   ------------   ------------------------------
 STRT.F         1160.0000:   START DEPTH
 STOP.F         2086.0000:   STOP DEPTH
 STEP.F            0.5000:   STEP LENGTH
 NULL.          -999.2500:   NO VALUE
 COMP. LAWRENCE/ALLISON INC:   COMPANY
 WELL.      17 STX #27-27:   WELL
 FLD .             TEAPOT:   FIELD
 LOC .      S27 T39N R78W:   LOCATION
 CNTY.            NATRONA:   COUNTY
 STAT.            WYOMING:   STATE
 CTRY. UNITED STATES OF AMERICA:   COUNTRY
 SRVC.            Unknown:   SERVICE COMPANY
 DATE.        09-JUN-1991:   LOGDATE
 API .       490251118200:   API NUMBER
~CURVE INFORMATION
#MNEM.UNIT       API CODE    CURVE DESCRIPTION
#----------   ------------   ------------------------------
 DEPT.F                  :   
 ROP .MIN/FT 91 810 01 00:   RAT OF DRILLING PENETRATION
 TGAS.UNITS  91 830 01 00:   TOTAL GAS UNIT
~PARAMETER INFORMATION
#MNEM.UNIT          VALUE    DESCRIPTION
#----------   ------------   ------------------------------
 EKB .F              5078:   KELLING BUSHING
 EGL .F              5068:   GROUND LEVEL
 DATE.         9-JUN-1991:   RUN DATE
 RUN .                  1:   RUN NUMBER
 BLI .F              2120:   BOTTOM LOG INTERVAL
 TLI .F              1160:   TOP LOG INTERVAL
 CLNT.            A2DTECH:   CLIENT CODE
 ORIG.           5" PRINT:   ORIGIN OF DATA
 UWI .       490251118200:   UNIQUE WELL ID
 DICO. A2D Technologies, Inc.:   DIGITIZING COMPANY
~OTHER INFORMATION
~A  DEPT         ROP      TGAS  
 1160.0000     0.4226    50.8094
 1160.5000     0.4230    50.9192
 1161.0000     0.3952    51.0290
 1161.5000     0.3767    51.1388
 1162.0000     0.3486    51.2486
 1162.5000     0.3491    51.3584
 1163.0000     0.3495    51.4682
 1163.5000     0.3499    51.5780
 1164.0000     0.3502    51.6878
 1164.5000     0.3600    51.7976
 1165.0000     0.3793    51.9074
 1165.5000     0.3797    52.0172
 1166.0000     0.3800    52.1270
 1166.5000     0.3898    52.2368
 1167.0000     0.3902    52.3466
 1167.5000     0.3906    52.4565
 1168.0000     0.3910    52.5663
 1168.5000     0.3913    52.6761
 1169.0000     0.3917    52.7859
 1169.5000     0.3921    52.8957
 1170.0000     0.3925    53.0055
 1170.5000     0.3928    53.1153
 1171.0000     0.3838    53.2266
 1171.5000     0.3559    53.3440
 1172.0000     0.2808    53.4614
 1172.5000     0.3189    53.5787
 1173.0000     0.3759    53.6961
 1173.5000     0.3951    53.8135
 1174.0000     0.3955    53.9309
 1174.5000     0.3959    54.0483
 1175.0000     0.3963    54.1657
 1175.5000     0.3966    54.2831
 1176.0000     0.3970    54.4004
 1176.5000     0.3879    54.5178
 1177.0000     0.3883    54.6352
 1177.5000     0.3792    54.7526
 1178.0000     0.3796    54.8700
 1178.5000     0.3800    54.9874
 1179.0000     0.3898    55.1048
 1179.5000     0.3902    55.2221
 1180.0000     0.3811    55.3395
 1180.5000     0.3721    55.4569
 1181.0000     0.3615    55.5743
 1181.5000     0.3256    55.6917
 1182.0000     0.3450    55.7322
 1182.5000     0.4020    55.7531
 1183.0000     0.4495    55.7741
 1183.5000     0.5159    55.7950
 1184.0000     0.5917    55.8159
 1184.5000     0.6676    55.8368
 1185.0000     0.6868    55.8577
 1185.5000     0.6872    55.8787
 1186.0000     0.6876    55.8996
 1186.5000     0.6784    55.9205
 1187.0000     0.6789    55.9414
 1187.5000     0.7453    55.9623
 1188.0000     0.7551    55.9833
 1188.5000     0.7744    56.0042
 1189.0000     0.7842    56.0251
 1189.5000     0.7845    56.0460
 1190.0000     0.7752    56.0669
 1190.5000     0.7468    56.0879
 1191.0000     0.7102    56.1088
 1191.5000     0.6917    56.1279
 1192.0000     0.6826    55.9872
 1192.5000     0.6831    55.8574
 1193.0000     0.6835    55.7276
 1193.5000     0.6838    55.5978
 1194.0000     0.7031    55.4680
 1194.5000     0.7128    55.3382
 1195.0000     0.7132    55.2085
 1195.5000     0.7137    55.0787
 1196.0000     0.7140    54.9489
 1196.5000     0.7144    54.8191
 1197.0000     0.7336    54.6893
 1197.5000     0.7623    54.5595
 1198.0000     0.7910    54.4297
 1198.5000     0.8385    54.3567
 1199.0000     0.8955    54.5063
 1199.5000     0.9431    54.6558
 1200.0000     1.0189    54.8054
 1200.5000     1.1042    54.9549
 1201.0000     1.1800    55.1045
 1201.5000     1.2747    55.2541
 1202.0000     1.3600    55.4036
 1202.5000     1.3321    55.5532
 1203.0000     1.2570    55.7027
 1203.5000     1.1723    55.8523
 1204.0000     1.0586    56.0019
 1204.5000     1.0034    56.1514
 1205.0000     1.0038    56.3010
 1205.5000     1.0137    56.4505
 1206.0000     0.9952    56.6001
 1206.5000     0.9578    56.7586
 1207.0000     0.9110    56.7782
 1207.5000     0.8453    56.7992
 1208.0000     0.7984    56.8201
 1208.5000     0.7423    56.8410
 1209.0000     0.6861    56.8619
 1209.5000     0.6582    56.8828
 1210.0000     0.6490    56.9038
 1210.5000     0.6495    56.9247
 1211.0000     0.6593    56.9456
 1211.5000     0.6596    56.9665
 1212.0000     0.6600    56.9874
 1212.5000     0.6604    57.0084
 1213.0000     0.6608    57.0293
 1213.5000     0.6706    57.0502
 1214.0000     0.7091    57.0711
 1214.5000     0.8040    57.0921
 1215.0000     0.8709    57.1130
 1215.5000     0.9189    57.1339
 1216.0000     0.9555    57.1548
 1216.5000     0.9748    58.2221
 1217.0000     0.9752    58.2428
 1217.5000     0.9755    59.2467
 1218.0000     0.9759    59.0227
 1218.5000     0.9763    58.7988
 1219.0000     0.9672    58.5748
 1219.5000     0.9204    58.3508
 1220.0000     0.9018    58.1268
 1220.5000     0.8834    57.9028
 1221.0000     0.8838    57.6788
 1221.5000     0.8746    57.4548
 1222.0000     0.8656    55.5856
 1222.5000     0.8661    54.2887
 1223.0000     0.8759    51.1549
 1223.5000     0.8762    49.0226
 1224.0000     0.8766    44.9366
 1224.5000     0.8578    41.8191
 1225.0000     0.8200    40.7937
 1225.5000     0.8117    37.6814
 1226.0000     0.8009    34.5639
 1226.5000     0.7841    32.4873
 1227.0000     0.7751    29.3699
 1227.5000     0.7755    27.3036
 1228.0000     0.7759    24.1810
 1228.5000     0.7763    20.0227
 1229.0000     0.7767    20.0433
 1229.5000     0.7770    16.9258
 1230.0000     0.7774    15.8996
 1230.5000     0.8155    13.8285
 1231.0000     0.8536    11.7576
 1231.5000     0.8917    11.7782
 1232.0000     0.9298    11.7992
 1232.5000     0.9302    11.8201
 1233.0000     0.9400    11.8410
 1233.5000     0.9309    11.8658
 1234.0000     0.9313    10.8404
 1234.5000     0.9317    10.8610
 1235.0000     0.9321     8.7896
 1235.5000     0.9325     7.7591
 1236.0000     0.9328     7.7848
 1236.5000     0.9050     7.8054
 1237.0000     0.8582     7.8261
 1237.5000     0.8208     6.7955
 1238.0000     0.8023     5.7753
 1238.5000     0.8121     5.7959
 1239.0000     0.8219     5.8165
 1239.5000     0.8506     4.7908
 1240.0000     0.8793     4.8117
 1240.5000     0.8985     3.7863
 1241.0000     0.9366     3.8075
 1241.5000     0.9747     2.7815
 1242.0000     1.0129     2.8073
 1242.5000     1.0510     1.7767
 1243.0000     1.0891     1.8025
 1243.5000     1.1272     1.8231
 1244.0000     1.1276     1.8438
 1244.5000     1.1091     0.8183
 1245.0000     1.1000     0.8390
 1245.5000     1.1004     0.8596
 1246.0000     1.0913     0.9707
 1246.5000     1.1011     1.2111
 1247.0000     1.1299     1.4516
 1247.5000     1.1680     1.6921
 1248.0000     1.2061     1.9326
 1248.5000     1.2159     2.1731
 1249.0000     1.2068     2.4136
 1249.5000     1.1978     2.6541
 1250.0000     1.2280     2.8946
 1250.5000     1.2457     3.1351
 1251.0000     1.2838     3.3756
 1251.5000     1.3408     3.6161
 1252.0000     1.4074     3.8566
 1252.5000     1.4460     4.0971
 1253.0000     1.4846     4.3070
 1253.5000     1.5121     4.2198
 1254.0000     1.5125     4.1425
 1254.5000     1.5223     4.0652
 1255.0000     1.5321     3.9879
 1255.5000     1.5325     3.9106
 1256.0000     1.6272     3.8333
 1256.5000     1.7125     3.7560
 1257.0000     1.7883     3.6787
 1257.5000     1.8548     3.6015
 1258.0000     1.9022     3.5242
 1258.5000     1.7329     3.4469
 1259.0000     1.4313     3.3696
 1259.5000     1.1959     3.2923
 1260.0000     0.8944     3.2150
 1260.5000     0.8758     3.1377
 1261.0000     0.9140     3.0604
 1261.5000     0.9615     2.9831
 1262.0000     1.0185     2.9058
 1262.5000     1.0287     2.8285
 1263.0000     1.0381     2.7512
 1263.5000     1.0479     2.6739
 1264.0000     1.0483     2.5966
 1264.5000     1.0581     2.5193
 1265.0000     1.0586     2.4420
 1265.5000     1.0589     2.3647
 1266.0000     1.0687     2.2874
 1266.5000     1.1068     2.2101
 1267.0000     1.1827     2.1328
 1267.5000     1.2585     2.0556
 1268.0000     1.3249     1.9783
 1268.5000     1.3819     1.9010
 1269.0000     1.4200     1.8373
 1269.5000     1.4581     1.8619
 1270.0000     1.4774     1.8828
 1270.5000     1.4495     1.9038
 1271.0000     1.4121     1.9247
 1271.5000     1.3747     1.9456
 1272.0000     1.3374     1.9665
 1272.5000     1.3189     1.9874
 1273.0000     1.3581     2.0084
 1273.5000     1.4140     2.0293
 1274.0000     1.4114     2.0502
 1274.5000     1.2733     2.0711
 1275.0000     1.1887     2.0920
 1275.5000     1.0759     2.1130
 1276.0000     0.9819     2.1339
 1276.5000     0.8974     2.1548
 1277.0000     0.8601     2.1757
 1277.5000     0.8416     2.1967
 1278.0000     0.8230     2.2176
 1278.5000     0.8139     2.2385
 1279.0000     0.8332     2.2594
 1279.5000     0.8619     2.2803
 1280.0000     0.9000     2.3013
 1280.5000     0.9098     2.3222
 1281.0000     0.9008     2.3431
