~VERSION INFORMATION
 VERS.                2.0:   CWLS LOG ASCII STANDARD - VERSION 2.0
 WRAP.                 NO:   ONE LINE PER DEPTH STEP
~WELL INFORMATION
#MNEM.UNIT      DATA TYPE    INFORMATION
#----------   ------------   ------------------------------
 STRT.F           19.5000:   START DEPTH
 STOP.F          635.0000:   STOP DEPTH
 STEP.F            0.5000:   STEP LENGTH
 NULL.          -999.2500:   NO VALUE
 COMP. FENIX & SCISSON INC:   COMPANY
 WELL. NPR-3 68-S-34 #3-34:   WELL
 FLD .  TEAPOT DOME NPR-3:   FIELD
 LOC .      S34 T39N R78W:   LOCATION
 CNTY.            NATRONA:   COUNTY
 STAT.            WYOMING:   STATE
 CTRY. UNITED STATES OF AMERICA:   COUNTRY
 SRVC.           BIRDWELL:   SERVICE COMPANY
 DATE.        01-AUG-1978:   LOGDATE
 API .       490251070600:   API NUMBER
~CURVE INFORMATION
#MNEM.UNIT       API CODE    CURVE DESCRIPTION
#----------   ------------   ------------------------------
 DEPT.F                  :   
 SPR .MV     05 010 01 00:   SPONTANEOUS POTENTIAL
 SN  .OHMM   05 040 16 00:   SHORT NORMAL 16'
 ILD .OHMM   05 120 46 00:   INDUCTION LOG DEEP RESISTIVITY
 GRD .GAPI   45 310 01 00:   GAMMA RAY FROM DENSITY LOG
 CALD.IN     45 280 60 00:   CALIPER
 RHOB.G/C3   45 350 01 00:   BULK DENSITY
 DPHI.DEC    45 890 12 00:   DENSITY POROSITY SANDSTONE
 CORR.G/C3   45 356 01 00:   DENSITY CORRECTION
~PARAMETER INFORMATION
#MNEM.UNIT          VALUE    DESCRIPTION
#----------   ------------   ------------------------------
 PD  .                 GL:   PERMANENT DATUM
 EPD .F              5100:   ELEVATION PERMANENT DATUM
 LMF .                 KB:   LOG MEASURED FROM
 DAPD.F                 4:   FEET ABOVE PERMANENT DATUM
 DMF .                 KB:   DRILLING MEASURED FROM
 EKB .F              5104:   KELLING BUSHING
 EGL .F              5100:   GROUND LEVEL
 DATE.           9-1-1978:   RUN DATE
 RUN .                  1:   RUN NUMBER
 DD  .F               635:   DEPTH DRILLER
 DL  .F               635:   DEPTH LOGGER
 BLI .F               629:   BOTTOM LOG INTERVAL
 TLI .F                40:   TOP LOG INTERVAL
 CS  .IN            8.625:   CASING SIZE
 CBD .F                40:   CASING BOTTOM DRILLER
 CBL .F                40:   CASING BOTTOM LOGGER
 BS  .IN            7.875:   BIT SIZE
 BSD .F               635:   BIT SIZE AT DEPTH
 DFT .                KCL:   DRILLING FLUID TYPE
 DFD .                8.6:   DRILLING FLUID DENSITY
 DFV .                 32:   DRILLING FLUID VISCOSITY
 DFPH.                  9:   DRILLING FLUID PH
 DFL .                  7:   DRILLING FLUID LOSS
 MSS .          FLOW LINE:   MUD SAMPLE SOURCE
 RMS .OHMM             .4:   RESISTIVITY MUD SAMPLE
 MST .F                76:   MUD SAMPLE TEMPERATURE
 RMF .OHMM             .3:   RESISTIVITY MUD FILTRATE SAMPLE
 MFST.F                80:   MUD FILTRATE SAMPLE TEMPERATURE
 RMC .OHMM             .4:   RESISTIVITY MUD CAKE
 MCST.F                80:   MUD CAKE SAMPLE TEMPERATURE
 MFSS.               MEAS:   MUD FILTRATE SAMPLE SOURCE
 MCSS.               MEAS:   MUD CAKE SAMPLE SOURCE
 RMB .OHMM            .43:   RESISTIVITY MUD AT BHT
 BHT .F                70:   BOTTOM HOLE TEMPERATURE
 TCS .HRS               3:   TIME CURCULATED STOPPED
 MRT .F                70:   MAXIMUM RECORDED TEMPERATURE
 LUN .               2958:   LOGGING UNIT NUMBER
 LUL .               CASP:   LOGGING UNIT LOCATION
 ENGI.            POINTER:   RECORDING ENGINEER
 WITN.           MCGINLEY:   WITNESSED BY
 CLNT.            A2DTECH:   CLIENT CODE
 ORIG.           5" PRINT:   ORIGIN OF DATA
 UWI .       490251070600:   UNIQUE WELL ID
 DICO. A2D Technologies, Inc.:   DIGITIZING COMPANY
~OTHER INFORMATION
~A   DEPT      SPR         SN        ILD         GRD      CALD       RHOB       DPHI       CORR   
# ...
  586.5000   -17.4059    10.0921    11.7657    88.1393     7.4151     2.5008     0.1031     0.0339
  587.0000   -17.3482     9.9916    11.5746    88.4065     7.4264     2.5061     0.1046     0.0382
  587.5000   -17.2883     9.9323    11.4581    92.1605     7.4354     2.5088     0.1041     0.0415
  588.0000   -17.5418     9.8766    11.3491    95.6855     7.4440     2.5101     0.1015     0.0415
  588.5000   -18.0221     9.8212    11.2411    99.0131     7.4499     2.5114     0.1017     0.0402
  589.0000   -18.5114     9.6899    11.1342    98.4561     7.4491     2.5115     0.1022     0.0363
  589.5000   -18.6614     9.5403    10.9938    96.8580     7.4485     2.5102     0.1020     0.0324
  590.0000   -18.6629     9.3930    10.7540    97.0850     7.4478     2.5105     0.1010     0.0300
  590.5000   -18.6575     9.2479    10.5193    97.7251     7.4471     2.5127     0.1000     0.0327
  591.0000   -18.6884     9.1051    10.4289    97.9162     7.4465     2.5149     0.1003     0.0354
  591.5000   -19.4743     8.9645    10.3857    99.4192     7.4458     2.5150     0.1013     0.0374
  592.0000   -20.1405     8.8261    10.3426   101.0486     7.4451     2.5132     0.1032     0.0333
  592.5000   -20.4292     8.6898    10.2782   101.4573     7.4445     2.5100     0.1086     0.0290
  593.0000   -20.7162     8.5445    10.3617   102.4979     7.4438     2.5040     0.1141     0.0245
  593.5000   -20.9960     8.3030     9.1865   103.6371     7.4431     2.4938     0.1195     0.0235
  594.0000   -21.5653     8.0682     8.2587   100.0853     7.4425     2.4837     0.1266     0.0234
  594.5000   -22.1889     7.7838     7.4193   102.3394     7.4418     2.4737     0.1405     0.0258
  595.0000   -22.1590     7.4414     6.5956   103.9300     7.4412     2.4531     0.1543     0.0296
  595.5000   -21.9189     7.1140     6.6023   105.1292     7.4405     2.4274     0.1630     0.0402
  596.0000   -20.9673     6.8542     6.5524   109.6054     7.4398     2.4022     0.1503     0.0576
  596.5000   -20.0809     6.9064     6.5464   115.2098     7.4391     2.4087     0.1193     0.0750
  597.0000   -20.1257     6.9658     6.7697   120.3831     7.4385     2.4473     0.0998     0.0754
  597.5000   -20.2002     7.3433     6.9322   119.4635     7.4378     2.5005     0.0868     0.0457
  598.0000   -20.2430     7.9286     7.1014   114.8251     7.4372     2.5263     0.0891     0.0296
  598.5000   -20.1068     8.5550     7.4419   104.2811     7.4365     2.5360     0.0930     0.0250
  599.0000   -19.9721     9.2310     8.7446    97.1057     7.4358     2.5250     0.0968     0.0207
  599.5000   -19.8378     9.7447    10.2649    95.8168     7.4352     2.5162     0.0965     0.0165
  600.0000   -19.7037    10.0107    11.2667    95.5023     7.4345     2.5192     0.0936     0.0154
  600.5000   -19.5695    10.1430    11.2654    95.4987     7.4338     2.5257     0.0905     0.0240
  601.0000   -19.4353    10.2606    11.2195    95.4901     7.4332     2.5302     0.0873     0.0274
  601.5000   -19.3011    10.3787    11.1481    95.5265     7.4325     2.5308     0.0838     0.0274
  602.0000   -19.1670    10.4980    11.0536    97.0094     7.4318     2.5357     0.0790     0.0278
  602.5000   -19.0328    10.6188    11.0939   100.6204     7.4312     2.5462     0.0748     0.0348
  603.0000   -18.8983    10.7409    11.1730   102.5098     7.4305     2.5471     0.0766     0.0376
  603.5000   -18.7644    10.8645    11.2534    98.9613     7.4303     2.5402     0.0784     0.0320
  604.0000   -18.6603    10.9895    11.3364   101.0556     7.4317     2.5342     0.0809     0.0264
  604.5000   -18.6625    11.1159    11.5314   103.2302     7.4331     2.5359     0.0834     0.0231
  605.0000   -18.6626    11.2437    11.7986   102.1281     7.4346     2.5378     0.0859     0.0222
  605.5000   -18.6631    11.3730    12.0700   101.0797     7.4360     2.5396     0.0884     0.0213
  606.0000   -18.6633    11.5030    12.3477    99.4491     7.4374     2.5375     0.0909     0.0204
  606.5000   -18.6586    11.6402    12.6318    97.5417     7.4388     2.5314     0.0892     0.0196
  607.0000   -18.4466    11.8124    12.9227    95.6150     7.4402     2.5253     0.0868     0.0195
  607.5000   -18.0123    11.8725    13.2213    93.6765     7.4416     2.5301     0.0844     0.0195
  608.0000   -17.6472    11.8982    13.5348    92.1094     7.4431     2.5357     0.0821     0.0197
  608.5000   -17.6047    11.8982    13.5322    96.5215     7.4445     2.5401     0.0819     0.0210
  609.0000   -17.5562    11.8982    13.5322    99.9348     7.4459     2.5384     0.0824     0.0222
  609.5000   -17.5067    11.8982    13.5322    96.1359     7.4473     2.5361     0.0844     0.0234
  610.0000   -17.4137    11.8982    13.5322    92.1443     7.4487     2.5338     0.0863     0.0224
  610.5000   -17.0993    11.8982    13.5322    92.9181     7.4502     2.5319     0.0882     0.0212
  611.0000   -16.8612    11.8982    13.5322    93.9112     7.4516     2.5317     0.0910     0.0201
  611.5000   -16.8659    11.8982    13.5322    94.8128     7.4530     2.5313     0.0944     0.0189
  612.0000   -16.8658    11.8981    13.5322    95.3372     7.4544     2.5313     0.0980     0.0178
  612.5000   -16.8668    11.8986    13.5322    95.8235     7.4558     2.5216     0.0986     0.0166
  613.0000   -16.8626    11.8997    13.5322    95.1197     7.4572     2.5167     0.1014     0.0155
  613.5000   -17.1278    11.7797    13.5324    94.3749     7.4586     2.5156     0.1061     0.0155
  614.0000   -17.5130    11.6806    13.5331    93.8275     7.4601     2.5110     0.1021     0.0178
  614.5000   -17.9083    11.5746    13.5324    95.5858     7.4615     2.5188     0.0955     0.0222
  615.0000   -17.9149    11.5746    13.3629    93.1389     7.4629     2.5285     0.0918     0.0268
  615.5000   -17.6768    11.5746    13.1813    93.3212     7.4643     2.5291     0.0902     0.0262
  616.0000   -17.5898    11.5746    13.0437    91.7807     7.4657     2.5280     0.0907     0.0246
  616.5000   -18.5819    11.5746    13.0437    89.8597     7.4671     2.5301     0.0914     0.0230
  617.0000   -16.4823    11.5746    13.0437    89.7163     7.4686     2.5330     0.0922     0.0215
  617.5000   -16.5720    11.5745    13.0437    91.8576     7.4699     2.5322     0.0930     0.0200
  618.0000   -16.6427    11.5736    13.0437    94.6919     7.4684     2.5303     0.0927     0.0200
  618.5000   -16.4991    11.5746    12.9259    97.3267     7.4668     2.5285     0.0909     0.0209
  619.0000   -16.2917    11.3168    12.6596    97.3199     7.4651     2.5270     0.0909     0.0217
  619.5000   -16.9457    11.0933    12.3987    95.6763     7.4635     2.5290     0.0923     0.0225
  620.0000   -17.1617    10.8741    12.1432    93.7186     7.4618     2.5311     0.0937     0.0234
  620.5000   -17.2786    10.6593    11.8982    91.2880     7.4602     2.5337     0.0952     0.0227
  621.0000   -17.3921    10.4615    11.8257    90.6842     7.4586     2.5301     0.0953     0.0217
  621.5000   -17.4659    10.4169    11.7551    97.0213     7.4569     2.5263     0.0929     0.0217
  622.0000   -17.4650    10.3756    11.6815   101.7162     7.4553     2.5339     0.0904     0.0225
  622.5000   -17.4652    10.3344    10.7120   100.1409     7.4537     2.5420     0.0891     0.0232
  623.0000   -17.4651    10.2933    10.5469    98.5738     7.4520     2.5430     0.0884     0.0239
  623.5000   -17.4651    10.2523    10.5329    98.8680     7.4504     2.5406     0.0876     0.0247
  624.0000   -17.4651    10.2114    10.5189    99.3886     7.4487     2.5379     0.0869     0.0254
  624.5000   -17.4651    10.1708    10.5049    99.1742     7.4471     2.5364     0.0861     0.0261
  625.0000   -17.4651    10.1303    10.4909    97.9416     7.4455     2.5386     0.0885     0.0269
  625.5000   -17.4651    10.0899    10.4771    96.8253     7.4438     2.5411     0.0913     0.0271
  626.0000   -17.4652    10.0497    10.4621    99.3132     7.4422     2.5340     0.0942     0.0239
  626.5000   -17.4646    10.0097    10.5561   101.2874     7.4406     2.5218     0.0964     0.0219
