~VERSION INFORMATION
 VERS.                2.0:   CWLS LOG ASCII STANDARD - VERSION 2.0
 WRAP.                 NO:   ONE LINE PER DEPTH STEP
~WELL INFORMATION
#MNEM.UNIT      DATA TYPE    INFORMATION
#----------   ------------   ------------------------------
 STRT.F           14.5000:   START DEPTH
 STOP.F          750.0000:   STOP DEPTH
 STEP.F            0.5000:   STEP LENGTH
 NULL.          -999.2500:   NO VALUE
 COMP. FENIX & SCISSON INC:   COMPANY
 WELL.       NPR 3 #24-14:   WELL
 FLD .             TEAPOT:   FIELD
 LOC .      S14 T38N R78W:   LOCATION
 CNTY.            NATRONA:   COUNTY
 STAT.            WYOMING:   STATE
 CTRY. UNITED STATES OF AMERICA:   COUNTRY
 SRVC.           BIRDWELL:   SERVICE COMPANY
 DATE.        27-DEC-1978:   LOGDATE
 API .       490251075900:   API NUMBER
~CURVE INFORMATION
#MNEM.UNIT       API CODE    CURVE DESCRIPTION
#----------   ------------   ------------------------------
 DEPT.F                  :   
 SPR .MV     05 010 01 00:   SPONTANEOUS POTENTIAL FROM RES.
 SN  .OHMM   05 040 16 00:   SHORT NORMAL 16"
 IL  .OHMM   05 120 00 00:   INDUCTION LOG
 GRD .GAPI   45 310 01 00:   GAMMA RAY FROM DENSITY LOG
 CALD.IN     45 280 60 00:   CALIPER
 RHOB.G/C3   45 350 01 00:   BULK DENSITY
 DPHI.DEC    45 890 12 00:   DENSITY POROSITY SANDSTONE
 CORR.G/C3   45 356 01 00:   DENSITY CORRECTION
~PARAMETER INFORMATION
#MNEM.UNIT          VALUE    DESCRIPTION
#----------   ------------   ------------------------------
 PD  .                 GL:   PERMANENT DATUM
 EPD .F              5209:   ELEVATION PERMANENT DATUM
 LMF .                 KB:   LOG MEASURED FROM
 DAPD.F                 4:   FEET ABOVE PERMANENT DATUM
 DMF .                 KB:   DRILLING MEASURED FROM
 EKB .F              5212:   KELLING BUSHING
 EGL .F              5209:   GROUND LEVEL
 DATE.           12-27-78:   RUN DATE
 RUN .                  1:   RUN NUMBER
 DD  .F               750:   DEPTH DRILLER
 DL  .F               742:   DEPTH LOGGER
 BLI .F               735:   BOTTOM LOG INTERVAL
 TLI .F                35:   TOP LOG INTERVAL
 CS  .IN            8.625:   CASING SIZE
 CBD .F                40:   CASING BOTTOM DRILLER
 CBL .F                32:   CASING BOTTOM LOGGER
 BS  .IN            7.875:   BIT SIZE
 BSD .F               750:   BIT SIZE AT DEPTH
 DFT .                KCL:   DRILLING FLUID TYPE
 DFD .                8.6:   DRILLING FLUID DENSITY
 DFV .                 35:   DRILLING FLUID VISCOSITY
 DFPH.                9.4:   DRILLING FLUID PH
 DFL .               12.4:   DRILLING FLUID LOSS
 MSS .           FLOWLINE:   MUD SAMPLE SOURCE
 RMS .OHMM            .38:   RESISTIVITY MUD SAMPLE
 MST .F                58:   MUD SAMPLE TEMPERATURE
 RMF .OHMM            .38:   RESISTIVITY MUD FILTRATE SAMPLE
 MFST.F                58:   MUD FILTRATE SAMPLE TEMPERATURE
 RMC .OHMM            .36:   RESISTIVITY MUD CAKE
 MCST.F                60:   MUD CAKE SAMPLE TEMPERATURE
 MFSS.           MEASURED:   MUD FILTRATE SAMPLE SOURCE
 MCSS.           MEASURED:   MUD CAKE SAMPLE SOURCE
 RMB .OHMM            .37:   RESISTIVITY MUD AT BHT
 BHT .F                59:   BOTTOM HOLE TEMPERATURE
 TCS .HRS               2:   TIME CURCULATED STOPPED
 MRT .F                59:   MAXIMUM RECORDED TEMPERATURE
 LUN .               2958:   LOGGING UNIT NUMBER
 LUL .             CASPER:   LOGGING UNIT LOCATION
 ENGI.         B. ROLLINS:   RECORDING ENGINEER
 WITN.           DINSMORE:   WITNESSED BY
 CLNT.            A2DTECH:   CLIENT CODE
 ORIG.           5" PRINT:   ORIGIN OF DATA
 UWI .       490251075900:   UNIQUE WELL ID
 DICO. A2D Technologies, Inc.:   DIGITIZING COMPANY
~OTHER INFORMATION
~A   DEPT      SPR         SN         IL         GRD      CALD       RHOB       DPHI       CORR   
# ...
  460.0000   -48.0440     8.1300     6.2740   107.2180     8.0860     2.5180     0.0950     0.1350
  460.5000   -48.3950     8.0670     6.1510   107.3620     8.0850     2.5020     0.1200     0.1110
  461.0000   -48.7430     7.9170     6.0300   107.5420     8.0850     2.4800     0.1410     0.1100
  461.5000   -49.0910     7.7150     5.9100   107.0580     8.0850     2.4610     0.1530     0.1140
  462.0000   -49.4430     7.5140     5.7890   102.7110     8.1080     2.4380     0.1650     0.1270
  462.5000   -49.8800     7.3120     5.6050   100.9220     8.1180     2.4120     0.1780     0.1450
  463.0000   -50.6410     7.0740     5.3420   101.5730     8.1070     2.3870     0.1930     0.1540
  463.5000   -51.3940     6.7920     5.0790   100.9880     8.0950     2.3610     0.2120     0.1500
  464.0000   -52.1060     6.3510     4.6850    99.8280     8.0780     2.3350     0.2320     0.1460
  464.5000   -52.5730     5.8860     4.1400    99.9320     8.0290     2.3090     0.2390     0.1420
  465.0000   -52.7280     5.4200     3.7870    99.8990     7.9820     2.2820     0.2320     0.1450
  465.5000   -52.7850     4.9550     3.4620    98.5920     7.8550     2.2810     0.2190     0.1470
  466.0000   -52.8360     4.5410     3.1370    92.4980     7.7780     2.3220     0.1800     0.1450
  466.5000   -52.8690     4.1820     2.8440    88.5650     7.5770     2.3850     0.1240     0.1270
  467.0000   -53.7370     3.8230     2.6660    87.5290     7.5930     2.4370     0.1280     0.1000
  467.5000   -54.9190     3.4640     2.8410    88.3400     7.6430     2.4260     0.1330     0.0740
  468.0000   -55.5520     3.1520     3.0350    94.0370     7.6920     2.4200     0.1350     0.0590
  468.5000   -55.6640     3.2020     3.1480   101.3680     7.7290     2.4500     0.1330     0.0640
  469.0000   -55.7780     3.2510     3.2350   107.5350     7.7280     2.4570     0.1300     0.0690
  469.5000   -55.9100     3.4240     3.3690   108.1060     7.7600     2.4630     0.1250     0.0730
  470.0000   -56.6200     3.7100     3.5130   106.5770     7.8290     2.4650     0.1210     0.0750
  470.5000   -57.3080     4.2660     3.9640   107.4370     7.8670     2.4800     0.1160     0.0720
  471.0000   -57.0310     4.9330     4.6740   108.8080     7.8670     2.4840     0.1210     0.0650
  471.5000   -56.1220     5.4270     4.9980   108.8890     7.8670     2.4820     0.1250     0.0560
  472.0000   -55.6320     5.9210     5.1360   110.4070     7.8670     2.4750     0.1410     0.0520
  472.5000   -55.1530     6.3900     5.1720   111.8380     7.8790     2.4510     0.1520     0.0520
  473.0000   -54.6720     6.3820     5.1720   112.2460     7.9340     2.4290     0.1550     0.0520
  473.5000   -54.1880     6.3720     5.1720   115.6400     7.9810     2.4230     0.1480     0.0500
  474.0000   -53.7180     6.3610     5.0740   116.2330     7.9670     2.4290     0.1420     0.0440
  474.5000   -53.7100     6.3510     4.9070   115.1970     7.9440     2.4410     0.1470     0.0380
  475.0000   -53.7220     6.3400     4.7400   117.5380     7.9210     2.4430     0.1440     0.0380
  475.5000   -53.7340     6.2850     4.6690   117.6140     7.8980     2.4340     0.1410     0.0380
  476.0000   -53.7450     6.0550     4.6600   113.8970     7.8750     2.4410     0.1330     0.0390
  476.5000   -53.7560     5.8290     4.6510   109.3740     7.8530     2.4600     0.1200     0.0480
  477.0000   -53.7680     5.7470     4.6430   107.5150     7.8130     2.4880     0.1110     0.0520
  477.5000   -53.7790     5.6700     4.6320   107.8830     7.7660     2.4940     0.1080     0.0530
  478.0000   -53.7900     5.7520     4.6810   108.4940     7.6540     2.4930     0.1070     0.0520
  478.5000   -53.8020     5.8290     4.7600   109.7590     7.6620     2.5070     0.1080     0.0490
  479.0000   -53.8130     6.0320     4.8660   112.1680     7.7160     2.5190     0.1080     0.0440
  479.5000   -53.8240     6.2160     5.0030   113.7720     7.7770     2.5130     0.1090     0.0400
  480.0000   -53.8360     6.5050     5.2150   111.1720     7.8390     2.5040     0.1100     0.0390
  480.5000   -53.8470     6.7790     5.5180   109.9930     7.9310     2.4990     0.1120     0.0380
  481.0000   -53.8580     7.0200     5.7440   110.1170     8.0490     2.4970     0.1120     0.0380
  481.5000   -53.8690     7.2550     5.9320   110.2970     8.1250     2.4950     0.1110     0.0380
  482.0000   -53.8810     7.4900     6.1200   109.8040     8.1620     2.4950     0.1130     0.0390
  482.5000   -53.8910     7.6700     6.2770   107.0730     8.1680     2.4950     0.1170     0.0400
  483.0000   -53.8910     7.7900     6.3900   105.2270     8.1710     2.4890     0.1200     0.0400
  483.5000   -53.8550     7.9690     6.3900   105.6150     8.1750     2.4840     0.1190     0.0410
  484.0000   -53.8200     7.9520     6.3900   109.7840     8.1780     2.4800     0.1140     0.0420
  484.5000   -53.7860     7.9170     6.3900   113.4970     8.1820     2.4860     0.1140     0.0430
  485.0000   -53.7500     7.8820     6.3810   114.4210     8.1750     2.4910     0.1140     0.0440
  485.5000   -53.7130     7.8470     6.2980   111.2560     8.1390     2.4910     0.1140     0.0420
  486.0000   -53.6260     7.7910     6.2160   108.0950     8.1060     2.4910     0.1180     0.0380
  486.5000   -53.3640     7.6910     6.1340   108.1100     8.1050     2.4890     0.1160     0.0310
  487.0000   -53.1100     7.5920     6.0470   111.9750     8.1050     2.4870     0.1090     0.0290
  487.5000   -53.0610     7.4920     6.0040   114.9350     8.1050     2.4920     0.1140     0.0280
  488.0000   -53.0220     7.3920     5.9580   114.7070     8.0820     2.4990     0.1250     0.0270
  488.5000   -52.9820     7.2930     5.9120   114.1060     8.0120     2.4830     0.1380     0.0260
  489.0000   -52.9410     7.1930     5.8660   115.6780     7.8620     2.4590     0.1520     0.0270
  489.5000   -52.9040     7.0930     5.8290   119.9620     7.7570     2.4360     0.1560     0.0300
  490.0000   -52.9720     6.9200     5.5990   120.8630     7.7120     2.4200     0.1460     0.0290
  490.5000   -53.0470     6.7260     5.3630   120.9490     7.8390     2.4330     0.1310     0.0220
  491.0000   -53.1220     6.5280     5.1260   119.4270     7.9120     2.4640     0.1150     0.0200
  491.5000   -53.1980     6.3100     4.9150   115.4470     7.9530     2.4870     0.1070     0.0220
  492.0000   -53.2700     6.0930     4.7610   111.2010     8.0070     2.4980     0.1060     0.0260
  492.5000   -53.2800     5.8750     4.7610   109.3440     8.1160     2.5040     0.1080     0.0290
  493.0000   -53.9700     5.6580     4.8400   108.4850     8.1850     2.5030     0.1090     0.0330
  493.5000   -54.7740     5.6180     4.9390   108.3260     8.1840     2.4980     0.1120     0.0360
  494.0000   -55.5870     5.7490     5.0370   108.2440     8.1840     2.4920     0.1070     0.0420
  494.5000   -56.4090     5.9580     5.1360   110.6950     8.1850     2.4920     0.0980     0.0490
  495.0000   -56.6930     6.1590     5.4290   113.2960     8.2050     2.5070     0.0980     0.0500
  495.5000   -56.6980     6.6570     5.8330   115.1340     8.2260     2.5240     0.1000     0.0510
  496.0000   -56.6880     7.1350     6.2160   120.0780     8.2430     2.5190     0.1020     0.0510
  496.5000   -56.4370     7.6140     6.3700   124.0660     8.2330     2.5120     0.1030     0.0520
  497.0000   -56.1760     7.7630     6.4490   123.6970     8.2160     2.5090     0.1030     0.0570
  497.5000   -56.0550     7.8590     6.4490   120.1690     8.1540     2.5090     0.1040     0.0670
  498.0000   -55.9810     7.9540     6.4490   114.1810     8.1140     2.5090     0.0980     0.0840
  498.5000   -55.9040     8.0500     6.4490   114.0030     8.0930     2.5130     0.0950     0.1030
  499.0000   -55.4840     8.1450     6.4490   114.8710     8.0730     2.5160     0.0920     0.1070
  499.5000   -55.0170     8.2400     6.4490   116.0060     8.0530     2.5230     0.0900     0.1130
  500.0000   -54.5480     8.3360     6.4490   116.0810     7.9420     2.5340     0.0890     0.1190
