~VERSION INFORMATION
 VERS.                2.0:   CWLS LOG ASCII STANDARD - VERSION 2.0
 WRAP.                 NO:   ONE LINE PER DEPTH STEP
~WELL INFORMATION
#MNEM.UNIT      DATA TYPE    INFORMATION
#----------   ------------   ------------------------------
 STRT.F           12.0000:   START DEPTH
 STOP.F          754.0000:   STOP DEPTH
 STEP.F            0.5000:   STEP LENGTH
 NULL.          -999.2500:   NO VALUE
 COMP. FENIX & SCISSON INC:   COMPANY
 WELL.    62 SX 34 #62-34:   WELL
 FLD .             TEAPOT:   FIELD
 LOC .      S34 T39N R78W:   LOCATION
 CNTY.            NATRONA:   COUNTY
 STAT.            WYOMING:   STATE
 CTRY. UNITED STATES OF AMERICA:   COUNTRY
 SRVC.            Unknown:   SERVICE COMPANY
 DATE.        20-AUG-1978:   LOGDATE
 API .       490251070200:   API NUMBER
~CURVE INFORMATION
#MNEM.UNIT       API CODE    CURVE DESCRIPTION
#----------   ------------   ------------------------------
 DEPT.F                  :   
 SPR .MV     05 010 01 00:   SPONTANEOUS POTENTIAL FROM RES.
 SN  .OHMM   05 040 16 00:   SHORT NORMAL 16"
 ILD .OHMM   05 120 46 00:   INDUCTION LOG DEEP
 GRD .GAPI   45 310 01 00:   GAMMA RAY FROM DENSITY LOG
 CALD.IN     45 280 60 00:   CALIPER
 RHOB.G/C3   45 350 01 00:   BULK DENSITY
 DPHI.DEC    45 890 12 00:   DENSITY POROSITY SANDSTONE
 CORR.G/C3   45 356 01 00:   DENSITY CORRECTION
~PARAMETER INFORMATION
#MNEM.UNIT          VALUE    DESCRIPTION
#----------   ------------   ------------------------------
 PD  .                 GL:   PERMANENT DATUM
 EPD .F              5039:   ELEVATION PERMANENT DATUM
 LMF .                 KB:   LOG MEASURED FROM
 DAPD.F                 4:   FEET ABOVE PERMANENT DATUM
 DMF .                 KB:   DRILLING MEASURED FROM
 EKB .F              5043:   KELLING BUSHING
 EGL .F              5039:   GROUND LEVEL
 DATE.            8-20-78:   RUN DATE
 RUN .                  1:   RUN NUMBER
 DD  .F               750:   DEPTH DRILLER
 DL  .F               755:   DEPTH LOGGER
 BLI .F               749:   BOTTOM LOG INTERVAL
 TLI .F                30:   TOP LOG INTERVAL
 CS  .IN            8.625:   CASING SIZE
 CBD .F                30:   CASING BOTTOM DRILLER
 CBL .F                34:   CASING BOTTOM LOGGER
 BS  .IN            7.875:   BIT SIZE
 BSD .F               750:   BIT SIZE AT DEPTH
 DFT .            KCL MUD:   DRILLING FLUID TYPE
 DFD .                8.6:   DRILLING FLUID DENSITY
 DFV .                 30:   DRILLING FLUID VISCOSITY
 DFPH.                9.5:   DRILLING FLUID PH
 DFL .               10.4:   DRILLING FLUID LOSS
 MSS .          FLOW LINE:   MUD SAMPLE SOURCE
 RMS .OHMM            .28:   RESISTIVITY MUD SAMPLE
 MST .F                76:   MUD SAMPLE TEMPERATURE
 RMF .OHMM            .24:   RESISTIVITY MUD FILTRATE SAMPLE
 MFST.F                80:   MUD FILTRATE SAMPLE TEMPERATURE
 RMC .OHMM            .34:   RESISTIVITY MUD CAKE
 MCST.F                82:   MUD CAKE SAMPLE TEMPERATURE
 MFSS.               MEAS:   MUD FILTRATE SAMPLE SOURCE
 MCSS.               MEAS:   MUD CAKE SAMPLE SOURCE
 BHT .F                72:   BOTTOM HOLE TEMPERATURE
 TCS .HRS               3:   TIME CURCULATED STOPPED
 MRT .F                72:   MAXIMUM RECORDED TEMPERATURE
 LUN .               2958:   LOGGING UNIT NUMBER
 LUL .               CASP:   LOGGING UNIT LOCATION
 ENGI.           REYNOLDS:   RECORDING ENGINEER
 WITN.              AMEND:   WITNESSED BY
 CLNT.            A2DTECH:   CLIENT CODE
 ORIG.           5" PRINT:   ORIGIN OF DATA
 UWI .       490251070200:   UNIQUE WELL ID
 DICO. A2D Technologies, Inc.:   DIGITIZING COMPANY
~OTHER INFORMATION
~A   DEPT      SPR         SN        ILD         GRD      CALD       RHOB       DPHI       CORR   
# ...
  376.5000   -64.0158     6.1400     6.7635    91.0406     7.8445     2.4547     0.1320     0.0298
  377.0000   -64.0155     6.2022     6.7531    89.1978     7.8377     2.4577     0.1349     0.0285
  377.5000   -64.0155     6.2651     6.8690    88.8699     7.8378     2.4507     0.1387     0.0273
  378.0000   -64.0155     6.3318     7.0313    90.1842     7.8457     2.4411     0.1425     0.0260
  378.5000   -64.0155     6.5339     7.1359    93.2739     7.8628     2.4385     0.1463     0.0248
  379.0000   -64.0155     6.6350     7.1190    95.2184     7.8798     2.4346     0.1501     0.0235
  379.5000   -64.0155     6.6441     7.1054    95.6024     7.8968     2.4279     0.1539     0.0214
  380.0000   -64.0155     6.6531     7.0921    94.5699     7.9137     2.4219     0.1572     0.0193
  380.5000   -64.0155     6.6622     7.0789    91.5861     7.9307     2.4220     0.1571     0.0189
  381.0000   -64.0155     6.6713     7.0710    88.8533     7.9477     2.4267     0.1527     0.0183
  381.5000   -64.0155     6.6803     7.1147    88.0547     7.9647     2.4331     0.1471     0.0178
  382.0000   -64.0155     6.6887     7.1699    88.0917     7.9820     2.4394     0.1439     0.0172
  382.5000   -64.0155     6.7546     7.2256    93.5316     7.9970     2.4455     0.1417     0.0166
  383.0000   -64.0155     6.8334     7.2816    95.5750     8.0469     2.4474     0.1392     0.0161
  383.5000   -64.0155     6.9131     7.3381    95.5542     8.0742     2.4495     0.1388     0.0155
  384.0000   -64.0155     6.9937     7.3951    95.4878     8.1031     2.4493     0.1409     0.0150
  384.5000   -64.0155     7.0710     7.4192    96.6447     8.1325     2.4482     0.1433     0.0144
  385.0000   -64.0154     7.0287     7.4373    98.3145     8.1619     2.4471     0.1433     0.0139
  385.5000   -64.0148     6.9795     7.4555    97.2464     8.1998     2.4460     0.1424     0.0136
  386.0000   -64.0418     6.9307     7.4724    95.8238     8.1984     2.4452     0.1401     0.0170
  386.5000   -64.0742     6.8821     7.4178    95.8476     8.2034     2.4484     0.1347     0.0205
  387.0000   -64.1067     6.8340     7.3673    95.8490     8.2177     2.4552     0.1293     0.0248
  387.5000   -64.1392     6.7857     7.3173    95.8346     8.2243     2.4665     0.1239     0.0290
  388.0000   -64.1716     6.7494     7.2675    96.6750     8.2313     2.4751     0.1238     0.0331
  388.5000   -64.2044     6.7359     7.2181    96.6741     8.2384     2.4712     0.1265     0.0358
  389.0000   -64.2145     6.7231     7.1691    96.4604     8.2456     2.4675     0.1293     0.0364
  389.5000   -64.2147     6.7101     7.0710    96.3432     8.2527     2.4639     0.1321     0.0371
  390.0000   -64.2146     6.6971     7.0658    96.1838     8.2598     2.4602     0.1348     0.0377
  390.5000   -64.2264     6.6842     7.0587    95.7803     8.2670     2.4585     0.1335     0.0384
  391.0000   -64.2498     6.6713     7.0515    95.3814     8.2740     2.4597     0.1315     0.0391
  391.5000   -64.2732     6.6584     7.0444    95.0871     8.2788     2.4608     0.1300     0.0397
  392.0000   -64.2966     6.6456     7.0373    95.3906     8.2608     2.4613     0.1310     0.0404
  392.5000   -64.3199     6.6327     7.0303    95.6846     8.2298     2.4620     0.1312     0.0411
  393.0000   -64.3433     6.6199     7.0231    95.9655     8.1985     2.4621     0.1303     0.0426
  393.5000   -64.3668     6.6072     7.0140    97.1004     8.1504     2.4640     0.1291     0.0455
  394.0000   -64.3903     6.5943     7.0105    98.4867     8.0693     2.4720     0.1229     0.0484
  394.5000   -64.4127     6.5811     6.9250    99.8592     7.9887     2.4825     0.1152     0.0514
  395.0000   -64.4038     6.5692     6.8744    98.7068     7.9079     2.4870     0.1147     0.0462
  395.5000   -64.3934     6.4537     6.8275    96.9427     7.8269     2.4867     0.1212     0.0368
  396.0000   -64.3831     6.3425     6.7806    97.2179     7.7425     2.4739     0.1280     0.0275
  396.5000   -64.3728     6.2331     6.7339    97.6393     7.6809     2.4617     0.1332     0.0192
  397.0000   -64.3626     6.1943     6.6875    97.4456     7.6865     2.4590     0.1349     0.0176
  397.5000   -64.3524     6.1682     6.6415    96.6746     7.7041     2.4559     0.1367     0.0177
  398.0000   -64.3421     6.1360     6.5958    94.7633     7.7217     2.4497     0.1387     0.0186
  398.5000   -64.3319     6.1003     6.5504    93.8645     7.7443     2.4424     0.1442     0.0194
  399.0000   -64.3216     6.0651     6.5090    93.8483     7.7994     2.4351     0.1498     0.0202
  399.5000   -64.3114     6.0301     6.4632    93.1070     7.8553     2.4278     0.1559     0.0211
  400.0000   -64.3011     5.9952     6.3969    91.6693     7.9111     2.4229     0.1544     0.0214
  400.5000   -64.2909     5.9208     6.2738    90.3543     7.9669     2.4223     0.1544     0.0208
  401.0000   -64.2807     5.8430     6.1772    90.2455     8.0226     2.4217     0.1550     0.0201
  401.5000   -64.2704     5.7605     6.0432    93.0533     8.0784     2.4211     0.1551     0.0195
  402.0000   -64.2602     5.6364     5.9117    95.8965     8.1342     2.4221     0.1539     0.0188
  402.5000   -64.2499     5.5150     5.7759    96.0599     8.1900     2.4362     0.1435     0.0182
  403.0000   -64.2398     5.3955     5.6927    94.4829     8.2458     2.4524     0.1324     0.0175
  403.5000   -64.2294     5.3153     5.6183    91.8255     8.3015     2.4546     0.1347     0.0182
  404.0000   -64.2196     5.4023     5.6775    89.1649     8.3572     2.4520     0.1374     0.0191
  404.5000   -64.1454     5.5203     5.7339    88.9040     8.4131     2.4494     0.1396     0.0201
  405.0000   -64.0205     5.6408     5.8103    89.6560     8.4728     2.4470     0.1378     0.0211
  405.5000   -63.8953     5.6870     5.9772    90.4404     8.5370     2.4528     0.1300     0.0216
  406.0000   -63.7698     5.7176     6.1790    92.3402     8.5545     2.4631     0.1256     0.0174
  406.5000   -63.6418     5.7481     6.3922    94.4165     8.5549     2.4690     0.1311     0.0121
  407.0000   -63.6101     5.7789     6.3855    94.6603     8.5496     2.4607     0.1404     0.0073
  407.5000   -63.6006     5.8098     6.3743    94.3352     8.5445     2.4526     0.1408     0.0110
  408.0000   -63.5917     5.8286     6.3641    93.9557     8.5395     2.4469     0.1371     0.0157
  408.5000   -63.5825     5.8079     6.3540    93.3465     8.5345     2.4512     0.1313     0.0205
  409.0000   -63.5733     5.7906     6.3438    92.2816     8.5296     2.4584     0.1292     0.0215
  409.5000   -63.5642     5.7733     6.3336    88.9119     8.5246     2.4629     0.1303     0.0215
  410.0000   -63.5550     5.7561     6.3295    88.6134     8.5196     2.4621     0.1308     0.0215
  410.5000   -63.5458     5.7389     6.3181    89.0580     8.5147     2.4649     0.1291     0.0215
  411.0000   -63.5366     5.7223     6.3069    93.6779     8.5097     2.4686     0.1275     0.0192
  411.5000   -63.5274     5.6208     6.2956    98.0241     8.5047     2.4699     0.1287     0.0153
  412.0000   -63.5182     5.5241     6.2840    98.3327     8.4998     2.4655     0.1387     0.0114
  412.5000   -63.5090     5.4290     6.2738    98.6995     8.4948     2.4426     0.1515     0.0076
  413.0000   -63.4998     5.3109     5.9492    98.1845     8.4898     2.4189     0.1661     0.0083
  413.5000   -63.4907     5.1553     5.6499    95.6379     8.4848     2.3951     0.1806     0.0091
  414.0000   -63.4815     5.0043     5.3657    94.5125     8.4798     2.3713     0.1881     0.0136
  414.5000   -63.4723     4.7518     5.0957    93.9144     8.4790     2.3639     0.1857     0.0204
  415.0000   -63.4631     4.4837     4.8393    90.4665     8.4789     2.3766     0.1698     0.0189
  415.5000   -63.4539     4.2321     4.6764    90.6929     8.4790     2.3965     0.1538     0.0157
  416.0000   -63.4447     4.1088     4.6281    88.5059     8.4790     2.4160     0.1379     0.0125
  416.5000   -63.4355     4.1562     4.7051    86.7984     8.4792     2.4608     0.1316     0.0093
