~VERSION INFORMATION
 VERS.                2.0:   CWLS LOG ASCII STANDARD - VERSION 2.0
 WRAP.                 NO:   ONE LINE PER DEPTH STEP
~WELL INFORMATION
#MNEM.UNIT      DATA TYPE    INFORMATION
#----------   ------------   ------------------------------
 STRT.F           30.0000:   START DEPTH
 STOP.F          626.0000:   STOP DEPTH
 STEP.F            0.5000:   STEP LENGTH
 NULL.          -999.2500:   NO VALUE
 COMP.       F D SERV INC:   COMPANY
 WELL.    63-2 SX-3 #63-3:   WELL
 FLD .             TEAPOT:   FIELD
 LOC .       S3 T38N R78W:   LOCATION
 CNTY.            NATRONA:   COUNTY
 STAT.            WYOMING:   STATE
 CTRY. UNITED STATES OF AMERICA:   COUNTRY
 SRVC.     Atlas Wireline:   SERVICE COMPANY
 DATE.        29-APR-1992:   LOGDATE
 API .       490252251900:   API NUMBER
~CURVE INFORMATION
#MNEM.UNIT       API CODE    CURVE DESCRIPTION
#----------   ------------   ------------------------------
 DEPT.F                  :   
 CALD.IN     45 280 60 00:   CALIPER FROM DENSITY
 CORR.G/C3   45 356 01 00:   DENSITY CORRECTION
 DEN .G/C3   45 350 01 00:   COMPENSATED BULK DENSTIY
 GRD .GAPI   45 310 01 00:   GAMMA RAY FROM DENSITY LOG
 PORD.DEC    45 890 12 00:   POROSITY DENSITY SANDSTONE
 RILD.OHMM   07 120 46 00:   INDUCTION LOG DEEP RESISTIVITY
 RILM.OHMM   07 120 44 00:   INDUCTION LOG MEDIUM RESISTIVITY
~PARAMETER INFORMATION
#MNEM.UNIT          VALUE    DESCRIPTION
#----------   ------------   ------------------------------
 PD  .                 GL:   PERMANENT DATUM
 EPD .F              5160:   ELEVATION PERMANENT DATUM
 LMF .                 KB:   LOG MEASURED FROM
 DAPD.F                 5:   FEET ABOVE PERMANENT DATUM
 DMF .                 KB:   DRILLING MEASURED FROM
 EKB .F              5165:   KELLING BUSHING
 EGL .F              5160:   GROUND LEVEL
 DATE.        29-APR-1992:   RUN DATE
 RUN .                  1:   RUN NUMBER
 DD  .F               630:   DEPTH DRILLER
 DL  .F               629:   DEPTH LOGGER
 BLI .F               626:   BOTTOM LOG INTERVAL
 CS  .IN            8.625:   CASING SIZE
 CBD .F                45:   CASING BOTTOM DRILLER
 CBL .F                45:   CASING BOTTOM LOGGER
 BS  .IN            7.875:   BIT SIZE
 BSD .F               630:   BIT SIZE AT DEPTH
 DFT .                AIR:   DRILLING FLUID TYPE
 LUN .            HL-6212:   LOGGING UNIT NUMBER
 LUL .             CASPER:   LOGGING UNIT LOCATION
 ENGI.             ZIEGEN:   RECORDING ENGINEER
 WITN.             STRONG:   WITNESSED BY
 CLNT.            A2DTECH:   CLIENT CODE
 ORIG.           5" PRINT:   ORIGIN OF DATA
 UWI .       490252251900:   UNIQUE WELL ID
 DICO. A2D Technologies, Inc.:   DIGITIZING COMPANY
~OTHER INFORMATION
~A   DEPT     CALD       CORR        DEN        GRD       PORD       RILD       RILM   
# ...
  166.5000     8.2224     0.0001     2.5275   180.9697     0.0761     8.9306     8.9157
  167.0000     8.2217     0.0032     2.5214   182.8015     0.0794     9.0542     8.9126
  167.5000     8.2361     0.0062     2.5129   184.3101     0.0825     9.0529     9.0347
  168.0000     8.2504     0.0092     2.5057   185.4725     0.0864     9.0517     9.0958
  168.5000     8.2497     0.0062     2.5034   185.7679     0.0891     8.9256     9.0927
  169.0000     8.2487    -0.0028     2.5034   184.5483     0.0894     8.9244     9.0901
  169.5000     8.2480    -0.0103     2.5041   182.4246     0.0876     8.9231     8.9002
  170.0000     8.2925    -0.0133     2.5057   180.9052     0.0869     8.7989     8.8361
  170.5000     8.2918    -0.0043     2.5064   183.6153     0.0872     8.6764     8.7118
  171.0000     8.2910    -0.0028     2.5049   186.9296     0.0878     8.6752     8.6491
  171.5000     8.2752    -0.0088     2.5019   188.1314     0.0896     8.6740     8.5869
  172.0000     8.2594    -0.0103     2.4951   184.4949     0.0920     8.6128     8.5845
  172.5000     8.2586     0.0003     2.4913   179.9543     0.0948     8.6116     8.5821
  173.0000     8.2730    -0.0012     2.4905   176.9242     0.0944     8.6707     8.5797
  173.5000     8.2873     0.0064     2.4943   180.2386     0.0926     8.6692     8.5773
  174.0000     8.3017     0.0109     2.4981   184.1733     0.0908     8.6680     8.5750
  174.5000     8.2858     0.0139     2.5012   185.6588     0.0881     8.7882     8.6329
  175.0000     8.2851     0.0094     2.5075   184.9949     0.0845     8.9098     8.8731
  175.5000     8.2842     0.0049     2.5154   182.0134     0.0818     9.0957     9.1205
  176.0000     8.2834     0.0034     2.5207   179.5876     0.0792     9.3505     9.3749
  176.5000     8.2827     0.0095     2.5200   180.7871     0.0784     9.6127     9.6363
  177.0000     8.2820     0.0095     2.5124   180.7782     0.0832     9.8816     9.9051
  177.5000     8.2812     0.0020     2.5064   180.7693     0.0853    10.0881    10.1813
  178.0000     8.2957    -0.0087     2.5049   181.6668     0.0869    10.2281    10.3928
  178.5000     8.2948    -0.0116     2.5064   182.5664     0.0871    10.2263    10.3899
  179.0000     8.2941    -0.0085     2.5064   182.8596     0.0862    10.3682    10.3870
  179.5000     8.2933    -0.0055     2.5072   182.5464     0.0847    10.5116    10.6767
  180.0000     8.2926    -0.0025     2.5102   181.6311     0.0823    10.8061    10.9744
  180.5000     8.2919    -0.0025     2.5154   177.9968     0.0799    11.1857    11.2805
  181.0000     8.2760    -0.0040     2.5177   175.2669     0.0787    11.4199    11.3568
  181.5000     8.2753    -0.0070     2.5193   172.8198     0.0781    11.7397    11.5919
  182.0000     8.2744    -0.0085     2.5239   174.2195     0.0760    11.9018    11.6702
  182.5000     8.2889    -0.0039     2.5290   175.8464     0.0738    12.0669    11.9949
  183.0000     8.2880     0.0006     2.5305   174.9289     0.0732    12.2338    12.2440
  183.5000     8.2872     0.0006     2.5283   172.5031     0.0741    12.4031    12.3268
  184.0000     8.2865     0.0022     2.5252   169.1709     0.0771    12.4873    12.4093
  184.5000     8.2858     0.0037     2.5177   168.2557     0.0813    12.6606    12.5794
  185.0000     8.2850     0.0067     2.5117   169.1531     0.0853    12.7470    12.5750
  185.5000     8.2843     0.0097     2.5049   170.6548     0.0871    12.7448    12.5715
  186.0000     8.2835     0.0050     2.5011   171.5522     0.0877    12.7430    12.5680
  186.5000     8.2828     0.0007     2.5026   170.9391     0.0874    12.7412    12.5646
  187.0000     8.2971     0.0053     2.5057   168.5133     0.0870    12.7395    12.5611
  187.5000     8.3115     0.0023     2.5072   166.9938     0.0867    12.6496    12.2986
  188.0000     8.3107     0.0008     2.5079   168.7975     0.0867    12.4735    11.9583
  188.5000     8.3251     0.0008     2.5087   170.6184     0.0858    12.2998    11.7084
  189.0000     8.3242     0.0023     2.5079   170.8945     0.0849    12.0447    11.6242
  189.5000     8.3234     0.0084     2.5049   169.6749     0.0881    11.7132    11.6209
  190.0000     8.3379     0.0144     2.4913   166.0406     0.0957    11.6306    11.6177
  190.5000     8.3370     0.0159     2.4815   162.7085     0.1009    11.6290    11.6145
  191.0000     8.3363     0.0159     2.4868   161.4911     0.1003    11.7088    11.6922
  191.5000     8.3355     0.0099     2.5004   162.3886     0.0918    11.7067    11.8525
  192.0000     8.3197     0.0039     2.5072   163.8902     0.0864    11.7051    11.9326
  192.5000     8.2888    -0.0006     2.5057   164.4878     0.0861    11.8671    11.9285
  193.0000     8.2579    -0.0051     2.5011   164.7810     0.0909    11.9485    11.9251
  193.5000     8.2421    -0.0034     2.4974   165.6762     0.0921    11.9464    11.8393
  194.0000     8.2715    -0.0036     2.4966   167.1779     0.0933    11.9448    11.5919
  194.5000     8.2859    -0.0051     2.4936   168.9816     0.0954    11.6970    11.4288
  195.0000     8.3002    -0.0111     2.4876   171.3897     0.0981    11.6145    11.1900
  195.5000     8.2993    -0.0080     2.4792   173.2044     0.1017    11.3735    10.8804
  196.0000     8.2985    -0.0035     2.4739   173.4866     0.1050    11.0606    10.6531
  196.5000     8.2676    -0.0020     2.4724   171.6112     0.1078    10.7562    10.5032
  197.0000     8.2518    -0.0020     2.4680   169.8412     0.1089    10.5331    10.3554
  197.5000     8.2360    -0.0035     2.4748   168.6239     0.1062    10.4588    10.2809
  198.0000     8.2352    -0.0050     2.4823   168.6149     0.1026    10.3850    10.2069
  198.5000     8.2498    -0.0095     2.4846   169.8145     0.0990    10.3118    10.1334
  199.0000     8.2639    -0.0094     2.4808   171.3162     0.1011    10.3103    10.0605
  199.5000     8.2933    -0.0034     2.4770   173.4221     0.1038    10.3089    10.0577
  200.0000     8.3077     0.0057     2.4773   175.3125     0.1053    10.3115    10.0288
  200.5000     8.3068     0.0102     2.4808   175.8161     0.1047    10.3564     9.8454
  201.0000     8.3059     0.0102     2.4838   176.7076     0.1028    10.2335     9.7753
  201.5000     8.3050     0.0102     2.4845   174.8765     0.1002    10.1611     9.7733
  202.0000     8.3041     0.0057     2.4822   173.0491     0.1023    10.0197     9.7037
  202.5000     8.3057     0.0102     2.4784   172.1279     0.1038     9.9490     9.6345
  203.0000     8.3174     0.0133     2.4762   171.2068     0.1047     9.9477     9.5659
  203.5000     8.3163     0.0163     2.4762   170.5878     0.1050     9.9463     9.5639
  204.0000     8.3003     0.0103     2.4761   169.6667     0.1050     9.9450     9.5620
  204.5000     8.2995     0.0058     2.4776   169.3499     0.1048     9.9436     9.5599
  205.0000     8.2986     0.0028     2.4814   168.4288     0.1024     9.9423     9.5576
  205.5000     8.2977     0.0010     2.5010   166.2828     0.0930     9.9409     9.6228
  206.0000     8.2968    -0.0032     2.5070   163.1902     0.0873     9.9396     9.6203
  206.5000     8.2959    -0.0017     2.5077   161.1300     0.0861     9.9381     9.6859
  207.0000     8.2800     0.0044     2.4994   160.2089     0.0901     9.9366     9.6834
  207.5000     8.2791     0.0059     2.4866   160.4963     0.1039     9.9352     9.6814
  208.0000     8.2780     0.0089     2.4745   165.3154     0.1133     9.9339     9.6795
  208.5000     8.2922     0.0074     2.4670   170.4366     0.1151     9.9325     9.6775
  209.0000     8.2913     0.0029     2.4662   172.2382     0.1112     9.6592     9.6755
  209.5000     8.2753     0.0029     2.4746   169.8028     0.1076     9.4589     9.6037
  210.0000     8.2744     0.0029     2.4820   167.3711     0.1073     9.3272     9.4633
  210.5000     8.2889     0.0030     2.4714   170.3775     0.1091     9.1338     8.9579
  211.0000     8.2878     0.0030     2.4691   174.0522     0.1098     8.8825     8.7106
  211.5000     8.2869     0.0030     2.4691   175.7860     0.1088     8.6381     8.2381
