~VERSION INFORMATION
 VERS.                2.0:   CWLS LOG ASCII STANDARD - VERSION 2.0
 WRAP.                 NO:   ONE LINE PER DEPTH STEP
~WELL INFORMATION
#MNEM.UNIT      DATA TYPE    INFORMATION
#----------   ------------   ------------------------------
 STRT.F           33.0000:   START DEPTH
 STOP.F          694.0000:   STOP DEPTH
 STEP.F            0.5000:   STEP LENGTH
 NULL.          -999.2500:   NO VALUE
 COMP. FENIX & SCISSON INC:   COMPANY
 WELL.  NPR 3 #64 S 34-34:   WELL
 FLD .             TEAPOT:   FIELD
 LOC .      S34 T39N R78W:   LOCATION
 CNTY.            NATRONA:   COUNTY
 STAT.            WYOMING:   STATE
 CTRY. UNITED STATES OF AMERICA:   COUNTRY
 SRVC.              Welex:   SERVICE COMPANY
 DATE.        28-APR-1977:   LOGDATE
 API .       490251034600:   API NUMBER
~CURVE INFORMATION
#MNEM.UNIT       API CODE    CURVE DESCRIPTION
#----------   ------------   ------------------------------
 DEPT.F                  :   
 CALD.IN     45 280 60 00:   CALIPER FROM DENSITY LOG
 GRD .GAPI   45 310 01 00:   GAMMA RAY FROM DENSITY LOG
 CORR.G/C3   45 356 01 00:   DENSITY CORRECTION
 DPHI.DEC    45 890 12 00:   DENSITY POROSITY SANDSTONE
 RHOB.G/C3   45 350 01 00:   BULK DENSITY
 SPR .MV     07 010 01 00:   SPONTANEOUS POTENTIAL
 ILD .OHMM   07 120 46 00:   INDUCTION LOG DEEP
 ILM .OHMM   07 120 44 00:   INDUCTION LOG MEDIUM
 SGRD.OHMM   07 221 05 00:   SHALLOW SHORT GUARD RESISTIVITY
~PARAMETER INFORMATION
#MNEM.UNIT          VALUE    DESCRIPTION
#----------   ------------   ------------------------------
 PD  .                 GL:   PERMANENT DATUM
 EPD .F              5079:   ELEVATION PERMANENT DATUM
 LMF .                 GL:   LOG MEASURED FROM
 DMF .                 GL:   DRILLING MEASURED FROM
 EGL .F              5079:   GROUND LEVEL
 DATE.        28-APR-1977:   RUN DATE
 RUN .                  1:   RUN NUMBER
 DD  .F               735:   DEPTH DRILLER
 DL  .F               697:   DEPTH LOGGER
 BLI .F               695:   BOTTOM LOG INTERVAL
 TLI .F                32:   TOP LOG INTERVAL
 CS  .IN            8.625:   CASING SIZE
 BS  .IN               12:   BIT SIZE
 BSD .F               735:   BIT SIZE AT DEPTH
 DFT .            KCL MUD:   DRILLING FLUID TYPE
 DFD .                9.0:   DRILLING FLUID DENSITY
 BHT .F                74:   BOTTOM HOLE TEMPERATURE
 TCS .HRS            0100:   TIME CURCULATED STOPPED
 MRT .F                74:   MAXIMUM RECORDED TEMPERATURE
 ENGI.            C. DOAK:   RECORDING ENGINEER
 WITN.           ROB LYON:   WITNESSED BY
 CLNT.            A2DTECH:   CLIENT CODE
 ORIG.           5" PRINT:   ORIGIN OF DATA
 UWI .       490251034600:   UNIQUE WELL ID
 DICO. A2D Technologies, Inc.:   DIGITIZING COMPANY
~OTHER INFORMATION
~A   DEPT     CALD        GRD       CORR       DPHI       RHOB        SPR        ILD        ILM       SGRD   
# ...
  215.5000     7.9708   105.4501     0.0281     0.1062     2.5022   -41.4313     7.3013     8.2327     8.3476
  216.0000     7.9725   103.5391     0.0252     0.1082     2.4970   -41.4149     7.4587     8.7087    15.2666
  216.5000     7.9743   102.3655     0.0238     0.1124     2.4859   -41.3985     7.5670     8.9603    22.5229
  217.0000     7.9760   106.2453     0.0224     0.1186     2.4703   -41.3821     7.7301     9.0923    14.8720
  217.5000     7.9775   109.9723     0.0225     0.1255     2.4584   -41.3657     7.8968     9.0347    10.8206
  218.0000     7.9795   111.3253     0.0226     0.1293     2.4674   -41.3493     7.9561     8.9792     8.9172
  218.5000     7.9812   110.0078     0.0242     0.1242     2.4645   -41.3328     8.0158     8.8641     9.5002
  219.0000     7.9829   109.4321     0.0288     0.1266     2.4631   -41.3164     8.1321     8.5095     9.9112
  219.5000     7.9846   107.8178     0.0349     0.1214     2.4797   -41.3000     7.9143     8.2832     9.3838
  220.0000     7.9864   106.2036     0.0380     0.1172     2.4857   -41.2836     7.7024     8.4052     8.7606
  220.5000     7.9881   105.0344     0.0397     0.1148     2.4828   -41.2672     7.4961     8.4686     9.3982
  221.0000     7.9898   104.3103     0.0367     0.1154     2.4792   -41.2510     7.2954     8.5356     9.6012
  221.5000     7.9916   105.3667     0.0247     0.1198     2.4740   -41.3838     7.1494     8.2512     9.3476
  222.0000     7.9780   108.6485     0.0158     0.1237     2.4681   -41.3672     7.1030     8.3150     8.9738
  222.5000     7.9802   110.1500     0.0130     0.1275     2.4622   -41.3507     7.0102     8.4961     8.4963
  223.0000     7.9819   110.6129     0.0131     0.1296     2.4563   -41.3344     7.0141     8.4423     8.2704
  223.5000     7.9836   110.4778     0.0132     0.1319     2.4519   -41.4672     7.0180     8.3341     8.2767
  224.0000     7.9853   113.3190     0.0133     0.1334     2.4482   -41.3015     7.0707     8.2828     8.2831
  224.5000     7.9871   114.8161     0.0134     0.1355     2.4468   -41.2851     7.1237     8.3468     8.2991
  225.0000     7.9888   113.2062     0.0135     0.1342     2.4506   -41.2687     7.2271     8.3532     8.3618
  225.5000     7.9905   111.7403     0.0136     0.1312     2.4575   -41.2522     7.3320     8.1310     8.5426
  226.0000     7.9923   110.4228     0.0138     0.1264     2.4650   -41.0865     7.4384     8.0237     8.8491
  226.5000     7.9940   109.5504     0.0139     0.1228     2.4711   -41.0701     7.5987     7.9744     9.3009
  227.0000     7.9957   109.2714     0.0140     0.1197     2.4764   -41.0536     7.6547     7.9820     9.4250
  227.5000     7.9974   109.4375     0.0141     0.1206     2.4727   -40.8879     7.2462     7.9881     9.5046
  228.0000     7.9992   110.7906     0.0142     0.1245     2.4721   -40.8715     7.2513     7.9375     9.9795
  228.5000     8.0009   113.1823     0.0158     0.1214     2.4707   -40.7058     7.3565     7.9451     9.9853
  229.0000     8.0026   114.6837     0.0159     0.1229     2.4678   -40.6893     7.4117     7.9512     9.7197
  229.5000     8.0044   115.2905     0.0145     0.1238     2.4648   -40.8224     7.4674     8.0126     9.2665
  230.0000     8.0061   111.3068     0.0146     0.1249     2.4634   -40.8057     7.5749     8.0733     9.6050
  230.5000     8.0047   110.5828     0.0132     0.1261     2.4628   -40.7893     7.5889     8.0794     9.4757
  231.0000     8.0033   110.3038     0.0148     0.1273     2.4599   -40.7728     7.6890     8.0856     9.3525
  231.5000     8.0018   108.8379     0.0149     0.1287     2.4644   -40.7564     7.7468     8.1480     9.4903
  232.0000     8.0003   106.9269     0.0165     0.1242     2.4682   -40.7399     7.8049     8.1542    10.0390
  232.5000     7.9989   108.7251     0.0181     0.1248     2.4638   -40.7235     7.8091     8.2172    10.8425
  233.0000     7.9974   110.2265     0.0182     0.1259     2.4639   -40.7070     7.7595     8.2235     9.9160
  233.5000     7.9959   110.6894     0.0183     0.1268     2.4618   -40.6906     7.7639     8.1727     9.1935
  234.0000     7.9945   109.8170     0.0169     0.1283     2.4536   -40.6813     7.7145     8.1791     9.7945
  234.5000     7.9930   109.5336     0.0155     0.1336     2.4462   -40.6718     7.6614     8.1287    10.0756
  235.0000     7.9915   110.2976     0.0141     0.1393     2.4454   -40.6622     7.6135     8.0230     9.7418
  235.5000     7.9901   111.9474     0.0143     0.1341     2.4539   -40.6527     7.5136     7.9186     9.3522
  236.0000     7.9886   112.7616     0.0144     0.1276     2.4637   -40.6431     7.4150     7.8699     9.0406
  236.5000     7.9871   110.7961     0.0145     0.1245     2.4660   -40.6336     7.3178     7.8201     8.7394
  237.0000     7.9856   110.3680     0.0146     0.1266     2.4638   -40.6241     7.2224     7.6135     8.5645
  237.5000     7.9842   112.1669     0.0147     0.1290     2.4594   -40.6145     7.2264     7.6193     8.5119
  238.0000     7.9827   112.8249     0.0148     0.1310     2.4573   -40.6050     7.2305     7.6252     8.7590
  238.5000     7.9812   112.1790     0.0164     0.1307     2.4566   -40.5954     7.2345     7.6841     8.8267
  239.0000     7.9798   112.9621     0.0165     0.1306     2.4582   -40.5859     7.1885     7.7434     8.8334
  239.5000     7.9783   113.5733     0.0166     0.1302     2.4590   -40.5764     7.2425     7.8033     8.8402
  240.0000     7.9768   114.4813     0.0167     0.1267     2.4621   -40.5668     7.2466     7.8635     8.8470
  240.5000     7.9754   112.1252     0.0168     0.1251     2.4652   -40.5573     7.2506     7.7611     8.6716
  241.0000     7.9739   110.6593     0.0169     0.1239     2.4675   -40.5477     7.2546     7.6601     8.4981
  241.5000     7.9724   109.7869     0.0155     0.1224     2.4699   -40.5382     7.2587     7.6130     8.8061
  242.0000     7.9710   109.3591     0.0171     0.1205     2.4730   -40.5287     7.2627     7.6720     8.8742
  242.5000     7.9695   109.3773     0.0202     0.1187     2.4752   -40.5191     7.2667     7.7312     8.8810
  243.0000     7.9680   110.7304     0.0233     0.1172     2.4768   -40.5096     7.2708     7.7910     8.8878
  243.5000     7.9666   112.6769     0.0265     0.1163     2.4769   -40.5000     7.2748     7.7969     9.0187
  244.0000     7.9651   115.9659     0.0281     0.1156     2.4777   -40.4905     7.2789     7.8572     9.2153
  244.5000     7.9636   117.9069     0.0237     0.1156     2.4778   -40.4791     7.2829     7.8632     9.8159
  245.0000     7.9621   119.2555     0.0208     0.1159     2.4779   -40.6219     7.2870     7.8692     9.2936
  245.5000     7.9607   117.0522     0.0178     0.1179     2.4720   -40.8865     7.2397     7.8752     8.8603
  246.0000     7.9592   116.3281     0.0150     0.1215     2.4623   -40.8556     7.2447     7.8812     8.4456
  246.5000     7.9577   117.2361     0.0120     0.1277     2.4587   -40.8246     7.2487     7.8313     9.1868
  247.0000     7.9563   119.0343     0.0106     0.1343     2.4490   -40.7937     7.2527     7.8388     9.0047
  247.5000     7.9548   120.0907     0.0062     0.1399     2.4424   -40.7627     7.2573     7.6834     8.7047
  248.0000     7.9533   119.2182     0.0063     0.1372     2.4417   -40.7318     7.2618     7.6578     8.8943
  248.5000     7.9519   117.9007     0.0065     0.1363     2.4470   -40.7008     7.3173     7.5949     9.5174
  249.0000     7.9504   118.8087     0.0081     0.1309     2.4583   -40.6698     7.4229     7.7591    10.0271
  249.5000     7.9489   120.1618     0.0112     0.1239     2.4696   -40.6389     7.5300     7.9259     9.6902
  250.0000     7.9475   120.0736     0.0143     0.1227     2.4645   -40.6079     7.5860     7.9849     8.9833
  250.5000     7.9460   119.4572     0.0159     0.1257     2.4661   -40.5846     7.6955     7.9887     9.4999
  251.0000     7.9445   120.6651     0.0175     0.1265     2.4639   -40.5844     7.8065     8.0481     9.9080
  251.5000     7.9431   122.1698     0.0177     0.1292     2.4573   -40.5842     7.8646     8.1080    10.0511
