~VERSION INFORMATION
 VERS.                2.0:   CWLS LOG ASCII STANDARD - VERSION 2.0
 WRAP.                 NO:   ONE LINE PER DEPTH STEP
~WELL INFORMATION
#MNEM.UNIT      DATA TYPE    INFORMATION
#----------   ------------   ------------------------------
 STRT.F           14.0000:   START DEPTH
 STOP.F          449.0000:   STOP DEPTH
 STEP.F            0.5000:   STEP LENGTH
 NULL.          -999.2500:   NO VALUE
 COMP.   LAWRENCE-ALLISON:   COMPANY
 WELL. NPR 3 #51-65SX10OB2:   WELL
 FLD .             TEAPOT:   FIELD
 LOC .      S10 T38N R78W:   LOCATION
 CNTY.            NATRONA:   COUNTY
 STAT.            WYOMING:   STATE
 CTRY. UNITED STATES OF AMERICA:   COUNTRY
 SRVC.      Dresser Atlas:   SERVICE COMPANY
 DATE.        18-DEC-1984:   LOGDATE
 API .       490251100900:   API NUMBER
~CURVE INFORMATION
#MNEM.UNIT       API CODE    CURVE DESCRIPTION
#----------   ------------   ------------------------------
 DEPT.F                  :   
 PORD.DEC    45 890 12 00:   POROSITY DENSITY SANDSTONE
 CNC .DEC    42 890 03 00:   NEUTRON POROSITY SANDSTONE
 CALD.IN     45 280 60 00:   CALIPER FROM DENSITY
 CORR.G/C3   45 356 01 00:   DENSITY CORRECTION
 DEN .G/C3   45 350 01 00:   COMPENSATED BULK DENSTIY
 GRD .GAPI   45 310 01 00:   GAMMA RAY FROM DENSITY LOG
 AC  .US/F   60 520 00 00:   ACCOUSTIC
~PARAMETER INFORMATION
#MNEM.UNIT          VALUE    DESCRIPTION
#----------   ------------   ------------------------------
 PD  .                 GL:   PERMANENT DATUM
 EPD .F              5156:   ELEVATION PERMANENT DATUM
 LMF .                 GL:   LOG MEASURED FROM
 DMF .                 GL:   DRILLING MEASURED FROM
 EGL .F              5156:   GROUND LEVEL
 DATE.        18-DEC-1984:   RUN DATE
 RUN .                  1:   RUN NUMBER
 DD  .F               448:   DEPTH DRILLER
 DL  .F               451:   DEPTH LOGGER
 BLI .F               449:   BOTTOM LOG INTERVAL
 TLI .F                20:   TOP LOG INTERVAL
 CS  .IN            8.625:   CASING SIZE
 CBD .F                20:   CASING BOTTOM DRILLER
 CBL .F                20:   CASING BOTTOM LOGGER
 BS  .IN             6.25:   BIT SIZE
 BSD .F               448:   BIT SIZE AT DEPTH
 DFT .          KCL WATER:   DRILLING FLUID TYPE
 MSS .             MUDPIT:   MUD SAMPLE SOURCE
 RMS .OHMM          0.132:   RESISTIVITY MUD SAMPLE
 MST .F                95:   MUD SAMPLE TEMPERATURE
 RMF .OHMM          0.099:   RESISTIVITY MUD FILTRATE SAMPLE
 MFST.F                95:   MUD FILTRATE SAMPLE TEMPERATURE
 RMC .OHMM          0.165:   RESISTIVITY MUD CAKE
 MCST.F                95:   MUD CAKE SAMPLE TEMPERATURE
 MFSS.               CALC:   MUD FILTRATE SAMPLE SOURCE
 MCSS.               CALC:   MUD CAKE SAMPLE SOURCE
 TCS .HRS               5:   TIME CURCULATED STOPPED
 MRT .F               100:   MAXIMUM RECORDED TEMPERATURE
 LUN .               6270:   LOGGING UNIT NUMBER
 ENGI.        TOM GAUGHAN:   RECORDING ENGINEER
 WITN.             GROOMS:   WITNESSED BY
 CLNT.            A2DTECH:   CLIENT CODE
 ORIG.           5" PRINT:   ORIGIN OF DATA
 UWI .       490251100900:   UNIQUE WELL ID
 DICO. A2D Technologies, Inc.:   DIGITIZING COMPANY
~OTHER INFORMATION
~A   DEPT     PORD        CNC       CALD       CORR        DEN        GRD         AC   
# ...
  241.5000     0.1487     0.2681     6.4882     0.0425     2.4579    79.8100   102.5615
  242.0000     0.1659     0.2819     6.4897     0.0126     2.4282    76.7092   105.6470
  242.5000     0.1948     0.3026     6.4762    -0.0037     2.3886    74.3769   108.9577
  243.0000     0.2056     0.3182     6.4630     0.0159     2.3408    71.5806   110.6918
  243.5000     0.2090     0.3167     6.4645     0.0371     2.3304    68.7843   111.2998
  244.0000     0.2039     0.3077     6.4511     0.0387     2.3274    67.0742   111.6825
  244.5000     0.1972     0.2983     6.4378     0.0059     2.3470    68.2186   111.9902
  245.0000     0.2005     0.2937     6.4541     0.0015     2.3486    69.1197   112.2228
  245.5000     0.2094     0.2880     6.4704     0.0017     2.3442    70.0386   112.1551
  246.0000     0.2251     0.2822     6.5016     0.0138     2.3135    71.7112   111.7121
  246.5000     0.2275     0.2726     6.5179     0.0215     2.2962    74.6281   112.2450
  247.0000     0.2199     0.2659     6.5194     0.0141     2.3031    74.7772   114.0542
  247.5000     0.2087     0.2638     6.5209     0.0068     2.3159    73.5757   115.5631
  248.0000     0.2069     0.2622     6.5224    -0.0036     2.3310    70.3482   116.1011
  248.5000     0.2093     0.2619     6.5239    -0.0050     2.3304    71.7240   116.4140
  249.0000     0.2116     0.2631     6.5101     0.0072     2.3274    72.6152   117.0886
  249.5000     0.2149     0.2688     6.5120     0.0224     2.3207    72.4758   115.8197
  250.0000     0.2226     0.2813     6.4975     0.0285     2.3050    65.3709   113.1994
  250.5000     0.2359     0.2948     6.4924     0.0242     2.2860    63.3066   110.5041
  251.0000     0.2401     0.3020     6.4874     0.0288     2.2744    66.1359   109.6106
  251.5000     0.2337     0.3015     6.5023     0.0425     2.2883    70.4364   109.0174
  252.0000     0.2042     0.2995     6.5035     0.0547     2.3294    76.2577   107.8893
  252.5000     0.1903     0.2901     6.5195     0.0593     2.3558    76.2709   106.3888
  253.0000     0.1885     0.2786     6.5207     0.0084     2.3611    75.8357   105.1894
  253.5000     0.1950     0.2657     6.5070    -0.0110     2.3499    74.8136   104.3662
  254.0000     0.2025     0.2617     6.5082     0.0027     2.3387    72.6232   103.3925
  254.5000     0.2034     0.2596     6.4942     0.0254     2.3380    71.7220   101.7416
  255.0000     0.1973     0.2571     6.4957     0.0330     2.3449    73.2221    97.7581
  255.5000     0.1828     0.2553     6.4968     0.0287     2.3690    75.0157    95.8063
  256.0000     0.1605     0.2528     6.4980     0.0003     2.4081    78.8864    95.7344
  256.5000     0.1502     0.2537     6.4992    -0.0011     2.4255    79.6381    97.0944
  257.0000     0.1585     0.2639     6.5152     0.0370     2.4233    77.7258   101.3878
  257.5000     0.1781     0.2765     6.5163     0.0443     2.3903    73.4363   104.6278
  258.0000     0.1970     0.2891     6.5027     0.0391     2.3543    72.4076   106.3629
  258.5000     0.2184     0.2890     6.5038     0.0281     2.3168    74.7980   105.9159
  259.0000     0.2210     0.2817     6.5050     0.0207     2.3079    75.9981   105.2432
  259.5000     0.2186     0.2734     6.5065     0.0014     2.3080    75.8596   104.1942
  260.0000     0.2149     0.2690     6.5076     0.0060     2.3141    75.7244   101.3394
  260.5000     0.2056     0.2624     6.5088     0.0257     2.3250    78.5598   100.4410
  261.0000     0.1995     0.2605     6.4948     0.0379     2.3371    78.8823    99.9940
  261.5000     0.2001     0.2674     6.4812     0.0275     2.3473    78.1410    99.9232
  262.0000     0.2033     0.2703     6.4826     0.0141     2.3437    76.5104   100.5417
  262.5000     0.2057     0.2724     6.4986     0.0023     2.3370    75.6451   101.3744
  263.0000     0.2075     0.2699     6.4998     0.0069     2.3325    77.1840   101.5920
  263.5000     0.2068     0.2588     6.5010     0.0161     2.3318    78.9389   101.0913
  264.0000     0.2008     0.2482     6.5021     0.0252     2.3334    81.7710    98.8633
  264.5000     0.1842     0.2394     6.5033     0.0314     2.3508    84.6032    96.7910
  265.0000     0.1718     0.2370     6.4896     0.0375     2.3734    84.1712    96.1179
  265.5000     0.1664     0.2318     6.4908     0.0467     2.3960    82.9975    95.8214
  266.0000     0.1672     0.2306     6.4920     0.0544     2.4021    80.9335    95.9763
  266.5000     0.1675     0.2408     6.4931     0.0451     2.3977    82.4303    96.3570
  267.0000     0.1650     0.2434     6.4943     0.0255     2.3970    87.0429    96.8882
  267.5000     0.1596     0.2413     6.4958     0.0128     2.4053    87.3495    96.8927
  268.0000     0.1565     0.2361     6.4969     0.0340     2.4122    83.2116    96.8208
  268.5000     0.1583     0.2334     6.4981     0.0581     2.4183    82.1829    96.9769
  269.0000     0.1620     0.2309     6.4842     0.0597     2.4145    83.5347    97.7339
  269.5000     0.1674     0.2312     6.4856     0.0194     2.4061    83.3995    98.4155
  270.0000     0.1747     0.2401     6.4717    -0.0060     2.3957    82.8192    98.7210
  270.5000     0.1777     0.2577     6.4731    -0.0013     2.3851    82.5356    98.8007
  271.0000     0.1776     0.2617     6.5040     0.0228     2.3818    82.8526    98.8052
  271.5000     0.1776     0.2487     6.5050     0.0275     2.3827    83.9130    98.8097
  272.0000     0.1793     0.2379     6.5062     0.0021     2.3805    85.9584    98.7389
  272.5000     0.1802     0.2348     6.5074    -0.0008     2.3775    86.5942    98.6644
  273.0000     0.1778     0.2324     6.5087     0.0159     2.3776    83.4950    96.3732
  273.5000     0.1720     0.2317     6.4951     0.0296     2.3830    79.2823    93.1560
  274.0000     0.1539     0.2398     6.4962     0.0372     2.4011    71.6508    86.2886
  274.5000     0.1292     0.2367     6.4974     0.0374     2.4402    70.4737    84.9916
  275.0000     0.1162     0.2358     6.4986     0.0315     2.4793    71.9738    85.5230
  275.5000     0.1222     0.2357     6.4997     0.0178     2.4862    74.9544    89.2906
  276.0000     0.1429     0.2384     6.5009    -0.0002     2.4622    79.4186    93.8097
  276.5000     0.1618     0.2414     6.5169    -0.0011     2.4270    81.8066    98.0279
  277.0000     0.1744     0.2410     6.5181     0.0141     2.3932    83.1811    99.0858
  277.5000     0.1786     0.2425     6.5215     0.0203     2.3835    84.5376    99.5418
  278.0000     0.1813     0.2530     6.5355    -0.0111     2.3806    84.6641    99.6967
  278.5000     0.1836     0.2728     6.5367    -0.0290     2.3717    84.2322    99.2498
  279.0000     0.1833     0.2743     6.5379    -0.0168     2.3695    86.6225    98.6523
  279.5000     0.1817     0.2679     6.5539     0.0014     2.3711    89.6031    98.2805
  280.0000     0.1772     0.2534     6.5551     0.0255     2.3757    89.0227    98.1345
  280.5000     0.1717     0.2464     6.5562     0.0302     2.3863    84.2881    97.9874
  281.0000     0.1708     0.2401     6.5722     0.0303     2.3901    83.1111    97.6168
  281.5000     0.1716     0.2400     6.5586     0.0335     2.3902    83.5726    97.1698
  282.0000     0.1641     0.2431     6.5597     0.0622     2.3940    86.7015    97.0979
  282.5000     0.1655     0.2481     6.5609     0.0683     2.4016    89.9788    97.4045
  283.0000     0.1688     0.2546     6.5621     0.0565     2.4024    90.1403    98.8386
  283.5000     0.1745     0.2615     6.5632     0.0431     2.3987    89.4116    99.9718
  284.0000     0.1792     0.2675     6.5644     0.0402     2.3875    88.0895   100.4277
  284.5000     0.1795     0.2677     6.5507     0.0389     2.3786    87.0641   100.5827
  285.0000     0.1804     0.2553     6.5371     0.0298     2.3787    86.7804   100.5872
  285.5000     0.1833     0.2369     6.5382     0.0099     2.3735    86.7938   100.5164
  286.0000     0.1851     0.2339     6.5397    -0.0207     2.3668    86.1780    99.8437
  286.5000     0.1854     0.2426     6.5409    -0.0070     2.3676    85.1682    98.9452
