~VERSION INFORMATION
 VERS.                2.0:   CWLS LOG ASCII STANDARD - VERSION 2.0
 WRAP.                 NO:   ONE LINE PER DEPTH STEP
~WELL INFORMATION
#MNEM.UNIT      DATA TYPE    INFORMATION
#----------   ------------   ------------------------------
 STRT.F           60.0000:   START DEPTH
 STOP.F         3052.0000:   STOP DEPTH
 STEP.F            0.5000:   STEP LENGTH
 NULL.          -999.2500:   NO VALUE
 COMP.   FLUOR DANIEL INC:   COMPANY
 WELL. NAVAL PETROLEUM RESERVE 3 X-14 #57-14:   WELL
 FLD .            WILDCAT:   FIELD
 LOC .      S14 T38N R78W:   LOCATION
 CNTY.            NATRONA:   COUNTY
 STAT.            WYOMING:   STATE
 CTRY. UNITED STATES OF AMERICA:   COUNTRY
 SRVC.            Unknown:   SERVICE COMPANY
 DATE.        16-MAY-1995:   LOGDATE
 API .       490252272000:   API NUMBER
~CURVE INFORMATION
#MNEM.UNIT       API CODE    CURVE DESCRIPTION
#----------   ------------   ------------------------------
 DEPT.F                  :   
 ROP .FT/HR  91 810 01 00:   RAT OF DRILLING PENETRATION
 TGAS.TC/CC  91 830 01 00:   TOTAL GAS UNIT
~PARAMETER INFORMATION
#MNEM.UNIT          VALUE    DESCRIPTION
#----------   ------------   ------------------------------
 EKB .F              5312:   KELLING BUSHING
 EGL .F              5302:   GROUND LEVEL
 DATE.        16-MAY-1995:   RUN DATE
 RUN .                  1:   RUN NUMBER
 BLI .F              3062:   BOTTOM LOG INTERVAL
 TLI .F                60:   TOP LOG INTERVAL
 ENGI.     C.TOWER/R.HUSK:   RECORDING ENGINEER
 CLNT.            A2DTECH:   CLIENT CODE
 ORIG.           5" PRINT:   ORIGIN OF DATA
 UWI .       490252272000:   UNIQUE WELL ID
 DICO. A2D Technologies, Inc.:   DIGITIZING COMPANY
~OTHER INFORMATION
~A   DEPT        ROP       TGAS 
# ...
 1761.0000     2.0125    17.5524
 1761.5000     2.0131    17.5561
 1762.0000     1.8336    17.5598
 1762.5000     1.8339    17.3727
 1763.0000     1.8342    17.1881
 1763.5000     1.2799    17.1872
 1764.0000     1.2425    17.1861
 1764.5000     1.2427    17.1849
 1765.0000     1.2524    17.1838
 1765.5000     1.2431    17.1827
 1766.0000     1.2528    17.1816
 1766.5000     1.4504    17.1804
 1767.0000     1.4507    17.1793
 1767.5000     1.4509    17.1782
 1768.0000     1.7157    17.1771
 1768.5000     1.7205    17.1760
 1769.0000     1.7253    17.1748
 1769.5000     1.7301    17.1737
 1770.0000     1.7350    17.1726
 1770.5000     1.7398    17.1715
 1771.0000     1.7446    17.1703
 1771.5000     1.7494    17.1692
 1772.0000     1.6410    17.1681
 1772.5000     1.5472    17.1670
 1773.0000     1.5569    17.1658
 1773.5000     1.5477    17.1647
 1774.0000     1.4633    17.1636
 1774.5000     1.4542    17.1625
 1775.0000     1.4356    17.1613
 1775.5000     1.4359    17.1602
 1776.0000     1.4361    17.1591
 1776.5000     1.4458    17.1580
 1777.0000     1.4460    17.1568
 1777.5000     1.4556    17.1557
 1778.0000     1.7942    17.1546
 1778.5000     1.8038    17.1535
 1779.0000     1.7946    17.1523
 1779.5000     1.7949    17.1512
 1780.0000     1.7951    17.1501
 1780.5000     1.5791    17.1490
 1781.0000     1.5794    17.1478
 1781.5000     1.5797    17.1467
 1782.0000     0.8656    17.1456
 1782.5000     0.8752    16.7659
 1783.0000     0.8755    15.8191
 1783.5000     0.8791    15.0645
 1784.0000     0.8853    14.4995
 1784.5000     0.8856    14.3124
 1785.0000     0.8857    14.3170
 1785.5000     0.8855    14.3207
 1786.0000     0.8853    14.1336
 1786.5000     0.8852    13.9475
 1787.0000     0.8850    13.7613
 1787.5000     0.8848    13.7659
 1788.0000     0.8846    13.7697
 1788.5000     0.8845    13.7734
 1789.0000     0.8843    13.7626
 1789.5000     0.8841    13.7387
 1790.0000     0.8839    13.7147
 1790.5000     0.8838    13.6907
 1791.0000     0.8836    13.6667
 1791.5000     0.8834    13.6428
 1792.0000     0.8832    13.6188
 1792.5000     0.8831    13.5948
 1793.0000     0.8829    13.5708
 1793.5000     0.8827    13.5469
 1794.0000     0.8825    13.5229
 1794.5000     0.8824    13.4989
 1795.0000     0.8822    13.4749
 1795.5000     0.8820    13.4510
 1796.0000     0.8818    13.4270
 1796.5000     0.8817    13.4030
 1797.0000     0.8815    13.3790
 1797.5000     0.8813    13.3551
 1798.0000     0.8811    13.3311
 1798.5000     0.8810    13.3071
 1799.0000     0.8808    13.2831
 1799.5000     0.8806    13.2592
 1800.0000     0.8804    13.2352
 1800.5000     0.8803    13.2112
 1801.0000     0.8801    13.1872
 1801.5000     0.8799    13.1633
 1802.0000     0.8798    13.1393
 1802.5000     0.8796    13.1153
 1803.0000     0.8794    13.0913
 1803.5000     0.8792    13.0674
 1804.0000     0.8791    13.0434
 1804.5000     0.8789    13.0194
 1805.0000     0.8787    12.9955
 1805.5000     0.8785    12.9715
 1806.0000     0.8784    12.9475
 1806.5000     0.8782    12.9235
 1807.0000     0.8780    12.8996
 1807.5000     0.8778    12.8756
 1808.0000     0.8770    12.8516
 1808.5000     0.8750    12.8276
 1809.0000     0.8731    12.8037
 1809.5000     0.8711    12.8248
 1810.0000     0.8691    12.8904
 1810.5000     0.8672    12.9560
 1811.0000     0.8652    13.0216
 1811.5000     0.8633    13.0872
 1812.0000     0.8613    13.1528
 1812.5000     0.8594    13.2184
 1813.0000     0.8574    13.2840
 1813.5000     0.8824    13.3496
 1814.0000     0.9692    13.4152
 1814.5000     0.9686    13.4807
 1815.0000     0.9676    13.5463
 1815.5000     0.9666    13.5989
 1816.0000     0.9656    13.7924
 1816.5000     0.9647    13.7962
 1817.0000     0.9637    13.8000
 1817.5000     0.9627    13.8038
 1818.0000     0.9061    13.8076
 1818.5000     0.9056    13.8116
 1819.0000     0.9050    13.8152
 1819.5000     0.9045    13.8190
 1820.0000     0.9039    13.8228
 1820.5000     0.9034    13.8266
 1821.0000     0.9028    13.8308
 1821.5000     0.9023    13.8342
 1822.0000     0.9018    13.8380
 1822.5000     0.9012    13.8418
 1823.0000     0.9007    13.8456
 1823.5000     0.9001    13.8494
 1824.0000     0.8996    13.8532
 1824.5000     0.8990    13.8570
 1825.0000     0.8985    13.8538
 1825.5000     0.8979    13.8481
 1826.0000     0.8974    13.8424
 1826.5000     0.8968    13.8367
 1827.0000     0.8963    13.8310
 1827.5000     0.8957    13.8253
 1828.0000     0.8952    13.8197
 1828.5000     0.8947    13.8140
 1829.0000     0.8941    13.8083
 1829.5000     0.8936    13.8026
 1830.0000     0.8930    13.7969
 1830.5000     0.8925    13.7912
 1831.0000     0.8919    13.7855
 1831.5000     0.8914    13.7799
 1832.0000     0.8908    13.7742
 1832.5000     0.8903    13.7685
 1833.0000     0.8897    13.7628
 1833.5000     0.8993    13.7571
 1834.0000     0.9372    13.7514
 1834.5000     0.9659    13.7457
 1835.0000     0.9756    13.7401
 1835.5000     0.9760    13.7344
 1836.0000     0.9857    13.7287
 1836.5000     0.9767    13.7230
 1837.0000     0.9771    13.7173
 1837.5000     0.9775    13.7116
 1838.0000     0.9684    13.7059
 1838.5000     0.9406    13.7003
 1839.0000     0.9276    13.6946
 1839.5000     0.9038    13.6889
 1840.0000     0.8854    13.6832
 1840.5000     0.8670    13.6775
 1841.0000     0.8673    13.6718
 1841.5000     0.8677    13.6661
 1842.0000     0.8586    13.6605
 1842.5000     0.8490    13.6548
 1843.0000     0.8406    13.6491
 1843.5000     0.8315    13.6434
 1844.0000     0.8320    13.6377
 1844.5000     0.8324    13.6320
 1845.0000     0.8327    13.8229
 1845.5000     0.8331    14.0165
 1846.0000     0.8335    14.2156
 1846.5000     0.8339    14.4088
 1847.0000     0.8342    14.4222
 1847.5000     0.8440    14.4357
 1848.0000     0.9008    14.4491
 1848.5000     0.9777    14.4625
 1849.0000     0.9862    14.4760
 1849.5000     0.9865    14.4894
 1850.0000     0.9587    14.5029
 1850.5000     0.9494    14.5163
 1851.0000     0.9495    14.5297
 1851.5000     0.9497    14.5432
 1852.0000     0.9498    14.5566
 1852.5000     0.9500    14.5700
 1853.0000     0.9501    14.5835
 1853.5000     0.9032    14.5969
 1854.0000     0.8470    14.6104
 1854.5000     0.8566    14.6238
 1855.0000     0.8661    14.6372
 1855.5000     0.8662    14.6507
 1856.0000     0.8664    14.6665
 1856.5000     0.8665    14.6927
 1857.0000     0.8760    14.8633
 1857.5000     0.8762    14.8671
 1858.0000     0.7917    14.8709
 1858.5000     0.7731    14.8747
 1859.0000     0.7826    14.8789
 1859.5000     0.7841    14.8830
 1860.0000     1.1213    14.8861
 1860.5000     1.1402    14.8899
 1861.0000     1.1403    14.8944
 1861.5000     1.1311    14.8667
 1862.0000     0.8680    14.8326
 1862.5000     0.8682    14.7985
 1863.0000     0.8683    14.7643
 1863.5000     0.8685    14.7302
 1864.0000     0.8686    14.6960
 1864.5000     0.8688    14.6619
 1865.0000     0.8689    14.6278
 1865.5000     0.8690    14.5936
 1866.0000     0.8692    14.5595
 1866.5000     0.8697    14.5254
 1867.0000     0.8709    14.4912
 1867.5000     0.8720    14.4571
 1868.0000     0.8732    14.4230
 1868.5000     0.8744    14.3888
 1869.0000     0.8756    14.3547
 1869.5000     0.8767    14.3206
 1870.0000     0.8779    14.2864
 1870.5000     0.8791    14.2523
 1871.0000     0.8803    14.2182
 1871.5000     0.8815    14.2139
 1872.0000     0.8826    14.2177
 1872.5000     0.8838    14.2215
 1873.0000     0.8850    14.2255
 1873.5000     0.8862    14.2298
 1874.0000     0.8873    14.2329
 1874.5000     0.8885    14.0500
 1875.0000     0.8897    14.0598
 1875.5000     0.8813    14.0696
 1876.0000     0.8344    14.0794
 1876.5000     0.8251    14.0892
 1877.0000     0.8252    14.0990
 1877.5000     0.8251    14.1088
 1878.0000     0.8251    14.1186
 1878.5000     0.8251    14.1284
 1879.0000     0.8251    14.1383
 1879.5000     0.8251    14.1481
 1880.0000     0.8250    14.1579
 1880.5000     0.8250    14.1677
 1881.0000     0.8250    14.1775
 1881.5000     0.8250    14.1873
 1882.0000     0.8249    14.1971
