~VERSION INFORMATION
 VERS.                2.0:   CWLS LOG ASCII STANDARD - VERSION 2.0
 WRAP.                 NO:   ONE LINE PER DEPTH STEP
~WELL INFORMATION
#MNEM.UNIT      DATA TYPE    INFORMATION
#----------   ------------   ------------------------------
 STRT.F            0.0000:   START DEPTH
 STOP.F         4113.0000:   STOP DEPTH
 STEP.F            0.5000:   STEP LENGTH
 NULL.          -999.2500:   NO VALUE
 COMP. LAWRENCE/ALLISON INC:   COMPANY
 WELL.  NPR # #3 76 -MX-3:   WELL
 FLD .             TEAPOT:   FIELD
 LOC .       S3 T38N R78W:   LOCATION
 CNTY.            NATRONA:   COUNTY
 STAT.            WYOMING:   STATE
 CTRY. UNITED STATES OF AMERICA:   COUNTRY
 SRVC.      Dresser Atlas:   SERVICE COMPANY
 DATE.        04-SEP-1983:   LOGDATE
 API .       490251094300:   API NUMBER
~CURVE INFORMATION
#MNEM.UNIT       API CODE    CURVE DESCRIPTION
#----------   ------------   ------------------------------
 DEPT.F                  :   
 GRR .GAPI   07 310 01 00:   GAMMA RAY
 SPR .MV     07 010 01 00:   SPONTANEOUS POTENTIAL
 RILD.OHMM   07 120 46 00:   INDUCTION LOG DEEP RESISTIVITY
 RILM.OHMM   07 120 44 00:   INDUCTION LOG MEDIUM RESISTIVITY
 RFOC.OHMM   07 220 04 00:   RESISTIVITY FOCUSED LOG
 CNCF.DEC    42 890 03 00:   NEUTRON POROSITY SANDSTONE
 PORD.DEC    45 890 12 00:   POROSITY DENSITY SANDSTONE
 CALD.IN     45 280 60 00:   CALIPER FROM DENSITY LOG
 CORR.G/C3   45 356 01 00:   DENSITY CORRECTION
 DEN .G/C3   45 350 01 00:   COMPENSATED BULK DENSTIY
 AC  .US/F   60 520 00 00:   ACCOUSTIC
~PARAMETER INFORMATION
#MNEM.UNIT          VALUE    DESCRIPTION
#----------   ------------   ------------------------------
 PD  .                 GL:   PERMANENT DATUM
 EPD .F              5147:   ELEVATION PERMANENT DATUM
 LMF .                 KB:   LOG MEASURED FROM
 DAPD.F                10:   FEET ABOVE PERMANENT DATUM
 DMF .                 KB:   DRILLING MEASURED FROM
 EKB .F              5157:   KELLING BUSHING
 EGL .F              5147:   GROUND LEVEL
 DATE.        04-SEP-1983:   RUN DATE
 RUN .                  1:   RUN NUMBER
 DD  .F              4119:   DEPTH DRILLER
 DL  .F              4115:   DEPTH LOGGER
 BLI .F              4112:   BOTTOM LOG INTERVAL
 CS  .IN            9.625:   CASING SIZE
 CBD .F               491:   CASING BOTTOM DRILLER
 CBL .F               494:   CASING BOTTOM LOGGER
 BS  .IN             8.75:   BIT SIZE
 BSD .F              4119:   BIT SIZE AT DEPTH
 DFT .            KCL GEL:   DRILLING FLUID TYPE
 DFD .                8.9:   DRILLING FLUID DENSITY
 DFV .                 46:   DRILLING FLUID VISCOSITY
 DFPH.                9.0:   DRILLING FLUID PH
 DFL .               13.6:   DRILLING FLUID LOSS
 MSS .           MUD TANK:   MUD SAMPLE SOURCE
 RMS .OHMM           .315:   RESISTIVITY MUD SAMPLE
 MST .F                92:   MUD SAMPLE TEMPERATURE
 RMF .OHMM            .25:   RESISTIVITY MUD FILTRATE SAMPLE
 MFST.F                84:   MUD FILTRATE SAMPLE TEMPERATURE
 RMC .OHMM             .4:   RESISTIVITY MUD CAKE
 MCST.F                92:   MUD CAKE SAMPLE TEMPERATURE
 MFSS.               MEAS:   MUD FILTRATE SAMPLE SOURCE
 MCSS.               CALC:   MUD CAKE SAMPLE SOURCE
 RMB .OHMM            .22:   RESISTIVITY MUD AT BHT
 BHT .F               132:   BOTTOM HOLE TEMPERATURE
 TCS .HRS               4:   TIME CURCULATED STOPPED
 MRT .F               132:   MAXIMUM RECORDED TEMPERATURE
 LUN .               6274:   LOGGING UNIT NUMBER
 LUL .              GLTE.:   LOGGING UNIT LOCATION
 ENGI.             RAUTIO:   RECORDING ENGINEER
 WITN.             STRONG:   WITNESSED BY
 CLNT.            A2DTECH:   CLIENT CODE
 ORIG.        2" 5" PRINT:   ORIGIN OF DATA
 UWI .       490251094300:   UNIQUE WELL ID
 DICO. A2D Technologies, Inc.:   DIGITIZING COMPANY
~OTHER INFORMATION
~A    DEPT     GRR        SPR       RILD       RILM       RFOC       CNCF       PORD       CALD       CORR        DEN         AC   
# ...
 3141.5000   101.3629   -38.6050     4.4789     4.6943     4.8738     0.2405     0.0760     9.9202     0.0314     2.5304    84.2038
 3142.0000   100.7173   -38.4619     4.4127     4.5906     4.6304     0.2426     0.0733     9.9188     0.0765     2.5326    83.6713
 3142.5000   106.9558   -38.3246     4.3454     4.5546     4.6974     0.2285     0.0721     9.9020     0.0887     2.5341    82.9892
 3143.0000   108.5046   -38.1796     4.2832     4.4540     4.8340     0.2217     0.0713     9.9005     0.0899     2.5355    82.1566
 3143.5000   105.3387   -38.0384     4.2154     4.3556     4.9745     0.2226     0.0698     9.9145     0.0733     2.5370    81.7756
 3144.0000   105.9471   -38.0578     4.1519     4.2287     5.0025     0.2256     0.0683     9.9127     0.0702     2.5362    82.2974
 3144.5000   107.4834   -38.0734     4.0078     4.0760     4.9989     0.2311     0.0705     9.9113     0.0791     2.5309    83.0461
 3145.0000   109.0259   -38.4024     3.8361     3.9287     4.8888     0.2323     0.0759     9.9098     0.0866     2.5263    84.0207
 3145.5000   110.8820   -38.5747     3.6983     3.7595     4.7466     0.2276     0.0781     9.9080     0.0880     2.5218    85.0706
 3146.0000   115.2458   -38.7470     3.4638     3.5460     4.5753     0.2282     0.0799     9.9066     0.0548     2.5179    86.2710
 3146.5000   119.9232   -39.0761     3.2915     3.3446     4.3785     0.2390     0.0824     9.9052     0.0442     2.5142    87.2889
 3147.0000   122.4062   -39.4051     3.1504     3.2005     4.1598     0.2577     0.0836     9.9037     0.0501     2.5096    88.5203
 3147.5000   122.6959   -39.5774     3.0593     3.0627     3.8954     0.2641     0.0860     9.9023     0.0757     2.5051    89.8714
 3148.0000   123.6104   -39.5929     2.9708     2.9951     3.6214     0.2707     0.0951     9.9005     0.0816     2.4953    91.2978
 3148.5000   125.4664   -39.6085     2.9911     2.9716     3.4406     0.2686     0.1002     9.8990     0.0542     2.4869    92.4983
 3149.0000   127.6359   -39.6241     3.0998     3.0348     3.3405     0.2615     0.0993     9.8976     0.0468     2.4884    92.8705
 3149.5000   126.0436   -39.6396     3.3793     3.2367     3.4119     0.2543     0.0910     9.8962     0.0528     2.5094    92.8659
 3150.0000   119.7492   -39.4984     3.5627     3.5278     3.6352     0.2480     0.0841     9.8947     0.0710     2.5221    91.8347
 3150.5000   117.2414   -39.6681     3.6177     3.8169     4.0800     0.2426     0.0742     9.8984     0.0918     2.5259    89.3373
 3151.0000   117.2414   -39.3722     3.7331     4.1903     4.5806     0.2293     0.0739     9.9022     0.1022     2.5221    86.7540
 3151.5000   117.8683   -39.2295     4.0691     4.6002     5.2139     0.2186     0.0803     9.9065     0.0705     2.5198    84.8678
 3152.0000   118.1818   -38.9301     4.4999     4.9419     5.8496     0.2138     0.0797     9.9055     0.0523     2.5175    82.4546
 3152.5000   114.1066   -38.9441     4.8345     5.3089     6.3297     0.2124     0.0798     9.9045     0.0431     2.5159    79.6649
 3153.0000   109.4044   -38.7979     5.0825     5.7032     6.3722     0.2112     0.0804     9.9035     0.0414     2.5137    77.8928
 3153.5000   109.4044   -38.8155     5.2666     5.9522     6.2297     0.2073     0.0813     9.8872     0.0324     2.5137    77.0212
 3154.0000   109.7179   -38.9863     5.4180     5.8207     6.0477     0.2052     0.0829     9.9015     0.0187     2.5151    77.0176
 3154.5000   106.2696   -39.0004     5.4549     5.6105     5.9565     0.2043     0.0802     9.9002    -0.0055     2.5188    77.3152
 3155.0000   100.6270   -39.0144     5.4510     5.4865     5.9522     0.2065     0.0772     9.8992    -0.0071     2.5287    77.9140
 3155.5000    98.4326   -38.8682     5.3696     5.3653     6.1226     0.2158     0.0635     9.8982     0.0169     2.5571    78.1363
 3156.0000    99.3730   -38.8858     5.3279     5.2849     6.3447     0.2270     0.0500     9.8970     0.0514     2.5684    77.7553
 3156.5000   104.7022   -38.7396     5.2865     5.2815     6.2029     0.2257     0.0536     9.8960     0.0649     2.5518    77.3752
 3157.0000   109.4044   -38.4437     5.2076     5.2400     5.6830     0.2186     0.0663     9.8950     0.0708     2.5367    77.2963
 3157.5000   112.2257   -38.3010     5.1671     5.2746     5.3985     0.2144     0.0745     9.8940     0.0722     2.5231    77.6693
 3158.0000   112.2257   -38.1548     5.1269     5.2712     5.3557     0.2129     0.0787     9.8927     0.0570     2.5171    78.7952
 3158.5000   110.6583   -38.0121     5.0504     5.3060     5.4298     0.2109     0.0805     9.8917     0.0283     2.5163    80.8238
 3159.0000   107.8370   -38.0297     4.9392     5.3798     5.6667     0.2106     0.0778     9.8907     0.0237     2.5208    81.4979
 3159.5000   104.0752   -38.0438     4.7611     5.4555     5.9568     0.2112     0.0737     9.8898     0.0236     2.5253    81.3437
 3160.0000   102.5078   -38.0578     4.5894     5.1447     6.4924     0.2031     0.0731     9.8887     0.0265     2.5282    80.0600
 3160.5000   107.2100   -38.0719     4.4560     4.8525     6.8743     0.2022     0.0803     9.8875     0.0339     2.5199    78.2492
 3161.0000   112.5392   -38.0860     4.2954     4.5768     5.9439     0.2080     0.0882     9.8865     0.0474     2.5071    76.8581
 3161.5000   115.0470   -38.1000     4.1705     4.4435     4.7463     0.2158     0.0966     9.8855     0.0639     2.4920    76.4339
 3162.0000   116.9279   -37.9573     4.0202     4.2521     4.2244     0.2135     0.1060     9.8845     0.0562     2.4760    77.1080
 3162.5000   118.4953   -37.9714     3.8196     3.9530     4.0690     0.2119     0.1081     9.8833     0.0425     2.4701    80.1917
 3163.0000   119.4357   -37.9854     3.5769     3.6222     4.1278     0.2153     0.1063     9.8823     0.0304     2.4716    82.3719
 3163.5000   121.9436   -37.9995     3.3984     3.3918     4.2153     0.2324     0.1037     9.8966     0.0137     2.4753    82.9707
 3164.0000   129.4671   -37.8533     3.2289     3.2457     4.0626     0.2490     0.1037     9.8953     0.0091     2.4760    83.0415
 3164.5000   132.6019   -37.7141     3.0900     3.1059     3.8869     0.2588     0.1065     9.9094     0.0406     2.4729    83.4897
 3165.0000   133.2288   -37.5680     2.9571     2.9721     3.7176     0.2710     0.1173     9.9234     0.0586     2.4541    85.3686
 3165.5000   134.4828   -37.4253     2.8300     2.8648     3.5573     0.2740     0.1285     9.9222     0.0540     2.4383    87.2476
 3166.0000   136.9906   -37.4428     2.6502     2.7813     3.4528     0.2698     0.1321     9.9212     0.0382     2.4330    88.8253
 3166.5000   140.7523   -37.4569     2.4639     2.6423     3.3757     0.2635     0.1339     9.9201     0.0251     2.4299    89.7494
 3167.0000   143.2602   -37.4710     2.3074     2.5285     3.3514     0.2620     0.1361     9.9189     0.0190     2.4284    90.1726
 3167.5000   146.3950   -37.4850     2.1923     2.4022     3.3212     0.2654     0.1403     9.9179     0.0068     2.4193    90.2443
 3168.0000   152.0376   -37.1856     2.1132     2.2657     3.1427     0.2780     0.1460     9.9169     0.0118     2.4020    90.5419
 3168.5000   155.7994   -36.8856     2.0518     2.1839     2.6335     0.2901     0.1528     9.9159     0.0337     2.3839    91.0654
 3169.0000   156.7398   -36.5868     2.0066     2.1050     2.4302     0.2964     0.1710     9.9149     0.0472     2.3568    92.9315
 3169.5000   156.1129   -36.7576     1.9483     2.0885     2.5547     0.3000     0.1792     9.9137     0.0561     2.3447    96.5543
 3170.0000   153.6050   -36.9284     1.9054     2.1023     2.8455     0.2904     0.1825     9.9127     0.0395     2.3679    98.2074
 3170.5000   152.6646   -37.5694     1.8634     2.0858     3.1238     0.2902     0.1694     9.9117     0.0047     2.3890    97.9779
 3171.0000   152.3511   -38.2104     1.8624     2.0844     3.3316     0.2995     0.1547     9.9107    -0.0195     2.3980    96.1670
 3171.5000   157.6803   -38.8514     1.9159     2.0982     2.9653     0.3070     0.1523     9.9247    -0.0121     2.3934    94.2769
