~VERSION INFORMATION
 VERS.                2.0:   CWLS LOG ASCII STANDARD - VERSION 2.0
 WRAP.                 NO:   ONE LINE PER DEPTH STEP
~WELL INFORMATION
#MNEM.UNIT      DATA TYPE    INFORMATION
#----------   ------------   ------------------------------
 STRT.F           30.0000:   START DEPTH
 STOP.F          510.0000:   STOP DEPTH
 STEP.F            0.5000:   STEP LENGTH
 NULL.          -999.2500:   NO VALUE
 COMP. FENIX & SCISSON INC:   COMPANY
 WELL.    66-SX 3FP #54-3:   WELL
 FLD .             TEAPOT:   FIELD
 LOC .       S3 T38N R78W:   LOCATION
 CNTY.            NATRONA:   COUNTY
 STAT.            WYOMING:   STATE
 CTRY. UNITED STATES OF AMERICA:   COUNTRY
 SRVC.              Welex:   SERVICE COMPANY
 DATE.        25-JUN-1980:   LOGDATE
 API .       490251081400:   API NUMBER
~CURVE INFORMATION
#MNEM.UNIT       API CODE    CURVE DESCRIPTION
#----------   ------------   ------------------------------
 DEPT.F                  :   
 SGRD.OHMM   07 220 05 00:   SHALLOW GUARD RESISTIVITY
 ILD .OHMM   07 120 46 00:   INDUCTION LOG DEEP RESISTIVITY
 ILM .OHMM   07 120 44 00:   INDUCTION LOG MEDIUM
 CALD.IN     45 280 60 00:   CALIPER
 GRD .GAPI   45 310 01 00:   GAMMA RAY FROM DENSITY LOG
 CORR.G/C3   45 356 01 00:   DENSITY CORRECTION
 NPHI.DEC    42 890 03 00:   NEUTRON POROSITY SANDSTONE
 DPHI.DEC    45 890 12 00:   DENSITY POROSITY SANDSTONE
 SPR .MV     07 010 01 00:   SPONTANEOUS POTENTIAL
 RHOB.G/C3   45 350 01 00:   BULK DENSITY
~PARAMETER INFORMATION
#MNEM.UNIT          VALUE    DESCRIPTION
#----------   ------------   ------------------------------
 PD  .                 GL:   PERMANENT DATUM
 EPD .F              5158:   ELEVATION PERMANENT DATUM
 LMF .                 KB:   LOG MEASURED FROM
 DAPD.F                 5:   FEET ABOVE PERMANENT DATUM
 DMF .                 KB:   DRILLING MEASURED FROM
 EKB .F              5163:   KELLING BUSHING
 EGL .F              5158:   GROUND LEVEL
 DATE.            6-25-80:   RUN DATE
 RUN .                  1:   RUN NUMBER
 DD  .F               516:   DEPTH DRILLER
 DL  .F               512:   DEPTH LOGGER
 BLI .F               510:   BOTTOM LOG INTERVAL
 TLI .F                30:   TOP LOG INTERVAL
 BS  .IN            9.875:   BIT SIZE
 BSD .F               516:   BIT SIZE AT DEPTH
 DFT .            KCL MUD:   DRILLING FLUID TYPE
 DFD .                9.2:   DRILLING FLUID DENSITY
 DFV .                 52:   DRILLING FLUID VISCOSITY
 DFPH.                 12:   DRILLING FLUID PH
 DFL .                  6:   DRILLING FLUID LOSS
 MSS .           FLOWLINE:   MUD SAMPLE SOURCE
 RMB .OHMM            .35:   RESISTIVITY MUD AT BHT
 BHT .F                75:   BOTTOM HOLE TEMPERATURE
 TCS .HRS               1:   TIME CURCULATED STOPPED
 MRT .F                75:   MAXIMUM RECORDED TEMPERATURE
 LUN .               1892:   LOGGING UNIT NUMBER
 LUL .             CASPER:   LOGGING UNIT LOCATION
 ENGI.            TOTHILL:   RECORDING ENGINEER
 WITN.              AMEND:   WITNESSED BY
 CLNT.            A2DTECH:   CLIENT CODE
 ORIG.           5" PRINT:   ORIGIN OF DATA
 UWI .       490251081400:   UNIQUE WELL ID
 DICO. A2D Technologies, Inc.:   DIGITIZING COMPANY
~OTHER INFORMATION
~A   DEPT       SGRD        ILD        ILM     CALD        GRD       CORR       NPHI       DPHI        SPR       RHOB   
# ...
  231.0000     5.7420     4.0304     5.3762    10.2738   111.5325     0.0893     0.2830     0.0922   -58.5239     2.5303
  231.5000     6.0787     4.2333     5.6184    10.2787   110.6369     0.0841     0.2882     0.0960   -58.1939     2.5231
  232.0000     6.2939     4.4465     5.8379    10.2632   109.6217     0.0790     0.2825     0.1014   -57.6875     2.5160
  232.5000     6.3872     4.6694     5.9009    10.2445   108.1661     0.0763     0.2767     0.0990   -57.0664     2.5130
  233.0000     6.4801     4.8547     5.9714    10.2259   106.7440     0.0793     0.2730     0.0985   -56.4467     2.5163
  233.5000     6.5464     4.9921     5.9569    10.1879   106.1294     0.0826     0.2750     0.0994   -56.0873     2.5227
  234.0000     6.4669     5.1334     5.9406    10.1436   106.5045     0.0979     0.2706     0.0970   -56.0908     2.5291
  234.5000     6.3957     5.2024     5.9247    10.0992   107.1476     0.0940     0.2763     0.0932   -56.0897     2.5340
  235.0000     6.3253     5.2024     5.9173    10.0688   107.7791     0.0887     0.2833     0.0882   -56.0905     2.5344
  235.5000     6.2523     5.2024     5.8465    10.1170   108.0430     0.0842     0.2893     0.0874   -56.0902     2.5379
  236.0000     6.0731     5.2024     5.7748    10.1638   105.4719     0.0890     0.2949     0.0860   -56.3830     2.5431
  236.5000     5.8906     5.0820     5.6282    10.2030   106.1346     0.1023     0.2985     0.0790   -56.9639     2.5493
  237.0000     5.7135     4.9602     5.4988    10.2021   107.1749     0.1130     0.3014     0.0801   -57.4798     2.5540
  237.5000     5.5417     4.8412     5.3724    10.2017   108.2176     0.1156     0.3045     0.0819   -57.4686     2.5529
  238.0000     5.3751     4.7261     5.2489    10.1909   109.2725     0.1142     0.3070     0.0897   -57.4630     2.5407
  238.5000     5.2135     4.5655     5.1283    10.1671   109.1208     0.0986     0.3099     0.1040   -57.3371     2.5178
  239.0000     4.9402     4.3519     5.0104    10.1436   108.2269     0.0821     0.3126     0.1184   -57.1995     2.4946
  239.5000     4.6170     4.1472     4.8952    10.1195   107.7024     0.0589     0.3154     0.1278   -57.0991     2.4716
  240.0000     4.3150     3.9523     4.7269    10.0910   108.1588     0.0387     0.3144     0.1353   -57.7974     2.4534
  240.5000     4.0327     3.7669     4.5004    10.0864   108.9299     0.0534     0.3120     0.1410   -58.5273     2.4475
  241.0000     3.7852     3.5875     4.2848    10.1037   110.3949     0.0503     0.3098     0.1515   -58.8535     2.4355
  241.5000     3.5922     3.4776     4.0795    10.1405   112.2395     0.0386     0.3105     0.1615   -59.1022     2.4181
  242.0000     3.5038     3.3794     4.0590    10.1771   110.2073     0.0400     0.3098     0.1651   -59.3576     2.4029
  242.5000     3.7534     3.3464     4.3471    10.2146   109.0567     0.0527     0.3028     0.1542   -59.2419     2.4195
  243.0000     4.4495     3.3158     4.5818    10.2293   112.0427     0.0654     0.2982     0.1448   -58.9768     2.4397
  243.5000     5.2674     3.4711     4.8291    10.2493   114.0225     0.0780     0.2905     0.1370   -58.4360     2.4544
  244.0000     5.6850     3.5905     5.0898    10.2691   112.9210     0.0582     0.2834     0.1410   -57.7417     2.4455
  244.5000     6.0559     3.7445     5.3278    10.2741   111.1954     0.0245     0.2905     0.1474   -57.1267     2.4355
  245.0000     6.3006     3.9614     5.5057    10.2652   111.1043     0.0205     0.2887     0.1415   -56.5148     2.4359
  245.5000     6.5519     4.1910     5.6894    10.2562   111.4820     0.0299     0.2851     0.1307   -55.9108     2.4576
  246.0000     6.8141     4.4335     5.8793    10.2472   112.4840     0.0483     0.2815     0.1198   -55.6953     2.4740
  246.5000     7.0868     4.6255     5.9966    10.2406   113.4770     0.0662     0.2803     0.1101   -55.5075     2.4968
  247.0000     7.3707     4.7811     6.0380    10.2381   114.4856     0.0759     0.2822     0.1018   -55.5448     2.5106
  247.5000     7.6532     4.9426     6.0798    10.1907   115.4639     0.0843     0.2842     0.0986   -55.5914     2.5196
  248.0000     7.7853     5.0175     6.1218    10.1442   113.8326     0.0878     0.2854     0.0974   -55.6368     2.5250
  248.5000     7.9187     5.0762     6.1641    10.1253   111.9879     0.0794     0.2907     0.1022   -55.6835     2.5191
  249.0000     8.0562     5.1356     6.1951    10.1249   110.7205     0.0713     0.2972     0.1077   -55.6493     2.5113
  249.5000     8.1961     5.1957     6.1951    10.1250   111.0772     0.0639     0.3010     0.1132   -55.5784     2.5035
  250.0000     8.3381     5.2973     6.1951    10.1250   113.4507     0.0571     0.3030     0.1183   -55.5091     2.4954
  250.5000     8.4710     5.2852     6.1951    10.1250   111.7587     0.0521     0.3054     0.1004   -55.6266     2.4949
  251.0000     8.5010     5.2700     6.1951    10.1250   109.6710     0.0580     0.3086     0.0978   -55.7673     2.5072
  251.5000     8.5312     5.2548     6.1951    10.1250   108.4192     0.0654     0.3130     0.0950   -55.9082     2.5222
  252.0000     8.5615     5.2311     6.1952    10.1250   110.0995     0.0795     0.3150     0.0889   -56.0532     2.5373
  252.5000     8.5922     5.2039     6.1953    10.1250   111.9053     0.0975     0.3090     0.0854   -55.9365     2.5482
  253.0000     8.6249     5.1768     6.1959    10.1250   113.7123     0.0910     0.3088     0.0950   -55.7198     2.5348
  253.5000     8.5828     5.1499     6.1351    10.1250   115.5143     0.0804     0.3038     0.0994   -55.5011     2.5215
  254.0000     8.5363     5.1231     6.0815    10.1250   117.3181     0.0766     0.2997     0.1030   -55.2847     2.5132
  254.5000     8.4905     5.0965     6.0282    10.1250   119.1352     0.0839     0.2957     0.0986   -55.0884     2.5059
  255.0000     8.3842     5.0700     5.9719    10.1250   121.0055     0.0915     0.2974     0.1006   -54.9114     2.5045
  255.5000     8.2258     5.0436     5.8880    10.1250   120.2906     0.0991     0.2989     0.0962   -54.7634     2.5153
  256.0000     8.0462     5.0174     5.8005    10.1250   118.7021     0.1068     0.3004     0.0942   -54.6016     2.5258
  256.5000     7.7239     4.9913     5.7387    10.1250   117.1222     0.1046     0.3015     0.1014   -54.6164     2.5295
  257.0000     7.4141     4.9482     5.6769    10.1250   115.5535     0.0988     0.3021     0.1062   -54.9626     2.5110
  257.5000     7.1168     4.7906     5.6157    10.1250   115.1417     0.0925     0.3019     0.1115   -55.3044     2.4944
  258.0000     6.7136     4.6381     5.3976    10.1250   115.1551     0.0790     0.3023     0.1169   -55.6463     2.4884
  258.5000     6.2367     4.4904     5.1331    10.1250   115.9577     0.0650     0.3054     0.1206   -55.9900     2.4835
  259.0000     5.7937     4.3474     4.8816    10.1250   116.4855     0.0719     0.3085     0.1213   -56.2278     2.4787
  259.5000     5.3821     4.2090     4.6424    10.1250   116.2022     0.0800     0.3115     0.1196   -56.4304     2.4742
  260.0000     4.8335     4.0749     4.4908    10.1250   115.8740     0.0881     0.3142     0.1174   -56.3230     2.4785
  260.5000     5.1441     3.9452     4.6954    10.1250   117.3891     0.0962     0.3130     0.1197   -56.0977     2.4877
  261.0000     6.0774     3.8954     4.8542    10.1250   117.1764     0.1044     0.3115     0.1239   -55.8948     2.4873
  261.5000     5.9841     3.8726     5.0184    10.1250   116.8793     0.1065     0.3099     0.1258   -55.8862     2.4820
  262.0000     5.7928     3.8499     5.0609    10.1248   116.5883     0.0851     0.3090     0.1242   -56.2392     2.4768
  262.5000     5.6114     3.8273     4.9687    10.1244   115.9421     0.0580     0.3109     0.1294   -56.7293     2.4720
  263.0000     5.3470     3.8049     4.9232    10.1240   115.1498     0.0525     0.3130     0.1314   -57.2186     2.4634
  263.5000     4.9411     3.7826     4.7592    10.1236   114.2944     0.0542     0.3150     0.1335   -57.4603     2.4553
  264.0000     4.5660     3.7604     4.5926    10.1231   115.9338     0.0725     0.3180     0.1246   -57.6711     2.4641
