~VERSION INFORMATION
 VERS.                2.0:   CWLS LOG ASCII STANDARD - VERSION 2.0
 WRAP.                 NO:   ONE LINE PER DEPTH STEP
~WELL INFORMATION
#MNEM.UNIT      DATA TYPE    INFORMATION
#----------   ------------   ------------------------------
 STRT.F           17.0000:   START DEPTH
 STOP.F          634.0000:   STOP DEPTH
 STEP.F            0.5000:   STEP LENGTH
 NULL.          -999.2500:   NO VALUE
 COMP. FENIX & SCISSON INC:   COMPANY
 WELL.        NPR 3 #72-3:   WELL
 FLD .             TEAPOT:   FIELD
 LOC .       S3 T38N R78W:   LOCATION
 CNTY.            NATRONA:   COUNTY
 STAT.            WYOMING:   STATE
 CTRY. UNITED STATES OF AMERICA:   COUNTRY
 SRVC.           BIRDWELL:   SERVICE COMPANY
 DATE.        24-SEP-1978:   LOGDATE
 API .       490251069100:   API NUMBER
~CURVE INFORMATION
#MNEM.UNIT       API CODE    CURVE DESCRIPTION
#----------   ------------   ------------------------------
 DEPT.F                  :   
 SPR .MV     05 010 01 00:   SPONTANEOUS POTENTIAL FROM RES.
 SN  .OHMM   05 040 16 00:   SHORT NORMAL 16"
 ILD .OHMM   05 120 46 00:   INDUCTION LOG DEEP
 GRD .GAPI   45 310 01 00:   GAMMA RAY FROM DENSITY LOG
 CALD.IN     45 280 60 00:   CALIPER
 DEN .G/C3   45 350 01 00:   COMPENSATED BULK DENSTIY
 DPHI.DEC    45 890 12 00:   DENSITY POROSITY SANDSTONE
 CORR.G/C3   45 356 01 00:   DENSITY CORRECTION
~PARAMETER INFORMATION
#MNEM.UNIT          VALUE    DESCRIPTION
#----------   ------------   ------------------------------
 PD  .                 GL:   PERMANENT DATUM
 EPD .F              5155:   ELEVATION PERMANENT DATUM
 LMF .                 KB:   LOG MEASURED FROM
 DAPD.F                 4:   FEET ABOVE PERMANENT DATUM
 DMF .                 KB:   DRILLING MEASURED FROM
 EKB .F              5159:   KELLING BUSHING
 EGL .F              5155:   GROUND LEVEL
 DATE.            9-24-78:   RUN DATE
 RUN .                  1:   RUN NUMBER
 DD  .F               635:   DEPTH DRILLER
 DL  .F               634:   DEPTH LOGGER
 BLI .F               627:   BOTTOM LOG INTERVAL
 TLI .F                30:   TOP LOG INTERVAL
 CS  .IN            8.625:   CASING SIZE
 CBD .F                34:   CASING BOTTOM DRILLER
 CBL .F                34:   CASING BOTTOM LOGGER
 BS  .IN            7.875:   BIT SIZE
 BSD .F               635:   BIT SIZE AT DEPTH
 DFT .                KCL:   DRILLING FLUID TYPE
 DFD .                8.7:   DRILLING FLUID DENSITY
 DFV .                 36:   DRILLING FLUID VISCOSITY
 DFPH.                9.5:   DRILLING FLUID PH
 DFL .                8.2:   DRILLING FLUID LOSS
 MSS .          FLOW LINE:   MUD SAMPLE SOURCE
 RMS .OHMM             .2:   RESISTIVITY MUD SAMPLE
 MST .F                68:   MUD SAMPLE TEMPERATURE
 RMF .OHMM            .18:   RESISTIVITY MUD FILTRATE SAMPLE
 MFST.F                76:   MUD FILTRATE SAMPLE TEMPERATURE
 RMC .OHMM            .32:   RESISTIVITY MUD CAKE
 MCST.F                76:   MUD CAKE SAMPLE TEMPERATURE
 MFSS.               MEAS:   MUD FILTRATE SAMPLE SOURCE
 RMB .OHMM             .2:   RESISTIVITY MUD AT BHT
 BHT .F                70:   BOTTOM HOLE TEMPERATURE
 TCS .HRS               3:   TIME CURCULATED STOPPED
 MRT .F                70:   MAXIMUM RECORDED TEMPERATURE
 LUN .               2958:   LOGGING UNIT NUMBER
 LUL .               CASP:   LOGGING UNIT LOCATION
 ENGI.           REYNOLDS:   RECORDING ENGINEER
 WITN.              AMEND:   WITNESSED BY
 CLNT.            A2DTECH:   CLIENT CODE
 ORIG.           5" PRINT:   ORIGIN OF DATA
 UWI .       490251069100:   UNIQUE WELL ID
 DICO. A2D Technologies, Inc.:   DIGITIZING COMPANY
~OTHER INFORMATION
~A   DEPT      SPR         SN        ILD         GRD      CALD        DEN       DPHI       CORR   
# ...
  138.5000   -59.1313     8.3759     7.5894   125.6998     7.8725     2.4909     0.1128     0.0298
  139.0000   -59.0623     8.2991     7.6469   125.8568     7.8637     2.4951     0.1092     0.0293
  139.5000   -58.9973     8.3305     7.7048   126.0479     7.8549     2.5024     0.1068     0.0288
  140.0000   -58.9328     8.3858     7.7631   125.6853     7.8460     2.5097     0.1033     0.0265
  140.5000   -58.8683     8.4415     7.8219   125.1021     7.8371     2.5167     0.0979     0.0230
  141.0000   -58.8038     8.5222     7.8811   127.7015     7.8281     2.5150     0.0980     0.0194
  141.5000   -58.7393     8.6105     7.9408   134.3791     7.8192     2.5113     0.1020     0.0159
  142.0000   -58.6749     8.6491     8.0009   136.6870     7.8216     2.5067     0.1052     0.0144
  142.5000   -58.6102     8.6880     8.0617   136.9978     7.8248     2.5029     0.1042     0.0140
  143.0000   -58.5449     8.7270     8.0898   138.8007     7.8279     2.5030     0.1040     0.0137
  143.5000   -58.5341     8.7663     8.1106   141.2609     7.8311     2.5031     0.1040     0.0135
  144.0000   -58.5340     8.8056     8.1315   139.2581     7.8342     2.5043     0.1040     0.0132
  144.5000   -58.5339     8.8445     8.1525   136.6280     7.8375     2.5057     0.1026     0.0128
  145.0000   -58.5326     8.9381     8.1734   134.6095     7.8323     2.5070     0.1004     0.0126
  145.5000   -58.5879     9.0419     8.1942   136.3457     7.8218     2.5068     0.1014     0.0127
  146.0000   -58.6519     9.1456     8.2157   138.7850     7.8112     2.5011     0.1070     0.0130
  146.5000   -58.7161     9.2830     8.3065   137.5028     7.8004     2.4967     0.1104     0.0134
  147.0000   -58.7802     9.4991     8.4357   136.1546     7.7988     2.5032     0.1100     0.0138
  147.5000   -58.8443     9.6280     8.5670   135.3055     7.7988     2.5104     0.1045     0.0141
  148.0000   -58.9084     9.6699     8.6247   134.3666     7.7988     2.5171     0.0992     0.0145
  148.5000   -58.9725     9.7119     8.6546   133.4985     7.7989     2.5155     0.0996     0.0149
  149.0000   -59.0365     9.7542     8.6847   130.9393     7.7942     2.5066     0.1053     0.0153
  149.5000   -59.1006     9.7966     8.7149   128.2930     7.7889     2.4978     0.1088     0.0156
  150.0000   -59.1648     9.8392     8.7452   127.6704     7.7836     2.5011     0.1066     0.0160
  150.5000   -59.2289     9.8862     8.7756   127.0677     7.7784     2.5056     0.1030     0.0163
  151.0000   -59.2920     9.8179     8.8061   127.8138     7.7731     2.5067     0.1016     0.0167
  151.5000   -59.3294     9.7426     8.8518   128.8353     7.7678     2.5040     0.1043     0.0171
  152.0000   -59.2980     9.6676     8.8311   129.2121     7.7626     2.5013     0.1073     0.0174
  152.5000   -59.2682     9.5901     8.7904   125.3119     7.7653     2.5010     0.1039     0.0178
  153.0000   -59.2381     9.5007     8.7500   124.8671     7.7856     2.5013     0.1012     0.0182
  153.5000   -59.2081     9.4030     8.7097   124.5848     7.8054     2.5018     0.1058     0.0185
  154.0000   -59.1780     9.2788     8.6527   124.1219     7.8150     2.4984     0.1092     0.0179
  154.5000   -59.1480     9.1585     8.5805   125.6389     7.8028     2.4908     0.1125     0.0171
  155.0000   -59.1180     9.0611     8.5088   127.2609     7.7909     2.4840     0.1192     0.0164
  155.5000   -59.0879     8.9896     8.4377   128.2683     7.7798     2.4838     0.1192     0.0156
  156.0000   -59.0579     8.9176     8.3672   126.3072     7.8011     2.4888     0.1137     0.0149
  156.5000   -59.0279     8.8464     8.2973   125.9379     7.8240     2.4942     0.1119     0.0142
  157.0000   -58.9978     8.7706     8.2230   126.2341     7.8331     2.4979     0.1104     0.0134
  157.5000   -58.9673     8.7952     8.2230   128.0538     7.8172     2.4997     0.1068     0.0127
  158.0000   -58.9377     8.8290     8.2230   131.5902     7.8012     2.5010     0.1063     0.0119
  158.5000   -58.9789     8.8632     8.2230   131.5532     7.8173     2.5010     0.1062     0.0112
  159.0000   -59.0260     8.8975     8.2230   131.9494     7.8403     2.5011     0.1060     0.0106
  159.5000   -59.0729     8.9335     8.2230   131.6324     7.8561     2.4967     0.1065     0.0132
  160.0000   -59.1197     8.9093     8.2207   129.0910     7.8400     2.4905     0.1127     0.0170
  160.5000   -59.1665     8.8829     8.2138   126.6151     7.8244     2.4841     0.1192     0.0285
  161.0000   -59.2134     8.8567     8.2069   124.6651     7.8162     2.4811     0.1190     0.0345
  161.5000   -59.2602     8.8307     8.2000   124.6739     7.8119     2.4884     0.1162     0.0318
  162.0000   -59.3064     8.8047     8.1931   124.9368     7.8077     2.5050     0.1058     0.0258
  162.5000   -59.3338     8.7788     8.1862   125.2794     7.8036     2.5141     0.0960     0.0197
  163.0000   -59.3211     8.7530     8.1794   128.4652     7.7995     2.5143     0.0960     0.0129
  163.5000   -59.3092     8.7273     8.1725   130.9250     7.7987     2.5050     0.1061     0.0123
  164.0000   -59.2972     8.7018     8.1657   130.4350     7.7873     2.4942     0.1158     0.0122
  164.5000   -59.2853     8.6900     8.1588   130.1210     7.7354     2.4842     0.1188     0.0121
  165.0000   -59.2733     8.6902     8.1518   131.6958     7.6853     2.4865     0.1145     0.0119
  165.5000   -59.2613     8.6902     8.1291   132.2895     7.6579     2.4931     0.1104     0.0118
  166.0000   -59.2493     8.6899     8.0781   132.3806     7.6522     2.5027     0.1064     0.0116
  166.5000   -59.2374     8.6892     8.0274   135.1404     7.6466     2.5102     0.1025     0.0115
  167.0000   -59.2254     8.6911     7.9771   139.7288     7.6409     2.5085     0.1010     0.0113
  167.5000   -59.2134     8.5306     7.9252   139.7235     7.6408     2.5061     0.1019     0.0112
  168.0000   -59.2014     8.4150     7.9254   138.7517     7.6454     2.5039     0.1027     0.0110
  168.5000   -59.1894     8.2982     7.9262   134.0059     7.6499     2.5016     0.1044     0.0109
  169.0000   -59.1775     8.2995     7.9254   132.8882     7.6545     2.4993     0.1071     0.0107
  169.5000   -59.1655     8.2991     7.7991   133.9918     7.6582     2.4982     0.1092     0.0106
  170.0000   -59.1536     8.2991     7.6716   135.5166     7.7022     2.4980     0.1094     0.0111
  170.5000   -59.1413     8.1135     7.5689   137.0314     7.7600     2.4980     0.1096     0.0120
  171.0000   -59.1574     7.9285     7.5200   137.2751     7.8186     2.4980     0.1085     0.0129
  171.5000   -59.1924     7.8106     7.4434   137.4721     7.8759     2.4981     0.1051     0.0138
  172.0000   -59.2277     7.7385     7.3486   138.0007     7.8653     2.4976     0.1101     0.0147
  172.5000   -59.2630     7.6395     7.2551   139.2816     7.8506     2.4859     0.1181     0.0156
  173.0000   -59.2983     7.6796     7.1619   142.4143     7.8361     2.4741     0.1244     0.0165
  173.5000   -59.3336     7.7101     7.1619   145.6910     7.8213     2.4807     0.1244     0.0158
  174.0000   -59.3689     7.7096     7.1619   146.2363     7.8241     2.4892     0.1178     0.0151
  174.5000   -59.4042     7.7569     7.1619   143.5891     7.8309     2.4962     0.1113     0.0144
  175.0000   -59.4395     7.8168     7.2436   140.0008     7.8377     2.4938     0.1102     0.0137
  175.5000   -59.4750     7.8772     7.3470   136.4337     7.8446     2.4902     0.1113     0.0130
  176.0000   -59.5101     7.9380     7.4523   134.0788     7.8514     2.4876     0.1124     0.0134
  176.5000   -59.5283     7.9993     7.5590   133.6202     7.8582     2.4866     0.1136     0.0158
  177.0000   -59.4691     8.0610     7.6669   132.6123     7.8651     2.4844     0.1167     0.0182
  177.5000   -59.4114     8.1233     7.7144   129.6731     7.8720     2.4802     0.1213     0.0204
  178.0000   -59.3539     8.1476     7.7263   121.9561     7.8783     2.4758     0.1244     0.0208
  178.5000   -59.2964     8.1477     7.7382   121.3748     7.8762     2.4817     0.1184     0.0210
