~VERSION INFORMATION
 VERS.                2.0:   CWLS LOG ASCII STANDARD - VERSION 2.0
 WRAP.                 NO:   ONE LINE PER DEPTH STEP
~WELL INFORMATION
#MNEM.UNIT      DATA TYPE    INFORMATION
#----------   ------------   ------------------------------
 STRT.F           34.0000:   START DEPTH
 STOP.F          582.0000:   STOP DEPTH
 STEP.F            0.5000:   STEP LENGTH
 NULL.          -999.2500:   NO VALUE
 COMP. FENIX & SCISSON INC:   COMPANY
 WELL. NPR 3 SX-33 #88-33:   WELL
 FLD .             TEAPOT:   FIELD
 LOC .      S33 T39N R78W:   LOCATION
 CNTY.            NATRONA:   COUNTY
 STAT.            WYOMING:   STATE
 CTRY. UNITED STATES OF AMERICA:   COUNTRY
 SRVC.           BIRDWELL:   SERVICE COMPANY
 DATE.        04-AUG-1978:   LOGDATE
 API .       490251068000:   API NUMBER
~CURVE INFORMATION
#MNEM.UNIT       API CODE    CURVE DESCRIPTION
#----------   ------------   ------------------------------
 DEPT.F                  :   
 SPR .MV     05 010 01 00:   SPONTANEOUS POTENTIAL FROM RES.
 ILD .OHMM   05 120 46 00:   INDUCTION LOG DEEP
 SN  .OHMM   05 040 16 00:   SHORT NORMAL 16"
 CALD.IN     45 280 60 00:   CALIPER
 GRD .GAPI   45 310 01 00:   GAMMA RAY FROM DENSITY LOG
 DEN .G/C3   45 350 01 00:   COMPENSATED BULK DENSTIY
 CORR.G/C3   45 356 01 00:   DENSITY CORRECTION
 DPHI.DEC    45 890 12 00:   DENSITY POROSITY SANDSTONE
~PARAMETER INFORMATION
#MNEM.UNIT          VALUE    DESCRIPTION
#----------   ------------   ------------------------------
 PD  .                 GL:   PERMANENT DATUM
 EPD .F              5146:   ELEVATION PERMANENT DATUM
 LMF .                 KB:   LOG MEASURED FROM
 DAPD.F                 4:   FEET ABOVE PERMANENT DATUM
 DMF .                 KB:   DRILLING MEASURED FROM
 EKB .F              5150:   KELLING BUSHING
 EGL .F              5146:   GROUND LEVEL
 DATE.             8-4-78:   RUN DATE
 RUN .                  1:   RUN NUMBER
 DD  .F               570:   DEPTH DRILLER
 DL  .F               588:   DEPTH LOGGER
 BLI .F               582:   BOTTOM LOG INTERVAL
 TLI .F                50:   TOP LOG INTERVAL
 CS  .IN            8.625:   CASING SIZE
 CBD .F                40:   CASING BOTTOM DRILLER
 BS  .IN            7.875:   BIT SIZE
 BSD .F               570:   BIT SIZE AT DEPTH
 DFT .                KCL:   DRILLING FLUID TYPE
 DFD .                8.7:   DRILLING FLUID DENSITY
 DFV .                 34:   DRILLING FLUID VISCOSITY
 DFPH.                  9:   DRILLING FLUID PH
 DFL .                9.6:   DRILLING FLUID LOSS
 MSS .          FLOW LINE:   MUD SAMPLE SOURCE
 RMS .OHMM            .24:   RESISTIVITY MUD SAMPLE
 MST .F                70:   MUD SAMPLE TEMPERATURE
 RMF .OHMM            .24:   RESISTIVITY MUD FILTRATE SAMPLE
 MFST.F                80:   MUD FILTRATE SAMPLE TEMPERATURE
 RMC .OHMM             .3:   RESISTIVITY MUD CAKE
 MCST.F                75:   MUD CAKE SAMPLE TEMPERATURE
 MFSS.               MEAS:   MUD FILTRATE SAMPLE SOURCE
 TCS .HRS               2:   TIME CURCULATED STOPPED
 LUN .               3006:   LOGGING UNIT NUMBER
 LUL .               CASP:   LOGGING UNIT LOCATION
 ENGI.             MILLER:   RECORDING ENGINEER
 WITN.           MCGINLEY:   WITNESSED BY
 CLNT.            A2DTECH:   CLIENT CODE
 ORIG.        2" 5" PRINT:   ORIGIN OF DATA
 UWI .       490251068000:   UNIQUE WELL ID
 DICO. A2D Technologies, Inc.:   DIGITIZING COMPANY
~OTHER INFORMATION
~A   DEPT      SPR        ILD         SN       CALD         GRD       DEN       CORR       DPHI   
# ...
  358.0000   -21.4610     7.7298     8.2508     7.5156   103.2057     2.5457     0.0894     0.0779
  358.5000   -21.4766     8.1892     8.5927     7.4758   101.0641     2.5484     0.0918     0.0763
  359.0000   -21.4923     8.3658     8.5840     7.4837   102.1090     2.5462     0.0943     0.0777
  359.5000   -21.5079     8.3571     8.5753     7.5007   102.9011     2.5440     0.0959     0.0833
  360.0000   -21.5236     8.3595     8.5666     7.5179   103.1779     2.5367     0.0958     0.0886
  360.5000   -21.5392     8.3558     8.5579     7.5351   102.3475     2.5280     0.0939     0.0930
  361.0000   -21.5549     8.3503     8.5492     7.5523   100.6267     2.5227     0.0818     0.0933
  361.5000   -21.5704     8.3448     8.5405     7.5696   102.6049     2.5221     0.0716     0.0932
  362.0000   -21.5854     8.3393     8.5319     7.5863   105.5605     2.5218     0.0719     0.0930
  362.5000   -21.6023     8.3338     8.5232     7.6043   106.8303     2.5215     0.0676     0.1034
  363.0000   -21.6819     8.3283     8.5146     7.5679   105.9291     2.5174     0.0600     0.1017
  363.5000   -21.9999     8.3228     8.5059     7.5326   105.0508     2.5124     0.0522     0.0993
  364.0000   -22.3127     8.3173     8.4973     7.4966   108.4121     2.5145     0.0552     0.0970
  364.5000   -22.3848     8.3118     8.4887     7.4937   107.4671     2.5165     0.0615     0.0951
  365.0000   -22.3511     8.3063     8.4801     7.4999   106.4126     2.5156     0.0659     0.0961
  365.5000   -22.3150     8.3008     8.4714     7.5057   105.3481     2.5140     0.0649     0.0969
  366.0000   -22.2786     8.2952     8.4628     7.4830   105.6532     2.5123     0.0641     0.0963
  366.5000   -22.2426     8.2899     8.4542     7.4079   106.4138     2.5121     0.0664     0.0964
  367.0000   -22.2270     8.2828     8.4456     7.3287   106.1100     2.5142     0.0687     0.1044
  367.5000   -22.3831     8.6652     8.4364     7.1375   106.6923     2.5084     0.0684     0.1133
  368.0000   -22.5403     9.2375     8.3970     6.9339   107.9138     2.4939     0.0626     0.1152
  368.5000   -22.6970     9.7715     8.3540     6.9330   104.9558     2.4848     0.0627     0.1177
  369.0000   -22.8536     8.9733     8.3113     6.9502   106.2806     2.4842     0.0645     0.1289
  369.5000   -23.0104     8.1815     8.2687     6.9711   103.4395     2.4652     0.0662     0.1400
  370.0000   -23.1722     7.4593     8.2264     7.0893   101.4269     2.4441     0.0677     0.1511
  370.5000   -23.2082     6.8017     8.0520     7.2209    98.5587     2.4231     0.0644     0.1676
  371.0000   -23.2117     6.1937     7.6188     7.2603   101.0249     2.4025     0.0593     0.1897
  371.5000   -23.1977     6.0616     7.2032     7.3048   101.0236     2.3640     0.0496     0.2195
  372.0000   -22.0851     6.3324     6.8931     7.4113    99.4974     2.3233     0.0511     0.2423
  372.5000   -20.0468     6.5838     6.8301     7.5220   101.9820     2.2818     0.0536     0.2037
  373.0000   -19.7178     6.6603     6.8734     7.5694   101.7520     2.3340     0.0813     0.1413
  373.5000   -19.5542     6.6809     6.8931     7.5097   104.1721     2.4458     0.1899     0.1015
  374.0000   -19.3617     6.7015     7.5800     8.3091   109.0508     2.5019     0.1998     0.0930
  374.5000   -19.0256     7.9495     8.3589     7.8607   104.6630     2.5189     0.0627     0.0970
  375.0000   -18.6922     9.8617     9.2178     7.8534    99.7536     2.5093     0.0307     0.1010
  375.5000   -18.4217    11.0456     9.8617     7.9079    96.3967     2.5058     0.0257     0.1029
  376.0000   -18.3445    12.3716    10.0463     7.9627    94.4368     2.5036     0.0287     0.1041
  376.5000   -18.2451    12.7531    10.2022     7.9905    95.3807     2.5015     0.0255     0.1053
  377.0000   -18.2219    12.4951    10.3605     7.9873    95.5222     2.4995     0.0182     0.1111
  377.5000   -18.0809    12.2932    10.5212     7.9328    93.9611     2.4911     0.0189     0.1202
  378.0000   -17.7766    12.2932    10.6819     7.8790    92.5626     2.4784     0.0189     0.1284
  378.5000   -16.7602    12.6374    11.0346     7.8293    91.2015     2.4657     0.0113     0.1358
  379.0000   -15.7221    13.0572    11.4309     7.8673    89.7980     2.4530     0.0072     0.1445
  379.5000   -14.6853    13.4800    11.8433     7.9298    87.0356     2.4403     0.0056     0.1604
  380.0000   -13.6494    14.4532    12.2702     7.9984    82.5601     2.4267     0.0041     0.1772
  380.5000   -12.6204    15.4543    12.7125     8.0505    78.1321     2.3875     0.0081     0.1884
  381.0000   -11.6636    16.5206    13.1728     8.0714    77.2141     2.3640     0.0146     0.1888
  381.5000   -10.0110    17.5872    13.2693     8.0962    76.8718     2.3618     0.0344     0.1934
  382.0000    -8.5149    18.7334    13.3286     8.1213    69.1151     2.3617     0.0554     0.2025
  382.5000    -7.3978    19.8752    13.3868     8.1246    62.8684     2.3493     0.0580     0.2116
  383.0000    -7.2095    20.0039    13.4458     8.0991    59.1152     2.3298     0.0577     0.2112
  383.5000    -7.0762    20.0060    13.5051     8.0736    57.5248     2.3242     0.0688     0.2152
  384.0000    -5.4407    19.8220    13.5646     8.0803    56.0650     2.3186     0.0843     0.2146
  384.5000    -5.4630    19.4010    13.6244     8.0927    55.8988     2.3201     0.0998     0.2128
  385.0000    -5.4354    19.0257    13.6845     8.1053    56.1019     2.3226     0.1100     0.2181
  385.5000    -5.4133    18.9125    13.7527     8.1147    57.6283     2.3252     0.1073     0.2260
  386.0000    -5.3911    18.8912    13.8376     8.1223    59.8883     2.3138     0.1044     0.2256
  386.5000    -5.3688    18.8699    13.9231     8.1307    62.0591     2.3055     0.1019     0.2231
  387.0000    -5.3465    18.8487    14.0091     8.1600    62.7804     2.3167     0.1143     0.2008
  387.5000    -5.3258    18.8275    14.0957     8.1900    63.4502     2.3500     0.1378     0.1816
  388.0000    -5.3049    18.8064    14.1836     8.2199    63.6405     2.3758     0.1482     0.1962
  388.5000    -5.2342    18.7851    14.2384     8.2500    61.8612     2.3602     0.1279     0.1914
  389.0000    -4.5613    18.7549    14.1812     8.2846    60.7033     2.3555     0.1060     0.2113
  389.5000    -3.6411    18.9679    14.1390     8.3194    61.2526     2.3278     0.1010     0.2434
  390.0000    -2.8629    19.3471    14.0969     8.3541    61.8170     2.2605     0.0769     0.2623
  390.5000    -2.8437    19.7339    14.0548     8.3905    62.3941     2.2457     0.0444     0.2576
  391.0000    -2.8103    19.8172    14.0134     8.4585    62.2961     2.2478     0.0495     0.2482
  391.5000    -2.7747    19.7080    13.9800     8.5271    60.1463     2.2630     0.0538     0.2403
  392.0000    -2.7389    19.6391    14.1131     8.5185    58.6424     2.2781     0.0479     0.2403
  392.5000    -2.7031    20.5644    14.2255     8.5056    60.7071     2.2782     0.0359     0.2508
  393.0000    -2.6673    21.5404    14.3390     8.4930    62.9780     2.2576     0.0231     0.2615
  393.5000    -2.6316    22.3969    14.4533     8.4806    61.8397     2.2409     0.0159     0.2670
  394.0000    -2.5958    22.7033    14.5685     8.4682    60.4327     2.2386     0.0168     0.2686
  394.5000    -2.5598    23.0148    14.6846     8.4557    59.3167     2.2380     0.0179     0.2661
  395.0000    -2.5233    23.3267    14.8016     8.4433    60.1693     2.2394     0.0190     0.2652
  395.5000    -2.4949    23.7030    14.9196     8.4309    61.3222     2.2411     0.0201     0.2664
  396.0000    -2.5974    24.0924    15.0385     8.4181    62.2758     2.2428     0.0212     0.2671
  396.5000    -2.7019    24.4808    15.1584     8.3783    59.6869     2.2424     0.0223     0.2650
  397.0000    -2.8056    24.9419    15.2792     8.2769    60.0981     2.2389     0.0234     0.2626
  397.5000    -2.9084    24.8460    15.4010     8.2081    60.8982     2.2398     0.0235     0.2623
  398.0000    -3.0138    24.7662    15.4655     8.1958    61.8823     2.2291     0.0221     0.2619
