~VERSION INFORMATION
 VERS.                2.0:   CWLS LOG ASCII STANDARD - VERSION 2.0
 WRAP.                 NO:   ONE LINE PER DEPTH STEP
~WELL INFORMATION
#MNEM.UNIT      DATA TYPE    INFORMATION
#----------   ------------   ------------------------------
 STRT.F          458.0000:   START DEPTH
 STOP.F         2155.0000:   STOP DEPTH
 STEP.F            0.5000:   STEP LENGTH
 NULL.          -999.2500:   NO VALUE
 COMP.   FLUOR DANIEL INC:   COMPANY
 WELL. NAVAL PETROLEUM RESERVE 3 SHX- 1 #33-29:   WELL
 FLD .             TEAPOT:   FIELD
 LOC .      S29 T39N R78W:   LOCATION
 CNTY.            NATRONA:   COUNTY
 STAT.            WYOMING:   STATE
 CTRY. UNITED STATES OF AMERICA:   COUNTRY
 SRVC.            Unknown:   SERVICE COMPANY
 DATE.        29-JUN-1995:   LOGDATE
 API .       490252272500:   API NUMBER
~CURVE INFORMATION
#MNEM.UNIT       API CODE    CURVE DESCRIPTION
#----------   ------------   ------------------------------
 DEPT.F                  :   
 C1  .VF     91 831 01 00:   METHANE
 C2  .VF     91 832 01 00:   ETHANE
 C3  .VF     91 833 01 00:   PROPANE
 C4  .VF     91 834 01 00:   BUTANE
 ROP .FT/HR  91 810 01 00:   RAT OF DRILLING PENETRATION
 TGAS.TC/CC  91 830 01 00:   TOTAL GAS UNIT
~PARAMETER INFORMATION
#MNEM.UNIT          VALUE    DESCRIPTION
#----------   ------------   ------------------------------
 EKB .F              5020:   KELLING BUSHING
 EGL .F              5010:   GROUND LEVEL
 DATE.        29-JUN-1995:   RUN DATE
 RUN .                  1:   RUN NUMBER
 BLI .F              2155:   BOTTOM LOG INTERVAL
 TLI .F               460:   TOP LOG INTERVAL
 ENGI.     C.TOWER/R.HUSK:   RECORDING ENGINEER
 CLNT.            A2DTECH:   CLIENT CODE
 ORIG.           5" PRINT:   ORIGIN OF DATA
 UWI .       490252272500:   UNIQUE WELL ID
 DICO. A2D Technologies, Inc.:   DIGITIZING COMPANY
~OTHER INFORMATION
~A   DEPT       C1         C2         C3         C4          ROP       TGAS 
# ...
 1134.0000     2.3023     0.1495     0.0000     0.0000     0.4129    16.3052
 1134.5000     2.2950     0.1449     0.0000     0.0000     0.4130    17.2375
 1135.0000     2.1000     0.1402     0.0000     0.0000     0.4131    17.2280
 1135.5000     2.0910     0.2293     0.0000     0.0000     0.4133    16.2754
 1136.0000     2.0837     0.2236     0.0000     0.0000     0.4134    16.2662
 1136.5000     2.0775     0.2190     0.0000     0.0000     0.4135    16.2570
 1137.0000     2.0700     0.2145     0.0000     0.0000     0.4136    16.2479
 1137.5000     2.2492     0.2099     0.0000     0.0000     0.4326    16.2387
 1138.0000     2.2419     0.2056     0.0000     0.0000     0.4421    16.2295
 1138.5000     2.2346     0.2942     0.0000     0.0000     0.4422    17.1621
 1139.0000     2.2273     0.2897     0.0000     0.0000     0.4517    18.0941
 1139.5000     2.2199     0.2850     0.0000     0.0000     0.4707    18.0847
 1140.0000     2.2125     0.3740     0.0000     0.0000     0.4708    18.0753
 1140.5000     2.2050     0.3683     0.0000     0.0000     0.4765    18.0641
 1141.0000     2.1961     0.3645     0.0000     0.0000     0.4822    17.1135
 1141.5000     2.1888     0.3591     0.0000     0.0000     0.4879    17.1044
 1142.0000     2.1825     0.2611     0.0000     0.0000     0.4893    18.0366
 1142.5000     2.1742     0.2566     0.0000     0.0000     0.4892    18.0274
 1143.0000     2.1669     0.2520     0.0000     0.0000     0.4892    18.0182
 1143.5000     2.3470     0.2474     0.0000     0.0000     0.4891    18.0091
 1144.0000     2.3397     0.2429     0.0000     0.0000     0.4890    17.9999
 1144.5000     2.3324     0.2383     0.0000     0.0000     0.4795    17.0492
 1145.0000     2.5156     0.2336     0.0000     0.0000     0.4794    17.0397
 1145.5000     2.6925     0.2290     0.0000     0.0000     0.4794    17.9723
 1146.0000     2.6836     0.1894     0.0000     0.0000     0.4793    17.9623
 1146.5000     2.6775     0.2200     0.0000     0.0000     0.4698    18.8944
 1147.0000     2.6689     0.2143     0.0000     0.0000     0.4603    18.8839
 1147.5000     2.7336     0.3043     0.0000     0.0000     0.4508    18.8747
 1148.0000     2.8436     0.2986     0.0000     0.0000     0.4507    18.8656
 1148.5000     3.0220     0.2941     0.0000     0.0000     0.4409    16.9735
 1149.0000     3.0146     0.3841     0.0000     0.0000     0.4317    16.9643
 1149.5000     3.0073     0.2852     0.0000     0.0000     0.4599    16.9550
 1150.0000     3.0000     0.2812     0.0000     0.0000     0.4787    16.9456
 1150.5000     3.1802     0.2772     0.0000     0.0000     0.4880    16.9345
 1151.0000     3.1710     0.2732     0.0000     0.0000     0.4879    16.9253
 1151.5000     3.1650     0.2685     0.0000     0.0000     0.4878    16.4556
 1152.0000     3.1564     0.1714     0.0000     0.0000     0.4783    15.9655
 1152.5000     3.1491     0.1678     0.0000     0.0000     0.4783    15.9564
 1153.0000     3.1417     0.1641     0.0000     0.0000     0.4876    15.9472
 1153.5000     2.9469     0.0670     0.0000     0.0000     0.4875    15.9380
 1154.0000     2.9396     0.0634     0.0000     0.0000     0.6569    15.9288
 1154.5000     2.9325     0.0598     0.0000     0.0000     0.6568    15.9195
 1155.0000     2.9249     0.0561     0.0000     0.0000     0.6474    15.9082
 1155.5000     2.9057     0.0523     0.0000     0.0000     0.6473    15.8990
 1156.0000     2.7225     0.0485     0.0000     0.0000     0.6472    14.9484
 1156.5000     2.7136     0.0442     0.0000     0.0000     0.6377    14.9392
 1157.0000     2.7063     0.0411     0.0000     0.0000     0.6376    14.9300
 1157.5000     2.5115     0.0369     0.0000     0.0000     0.6375    13.0380
 1158.0000     2.5042     0.0330     0.0000     0.0000     0.6375    12.0874
 1158.5000     2.3093     0.0299     0.0000     0.0000     0.6374    12.0782
 1159.0000     2.1145     0.0262     0.0000     0.0000     0.6373    12.0690
 1159.5000     2.1072     0.0223     0.0000     0.0000     0.6467    12.0596
 1160.0000     2.0999     0.1121     0.0000     0.0000     0.6466    12.0484
 1160.5000     2.0925     0.2019     0.0000     0.0000     0.6465    13.9220
 1161.0000     2.0850     0.1981     0.0000     0.0000     0.6464    14.8566
 1161.5000     2.0761     0.2881     0.0000     0.0000     0.9890    15.7888
 1162.0000     1.8813     0.3779     0.0000     0.0000     1.0323    15.7773
 1162.5000     1.8348     0.3734     0.0000     0.0000     1.0228    15.7682
 1163.0000     1.7792     0.3697     0.0000     0.0000     0.8438    15.7590
 1163.5000     1.7235     0.3661     0.0000     0.0000     0.8061    15.7498
 1164.0000     1.6938     0.4559     0.0000     0.0000     0.8060    15.7406
 1164.5000     1.6809     0.5458     0.0000     0.0000     0.8059    15.7312
 1165.0000     1.6681     0.5421     0.0000     0.0000     0.7964    15.7200
 1165.5000     1.6553     0.5383     0.0000     0.0000     0.7210    15.7108
 1166.0000     1.6425     0.5338     0.0000     0.0000     0.6174    15.7016
 1166.5000     1.6294     0.5308     0.0000     0.0000     0.6079    14.7510
 1167.0000     1.6163     0.5271     0.0000     0.0000     0.6080    15.6832
 1167.5000     1.4969     0.5229     0.0000     0.0000     0.6172    15.6741
 1168.0000     1.5879     0.5193     0.0000     0.0000     0.6359    15.6649
 1168.5000     1.5751     0.5159     0.0000     0.0000     0.6358    14.7143
 1169.0000     1.5637     0.5120     0.0000     0.0000     0.6357    14.7050
 1169.5000     1.5495     0.3214     0.0000     0.0000     0.6357    14.6956
 1170.0000     1.5366     0.3178     0.0000     0.0000     0.6168    14.6844
 1170.5000     1.5244     0.2206     0.0000     0.0000     0.6167    14.6753
 1171.0000     1.7006     0.2161     0.0000     0.0000     0.6166    14.6661
 1171.5000     1.6856     0.2124     0.0000     0.0000     0.6165    14.6569
 1172.0000     1.6725     0.1813     0.0000     0.0000     0.6070    12.7649
 1172.5000     1.6594     0.2061     0.0000     0.0000     0.6070    11.8143
 1173.0000     1.8315     0.2019     0.0000     0.0000     0.6163    11.8051
 1173.5000     1.8187     0.2612     0.0000     0.0000     0.6162    11.7959
 1174.0000     1.9965     0.2879     0.0000     0.0000     0.6161    11.7866
 1174.5000     1.9819     0.2840     0.0000     0.0000     0.6160    11.7772
 1175.0000     1.9677     0.2804     0.0000     0.0000     0.6160    12.7092
 1175.5000     1.9549     0.2767     0.0000     0.0000     0.6159    14.5811
 1176.0000     1.7550     0.4591     0.0000     0.0000     0.6158    14.5720
 1176.5000     1.7419     0.4554     0.0000     0.0000     0.6252    14.5628
 1177.0000     1.5413     0.5462     0.0000     0.0000     0.6345    14.5536
 1177.5000     1.5281     0.5576     0.0000     0.0000     0.5308    13.6030
 1178.0000     1.5125     0.6318     0.0000     0.0000     0.4931    13.5938
 1178.5000     1.4997     0.6280     0.0000     0.0000     0.4930    13.5846
 1179.0000     1.4869     0.6241     0.0000     0.0000     0.4929    12.6339
 1179.5000     1.4740     0.7139     0.0000     0.0000     0.4929    12.2589
 1180.0000     1.4625     0.7103     0.0000     0.0000     0.4928    11.6720
 1180.5000     1.4484     0.7065     0.0000     0.0000     0.4927    11.6628
 1181.0000     1.4356     0.7028     0.0000     0.0000     0.4926    11.6536
 1181.5000     1.4227     0.6984     0.0000     0.0000     0.4925    11.6444
 1182.0000     1.4100     0.6948     0.0000     0.0000     0.4925    11.6360
 1182.5000     1.3969     0.6916     0.0000     0.0000     0.4924    11.6261
 1183.0000     1.3838     0.6875     0.0000     0.0000     0.4829    12.5586
 1183.5000     1.3682     0.6838     0.0000     0.0000     0.4828    12.5699
 1184.0000     1.3554     0.6804     0.0000     0.0000     0.4827    12.4644
 1184.5000     1.3426     0.7701     0.0000     0.0000     0.4826    11.5870
 1185.0000     1.3298     0.7664     0.0000     0.0000     0.4826    11.5779
 1185.5000     1.3169     0.7533     0.0000     0.0000     0.4825    11.5687
