~VERSION INFORMATION
 VERS.                2.0:   CWLS LOG ASCII STANDARD - VERSION 2.0
 WRAP.                 NO:   ONE LINE PER DEPTH STEP
~WELL INFORMATION
#MNEM.UNIT      DATA TYPE    INFORMATION
#----------   ------------   ------------------------------
 STRT.F            6.0000:   START DEPTH
 STOP.F          765.0000:   STOP DEPTH
 STEP.F            0.5000:   STEP LENGTH
 NULL.          -999.2500:   NO VALUE
 COMP. FENIX & SCISSON INC:   COMPANY
 WELL.      24 SX 2 #24-2:   WELL
 FLD .        TEAPOT DOME:   FIELD
 LOC .       S2 T38N R78W:   LOCATION
 CNTY.            NATRONA:   COUNTY
 STAT.            WYOMING:   STATE
 CTRY. UNITED STATES OF AMERICA:   COUNTRY
 SRVC.           BIRDWELL:   SERVICE COMPANY
 DATE.        20-JAN-1978:   LOGDATE
 API .       490251055700:   API NUMBER
~CURVE INFORMATION
#MNEM.UNIT       API CODE    CURVE DESCRIPTION
#----------   ------------   ------------------------------
 DEPT.F                  :   
 SPR .MV     05 010 01 00:   SPONTANEOUS POTENTIAL FROM RES.
 SN  .OHMM   05 040 16 00:   SHORT NORMAL 16"
 ILD .OHMM   05 120 46 00:   INDUCTION LOG DEEP
 CALD.IN     45 280 60 00:   CALIPER FROM DENSITY LOG
 CORR.G/C3   45 356 01 00:   DENSITY CORRECTION
 DEN .G/C3   45 350 01 00:   COMPENSATED BULK DENSTIY
 DPHI.DEC    45 890 12 00:   DENSITY POROSITY SANDSTONE
 GRD .GAPI   45 310 01 00:   GAMMA RAY FROM DENSITY LOG
~PARAMETER INFORMATION
#MNEM.UNIT          VALUE    DESCRIPTION
#----------   ------------   ------------------------------
 PD  .                 GL:   PERMANENT DATUM
 EPD .F              5131:   ELEVATION PERMANENT DATUM
 LMF .                 KB:   LOG MEASURED FROM
 DMF .                 KB:   DRILLING MEASURED FROM
 EKB .F              5134:   KELLING BUSHING
 EGL .F              5131:   GROUND LEVEL
 DATE.        20-JAN-1978:   RUN DATE
 RUN .                  1:   RUN NUMBER
 DD  .F               775:   DEPTH DRILLER
 DL  .F               770:   DEPTH LOGGER
 BLI .F               770:   BOTTOM LOG INTERVAL
 TLI .F                40:   TOP LOG INTERVAL
 CS  .IN            8.625:   CASING SIZE
 CBD .F                39:   CASING BOTTOM DRILLER
 CBL .F                39:   CASING BOTTOM LOGGER
 BS  .IN            7.875:   BIT SIZE
 BSD .F               775:   BIT SIZE AT DEPTH
 DFT .                KCL:   DRILLING FLUID TYPE
 DFD .                8.6:   DRILLING FLUID DENSITY
 DFV .                 33:   DRILLING FLUID VISCOSITY
 DFPH.                9.5:   DRILLING FLUID PH
 DFL .                  8:   DRILLING FLUID LOSS
 MSS .           FLOWLINE:   MUD SAMPLE SOURCE
 RMS .OHMM            .31:   RESISTIVITY MUD SAMPLE
 MST .F                54:   MUD SAMPLE TEMPERATURE
 RMF .OHMM            .28:   RESISTIVITY MUD FILTRATE SAMPLE
 MFST.F                64:   MUD FILTRATE SAMPLE TEMPERATURE
 RMC .OHMM             .8:   RESISTIVITY MUD CAKE
 MCST.F                64:   MUD CAKE SAMPLE TEMPERATURE
 MFSS.               MEAS:   MUD FILTRATE SAMPLE SOURCE
 MCSS.               MEAS:   MUD CAKE SAMPLE SOURCE
 RMB .OHMM            .22:   RESISTIVITY MUD AT BHT
 BHT .F                76:   BOTTOM HOLE TEMPERATURE
 TCS .HRS            0400:   TIME CURCULATED STOPPED
 MRT .F                76:   MAXIMUM RECORDED TEMPERATURE
 LUN .               2958:   LOGGING UNIT NUMBER
 LUL .             CASPER:   LOGGING UNIT LOCATION
 ENGI.            POINTER:   RECORDING ENGINEER
 WITN.           MCGINLEY:   WITNESSED BY
 CLNT.            A2DTECH:   CLIENT CODE
 ORIG.           5" PRINT:   ORIGIN OF DATA
 UWI .       490251055700:   UNIQUE WELL ID
 DICO. A2D Technologies, Inc.:   DIGITIZING COMPANY
~OTHER INFORMATION
~A    DEPT     SPR         SN        ILD       CALD       CORR        DEN       DPHI         GRD  
# ...
   87.0000   -24.2741     4.4839     4.0082     7.9429     0.0776     2.2849     0.2204    82.1019
   87.5000   -24.4352     4.6397     4.0061     7.9429     0.0836     2.2917     0.2174    76.2049
   88.0000   -24.4458     4.7676     4.0045     7.9429     0.0889     2.2956     0.2138    71.4438
   88.5000   -24.4563     4.8652     3.9752     7.9402     0.0918     2.2977     0.2177    75.2187
   89.0000   -24.4669     4.8625     3.9735     7.9042     0.0925     2.2983     0.2184    82.8163
   89.5000   -24.3263     4.8599     3.9444     7.8229     0.1045     2.2870     0.2292    85.6621
   90.0000   -24.3395     4.8572     3.9428     7.7127     0.1164     2.2661     0.2380    85.8936
   90.5000   -24.3500     4.7544     3.9139     7.5867     0.1186     2.2638     0.2284    87.5203
   91.0000   -24.3605     4.6863     3.8853     7.4645     0.1134     2.2834     0.2221    99.9514
   91.5000   -24.5216     4.5239     3.8038     7.3956     0.1103     2.2857     0.2246   111.4992
   92.0000   -24.3816     4.3976     3.6473     7.3353     0.1058     2.2849     0.2252   101.7352
   92.5000   -24.3921     4.3046     3.4732     7.3705     0.0893     2.2767     0.2304    84.0010
   93.0000   -24.5532     4.1555     3.2169     7.4309     0.0750     2.2745     0.2373    72.3207
   93.5000   -24.8649     4.0395     3.1061     7.5233     0.0735     2.2407     0.2477    68.5346
   94.0000   -25.4779     3.8726     3.0409     7.6101     0.0734     2.2166     0.2680    70.9438
   94.5000   -25.6390     3.7384     2.9565     7.6871     0.0742     2.1805     0.2914    73.8963
   95.0000   -25.4963     3.6089     2.9553     7.7703     0.0764     2.1625     0.2952    74.8419
   95.5000   -25.3588     3.3650     2.9134     7.8560     0.0765     2.1514     0.2997    69.0492
   96.0000   -25.0682     3.3632     2.8921     7.9329     0.0726     2.1606     0.2936    64.3394
   96.5000   -24.9255     3.3613     2.9113     8.0099     0.0680     2.2072     0.2633    67.5647
   97.0000   -25.6916     3.3594     2.9098     8.0558     0.0590     2.2342     0.2492    69.1722
   97.5000   -26.3046     3.3576     2.9086     8.0793     0.0530     2.2379     0.2509    67.4410
   98.0000   -26.6163     3.3557     2.9276     8.1271     0.0545     2.2299     0.2577    61.7239
   98.5000   -27.0786     3.2847     2.9467     8.1798     0.0672     2.2098     0.2843    68.0551
   99.0000   -27.3903     3.2153     2.9455     8.2075     0.0776     2.1787     0.2900    78.3020
   99.5000   -27.7021     3.1473     2.8048     8.2325     0.0889     2.1636     0.2927    82.2235
  100.0000   -28.1644     3.0807     2.5094     8.2730     0.0978     2.1707     0.2831    81.6270
  100.5000   -28.6267     3.0156     2.3242     8.2730     0.0828     2.1892     0.2754    80.8381
  101.0000   -29.0891     2.9723     2.2287     8.2626     0.0738     2.1986     0.2760    80.2288
  101.5000   -29.2502     2.7908     2.1668     8.2923     0.0707     2.1992     0.2842    82.9378
  102.0000   -29.5619     2.6386     2.2268     8.2620     0.0707     2.1868     0.2996    89.8699
  102.5000   -29.8737     2.6371     2.3044     8.2449     0.0706     2.1604     0.3158    88.3556
  103.0000   -29.5803     2.6357     2.4012     8.2012     0.0706     2.1356     0.3227    87.1430
  103.5000   -28.5384     2.6714     2.4171     8.2209     0.0706     2.1152     0.3317    85.0254
  104.0000   -27.6453     2.7257     2.4502     8.3171     0.1118     2.0956     0.3420    73.2546
  104.5000   -27.0534     2.8598     2.6256     8.5611     0.1455     2.0764     0.3504    74.4553
  105.0000   -27.0640     3.0637     2.8748     8.1097     0.1424     2.0618     0.3510    78.5722
  105.5000   -27.2251     3.3745     3.2750     7.9590     0.1379     2.0566     0.3165    70.8234
  106.0000   -27.3862     3.6655     3.3640     7.9587     0.1349     2.2155     0.2456    64.7842
  106.5000   -27.5473     3.7147     3.3626     7.9584     0.1153     2.3719     0.2173    62.3649
  107.0000   -27.5579     3.7126     3.3369     7.9581     0.0673     2.4268     0.2075    63.2639
  107.5000   -27.7190     3.6594     3.2668     7.9578     0.0545     2.3869     0.2097    70.7993
  108.0000   -27.8801     3.6321     3.1761     7.9575     0.0642     2.3085     0.2133    70.7933
  108.5000   -28.1918     3.6050     3.0891     7.9572     0.0717     2.3032     0.2145    72.6094
  109.0000   -28.6542     3.6030     3.0877     7.9569     0.0762     2.3077     0.2085    86.2303
  109.5000   -28.8153     3.5761     3.0440     7.9567     0.0761     2.3114     0.2052    88.8889
  110.0000   -30.0306     3.5004     2.9801     7.9564     0.0669     2.3121     0.2076    90.7190
  110.5000   -30.4930     3.4503     2.9999     7.9561     0.0541     2.3211     0.2067    93.4661
  111.0000   -30.8047     3.3539     2.9366     7.9558     0.0520     2.3090     0.2188    97.4962
  111.5000   -30.9658     3.2603     2.6456     7.9555     0.0536     2.2744     0.2374    99.7106
  112.0000   -31.1270     3.1473     2.4674     7.9552     0.0550     2.2547     0.2450    98.4977
  112.5000   -31.1375     3.0595     2.4157     7.9700     0.0564     2.2397     0.2531    98.4917
  113.0000   -30.9970     3.0366     2.3980     7.9997     0.0579     2.2336     0.2604    99.4470
  113.5000   -30.7063     2.9931     2.4988     8.0145     0.0728     2.2275     0.2640   104.8133
  114.0000   -30.4160     2.9915     2.6401     8.0592     0.0451     2.2207     0.2523   100.5841
  114.5000   -30.1250     2.9898     2.8284     8.1191     0.1065     2.2191     0.2448    93.3382
  115.0000   -29.8347     3.0937     3.0092     8.1790     0.0650     2.2575     0.2302    80.3609
  115.5000   -29.5437     3.3839     3.3374     8.0132     0.0622     2.3060     0.2038    68.8918
  116.0000   -30.1569     3.5504     3.5507     7.8926     0.0662     2.3321     0.1924    64.6626
  116.5000   -30.3181     3.8566     3.8571     7.8322     0.0748     2.3356     0.1943    66.7682
  117.0000   -30.6298     4.4904     4.2483     7.8168     0.0786     2.3356     0.1952    70.6838
  117.5000   -30.7909     4.9117     4.4268     7.8165     0.0815     2.3371     0.1941    73.6944
  118.0000   -30.8015     5.1177     4.5494     7.8162     0.0837     2.3355     0.1919    77.9116
  118.5000   -30.8120     5.2955     4.5475     7.8310     0.0859     2.3332     0.1895    81.2238
  119.0000   -30.8225     5.4415     4.5142     7.8307     0.0874     2.3489     0.1874    81.5210
  119.5000   -30.8330     5.5530     4.5123     7.8304     0.0874     2.3534     0.1859    76.6870
  120.0000   -30.8435     5.6275     4.6052     7.8451     0.0873     2.3594     0.1775    77.5859
  120.5000   -30.8541     5.7426     4.7656     7.8899     0.0873     2.3653     0.1814    82.7081
  121.0000   -31.0152     5.8602     5.0004     7.9347     0.0873     2.3645     0.1796    88.1320
  121.5000   -31.0257     6.0219     5.2105     8.0096     0.0857     2.3652     0.1751    89.3341
  122.0000   -31.1869     6.2745     5.4673     8.0695     0.0834     2.3705     0.1715    85.4050
  122.5000   -31.1974     6.6290     5.6970     8.1293     0.0804     2.3772     0.1689    82.3825
  123.0000   -31.3585     6.7648     5.9365     8.1441     0.0774     2.3824     0.1680    82.6796
  123.5000   -31.5196     6.8555     5.8930     8.1588     0.0743     2.3824     0.1671    83.5786
  124.0000   -31.6808     6.8994     5.9316     8.1735     0.0750     2.3801     0.1725    84.7777
  124.5000   -31.9925     6.8956     5.9291     8.1883     0.0772     2.3770     0.1746    85.6767
  125.0000   -32.1536     6.8441     5.9266     8.1880     0.0802     2.3717     0.1722    86.8773
  125.5000   -32.1642     6.8403     5.9241     8.1848     0.0877     2.3754     0.1716    85.0614
  126.0000   -31.8735     6.8365     5.8808     8.1272     0.0959     2.3784     0.1690    81.4355
  126.5000   -31.7304     6.8328     5.8377     8.1118     0.1011     2.3799     0.1620    82.6361
  127.0000   -31.4427     6.8765     5.8353     8.1115     0.1033     2.3918     0.1563    84.4415
