~VERSION INFORMATION
 VERS.                2.0:   CWLS LOG ASCII STANDARD - VERSION 2.0
 WRAP.                 NO:   ONE LINE PER DEPTH STEP
~WELL INFORMATION
#MNEM.UNIT      DATA TYPE    INFORMATION
#----------   ------------   ------------------------------
 STRT.F           42.0000:   START DEPTH
 STOP.F         3140.0000:   STOP DEPTH
 STEP.F            0.5000:   STEP LENGTH
 NULL.          -999.2500:   NO VALUE
 COMP. LAWRENCE-ALLISON & AS:   COMPANY
 WELL.     88 X 33 #88-33:   WELL
 FLD .             NPR #3:   FIELD
 LOC .      S33 T39N R78W:   LOCATION
 CNTY.            NATRONA:   COUNTY
 STAT.            WYOMING:   STATE
 CTRY. UNITED STATES OF AMERICA:   COUNTRY
 SRVC.       Schlumberger:   SERVICE COMPANY
 DATE.        13-DEC-1987:   LOGDATE
 API .       490251120300:   API NUMBER
~CURVE INFORMATION
#MNEM.UNIT       API CODE    CURVE DESCRIPTION
#----------   ------------   ------------------------------
 DEPT.F                  :   
 GRR .GAPI   07 310 01 00:   GAMMA RAY FROM RES
 SPR .MV     07 010 01 00:   SPONTANEOUS POTENTIAL
 ILD .OHMM   07 120 46 00:   INDUCTION LOG DEEP RES
 ILM .OHMM   07 120 44 00:   INDUCTION LOG MEDIUM RES
 SFLU.OHMM   07 220 01 00:   SPHERICALLY FOCUSED LOG UNAVERAGED RES
 DPHI.DEC    45 890 12 00:   DENSITY POROSITY SANDSTONE
 NPHI.DEC    42 890 03 00:   NEUTRON POROSITY SANDSTONE
 CALD.IN     45 280 60 00:   CALIPER FROM DENSITY LOG
 DRHO.G/C3   45 356 01 00:   DENSITY CORRECTION
 RHOB.G/C3   45 350 01 00:   BULK DENSITY
~PARAMETER INFORMATION
#MNEM.UNIT          VALUE    DESCRIPTION
#----------   ------------   ------------------------------
 PD  .                 GL:   PERMANENT DATUM
 EPD .F              5746:   ELEVATION PERMANENT DATUM
 LMF .                 KB:   LOG MEASURED FROM
 DAPD.F                11:   FEET ABOVE PERMANENT DATUM
 DMF .                 KB:   DRILLING MEASURED FROM
 EKB .F              5157:   KELLING BUSHING
 EGL .F              5146:   GROUND LEVEL
 DATE.        13-DEC-1987:   RUN DATE
 RUN .                  1:   RUN NUMBER
 DD  .F              3155:   DEPTH DRILLER
 DL  .F              3140:   DEPTH LOGGER
 BLI .F              3132:   BOTTOM LOG INTERVAL
 TLI .F               614:   TOP LOG INTERVAL
 CS  .IN            9.625:   CASING SIZE
 CBD .F               608:   CASING BOTTOM DRILLER
 CBL .F               614:   CASING BOTTOM LOGGER
 BS  .IN            7.875:   BIT SIZE
 BSD .F              3155:   BIT SIZE AT DEPTH
 DFT .       KCL DIS. PAC:   DRILLING FLUID TYPE
 DFD .                  9:   DRILLING FLUID DENSITY
 DFV .                 41:   DRILLING FLUID VISCOSITY
 DFPH.                9.5:   DRILLING FLUID PH
 DFL .                8.4:   DRILLING FLUID LOSS
 MSS .           FLOWLINE:   MUD SAMPLE SOURCE
 RMS .OHMM          0.523:   RESISTIVITY MUD SAMPLE
 MST .F                63:   MUD SAMPLE TEMPERATURE
 RMF .OHMM          0.435:   RESISTIVITY MUD FILTRATE SAMPLE
 MFST.F                63:   MUD FILTRATE SAMPLE TEMPERATURE
 RMC .OHMM          0.489:   RESISTIVITY MUD CAKE
 MCST.F                63:   MUD CAKE SAMPLE TEMPERATURE
 MFSS.              PRESS:   MUD FILTRATE SAMPLE SOURCE
 MCSS.               CALC:   MUD CAKE SAMPLE SOURCE
 RMB .OHMM          0.288:   RESISTIVITY MUD AT BHT
 BHT .F               120:   BOTTOM HOLE TEMPERATURE
 TCS .HRS            0600:   TIME CURCULATED STOPPED
 TLAB.HRS            1430:   TIME LOGGER AT BOTTOM
 MRT .F               120:   MAXIMUM RECORDED TEMPERATURE
 LUN .               8198:   LOGGING UNIT NUMBER
 LUL .             CASPER:   LOGGING UNIT LOCATION
 ENGI.          W. BENSON:   RECORDING ENGINEER
 WITN.        GARY STRONG:   WITNESSED BY
 CLNT.            A2DTECH:   CLIENT CODE
 ORIG.           5" PRINT:   ORIGIN OF DATA
 UWI .       490251120300:   UNIQUE WELL ID
 DICO. A2D Technologies, Inc.:   DIGITIZING COMPANY
~OTHER INFORMATION
~A   DEPT      GRR        SPR        ILD        ILM       SFLU       DPHI       NPHI       CALD       DRHO       RHOB   
# ...
 1281.5000   111.6490   -52.7894     8.4611     7.8257     9.5329     0.0745     0.2799     9.1184    -0.0293     2.5212
 1282.0000   111.8406   -53.0966     8.6381     7.9885     9.5329     0.0703     0.2760     9.1034    -0.0263     2.5242
 1282.5000   111.3556   -53.1026     8.6978     8.2114     9.7330     0.0700     0.2700     9.1034    -0.0270     2.5265
 1283.0000   109.4144   -53.1086     8.8186     8.3821     9.9374     0.0703     0.2649     9.1034    -0.0293     2.5280
 1283.5000   105.2439   -53.1146     8.9409     8.5565    10.2165     0.0690     0.2643     9.1184    -0.0292     2.5295
 1284.0000   105.0363   -53.2712     8.9402     8.6745    10.6499     0.0678     0.2724     9.1184    -0.0277     2.5303
 1284.5000   108.6902   -53.4278     9.0646     8.7331    10.8735     0.0693     0.2736     9.1034    -0.0263     2.5303
 1285.0000   108.8631   -53.4338     9.1270     8.6106    10.5764     0.0726     0.2733     9.1184    -0.0286     2.5243
 1285.5000   107.9089   -53.2892     9.1898     8.5494    10.3589     0.0741     0.2730     9.1184    -0.0344     2.5183
 1286.0000   106.1385   -53.1446     9.1890     8.5375    10.0759     0.0711     0.2751     9.1184    -0.0389     2.5236
 1286.5000   106.1318   -52.6987     9.1249     8.5459     9.9374     0.0648     0.2745     9.1184    -0.0381     2.5401
 1287.0000   106.8223   -52.5541     9.1879     8.6035     9.9374     0.0621     0.2748     9.1184    -0.0344     2.5408
 1287.5000   107.7183   -52.3972     9.1871     8.6616    10.1460     0.0624     0.2778     9.1334    -0.0300     2.5394
 1288.0000   109.0663   -52.2649     9.1865     8.7200    10.5034     0.0636     0.2856     9.1334    -0.0263     2.5363
 1288.5000   108.5380   -52.8930     9.1224     8.7182    10.8735     0.0669     0.2922     9.1484    -0.0248     2.5288
 1289.0000   104.9188   -53.1807     9.1218     8.7161    10.7984     0.0708     0.2913     9.1486    -0.0248     2.5202
 1289.5000   104.5099   -53.1867     9.1212     8.5353    10.4309     0.0750     0.2871     9.1634    -0.0248     2.5139
 1290.0000   107.5158   -53.1940     9.0575     8.4746     9.8007     0.0768     0.2712     9.1634    -0.0263     2.5237
 1290.5000   110.3698   -53.0479     9.1199     8.5318     9.5992     0.0738     0.2648     9.1634    -0.0278     2.5275
 1291.0000   110.6157   -52.9036     9.1193     8.6491     9.8007     0.0708     0.2672     9.1784    -0.0300     2.5267
 1291.5000   113.7959   -52.9107     9.2459     8.7074    10.1460     0.0717     0.2687     9.1634    -0.0322     2.5192
 1292.0000   118.5668   -52.9167     9.3743     8.8385    10.5034     0.0741     0.2618     9.1484    -0.0344     2.5170
 1292.5000   119.8318   -52.7721     9.5045     8.9485    10.2875     0.0753     0.2576     9.1484    -0.0367     2.5178
 1293.0000   112.3685   -52.7781     9.6365     9.0710    10.5034     0.0750     0.2570     9.1634    -0.0381     2.5193
 1293.5000   105.8105   -52.6320     9.7028     9.1327    10.8735     0.0734     0.2579     9.1634    -0.0374     2.5230
 1294.0000   104.2224   -52.6395     9.7022     9.1943    11.5727     0.0704     0.2594     9.1784    -0.0359     2.5336
 1294.5000   108.9596   -52.6455     9.7015     9.1920    12.0637     0.0656     0.2609     9.1784    -0.0336     2.5418
 1295.0000   109.8581   -52.6515     9.7008     9.1901    11.7341     0.0632     0.2690     9.1934    -0.0315     2.5426
 1295.5000   108.4942   -52.6574     9.7002     9.0617    11.2566     0.0620     0.2756     9.2234    -0.0300     2.5411
 1296.0000   104.6471   -52.5464     9.6995     8.9351    10.8735     0.0639     0.2738     9.2234    -0.0278     2.5351
 1296.5000   102.8331   -52.2363     9.6318     8.8716    10.5764     0.0684     0.2657     9.2234    -0.0270     2.5254
 1297.0000   104.1817   -52.0723     9.6312     8.8697    10.5034     0.0713     0.2675     9.2234    -0.0256     2.5246
 1297.5000   106.6599   -52.0785     9.6304     8.9300    10.4309     0.0710     0.2759     9.2234    -0.0248     2.5277
 1298.0000   106.8807   -52.5363     9.6967     8.8048    10.1460     0.0704     0.2756     9.2220    -0.0233     2.5292
 1298.5000   103.4836   -53.1447     9.6960     8.6819    10.2165     0.0707     0.2717     9.1911    -0.0219     2.5239
 1299.0000   101.6696   -53.3013     9.6953     8.8624    10.2875     0.0725     0.2678     9.1634    -0.0219     2.5217
 1299.5000   103.0183   -53.3073     9.6947     9.1097    10.7239     0.0719     0.2651     9.1634    -0.0211     2.5240
 1300.0000   105.2727   -53.3133     9.6272     9.1716    11.1789     0.0690     0.2591     9.1634    -0.0211     2.5307
 1300.5000   109.5610   -53.2808     9.6917     9.0430    11.2566     0.0661     0.2615     9.1484    -0.0241     2.5337
 1301.0000   110.6882   -53.2483     9.6214     8.9167    11.1789     0.0676     0.2738     9.1319    -0.0233     2.5322
 1301.5000   109.1047   -53.2159     9.6187     8.7314    11.0251     0.0679     0.2813     9.1462    -0.0211     2.5322
 1302.0000   103.6807   -53.1834     9.5497     8.6693    10.7239     0.0676     0.2819     9.1454    -0.0181     2.5338
 1302.5000   104.3562   -53.0245     9.4811     8.7885    10.2165     0.0673     0.2765     9.1295    -0.0168     2.5345
 1303.0000   108.6461   -52.8795     9.4785     8.8479    10.0064     0.0679     0.2732     9.1138    -0.0191     2.5329
 1303.5000   112.0324   -52.8825     9.4759     8.7305    10.2875     0.0694     0.2723     9.0981    -0.0229     2.5291
 1304.0000   111.8042   -52.8855     9.4078     8.7296    10.7984     0.0721     0.2747     9.0673    -0.0304     2.5195
 1304.5000   110.4465   -52.8886     9.2758     8.6684    10.7984     0.0718     0.2807     9.0516    -0.0316     2.5241
 1305.0000   109.3147   -52.8916     9.1455     8.6076    10.7239     0.0703     0.2847     9.0509    -0.0309     2.5270
 1305.5000   109.5384   -52.7439     9.1430     8.4883    10.4309     0.0700     0.2880     9.0501    -0.0309     2.5261
 1306.0000   109.0843   -52.2892     9.1405     8.4874    10.0064     0.0708     0.2934     9.0494    -0.0324     2.5217
 1306.5000   107.5007   -51.6893     9.1380     8.4865     9.9374     0.0729     0.2991     9.0486    -0.0347     2.5217
 1307.0000   104.3358   -51.3976     9.1354     8.5449    10.0064     0.0735     0.3000     9.0329    -0.0384     2.5217
 1307.5000   102.5263   -52.1613     9.1329     8.5437    10.1460     0.0747     0.2931     9.0322    -0.0421     2.5187
 1308.0000   103.4277   -52.6084     9.1304     8.6023    10.3589     0.0774     0.2843     9.0314    -0.0414     2.5120
 1308.5000   105.2327   -52.7620     9.1279     8.6014    10.5764     0.0793     0.2847     9.0157    -0.0377     2.5180
 1309.0000   104.1009   -52.7651     9.1254     8.6005    10.5764     0.0759     0.2850     8.9999    -0.0340     2.5217
 1309.5000   101.6137   -52.7681     8.9351     8.4812    10.4309     0.0723     0.2831     8.9992    -0.0311     2.5217
 1310.0000   102.0632   -52.7811     8.8097     8.4218    10.1460     0.0723     0.2816     8.9837    -0.0296     2.5255
 1310.5000   109.7417   -52.9247     8.6860     8.2476     9.8007     0.0711     0.2795     8.9978    -0.0297     2.5292
 1311.0000   113.8057   -52.9280     8.6836     8.1898     9.5992     0.0686     0.2783     9.0120    -0.0297     2.5337
 1311.5000   114.7245   -52.9491     8.6213     8.0762     9.4018     0.0653     0.2795     9.0262    -0.0304     2.5360
 1312.0000   111.9939   -52.9702     8.5594     8.0754     9.4018     0.0656     0.2868     9.0255    -0.0342     2.5307
 1312.5000   110.8622   -52.9913     8.5570     8.0746     9.4018     0.0686     0.2874     9.0247    -0.0371     2.5262
 1313.0000   113.3448   -53.0124     8.5546     8.0737     9.4671     0.0692     0.2819     9.0390    -0.0394     2.5315
 1313.5000   115.3757   -53.0335     8.5523     8.0729     9.8007     0.0668     0.2744     9.0382    -0.0394     2.5397
 1314.0000   117.4066   -53.0546     8.5499     8.0163    10.2875     0.0608     0.2729     9.0375    -0.0350     2.5517
 1314.5000   117.6521   -53.0757     8.4885     8.0155    10.2875     0.0547     0.2850     9.0367    -0.0305     2.5532
