~VERSION INFORMATION
 VERS.                2.0:   CWLS LOG ASCII STANDARD - VERSION 2.0
 WRAP.                 NO:   ONE LINE PER DEPTH STEP
~WELL INFORMATION
#MNEM.UNIT      DATA TYPE    INFORMATION
#----------   ------------   ------------------------------
 STRT.F            4.0000:   START DEPTH
 STOP.F          468.5000:   STOP DEPTH
 STEP.F            0.1000:   STEP LENGTH
 NULL.          -999.2500:   NO VALUE
 COMP. BROWN JOHN E&C INC:   COMPANY
 WELL.  SX-10 #1-14-SX-10:   WELL
 FLD .        N.P.R. No.3:   FIELD
 LOC .      S10 T38N R78W:   LOCATION
 CNTY.            NATRONA:   COUNTY
 STAT.            WYOMING:   STATE
 CTRY. UNITED STATES OF AMERICA:   COUNTRY
 SRVC.     Atlas Wireline:   SERVICE COMPANY
 DATE.        21-SEP-1991:   LOGDATE
 API .       490251125800:   API NUMBER
~CURVE INFORMATION
#MNEM.UNIT       API CODE    CURVE DESCRIPTION
#----------   ------------   ------------------------------
 DEPT.F                  :   
 GRR .GAPI   07 310 01 00:   GAMMA RAY FROM RES. LOG.
 ILD .OHMM   07 120 46 00:   INDUCTION LOG DEEP
 RILM.OHMM   07 120 44 00:   INDUCTION LOG MEDIUM RESISTIVITY
~PARAMETER INFORMATION
#MNEM.UNIT          VALUE    DESCRIPTION
#----------   ------------   ------------------------------
 PD  .                 GL:   PERMANENT DATUM
 EPD .F              5183:   ELEVATION PERMANENT DATUM
 LMF .                 KB:   LOG MEASURED FROM
 DAPD.F                10:   FEET ABOVE PERMANENT DATUM
 DMF .                 KB:   DRILLING MEASURED FROM
 EKB .F              5193:   KELLING BUSHING
 EGL .F              5183:   GROUND LEVEL
 DATE.            9-21-91:   RUN DATE
 RUN .                  1:   RUN NUMBER
 DD  .F               480:   DEPTH DRILLER
 DL  .F               478:   DEPTH LOGGER
 BLI .F               470:   BOTTOM LOG INTERVAL
 CS  .IN                7:   CASING SIZE
 CBD .F                90:   CASING BOTTOM DRILLER
 CBL .F                90:   CASING BOTTOM LOGGER
 BS  .IN             6.25:   BIT SIZE
 BSD .F               480:   BIT SIZE AT DEPTH
 DFT .                AIR:   DRILLING FLUID TYPE
 TCS .HRS               1:   TIME CURCULATED STOPPED
 MRT .F                80:   MAXIMUM RECORDED TEMPERATURE
 LUN .            HL-6307:   LOGGING UNIT NUMBER
 LUL .             CASPER:   LOGGING UNIT LOCATION
 ENGI.             RAUTIO:   RECORDING ENGINEER
 WITN.             STRONG:   WITNESSED BY
 CLNT.            A2DTECH:   CLIENT CODE
 ORIG.        2" 5" PRINT:   ORIGIN OF DATA
 UWI .       490251125800:   UNIQUE WELL ID
 DICO. A2D Technologies, Inc.:   DIGITIZING COMPANY
~OTHER INFORMATION
~A    DEPT       GRR      ILD       RILM   
# ...
  459.0000  -999.2500     9.7444    10.2289
  459.1000  -999.2500     9.7173    10.2289
  459.2000  -999.2500     9.6902    10.2289
  459.3000  -999.2500     9.6632    10.2289
  459.4000  -999.2500     9.6361    10.2289
  459.5000  -999.2500     9.6090    10.2289
  459.6000  -999.2500     9.5822    10.2289
  459.7000  -999.2500     9.5553    10.2289
  459.8000  -999.2500     9.5285    10.2289
  459.9000  -999.2500     9.5017    10.2289
  460.0000  -999.2500     9.4748    10.2289
  460.1000  -999.2500     9.4484    10.2289
  460.2000  -999.2500     9.4219    10.2289
  460.3000  -999.2500     9.3955    10.2289
  460.4000  -999.2500     9.3690    10.2289
  460.5000  -999.2500     9.3426    10.2289
  460.6000  -999.2500     9.3166    10.2289
  460.7000  -999.2500     9.2907    10.2289
  460.8000  -999.2500     9.2647    10.2289
  460.9000  -999.2500     9.2388    10.2289
  461.0000  -999.2500     9.2128    10.2289
  461.1000  -999.2500     9.1938    10.2289
  461.2000  -999.2500     9.1747    10.2289
  461.3000  -999.2500     9.1557    10.2289
  461.4000  -999.2500     9.1366    10.2289
  461.5000  -999.2500     9.1175    10.2289
  461.6000  -999.2500     9.1059    10.2289
  461.7000  -999.2500     9.0943    10.2288
  461.8000  -999.2500     9.0827    10.2288
  461.9000  -999.2500     9.0711    10.2288
  462.0000  -999.2500     9.0594    10.2288
  462.1000  -999.2500     9.0478    10.2270
  462.2000  -999.2500     9.0361    10.2253
  462.3000  -999.2500     9.0244    10.2235
  462.4000  -999.2500     9.0128    10.2217
  462.5000  -999.2500     9.0011    10.2200
  462.6000  -999.2500     8.9895    10.2146
  462.7000  -999.2500     8.9779    10.2092
  462.8000  -999.2500     8.9663    10.2038
  462.9000  -999.2500     8.9547    10.1985
  463.0000  -999.2500     8.9431    10.1931
  463.1000  -999.2500     8.9264    10.1877
  463.2000  -999.2500     8.9097    10.1824
  463.3000  -999.2500     8.8930    10.1770
  463.4000  -999.2500     8.8763    10.1716
  463.5000  -999.2500     8.8596    10.1663
  463.6000  -999.2500     8.8181    10.1609
  463.7000  -999.2500     8.7767    10.1556
  463.8000  -999.2500     8.7352    10.1502
  463.9000  -999.2500     8.6937    10.1449
  464.0000  -999.2500     8.6522    10.1395
  464.1000  -999.2500     8.6117    10.0735
  464.2000  -999.2500     8.5712    10.0074
  464.3000  -999.2500     8.5307     9.9413
  464.4000  -999.2500     8.4902     9.8752
  464.5000  -999.2500     8.4496     9.8091
  464.6000  -999.2500     8.4101     9.7302
  464.7000  -999.2500     8.3705     9.6513
  464.8000  -999.2500     8.3310     9.5723
  464.9000  -999.2500     8.2914     9.4934
  465.0000  -999.2500     8.2518     9.4145
  465.1000  -999.2500     8.2132     9.3387
  465.2000  -999.2500     8.1746     9.2630
  465.3000  -999.2500     8.1359     9.1873
  465.4000  -999.2500     8.0973     9.1115
  465.5000  -999.2500     8.0587     9.0358
  465.6000  -999.2500     8.0368     8.9538
  465.7000  -999.2500     8.0149     8.8719
  465.8000  -999.2500     7.9930     8.7899
  465.9000  -999.2500     7.9711     8.7080
  466.0000  -999.2500     7.9492     8.6261
  466.1000  -999.2500     7.9220     8.5462
  466.2000  -999.2500     7.8948     8.4664
  466.3000  -999.2500     7.8676     8.3866
  466.4000  -999.2500     7.8404     8.3067
  466.5000  -999.2500     7.8133     8.2269
  466.6000  -999.2500     7.8145     8.1508
  466.7000  -999.2500     7.8157     8.0746
  466.8000  -999.2500     7.8169     7.9985
  466.9000  -999.2500     7.8181     7.9223
  467.0000  -999.2500     7.8193     7.8462
  467.1000  -999.2500  -999.2500     7.7207
  467.2000  -999.2500  -999.2500     7.5953
  467.3000  -999.2500  -999.2500     7.4698
  467.4000  -999.2500  -999.2500     7.3443
  467.5000  -999.2500  -999.2500     7.2189
  467.6000  -999.2500  -999.2500     7.0980
  467.7000  -999.2500  -999.2500     6.9770
  467.8000  -999.2500  -999.2500     6.8561
  467.9000  -999.2500  -999.2500     6.7352
  468.0000  -999.2500  -999.2500     6.6143
  468.1000  -999.2500  -999.2500     6.4940
  468.2000  -999.2500  -999.2500     6.3737
  468.3000  -999.2500  -999.2500     6.2534
  468.4000  -999.2500  -999.2500     6.1330
  468.5000  -999.2500  -999.2500     6.0127
