~VERSION INFORMATION
 VERS.                2.0:   CWLS LOG ASCII STANDARD - VERSION 2.0
 WRAP.                 NO:   ONE LINE PER DEPTH STEP
~WELL INFORMATION
#MNEM.UNIT      DATA TYPE    INFORMATION
#----------   ------------   ------------------------------
 STRT.F           28.0000:   START DEPTH
 STOP.F          563.0000:   STOP DEPTH
 STEP.F            0.1000:   STEP LENGTH
 NULL.          -999.2500:   NO VALUE
 COMP.       F D SERV INC:   COMPANY
 WELL.    SX-3 62-4 #62-3:   WELL
 FLD .          N.P.R. #3:   FIELD
 LOC .       S3 T38N R78W:   LOCATION
 CNTY.            NATRONA:   COUNTY
 STAT.            WYOMING:   STATE
 CTRY. UNITED STATES OF AMERICA:   COUNTRY
 SRVC.     Atlas Wireline:   SERVICE COMPANY
 DATE.        03-MAY-1992:   LOGDATE
 API .       490252252100:   API NUMBER
~CURVE INFORMATION
#MNEM.UNIT       API CODE    CURVE DESCRIPTION
#----------   ------------   ------------------------------
 DEPT.F                  :   
 RILD.OHMM   07 120 46 00:   INDUCTION LOG DEEP RESISTIVITY
 RILM.OHMM   07 120 44 00:   INDUCTION LOG MEDIUM RESISTIVITY
 CALD.IN     45 280 60 00:   CALIPER FROM DENSITY LOG
 CORR.G/C3   45 356 01 00:   DENSITY CORRECTION
 DEN .G/C3   45 350 01 00:   COMPENSATED BULK DENSTIY
 GRD .GAPI   45 310 01 00:   GAMMA RAY FROM DENSITY LOG
 PORD.DEC    45 890 12 00:   POROSITY DENSITY SANDSTONE
~PARAMETER INFORMATION
#MNEM.UNIT          VALUE    DESCRIPTION
#----------   ------------   ------------------------------
 PD  .                 GL:   PERMANENT DATUM
 EPD .F              5156:   ELEVATION PERMANENT DATUM
 LMF .                 KB:   LOG MEASURED FROM
 DAPD.F                 5:   FEET ABOVE PERMANENT DATUM
 DMF .                 KB:   DRILLING MEASURED FROM
 EKB .F              5161:   KELLING BUSHING
 EGL .F              5156:   GROUND LEVEL
 DATE.        03-MAY-1992:   RUN DATE
 RUN .                  1:   RUN NUMBER
 DD  .F               565:   DEPTH DRILLER
 DL  .F               566:   DEPTH LOGGER
 BLI .F               564:   BOTTOM LOG INTERVAL
 TLI .F                50:   TOP LOG INTERVAL
 CS  .IN            8.625:   CASING SIZE
 CBD .F                49:   CASING BOTTOM DRILLER
 CBL .F                50:   CASING BOTTOM LOGGER
 BS  .IN            7.875:   BIT SIZE
 BSD .F               565:   BIT SIZE AT DEPTH
 DFT .        AIR DRILLED:   DRILLING FLUID TYPE
 LUN .             HL 632:   LOGGING UNIT NUMBER
 LUL .           RK. SPGS:   LOGGING UNIT LOCATION
 ENGI.               RALL:   RECORDING ENGINEER
 WITN.             STRONG:   WITNESSED BY
 CLNT.            A2DTECH:   CLIENT CODE
 ORIG.           5" PRINT:   ORIGIN OF DATA
 UWI .       490252252100:   UNIQUE WELL ID
 DICO. A2D Technologies, Inc.:   DIGITIZING COMPANY
~OTHER INFORMATION
~A   DEPT     RILD       RILM       CALD       CORR        DEN        GRD       PORD   
# ...
  546.7000    10.4782    10.8834     8.1082     0.0032     2.5215   141.6657     0.0786
  546.8000    10.4346    10.8827     8.1082     0.0044     2.5203   141.6624     0.0790
  546.9000    10.4314    10.8308     8.1081     0.0067     2.5191   141.4383     0.0795
  547.0000    10.3615    10.8064     8.1080     0.0084     2.5182   141.0241     0.0803
  547.1000    10.3612    10.8058     8.1079     0.0097     2.5173   139.9800     0.0805
  547.2000    10.3608    10.8052     8.1078     0.0110     2.5160   138.4759     0.0814
  547.3000    10.3388    10.8046     8.1077     0.0122     2.5147   137.7319     0.0818
  547.4000    10.2799    10.7468     8.1076     0.0122     2.5129   137.2411     0.0826
  547.5000    10.2167    10.7287     8.1038     0.0132     2.5115   136.9353     0.0834
  547.6000    10.2163    10.7281     8.0924     0.0129     2.5102   136.8193     0.0840
  547.7000    10.1760    10.7275     8.0923     0.0122     2.5089   136.8931     0.0851
  547.8000    10.1181    10.7269     8.0922     0.0119     2.5077   137.1356     0.0862
  547.9000     8.8284    10.7262     8.0921     0.0106     2.5064   137.4122     0.0873
  548.0000     3.6809    10.7257     8.0920     0.0092     2.5049   137.6204     0.0882
  548.1000  -999.2500    10.6893     8.0919     0.0081     2.5039   138.3282     0.0888
  548.2000  -999.2500    10.6504     8.0919     0.0060     2.5030   139.4068     0.0893
  548.3000  -999.2500    10.6498     8.0918     0.0046     2.5021   140.5435     0.0898
  548.4000  -999.2500    10.6492     8.0917     0.0046     2.5010   141.3131     0.0902
  548.5000  -999.2500    10.5935     8.0916     0.0045     2.5004   142.0103     0.0902
  548.6000  -999.2500    10.5745     8.0915     0.0031     2.5004   143.0995     0.0904
  548.7000  -999.2500    10.5739     8.0914     0.0042     2.5004   144.0800     0.0905
  548.8000  -999.2500    10.5587     8.0945     0.0046     2.5008   144.6807     0.0905
  548.9000  -999.2500    10.4996     8.1063     0.0046     2.5011   144.9232     0.0905
  549.0000  -999.2500    10.4991     8.1062     0.0050     2.5011   145.2103     0.0902
  549.1000  -999.2500    10.4513     8.1061     0.0064     2.5012   145.4082     0.0902
  549.2000  -999.2500    10.4253     8.1060     0.0091     2.5019   145.5060     0.0898
  549.3000  -999.2500    10.4248     8.1059     0.0103     2.5019   145.4141     0.0893
  549.4000  -999.2500    10.4242     8.1058     0.0115     2.5024   145.1656     0.0888
  549.5000  -999.2500    10.4235     8.1057     0.0128     2.5026   144.8943     0.0883
  549.6000  -999.2500    10.3702     8.1056     0.0140     2.5029   142.8865     0.0878
  549.7000  -999.2500    10.3504     8.1055     0.0153     2.5034   141.1749     0.0873
  549.8000  -999.2500    10.3236     8.1054     0.0166     2.5034   140.1445     0.0870
  549.9000  -999.2500    10.2777     8.1127     0.0166     2.5040   139.8177     0.0868
  550.0000  -999.2500    10.2772     8.1203     0.0166     2.5046   140.0602     0.0866
  550.1000  -999.2500    10.1038     8.1202     0.0166     2.5053   140.3026     0.0865
  550.2000  -999.2500    10.0204     8.1201     0.0166     2.5059   140.3554     0.0863
  550.3000  -999.2500     9.9632     8.1200     0.0165     2.5065   140.6206     0.0860
  550.4000  -999.2500     9.9247     8.1199     0.0165     2.5072   141.0301     0.0858
  550.5000  -999.2500     9.9184     8.1199     0.0150     2.5079   141.3179     0.0854
  550.6000  -999.2500     9.8549     8.1257     0.0150     2.5090   142.1502     0.0848
  550.7000  -999.2500     9.8545     8.1347     0.0150     2.5098   142.9973     0.0840
  550.8000  -999.2500     9.8539     8.1346     0.0150     2.5107   143.9762     0.0829
  550.9000  -999.2500     9.8534     8.1345     0.0150     2.5120   144.6521     0.0818
  551.0000  -999.2500     9.8528     8.1344     0.0150     2.5133   144.8945     0.0812
  551.1000  -999.2500     9.8523     8.1343     0.0150     2.5154   145.1475     0.0802
  551.2000  -999.2500     9.8517     8.1343     0.0150     2.5177   145.3795     0.0792
  551.3000  -999.2500     9.8512     8.1342     0.0150     2.5202   145.6220     0.0781
  551.4000  -999.2500     9.8506     8.1320     0.0150     2.5227   145.7410     0.0772
  551.5000  -999.2500     9.8501     8.1189     0.0150     2.5251   145.6025     0.0766
  551.6000  -999.2500     9.8495     8.1189     0.0150     2.5270   145.0964     0.0757
  551.7000  -999.2500     9.8489     8.1188     0.0150     2.5290   144.2254     0.0747
  551.8000  -999.2500     9.8484     8.1187     0.0161     2.5302   143.6174     0.0736
  551.9000  -999.2500     9.8479     8.1186     0.0165     2.5314   143.0240     0.0725
  552.0000  -999.2500     9.8247     8.1155     0.0171     2.5323   142.5301     0.0717
  552.1000  -999.2500     9.7787     8.1034     0.0179     2.5330   142.1054     0.0712
  552.2000  -999.2500     9.7782     8.1033     0.0179     2.5335   142.1022     0.0707
  552.3000  -999.2500     9.7777     8.1032     0.0179     2.5335   141.8749     0.0704
  552.4000  -999.2500     9.7366     8.1117     0.0167     2.5335   141.7952     0.0702
  552.5000  -999.2500     9.7090     8.1180     0.0164     2.5335   141.9051     0.0699
  552.6000  -999.2500     9.6928     8.1180     0.0157     2.5335   142.0904     0.0697
  552.7000  -999.2500     9.6375     8.1179     0.0139     2.5335   142.0874     0.0697
  552.8000  -999.2500     9.5736     8.1178     0.0116     2.5335   142.0844     0.0699
  552.9000  -999.2500     9.5731     8.1177     0.0104     2.5335   142.0813     0.0702
  553.0000  -999.2500     9.5726     8.1176     0.0104     2.5335   142.2139     0.0704
  553.1000  -999.2500     9.5511     8.1175     0.0104     2.5335   142.4563     0.0706
  553.2000  -999.2500     9.4966     8.1174     0.0103     2.5335   142.6750     0.0706
  553.3000  -999.2500     9.4391     8.1173     0.0103     2.5335   142.6713     0.0706
  553.4000  -999.2500     9.3886     8.1172     0.0103     2.5335   142.8826     0.0706
  553.5000  -999.2500     9.3351     8.1171     0.0103     2.5335   143.1250     0.0707
  553.6000  -999.2500     9.3076     8.1171     0.0103     2.5335   143.2651     0.0709
  553.7000  -999.2500     9.2931     8.1170     0.0114     2.5335   143.3087     0.0710
  553.8000  -999.2500     9.2401     8.1169     0.0127     2.5335   143.5601     0.0710
  553.9000  -999.2500     9.1778     8.1168     0.0139     2.5335   143.3207     0.0710
  554.0000  -999.2500     9.1350     8.1167     0.0152     2.5335   142.1683     0.0710
  554.1000  -999.2500     9.0829     8.1166     0.0164     2.5335  -999.2500     0.0710
  554.2000  -999.2500     9.0499     8.1165     0.0178     2.5335  -999.2500     0.0710
  554.3000  -999.2500     9.0349     8.1254     0.0201     2.5329  -999.2500     0.0711
  554.4000  -999.2500     8.9242     8.1314     0.0217     2.5327  -999.2500     0.0713
  554.5000  -999.2500     8.9238     8.1313     0.0223     2.5327  -999.2500     0.0713
  554.6000  -999.2500     8.8536     8.1312     0.0223     2.5325  -999.2500     0.0713
  554.7000  -999.2500     8.7999     8.1311     0.0223     2.5320  -999.2500     0.0715
  554.8000  -999.2500     8.7994     8.1310     0.0223     2.5320  -999.2500     0.0716
  554.9000  -999.2500     8.7979     8.1309     0.0223     2.5320  -999.2500     0.0717
  555.0000  -999.2500     8.7477     8.1308     0.0213     2.5320  -999.2500     0.0719
  555.1000  -999.2500     8.6978     8.1307     0.0208     2.5316  -999.2500     0.0719
  555.2000  -999.2500     8.6482     8.1306     0.0203     2.5312  -999.2500     0.0722
  555.3000  -999.2500     8.5989     8.1306     0.0190     2.5312  -999.2500     0.0724
  555.4000  -999.2500     8.5499     8.1305     0.0177     2.5312  -999.2500     0.0727
  555.5000  -999.2500     8.4961     8.1304     0.0165     2.5304  -999.2500     0.0729
  555.6000  -999.2500     8.4527     8.1303     0.0162     2.5304  -999.2500     0.0731
  555.7000  -999.2500     8.4044     8.1302     0.0162     2.5304  -999.2500     0.0731
