~VERSION INFORMATION
 VERS.                2.0:   CWLS LOG ASCII STANDARD - VERSION 2.0
 WRAP.                 NO:   ONE LINE PER DEPTH STEP
~WELL INFORMATION
#MNEM.UNIT      DATA TYPE    INFORMATION
#----------   ------------   ------------------------------
 STRT.F           93.0000:   START DEPTH
 STOP.F         1921.0000:   STOP DEPTH
 STEP.F            0.5000:   STEP LENGTH
 NULL.          -999.2500:   NO VALUE
 COMP. LAWRENCE-ALLISON &AS:   COMPANY
 WELL.  NPR 3 #15-1SHX2/T:   WELL
 FLD .             NPR #3:   :   FIELD
 LOC .       S2 T38N R78W:   LOCATION
 CNTY.            NATRONA:   COUNTY
 STAT.            WYOMING:   STATE
 CTRY. UNITED STATES OF AMERICA:   COUNTRY
 SRVC.       Schlumberger:   SERVICE COMPANY
 DATE.        10-JUN-1982:   LOGDATE
 API .       490251077600:   API NUMBER
~CURVE INFORMATION
#MNEM.UNIT       API CODE    CURVE DESCRIPTION
#----------   ------------   ------------------------------
 DEPT.F                  :   
 GR  .GAPI   70 310 01 00:   GAMMA RAY
 CALI.IN     70 280 01 00:   CALIPER
~PARAMETER INFORMATION
#MNEM.UNIT          VALUE    DESCRIPTION
#----------   ------------   ------------------------------
 PD  .                 GL:   PERMANENT DATUM
 EPD .F              5116:   ELEVATION PERMANENT DATUM
 LMF .                 KB:   LOG MEASURED FROM
 DAPD.F                10:   FEET ABOVE PERMANENT DATUM
 DMF .                 KB:   DRILLING MEASURED FROM
 EKB .F              5126:   KELLING BUSHING
 EGL .F              5116:   GROUND LEVEL
 DATE.        10-JUN-1982:   RUN DATE
 RUN .                  1:   RUN NUMBER
 DD  .F              2100:   DEPTH DRILLER
 DL  .F              1924:   DEPTH LOGGER
 BLI .F              1921:   BOTTOM LOG INTERVAL
 TLI .F               100:   TOP LOG INTERVAL
 CS  .IN            10.75:   CASING SIZE
 BS  .IN             8.75:   BIT SIZE
 BSD .F              2100:   BIT SIZE AT DEPTH
 DFT .                AIR:   DRILLING FLUID TYPE
 ENGI.        C. MARRINER:   RECORDING ENGINEER
 WITN.             SCOTTY:   WITNESSED BY
 CLNT.            A2DTECH:   CLIENT CODE
 ORIG.           5" PRINT:   ORIGIN OF DATA
 UWI .       490251077600:   UNIQUE WELL ID
 DICO. A2D Technologies, Inc.:   DIGITIZING COMPANY
~OTHER INFORMATION
~A   DEPT       GR       CALI   
# ...
 1794.0000   102.4523    20.4872
 1794.5000   104.9072    19.2703
 1795.0000   106.6933    18.7468
 1795.5000   103.8613    18.5450
 1796.0000   102.3456    17.8844
 1796.5000   102.5947    17.8449
 1797.0000   105.9320    18.6791
 1797.5000   107.5162    19.4421
 1798.0000   107.7630    20.1225
 1798.5000   108.4509    21.0536
 1799.0000   109.5800    21.7340
 1799.5000   108.5032    21.7506
 1800.0000   105.8824    21.7521
 1800.5000   103.9133    21.7318
 1801.0000   105.1144    21.7119
 1801.5000   109.2037    21.7433
 1802.0000   113.1705    21.7600
 1802.5000   115.7256    21.7618
 1803.0000   114.4282    21.7637
 1803.5000   114.8956    21.7804
 1804.0000   115.8041    21.7823
 1804.5000   115.6097    21.7842
 1805.0000   111.6653    21.7713
 1805.5000   108.8238    21.7732
 1806.0000   113.9235    21.7313
 1806.5000   119.9055    21.5267
 1807.0000   123.4611    21.2632
 1807.5000   124.3631    20.8373
 1808.0000   122.4105    20.2787
 1808.5000   121.1131    19.3367
 1809.0000   119.5952    18.9989
 1809.5000   117.6360    19.1487
 1810.0000   118.1034    19.5194
 1810.5000   118.5707    19.4323
 1811.0000   117.9118    19.5527
 1811.5000   112.0652    19.8200
 1812.0000   106.4385    20.3234
 1812.5000   104.7783    21.1955
 1813.0000   106.7963    21.4481
 1813.5000   109.9107    21.4500
 1814.0000   111.9222    21.5847
 1814.5000   110.1836    21.4975
 1815.0000   109.1003    21.2492
 1815.5000   111.7801    21.4315
 1816.0000   114.0121    21.5799
 1816.5000   115.8030    21.5942
 1817.0000   112.0792    21.4933
 1817.5000   111.4370    21.2444
 1818.0000   113.8962    20.8628
 1818.5000   115.0987    20.6878
 1819.0000   116.5912    20.4389
 1819.5000   114.6386    20.3371
 1820.0000   112.6795    20.7967
 1820.5000   110.4998    21.3590
 1821.0000   108.0995    21.5527
 1821.5000   105.4786    21.6726
 1822.0000   104.4018    21.7777
 1822.5000   106.6339    21.7939
 1823.0000   107.9836    21.7520
 1823.5000   108.0396    21.6802
 1824.0000   108.0148    21.3133
 1824.5000   109.1650    20.8727
 1825.0000   108.5294    20.3881
 1825.5000   103.6462    20.0360
 1826.0000    98.4076    20.0379
 1826.5000    93.2955    20.1873
 1827.0000    91.4282    20.1302
 1827.5000    91.6815    19.8961
 1828.0000    93.9135    19.4407
 1828.5000    94.8221    19.1771
 1829.0000    94.4070    19.2846
 1829.5000    90.2420    19.9890
 1830.0000    89.1587    20.1947
 1830.5000    88.7502    20.4438
 1831.0000    84.3646    20.8243
 1831.5000    84.6114    20.9584
 1832.0000    89.0493    20.5478
 1832.5000    92.3843    19.9302
 1833.0000    91.7487    19.2389
 1833.5000    88.2455    18.8426
 1834.0000    90.2569    18.9625
 1834.5000    96.9007    19.0229
 1835.0000   105.7504    18.5975
 1835.5000   109.7472    17.4342
 1836.0000   105.9823    16.3223
 1836.5000   101.3854    15.6388
 1837.0000   100.7816    15.6107
 1837.5000   102.3897    15.7753
 1838.0000   104.1493    16.0343
 1838.5000   101.7490    16.4281
 1839.0000    95.5987    17.0937
 1839.5000    89.8895    17.8478
 1840.0000    85.9451    18.6756
 1840.5000    84.8683    18.7803
 1841.0000    85.5563    18.4582
 1841.5000    87.5677    17.8701
 1842.0000    89.1380    15.9942
 1842.5000    89.8259    14.8949
 1843.0000    89.8521    13.6429
 1843.5000    86.7900    15.6767
 1844.0000    82.4044    16.4640
 1844.5000    78.9012    17.7491
 1845.0000    77.3832    18.9161
 1845.5000    78.5123    19.7737
 1846.0000    79.2003    20.2770
 1846.5000    80.1134    20.4554
 1847.0000    83.2824    19.9711
 1847.5000    87.9924    18.8963
 1848.0000    92.4493    17.9837
 1848.5000    96.5804    17.8824
 1849.0000    99.4534    16.4040
 1849.5000   100.7943    15.9689
 1850.0000   101.9147    14.4366
 1850.5000   101.9320    14.3938
 1851.0000   101.0670    15.9917
 1851.5000    97.7756    16.1677
 1852.0000    94.4841    16.8479
 1852.5000    94.5015    16.9381
 1853.0000    95.4013    17.1316
 1853.5000    97.8451    17.6791
 1854.0000   100.7301    17.3121
 1854.5000   104.0563    16.1634
 1855.0000   106.7207    16.1652
 1855.5000   105.8356    16.5067
 1856.0000   104.3086    16.5227
 1856.5000   104.1258    15.8052
 1857.0000   107.0152    15.2065
 1857.5000   109.4590    13.0032
 1858.0000   110.1381    12.5915
 1858.5000   110.1555    12.9624
 1859.0000   109.5111    13.4952
 1859.5000   107.5432    14.2491
 1860.0000   103.3694    16.0291
 1860.5000    98.5338    16.3470
 1861.0000    92.1541    17.1747
 1861.5000    89.9656    17.7365
 1862.0000    92.1889    17.3847
 1862.5000    99.9268    16.0257
 1863.0000   106.3413    15.2244
 1863.5000   108.5647    14.6156
 1864.0000   107.8497    16.0056
 1864.5000   104.5170    16.2434
 1865.0000   101.1210    17.0268
 1865.5000    99.5942    17.7366
 1866.0000    98.0675    18.0034
 1866.5000    95.6584    17.4746
 1867.0000    93.0287    17.0191
 1867.5000    91.9431    17.0057
 1868.0000    93.9458    17.0079
 1868.5000    97.7132    16.9506
 1869.0000    99.2747    16.6132
 1869.5000    99.2920    15.9951
 1870.0000    99.9712    15.8498
 1870.5000   101.3121    15.2764
 1871.0000   101.9912    14.3342
 1871.5000   102.2419    13.5837
 1872.0000   103.4824    12.9218
 1872.5000   108.7246    12.9083
 1873.0000   114.1974    13.0138
 1873.5000   115.9751    13.8562
 1874.0000   112.6880    14.7577
 1874.5000   106.3083    15.9506
 1875.0000   100.5904    16.4133
 1875.5000    99.5048    16.4736
 1876.0000    97.7575    16.4163
 1876.5000    96.0102    16.4480
 1877.0000    94.0422    16.8333
 1877.5000    92.7361    17.4840
 1878.0000    91.4299    17.6476
 1878.5000    92.5502    16.9418
 1879.0000    97.6488    16.3024
 1879.5000   101.6760    15.8686
 1880.0000   102.5294    14.3807
 1880.5000   102.3256    14.5447
 1881.0000   102.5679    14.5022
 1881.5000   104.1294    14.6662
 1882.0000   105.0248    16.0159
 1882.5000    99.7524    16.9655
 1883.0000    94.4756    17.7986
 1883.5000    90.5224    17.7561
 1884.0000    91.6427    17.6693
 1884.5000    94.5278    17.4794
 1885.0000    96.5304    16.7879
 1885.5000    98.0919    16.4947
 1886.0000    99.2122    16.3932
 1886.5000   101.6561    16.2622
 1887.0000   104.9911    16.2050
 1887.5000   107.9412    15.9273
 1888.0000   108.1052    15.4859
 1888.5000   104.3770    15.2217
 1889.0000    99.9826    15.2534
 1889.5000    98.4515    15.2109
 1890.0000   105.5320    15.1242
 1890.5000   109.5200    14.0933
 1891.0000   109.9742    13.2544
 1891.5000   106.4665    13.3004
 1892.0000   105.5972    14.0839
 1892.5000   110.6924    14.7493
 1893.0000   114.6804    15.0205
 1893.5000   113.8154    14.7971
 1894.0000   113.3912    14.0171
 1894.5000   112.9678    12.7210
 1895.0000   110.7505    11.9115
 1895.5000   108.0863    11.8100
 1896.0000   106.1119    11.9210
 1896.5000   104.6593    12.4921
 1897.0000   104.6766    13.3030
 1897.5000   104.6940    14.2113
 1898.0000   106.4761    14.8871
 1898.5000   104.9493    15.0806
 1899.0000   103.2020    16.0258
 1899.5000   101.2341    15.9833
 1900.0000   103.8985    15.8931
 1900.5000   108.3276    15.6789
 1901.0000   111.6538    15.0329
 1901.5000   114.3183    13.4134
 1902.0000   117.4239    12.3691
 1902.5000   122.0736    11.2364
 1903.0000   124.5382    11.0321
 1903.5000   124.1933    11.2422
 1904.0000   119.4702    11.7467
 1904.5000   115.5298    12.2216
 1905.0000   113.7824    12.6965
 1905.5000   112.6969    13.2009
 1906.0000   112.0481    12.7023
 1906.5000   111.8449    12.8085
 1907.0000   112.9696    13.4604
 1907.5000   114.0899    13.3011
 1908.0000   113.6661    12.5813
 1908.5000   110.3746    12.1853
 1909.0000   109.7259    12.1735
 1909.5000   109.5270    11.9559
 1910.0000   106.8973    11.5901
 1910.5000    98.0912    11.4013
 1911.0000    90.0756    11.0355
 1911.5000    86.6553    10.7139
 1912.0000    86.6735    10.5989
 1912.5000  -999.2500    10.2773
 1913.0000  -999.2500    10.2655
 1913.5000  -999.2500    10.3277
 1914.0000  -999.2500    10.6151
 1914.5000  -999.2500    11.1636
 1915.0000  -999.2500    11.4277
