~VERSION INFORMATION
 VERS.                2.0:   CWLS LOG ASCII STANDARD - VERSION 2.0
 WRAP.                 NO:   ONE LINE PER DEPTH STEP
~WELL INFORMATION
#MNEM.UNIT      DATA TYPE    INFORMATION
#----------   ------------   ------------------------------
 STRT.F          436.0000:   START DEPTH
 STOP.F         2160.0000:   STOP DEPTH
 STEP.F            0.5000:   STEP LENGTH
 NULL.          -999.2500:   NO VALUE
 COMP.   FLUOR DANIEL INC:   COMPANY
 WELL. NAVAL PETROLEUM RESERVE 3 X-29 #31-29:   WELL
 FLD .            WILDCAT:   FIELD
 LOC .      S29 T39N R78W:   LOCATION
 CNTY.            NATRONA:   COUNTY
 STAT.            WYOMING:   STATE
 CTRY. UNITED STATES OF AMERICA:   COUNTRY
 SRVC.            Unknown:   SERVICE COMPANY
 DATE.        25-JUN-1995:   LOGDATE
 API .       490252272300:   API NUMBER
~CURVE INFORMATION
#MNEM.UNIT       API CODE    CURVE DESCRIPTION
#----------   ------------   ------------------------------
 DEPT.F                  :   
 ROP .FT/HR  91 810 01 00:   RAT OF DRILLING PENETRATION
 TGAS.TC/CC  91 830 01 00:   TOTAL GAS UNIT
~PARAMETER INFORMATION
#MNEM.UNIT          VALUE    DESCRIPTION
#----------   ------------   ------------------------------
 EPD .F              5058:   ELEVATION PERMANENT DATUM
 EKB .F              5068:   KELLING BUSHING
 EGL .F              5058:   GROUND LEVEL
 DATE.        25-JUN-1995:   RUN DATE
 RUN .                  1:   RUN NUMBER
 ENGI.     C.TOWER/R.HUSK:   RECORDING ENGINEER
 CLNT.            A2DTECH:   CLIENT CODE
 ORIG.           5" PRINT:   ORIGIN OF DATA
 UWI .       490252272300:   UNIQUE WELL ID
 DICO. A2D Technologies, Inc.:   DIGITIZING COMPANY
~OTHER INFORMATION
~A   DEPT        ROP     TGAS   
# ...
 1408.0000     0.5233     1.5246
 1408.5000     0.5231     1.5256
 1409.0000     0.5229     1.5265
 1409.5000     0.5322     1.5274
 1410.0000     0.5319     1.5283
 1410.5000     0.5223     1.5292
 1411.0000     0.5316     1.5302
 1411.5000     0.5408     1.7200
 1412.0000     0.5406     1.7209
 1412.5000     0.5498     1.9105
 1413.0000     0.5496     1.9114
 1413.5000     0.5494     1.7237
 1414.0000     0.5492     1.5357
 1414.5000     0.5490     1.1593
 1415.0000     0.5394     0.9717
 1415.5000     0.5299     0.9727
 1416.0000     0.5203     1.1623
 1416.5000     0.5201     1.1632
 1417.0000     0.5199     1.2415
 1417.5000     0.5292     1.3539
 1418.0000     0.5289     1.3549
 1418.5000     0.5288     1.3558
 1419.0000     0.5380     1.3567
 1419.5000     0.5378     1.5462
 1420.0000     0.5376     1.5472
 1420.5000     0.5280     1.5481
 1421.0000     0.5278     1.5491
 1421.5000     0.5088     1.5500
 1422.0000     0.5086     1.5509
 1422.5000     0.5084     1.5521
 1423.0000     0.5083     1.5528
 1423.5000     0.5081     1.5538
 1424.0000     0.5125     1.5548
 1424.5000     0.5171     1.3671
 1425.0000     0.5169     1.3680
 1425.5000     0.5261     1.3689
 1426.0000     0.5259     1.3698
 1426.5000     0.5257     1.3708
 1427.0000     0.5255     1.3717
 1427.5000     0.5160     1.3728
 1428.0000     0.5064     1.3736
 1428.5000     0.5062     1.3745
 1429.0000     0.5060     1.3756
 1429.5000     0.5058     1.3765
 1430.0000     0.5150     1.3774
 1430.5000     0.5148     1.4158
 1431.0000     0.5146     1.5679
 1431.5000     0.5144     1.5689
 1432.0000     0.5049     1.4679
 1432.5000     0.5141     1.3821
 1433.0000     0.5233     1.3832
 1433.5000     0.5137     1.1954
 1434.0000     0.5041     1.1964
 1434.5000     0.4851     1.3860
 1435.0000     0.4662     1.3869
 1435.5000     0.4660     1.3878
 1436.0000     0.4752     1.3887
 1436.5000     0.4844     1.3896
 1437.0000     0.4842     1.3906
 1437.5000     0.4840     1.5802
 1438.0000     0.4838     1.3926
 1438.5000     0.4836     1.3936
 1439.0000     0.4834     1.3945
 1439.5000     0.4833     1.3954
 1440.0000     0.4831     1.3963
 1440.5000     0.4829     1.3972
 1441.0000     0.4827     1.3982
 1441.5000     0.4825     1.3991
 1442.0000     0.4823     1.2113
 1442.5000     0.4821     1.4009
 1443.0000     0.4819     1.2132
 1443.5000     0.4817     1.2143
 1444.0000     0.4816     1.2152
 1444.5000     0.4814     1.2160
 1445.0000     0.4812     1.2170
 1445.5000     0.4810     1.0291
 1446.0000     0.4808     1.0302
 1446.5000     0.4806     1.0311
 1447.0000     0.4805     1.0321
 1447.5000     0.4802     1.0330
 1448.0000     0.4800     1.0868
 1448.5000     0.4799     1.2238
 1449.0000     0.4797     1.2247
 1449.5000     0.4795     1.2256
 1450.0000     0.4888     1.2265
 1450.5000     0.4980     1.2275
 1451.0000     0.4977     1.2284
 1451.5000     0.4976     1.2293
 1452.0000     0.4974     1.2302
 1452.5000     0.4972     1.2311
 1453.0000     0.4970     1.2321
 1453.5000     0.4968     1.2330
 1454.0000     0.4966     1.2341
 1454.5000     0.4793     1.2349
 1455.0000     0.4793     1.2360
 1455.5000     0.4887     1.2369
 1456.0000     0.4887     1.2378
 1456.5000     0.4793     1.2387
 1457.0000     0.4793     1.2396
 1457.5000     0.4793     1.2406
 1458.0000     0.4793     1.2415
 1458.5000     0.4793     1.2425
 1459.0000     0.4793     1.2434
 1459.5000     0.4793     1.2445
 1460.0000     0.4793     1.2454
 1460.5000     0.4793     1.2463
 1461.0000     0.4793     1.2473
 1461.5000     0.4887     1.2482
 1462.0000     0.4981     1.2491
 1462.5000     0.4981     1.2500
 1463.0000     0.5075     1.4396
 1463.5000     0.4981     1.4406
 1464.0000     0.4981     1.4415
 1464.5000     0.4981     1.4426
 1465.0000     0.4887     1.6322
 1465.5000     0.4511     1.6331
 1466.0000     0.4229     2.0114
 1466.5000     0.4229     2.2010
 1467.0000     0.4229     2.2019
 1467.5000     0.4229     2.2029
 1468.0000     0.4323     2.2038
 1468.5000     0.4323     2.2047
 1469.0000     0.4417     2.2057
 1469.5000     0.4417     2.2068
 1470.0000     0.4417     2.2077
 1470.5000     0.4417     2.2086
 1471.0000     0.4323     2.2096
 1471.5000     0.4323     2.0218
 1472.0000     0.4229     2.0227
 1472.5000     0.4229     2.0236
 1473.0000     0.4229     2.0246
 1473.5000     0.4135     1.8368
 1474.0000     0.4135     1.6490
 1474.5000     0.4041     1.6500
 1475.0000     0.4057     1.6511
 1475.5000     0.4135     1.8407
 1476.0000     0.4135     2.0303
 1476.5000     0.4229     2.0312
 1477.0000     0.4229     2.0322
 1477.5000     0.4229     2.0331
 1478.0000     0.4229     2.0340
 1478.5000     0.4229     2.0349
 1479.0000     0.4229     2.0358
 1479.5000     0.4229     2.0368
 1480.0000     0.4135     1.8490
 1480.5000     0.4135     1.6613
 1481.0000     0.4229     1.6624
 1481.5000     0.4229     1.6632
 1482.0000     0.4229     1.6642
 1482.5000     0.4229     1.6652
 1483.0000     0.4229     1.6661
 1483.5000     0.4323     1.4783
 1484.0000     0.4323     1.4793
 1484.5000     0.4323     1.6689
 1485.0000     0.4417     2.0755
 1485.5000     0.4417     2.2370
 1486.0000     0.4417     2.0490
 1486.5000     0.4511     2.0501
 1487.0000     0.4511     1.8621
 1487.5000     0.4511     1.8633
 1488.0000     0.4511     1.8642
 1488.5000     0.4511     1.8651
 1489.0000     0.4511     1.8661
 1489.5000     0.4417     2.0557
 1490.0000     0.4417     2.2453
 1490.5000     0.4417     2.2464
 1491.0000     0.4417     2.0584
 1491.5000     0.4417     2.0596
 1492.0000     0.4323     2.0605
 1492.5000     0.4323     2.0614
 1493.0000     0.4417     2.0623
 1493.5000     0.4605     2.0633
 1494.0000     0.5921     2.0642
 1494.5000     0.5827     2.0651
 1495.0000     0.5827     1.6887
 1495.5000     0.5921     1.5009
 1496.0000     0.5921     1.5021
 1496.5000     0.5921     1.6917
 1497.0000     0.5921     1.6926
 1497.5000     0.5921     1.8822
 1498.0000     0.5921     1.8831
 1498.5000     0.5921     2.0727
 1499.0000     0.5921     2.0736
 1499.5000     0.5921     2.0746
 1500.0000     0.6015     2.0755
 1500.5000     0.5986     2.1282
 1501.0000     0.5956     2.1809
 1501.5000     0.5927     2.2336
 1502.0000     0.5898     2.2642
 1502.5000     0.5868     2.2642
 1503.0000     0.5839     2.2642
 1503.5000     0.5810     2.2642
 1504.0000     0.5797     2.0755
 1504.5000     0.5888     2.0755
 1505.0000     0.5883     2.0755
 1505.5000     0.5974     2.0755
 1506.0000     0.5970     2.0755
 1506.5000     0.5966     2.0755
 1507.0000     0.6057     2.0755
 1507.5000     0.5958     2.0755
 1508.0000     0.5954     2.0755
 1508.5000     0.5951     2.0755
 1509.0000     0.5947     2.0755
 1509.5000     0.5943     2.0755
 1510.0000     0.5940     2.0755
 1510.5000     0.5936     2.0755
 1511.0000     0.6026     2.0755
 1511.5000     0.6022     2.0755
 1512.0000     0.6019     2.0755
 1512.5000     0.5921     2.2642
 1513.0000     0.5917     2.2642
 1513.5000     0.5819     2.2642
 1514.0000     0.5721     2.2642
 1514.5000     0.5718     2.2642
 1515.0000     0.5809     2.0755
 1515.5000     0.5899     2.0755
 1516.0000     0.5894     2.0755
 1516.5000     0.5891     2.0755
 1517.0000     0.5887     2.0755
 1517.5000     0.5883     2.0755
 1518.0000     0.5880     2.0755
 1518.5000     0.5970     2.0755
 1519.0000     0.5966     2.0755
 1519.5000     0.5868     2.0755
 1520.0000     0.5864     2.0755
 1520.5000     0.5860     2.0755
 1521.0000     0.5857     2.0755
 1521.5000     0.5853     2.0755
 1522.0000     0.5849     2.0755
 1522.5000     0.5846     2.0755
 1523.0000     0.5842     2.0755
 1523.5000     0.5838     2.0755
 1524.0000     0.5835     2.0755
 1524.5000     0.5831     2.0755
 1525.0000     0.5827     2.2642
 1525.5000     0.5823     2.3104
 1526.0000     0.5819     2.3670
 1526.5000     0.5815     2.4235
 1527.0000     0.5812     2.4528
 1527.5000     0.5808     2.6415
 1528.0000     0.7872     2.4528
 1528.5000     0.8151     2.4528
 1529.0000     0.8052     2.4528
