~VERSION INFORMATION
 VERS.                2.0:   CWLS LOG ASCII STANDARD - VERSION 2.0
 WRAP.                 NO:   ONE LINE PER DEPTH STEP
~WELL INFORMATION
#MNEM.UNIT      DATA TYPE    INFORMATION
#----------   ------------   ------------------------------
 STRT.F          750.0000:   START DEPTH
 STOP.F         1490.0000:   STOP DEPTH
 STEP.F            0.5000:   STEP LENGTH
 NULL.          -999.2500:   NO VALUE
 COMP.    FENIX & SCISSON:   COMPANY
 WELL.  53 STX 15 #53 -15:   WELL
 FLD .             TEAPOT:   FIELD
 LOC .      S15 T38N R78W:   LOCATION
 CNTY.            NATRONA:   COUNTY
 STAT.            WYOMING:   STATE
 CTRY. UNITED STATES OF AMERICA:   COUNTRY
 SRVC.              Welex:   SERVICE COMPANY
 DATE.        01-JUN-1980:   LOGDATE
 API .       490251082000:   API NUMBER
~CURVE INFORMATION
#MNEM.UNIT       API CODE    CURVE DESCRIPTION
#----------   ------------   ------------------------------
 DEPT.F                  :   
 CALD.IN     45 280 60 00:   CALIPER
 GRD .GAPI   45 310 01 00:   GAMMA RAY FROM DENSITY LOG
 CORR.G/C3   45 356 01 00:   DENSITY CORRECTION
 RHOB.G/C3   45 350 01 00:   BULK DENSITY
 DPHI.DEC    45 890 12 00:   DENSITY POROSITY SANDSTONE
~PARAMETER INFORMATION
#MNEM.UNIT          VALUE    DESCRIPTION
#----------   ------------   ------------------------------
 PD  .                 GL:   PERMANENT DATUM
 EPD .F              5257:   ELEVATION PERMANENT DATUM
 LMF .                 KB:   LOG MEASURED FROM
 DAPD.F                10:   FEET ABOVE PERMANENT DATUM
 DMF .                 KB:   DRILLING MEASURED FROM
 EKB .F              5267:   KELLING BUSHING
 EGL .F              5257:   GROUND LEVEL
 DATE.             6-1-80:   RUN DATE
 RUN .                  1:   RUN NUMBER
 DD  .F              1498:   DEPTH DRILLER
 DL  .F              1492:   DEPTH LOGGER
 BLI .F              1490:   BOTTOM LOG INTERVAL
 TLI .F               750:   TOP LOG INTERVAL
 CS  .IN            9.625:   CASING SIZE
 CBD .F               772:   CASING BOTTOM DRILLER
 BS  .IN             8.75:   BIT SIZE
 BSD .F              1498:   BIT SIZE AT DEPTH
 DFT .        AIR DRILLED:   DRILLING FLUID TYPE
 TCS .HRS               4:   TIME CURCULATED STOPPED
 MRT .F                88:   MAXIMUM RECORDED TEMPERATURE
 ENGI.               REIN:   RECORDING ENGINEER
 WITN.            RHOADES:   WITNESSED BY
 CLNT.            A2DTECH:   CLIENT CODE
 ORIG.           5" PRINT:   ORIGIN OF DATA
 UWI .       490251082000:   UNIQUE WELL ID
 DICO. A2D Technologies, Inc.:   DIGITIZING COMPANY
~OTHER INFORMATION
~A   DEPT     CALD         GRD      CORR       RHOB       DPHI   
# ...
  994.0000     9.3177    83.1378     0.0245     2.4512     0.0692
  994.5000     9.3420    83.4715     0.0281     2.4725     0.0456
  995.0000     9.3387    83.8492     0.0323     2.4774     0.0406
  995.5000     9.2867    84.2334     0.0468     2.4734     0.0432
  996.0000     9.2377    84.3562     0.0498     2.4686     0.0475
  996.5000     9.1783    84.3924     0.0388     2.4581     0.0528
  997.0000     9.1329    84.4261     0.0337     2.4482     0.0587
  997.5000     9.1275    84.4597     0.0307     2.4491     0.0612
  998.0000     9.2098    84.4934     0.0309     2.4671     0.0570
  998.5000     9.2705    84.5272     0.0458     2.4820     0.0390
  999.0000     9.2571    84.5609     0.0486     2.4798     0.0383
  999.5000     9.2448    84.5947     0.0396     2.4530     0.0505
 1000.0000     9.2321    84.6284     0.0331     2.4413     0.0637
 1000.5000     9.2412    84.6665     0.0255     2.4439     0.0635
 1001.0000     9.2576    84.7279     0.0186     2.4274     0.0590
 1001.5000     9.2743    84.7901     0.0152     2.4187     0.0783
 1002.0000     9.2909    84.8524     0.0331     2.4387     0.0800
 1002.5000     9.3076    84.9131     0.0455     2.4630     0.0619
 1003.0000     9.3100    84.9526     0.0552     2.4801     0.0459
 1003.5000     9.3096    85.2336     0.0651     2.4869     0.0369
 1004.0000     9.2839    85.5449     0.0769     2.4866     0.0338
 1004.5000     9.2016    85.8583     0.0722     2.4810     0.0370
 1005.0000     9.1194    86.1561     0.0642     2.4694     0.0399
 1005.5000     9.0879    86.0527     0.0611     2.4590     0.0508
 1006.0000     9.1315    85.7663     0.0657     2.4653     0.0540
 1006.5000     9.1822    85.4820     0.0681     2.4523     0.0443
 1007.0000     9.2164    85.1996     0.0418     2.4370     0.0629
 1007.5000     9.2136    85.0248     0.0368     2.4273     0.0721
 1008.0000     9.0986    85.5505     0.0355     2.4165     0.0776
 1008.5000     9.0280    86.0714     0.0336     2.4275     0.0834
 1009.0000     9.0456    86.5896     0.0323     2.4472     0.0690
 1009.5000     9.0629    87.1069     0.0530     2.4420     0.0601
 1010.0000     9.0790    87.3727     0.0550     2.4395     0.0657
 1010.5000     9.1200    87.3829     0.0436     2.4408     0.0705
 1011.0000     9.1522    87.8560     0.0466     2.4597     0.0614
 1011.5000     9.1856    88.2179     0.0547     2.4667     0.0535
 1012.0000     9.2188    87.7744     0.0652     2.4648     0.0479
 1012.5000     9.2518    87.3433     0.0708     2.4660     0.0520
 1013.0000     9.2640    86.9140     0.0690     2.4759     0.0483
 1013.5000     9.2386    86.4862     0.0719     2.4722     0.0401
 1014.0000     9.2140    86.0552     0.0749     2.4667     0.0468
 1014.5000     9.1900    85.8396     0.0806     2.4607     0.0499
 1015.0000     9.1929    85.7845     0.0816     2.4520     0.0596
 1015.5000     9.2157    85.7326     0.0776     2.4663     0.0548
 1016.0000     9.2384    85.6811     0.0849     2.4899     0.0405
 1016.5000     9.2461    85.6294     0.1002     2.4719     0.0298
 1017.0000     9.1775    85.5753     0.0799     2.4515     0.0555
 1017.5000     9.1109    85.5650     0.0679     2.4464     0.0567
 1018.0000     9.0686    85.3668     0.0567     2.4330     0.0645
 1018.5000     9.0998    85.0115     0.0378     2.4395     0.0714
 1019.0000     9.1313    84.9400     0.0404     2.4376     0.0650
 1019.5000     9.1345    85.3391     0.0477     2.4228     0.0772
 1020.0000     9.0724    85.7492     0.0436     2.4022     0.0806
 1020.5000     9.0810    86.1415     0.0360     2.3814     0.0802
 1021.0000     9.1576    86.5263     0.0225     2.3681     0.0774
 1021.5000     9.2429    86.7839     0.0135     2.4021     0.0724
 1022.0000     9.1458    86.8408     0.0388     2.4402     0.0674
 1022.5000     9.2444    86.9014     0.0599     2.4717     0.0487
 1023.0000     9.1903    86.9604     0.0697     2.4708     0.0466
 1023.5000     9.2076    87.0166     0.0802     2.4628     0.0485
 1024.0000     9.2311    87.0860     0.0747     2.4521     0.0604
 1024.5000     9.2100    87.8397     0.0792     2.4859     0.0494
 1025.0000     9.2209    88.6617     0.0874     2.5031     0.0344
 1025.5000     9.2859    89.4763     0.0953     2.4915     0.0257
 1026.0000     9.3321    90.1151     0.0997     2.4818     0.0339
 1026.5000     9.2910    89.4651     0.0910     2.4992     0.0407
 1027.0000     9.2461    88.5540     0.0957     2.5034     0.0402
 1027.5000     9.2009    87.6314     0.0991     2.4810     0.0398
 1028.0000     9.1560    86.7094     0.0839     2.4652     0.0395
 1028.5000     9.1193    85.7929     0.0689     2.4558     0.0490
 1029.0000     9.0958    85.2595     0.0538     2.4531     0.0592
 1029.5000     9.0939    85.4223     0.0568     2.4727     0.0559
 1030.0000     9.1867    85.7763     0.0612     2.4612     0.0536
 1030.5000     9.1301    86.1301     0.0644     2.4596     0.0512
 1031.0000     9.2401    86.4844     0.0597     2.4524     0.0551
 1031.5000     9.2449    86.7908     0.0554     2.4417     0.0649
 1032.0000     9.2375    86.2768     0.0483     2.4388     0.0645
 1032.5000     9.2779    85.6556     0.0329     2.4414     0.0681
 1033.0000     9.3187    85.0337     0.0294     2.4532     0.0610
 1033.5000     9.3513    84.4127     0.0414     2.4674     0.0553
 1034.0000     9.3505    83.7208     0.0536     2.4857     0.0424
 1034.5000     9.3501    82.7434     0.0720     2.4918     0.0330
 1035.0000     9.3502    81.7862     0.0924     2.4659     0.0443
 1035.5000     9.3505    80.8368     0.0879     2.4756     0.0496
 1036.0000     9.3478    80.1860     0.0835     2.4929     0.0419
 1036.5000     9.2939    80.6383     0.0922     2.4997     0.0253
 1037.0000     9.2401    80.9645     0.1015     2.4799     0.0421
 1037.5000     9.1865    81.2817     0.0996     2.4972     0.0356
 1038.0000     9.1330    81.5994     0.0944     2.4986     0.0250
 1038.5000     9.0793    81.9173     0.0962     2.4877     0.0295
 1039.0000     9.0293    82.2353     0.1031     2.4609     0.0425
 1039.5000     9.0330    82.5543     0.0860     2.4474     0.0615
 1040.0000     9.0453    82.8725     0.0661     2.4442     0.0621
 1040.5000     9.0534    83.1633     0.0623     2.4467     0.0592
 1041.0000     9.0949    82.8631     0.0591     2.4370     0.0588
 1041.5000     9.1366    82.4772     0.0592     2.4275     0.0716
 1042.0000     9.1711    82.0768     0.0483     2.4341     0.0758
 1042.5000     9.1178    81.6930     0.0422     2.4449     0.0645
 1043.0000     9.0545    81.0404     0.0512     2.4545     0.0595
 1043.5000     9.1206    80.4600     0.0603     2.4687     0.0524
 1044.0000     9.2235    80.4271     0.0695     2.4833     0.0354
 1044.5000     9.2619    80.4314     0.0787     2.4708     0.0400
 1045.0000     9.2505    80.4957     0.0808     2.4809     0.0475
 1045.5000     9.2382    80.8597     0.0761     2.4869     0.0391
 1046.0000     9.2258    81.2263     0.0733     2.4767     0.0338
 1046.5000     9.2135    81.1856     0.0777     2.4732     0.0455
 1047.0000     9.2011    80.9678     0.0824     2.4794     0.0424
 1047.5000     9.1888    80.7443     0.0870     2.4743     0.0391
 1048.0000     9.1765    80.5216     0.0805     2.4721     0.0479
 1048.5000     9.1655    80.5438     0.0806     2.4903     0.0378
 1049.0000     9.1464    81.1555     0.0898     2.5002     0.0254
 1049.5000     9.1276    81.7589     0.0970     2.4853     0.0298
 1050.0000     9.1087    82.3610     0.1000     2.4717     0.0400
 1050.5000     9.0893    82.9631     0.0773     2.4501     0.0530
 1051.0000     9.0721    83.5673     0.0601     2.4270     0.0637
 1051.5000     9.0544    84.1719     0.0429     2.4388     0.0724
 1052.0000     9.0367    84.6513     0.0506     2.4616     0.0782
 1052.5000     9.0187    83.9267     0.0677     2.4830     0.0449
 1053.0000     9.0004    83.1753     0.0852     2.4867     0.0338
 1053.5000     8.9932    82.4281     0.0955     2.4801     0.0367
 1054.0000     9.1228    81.6814     0.0935     2.4728     0.0403
 1054.5000     9.2106    80.9305     0.0797     2.4512     0.0491
