~VERSION INFORMATION
 VERS.                2.0:   CWLS LOG ASCII STANDARD - VERSION 2.0
 WRAP.                 NO:   ONE LINE PER DEPTH STEP
~WELL INFORMATION
#MNEM.UNIT      DATA TYPE    INFORMATION
#----------   ------------   ------------------------------
 STRT.F            0.0000:   START DEPTH
 STOP.F          561.0000:   STOP DEPTH
 STEP.F            0.1000:   STEP LENGTH
 NULL.          -999.2500:   NO VALUE
 COMP.       F D SERV INC:   COMPANY
 WELL.  83-1 sx 10 #83-10:   WELL
 FLD .             TEAPOT:   FIELD
 LOC .      S10 T38N R78W:   LOCATION
 CNTY.            NATRONA:   COUNTY
 STAT.            WYOMING:   STATE
 CTRY. UNITED STATES OF AMERICA:   COUNTRY
 SRVC.     Atlas Wireline:   SERVICE COMPANY
 DATE.        10-DEC-1992:   LOGDATE
 API .       490252258000:   API NUMBER
~CURVE INFORMATION
#MNEM.UNIT       API CODE    CURVE DESCRIPTION
#----------   ------------   ------------------------------
 DEPT.F                  :   
 GRR .GAPI   07 310 01 00:   GAMMA RAY
 RILD.OHMM   07 120 46 00:   INDUCTION LOG DEEP RESISTIVITY
 RILM.OHMM   07 120 44 00:   INDUCTION LOG MEDIUM RESISTIVITY
~PARAMETER INFORMATION
#MNEM.UNIT          VALUE    DESCRIPTION
#----------   ------------   ------------------------------
 PD  .                 GL:   PERMANENT DATUM
 EPD .F              5170:   ELEVATION PERMANENT DATUM
 LMF .                 KB:   LOG MEASURED FROM
 DAPD.F                10:   FEET ABOVE PERMANENT DATUM
 DMF .                 KB:   DRILLING MEASURED FROM
 EKB .F              5180:   KELLING BUSHING
 EDF .F              5179:   DRILLING FLOOR
 EGL .F              5170:   GROUND LEVEL
 DATE.        10-DEC-1992:   RUN DATE
 RUN .                  1:   RUN NUMBER
 DD  .F               567:   DEPTH DRILLER
 DL  .F               569:   DEPTH LOGGER
 BLI .F               560:   BOTTOM LOG INTERVAL
 TLI .F                97:   TOP LOG INTERVAL
 CS  .IN            8.625:   CASING SIZE
 CBD .F                97:   CASING BOTTOM DRILLER
 CBL .F                97:   CASING BOTTOM LOGGER
 BS  .IN            7.875:   BIT SIZE
 BSD .F               567:   BIT SIZE AT DEPTH
 DFT .           AIR FOAM:   DRILLING FLUID TYPE
 MRT .F                65:   MAXIMUM RECORDED TEMPERATURE
 LUN .           HL- 6274:   LOGGING UNIT NUMBER
 LUL .             CASPER:   LOGGING UNIT LOCATION
 ENGI.       P. RASMUSSEN:   RECORDING ENGINEER
 WITN.          G. STRONG:   WITNESSED BY
 CLNT.            A2DTECH:   CLIENT CODE
 ORIG.           5" PRINT:   ORIGIN OF DATA
 UWI .       490252258000:   UNIQUE WELL ID
 DICO. A2D Technologies, Inc.:   DIGITIZING COMPANY
~OTHER INFORMATION
~A    DEPT      GRR      RILD       RILM   
# ...
  327.6000   137.9545     6.7410     6.7669
  327.7000   137.7845     6.8137     6.8747
  327.8000   137.7380     6.8590     6.9572
  327.9000   137.4810     6.9980     7.0407
  328.0000   137.4810     7.1108     7.1386
  328.1000   137.4810     7.2402     7.2476
  328.2000   137.4810     7.3470     7.3189
  328.3000   137.4810     7.4359     7.3629
  328.4000   137.4810     7.5257     7.4072
  328.5000   137.5266     7.6138     7.4517
  328.6000   137.7866     7.6645     7.4961
  328.7000   138.0880     7.7061     7.4964
  328.8000   138.5251     7.7527     7.5343
  328.9000   138.8700     7.7995     7.5493
  329.0000   139.1300     7.8276     7.5724
  329.1000   139.3900     7.8279     7.6025
  329.2000   139.6500     7.8281     7.6028
  329.3000   139.9090     7.8283     7.6033
  329.4000   139.9090     7.8714     7.6565
  329.5000   139.9090     7.8836     7.6568
  329.6000   139.9090     7.9114     7.6571
  329.7000   139.6479     7.9393     7.6804
  329.8000   139.1280     7.9395     7.7111
  329.9000   138.6080     7.9439     7.7114
  330.0000   138.0880     7.9956     7.7118
  330.1000   137.4810     7.9958     7.7659
  330.2000   137.0480     7.9960     7.7662
  330.3000   136.5280     8.0248     7.7665
  330.4000   135.4901     8.0525     7.7668
  330.5000   134.1021     8.0527     7.7671
  330.6000   133.1472     8.0529     7.7675
  330.7000   132.6252     8.0532     7.7678
  330.8000   132.3217     8.0534     7.8223
  330.9000   132.1063     8.0536     7.8226
  331.0000   131.8463     8.0538     7.8229
  331.1000   131.7147     8.0541     7.8232
  331.2000   131.7997     8.0543     7.8236
  331.3000   132.0182     8.0545     7.8313
  331.4000   132.0182     8.0548     7.8787
  331.5000   132.6252     8.0550     7.8791
  331.6000   133.0541     8.0552     7.9182
  331.7000   133.7450     8.0554     7.9346
  331.8000   134.6525     8.0556     7.9350
  331.9000   135.4406     8.0559     7.9506
  332.0000   135.7006     8.0561     7.9984
  332.1000   135.9636     8.0563     8.0470
  332.2000   135.9636     8.0565     8.0474
  332.3000   135.9636     8.0568     8.0871
  332.4000   135.9636     8.0876     8.1041
  332.5000   135.9636     8.1137     8.1280
  332.6000   136.0466     8.1286     8.1613
  332.7000   136.2671     8.1710     8.1690
  332.8000   136.2671     8.1712     8.2188
  332.9000   136.2671     8.1715     8.2192
  333.0000   136.2671     8.1717     8.2195
  333.1000   136.2671     8.1719     8.2199
  333.2000   136.1417     8.1721     8.2202
  333.3000   135.9636     8.1878     8.2205
  333.4000   135.9636     8.2299     8.2137
  333.5000   135.9636     8.2301     8.1643
  333.6000   135.9636     8.2304     8.1647
  333.7000   135.9636     8.2305     8.2046
  333.8000   135.9636     8.2308     8.1908
  333.9000   135.9636     8.2310     8.1657
  334.0000   135.9636     8.2312     8.1660
  334.1000   135.9636     8.2395     8.1664
  334.2000   135.9636     8.2894     8.1667
  334.3000   135.9636     8.2896     8.1671
  334.4000   135.9636     8.2898     8.1674
  334.5000   135.9636     8.2901     8.1677
  334.6000   136.0870     8.2654     8.1681
  334.7000   136.2671     8.2328     8.1535
  334.8000   136.3035     8.2331     8.1122
  334.9000   136.5706     8.2333     8.1125
  335.0000   137.4810     8.1763     8.1129
  335.1000   137.8999     8.1765     8.1132
  335.2000   138.4199     8.1767     8.1136
  335.3000   138.9399     8.1769     8.1139
  335.4000   139.3809     8.1772     8.1142
  335.5000   139.7119     8.1774     8.1146
  335.6000   140.5159     8.1776     8.1149
  335.7000   141.1229     8.1779     8.0591
  335.8000   141.9568     8.1781     8.0594
  335.9000   142.5018     8.1783     8.0597
  336.0000   142.6404     8.1785     8.0826
  336.1000   142.5625     8.1788     8.1166
  336.2000   142.3026     8.1888     8.1169
  336.3000   142.0334     8.2365     8.1173
  336.4000   141.5317     8.2368     8.1176
  336.5000   141.0117     8.2370     8.1179
  336.6000   140.6556     8.2372     8.1183
  336.7000   140.3956     8.2642     8.1186
  336.8000   140.0972     8.2954     8.1333
  336.9000   139.7072     8.2956     8.1759
  337.0000   139.3020     8.2982     8.1762
  337.1000   139.0521     8.3543     8.1766
  337.2000   138.7921     8.3988     8.2157
  337.3000   138.6950     8.4132     8.2343
  337.4000   138.6950     8.4415     8.2572
  337.5000   138.6950     8.4925     8.2923
  337.6000   138.7274     8.5323     8.2989
  337.7000   138.9985     8.5355     8.3508
  337.8000   139.4962     8.5926     8.3989
  337.9000   139.8108     8.6390     8.4097
  338.0000   139.9090     8.6912     8.4414
  338.1000   139.9090     8.7437     8.4921
  338.2000   139.9090     8.8179     8.5431
  338.3000   139.9090     8.9117     8.5944
  338.4000   139.9090     8.9617     8.6485
  338.5000   139.4132     8.9620     8.7476
  338.6000   139.0976     9.0111     8.8113
  338.7000   138.8376     9.0252     8.8643
  338.8000   138.5776     9.0255     8.9176
  338.9000   138.2437     9.0035     8.9560
  339.0000   137.7238     8.9499     8.9626
  339.1000   137.1775     8.8966     9.0192
  339.2000   136.6839     8.8394     9.0195
  339.3000   135.9606     8.7911     8.9781
  339.4000   135.0208     8.6995     8.9578
  339.5000   134.2135     8.6263     8.9345
  339.6000   133.6207     8.5750     8.8966
  339.7000   132.7821     8.5240     8.8910
  339.8000   131.4112     8.4684     8.8358
  339.9000   130.9196     8.3608     8.7374
  340.0000   130.3996     8.3145     8.6344
  340.1000   130.0384     8.2272     8.5326
  340.2000   129.7784     8.1003     8.4100
  340.3000   129.5903     7.9768     8.2615
  340.4000   129.5903     7.8565     8.1002
  340.5000   129.5903     7.6654     7.7996
  340.6000   129.8351     7.4264     7.4599
  340.7000   130.2965     7.2607     7.2115
  340.8000   130.8165     7.0233     7.0506
  340.9000   131.2221     6.8798     6.9261
  341.0000   131.6238     6.6837     6.8038
  341.1000   132.3764     6.5961     6.6795
  341.2000   132.9287     6.3876     6.5128
  341.3000   133.9041     6.1358     6.3345
  341.4000   135.3448     5.9233     6.0939
  341.5000   136.7479     5.7621     5.8870
  341.6000   138.2746     5.6256     5.7438
  341.7000   140.3040     5.4945     5.6247
  341.8000   142.7981     5.3880     5.4662
  341.9000   144.4613     5.3008     5.3633
  342.0000   145.9181     5.2530     5.3043
  342.1000   147.4780     5.2400     5.2657
  342.2000   149.0377     5.2532     5.2533
  342.3000   150.5975     5.2850     5.2807
  342.4000   152.1574     5.3197     5.3613
  342.5000   153.6669     5.3890     5.4872
  342.6000   154.7800     5.4492     5.5931
  342.7000   155.5052     5.5151     5.6557
  342.8000   155.8887     5.5818     5.7237
  342.9000   155.9939     5.6493     5.7925
  343.0000   155.7715     5.7176     5.8620
  343.1000   155.1837     5.7866     5.9324
  343.2000   154.3310     5.8612     6.0003
  343.3000   152.6555     5.9275     6.0390
  343.4000   151.6926     5.9439     6.1063
  343.5000   150.0608     5.9658     6.1796
  343.6000   148.3946     6.0018     6.2539
  343.7000   146.5039     6.0280     6.3290
  343.8000   144.2307     6.0282     6.3952
  343.9000   142.0810     6.0284     6.4371
  344.0000   138.9985     6.0629     6.5204
  344.1000   136.6009     6.0995     6.6117
  344.2000   134.5897     6.1364     6.7106
  344.3000   132.3115     6.1904     6.8232
  344.4000   130.0393     6.2762     6.9818
  344.5000   128.3509     6.3853     7.1816
  344.6000   127.0955     6.4656     7.3546
  344.7000   126.2519     6.6167     7.5466
  344.8000   126.0131     6.7452     7.7141
  344.9000   125.7531     6.9207     7.8649
  345.0000   125.6449     7.1519     8.0069
  345.1000   125.6449     7.4137     8.1311
  345.2000   125.6449     7.6785     8.2411
  345.3000   125.6237     7.9185     8.3855
  345.4000   125.3414     8.1430     8.4949
  345.5000   125.3414     8.3438     8.8268
  345.6000   125.3414     8.5646     9.1618
  345.7000   125.3414     8.7727     9.3634
