~VERSION INFORMATION
 VERS.                2.0:   CWLS LOG ASCII STANDARD - VERSION 2.0
 WRAP.                 NO:   ONE LINE PER DEPTH STEP
~WELL INFORMATION
#MNEM.UNIT      DATA TYPE    INFORMATION
#----------   ------------   ------------------------------
 STRT.F            3.0000:   START DEPTH
 STOP.F          523.0000:   STOP DEPTH
 STEP.F            0.1000:   STEP LENGTH
 NULL.          -999.2500:   NO VALUE
 COMP.     BROWN JOHN E&C:   COMPANY
 WELL.   NPR 3 #52-2-SX-3:   WELL
 FLD .             TEAPOT:   FIELD
 LOC .       S3 T38N R78W:   LOCATION
 CNTY.            NATRONA:   COUNTY
 STAT.            WYOMING:   STATE
 CTRY. UNITED STATES OF AMERICA:   COUNTRY
 SRVC.     Atlas Wireline:   SERVICE COMPANY
 DATE.        18-APR-1992:   LOGDATE
 API .       490252251500:   API NUMBER
~CURVE INFORMATION
#MNEM.UNIT       API CODE    CURVE DESCRIPTION
#----------   ------------   ------------------------------
 DEPT.F                  :   
 GRR .GAPI   07 310 01 00:   GAMMA RAY
 RILD.OHMM   07 120 46 00:   INDUCTION LOG DEEP RESISTIVITY
 RILM.OHMM   07 120 44 00:   INDUCTION LOG MEDIUM RESISTIVITY
~PARAMETER INFORMATION
#MNEM.UNIT          VALUE    DESCRIPTION
#----------   ------------   ------------------------------
 PD  .                 GL:   PERMANENT DATUM
 EPD .F              5128:   ELEVATION PERMANENT DATUM
 LMF .                 KB:   LOG MEASURED FROM
 DAPD.F                 5:   FEET ABOVE PERMANENT DATUM
 DMF .                 KB:   DRILLING MEASURED FROM
 EKB .F              5133:   KELLING BUSHING
 EDF .F              5132:   DRILLING FLOOR
 EGL .F              5128:   GROUND LEVEL
 DATE.        18-APR-1992:   RUN DATE
 RUN .                  1:   RUN NUMBER
 DD  .F               525:   DEPTH DRILLER
 DL  .F               526:   DEPTH LOGGER
 BLI .F               524:   BOTTOM LOG INTERVAL
 CS  .IN            8.625:   CASING SIZE
 CBD .F                48:   CASING BOTTOM DRILLER
 CBL .F                49:   CASING BOTTOM LOGGER
 BS  .IN            7.875:   BIT SIZE
 BSD .F               525:   BIT SIZE AT DEPTH
 DFT .                AIR:   DRILLING FLUID TYPE
 TCS .HRS               2:   TIME CURCULATED STOPPED
 MRT .F                87:   MAXIMUM RECORDED TEMPERATURE
 LUN .            HL 6274:   LOGGING UNIT NUMBER
 LUL .             CASPER:   LOGGING UNIT LOCATION
 ENGI.            LEBSOCK:   RECORDING ENGINEER
 WITN.             STRONG:   WITNESSED BY
 CLNT.            A2DTECH:   CLIENT CODE
 ORIG.       2", 5" PRINT:   ORIGIN OF DATA
 UWI .       490252251500:   UNIQUE WELL ID
 DICO. A2D Technologies, Inc.:   DIGITIZING COMPANY
~OTHER INFORMATION
~A    DEPT     GRR       RILD       RILM   
# ...
  185.0000   130.3030     7.3047     7.2369
  185.1000   130.3030     7.3463     7.2781
  185.2000   130.3030     7.3982     7.3266
  185.3000   130.3030     7.4822     7.3612
  185.4000   130.3030     7.5248     7.4031
  185.5000   130.3030     7.5676     7.4452
  185.6000   130.1738     7.6348     7.4876
  185.7000   129.6889     7.7076     7.5338
  185.8000   129.3939     7.7515     7.6127
  185.9000   129.3939     7.8014     7.6695
  186.0000   129.2525     7.8400     7.6930
  186.1000   128.9212     7.8846     7.7030
  186.2000   128.4283     7.9295     7.7469
  186.3000   127.8788     7.9746     7.7910
  186.4000   126.3515     8.0220     7.8009
  186.5000   124.3032     8.1096     7.8250
  186.6000   122.6102     8.1347     7.8554
  186.7000   121.7212     8.1577     7.8592
  186.8000   121.2121     8.2041     7.9102
  186.9000   120.9737     8.2507     7.9101
  187.0000   120.7273     8.3065     7.9100
  187.1000   120.6061     8.3064     7.9099
  187.2000   120.6061     8.3340     7.9098
  187.3000   120.6061     8.3645     7.9097
  187.4000   120.6061     8.3643     7.9096
  187.5000   120.8081     8.3642     7.9095
  187.6000   120.9091     8.4070     7.9093
  187.7000   121.0868     8.4227     7.9092
  187.8000   121.5798     8.4225     7.9105
  187.9000   122.1212     8.4224     7.9645
  188.0000   122.3434     8.4223     7.9644
  188.1000   122.7555     8.4222     7.9643
  188.2000   123.3575     8.4221     7.9485
  188.3000   124.0444     8.4219     7.9086
  188.4000   124.5455     8.4218     7.9085
  188.5000   125.5152     8.4217     7.9084
  188.6000   126.1293     8.4216     7.9082
  188.7000   126.6222     8.4215     7.9081
  188.8000   127.1879     8.4214     7.9080
  188.9000   127.8950     8.4212     7.9079
  189.0000   128.1818     8.4137     7.9078
  189.1000   128.3879     8.3624     7.9077
  189.2000   128.4848     8.3622     7.9076
  189.3000   128.4848     8.3621     7.9075
  189.4000   128.5212     8.3620     7.9074
  189.5000   128.7879     8.3619     7.9072
  189.6000   128.7879     8.3618     7.9071
  189.7000   128.7879     8.3617     7.9070
  189.8000   128.6747     8.3244     7.9069
  189.9000   128.3717     8.3032     7.9002
  190.0000   127.8788     8.3031     7.8516
  190.1000   126.8928     8.3030     7.8515
  190.2000   125.9070     8.3028     7.8514
  190.3000   125.1879     8.2618     7.8513
  190.4000   124.6950     8.2448     7.8512
  190.5000   124.1818     8.2447     7.8509
  190.6000   123.3333     8.2359     7.8063
  190.7000   122.7030     8.1870     7.7962
  190.8000   121.9636     8.1869     7.7719
  190.9000   121.2243     8.1868     7.7277
  191.0000   120.5657     8.1635     7.6877
  191.1000   120.3030     8.1296     7.6875
  191.2000   120.3030     8.1275     7.6499
  191.3000   120.3030     8.0727     7.6064
  191.4000   120.4202     8.0726     7.5805
  191.5000   120.7879     8.0457     7.5729
  191.6000   121.5354     8.0000     7.5275
  191.7000   122.7677     7.9545     7.5274
  191.8000   123.8060     7.9047     7.5273
  191.9000   124.7918     7.8643     7.5272
  192.0000   125.7777     7.8196     7.5271
  192.1000   126.7394     7.7751     7.5270
  192.2000   127.5758     7.7309     7.5269
  192.3000   128.0041     7.6863     7.5268
  192.4000   128.3394     7.6005     7.5267
  192.5000   128.4848     7.5468     7.5118
  192.6000   128.5293     7.4815     7.4741
  192.7000   128.7879     7.3967     7.4740
  192.8000   128.7879     7.3158     7.4361
  192.9000   128.6101     7.2677     7.3939
  193.0000   128.2424     7.1984     7.3518
  193.1000   127.7495     7.1417     7.3185
  193.2000   127.2566     7.1011     7.3184
  193.3000   126.6667     7.0482     7.2778
  193.4000   126.4687     6.9203     7.1754
  193.5000   126.3636     6.8837     7.0954
  193.6000   126.3636     6.8175     7.0319
  193.7000   126.3354     6.7403     6.9127
  193.8000   126.0606     6.6548     6.7763
  193.9000   125.1878     6.5430     6.7124
  194.0000   124.3636     6.5058     6.6137
  194.1000   123.6242     6.3831     6.5017
  194.2000   122.8364     6.2590     6.3914
  194.3000   121.8182     6.1530     6.2745
  194.4000   121.1031     6.0521     6.1449
  194.5000   120.9091     5.9748     6.0301
  194.6000   120.7838     5.8867     5.8973
  194.7000   120.6747     5.8081     5.7316
  194.8000   120.9212     5.7558     5.5703
  194.9000   121.2121     5.7292     5.4145
  195.0000   121.4141     5.7291     5.2860
  195.1000   121.6606     5.6979     5.1829
  195.2000   121.9960     5.6890     5.1043
  195.3000   122.4889     5.6890     5.0491
  195.4000   123.0303     5.6889     5.0165
  195.5000   123.4748     5.6888     5.0164
  195.6000   123.9677     5.6887     4.9983
  195.7000   124.2424     5.6886     4.9813
  195.8000   124.2424     5.6696     4.9863
  195.9000   124.2424     5.6489     5.0161
  196.0000   124.2424     5.6488     5.0433
  196.1000   124.2424     5.6487     5.0720
  196.2000   123.9838     5.6486     5.1008
  196.3000   123.4909     5.6486     5.1455
  196.4000   123.0142     5.6485     5.2327
  196.5000   122.7273     5.6484     5.3041
  196.6000   122.5212     5.6483     5.3285
  196.7000   122.4242     5.6801     5.3766
  196.8000   122.4242     5.6878     5.4380
  196.9000   122.4242     5.6877     5.4962
  197.0000   122.4242     5.6876     5.5308
  197.1000   122.4242     5.6875     5.5874
  197.2000   122.5939     5.6874     5.6298
  197.3000   122.8404     5.7148     5.6760
  197.4000   123.2566     5.7474     5.7408
  197.5000   124.2424     5.7801     5.8077
  197.6000   124.9818     5.8076     5.8401
  197.7000   125.7212     5.8075     5.9240
  197.8000   126.5940     5.8384     5.9721
  197.9000   127.4263     5.8952     6.0023
  198.0000   127.8990     5.9626     6.1030
  198.1000   128.1818     6.0222     6.1842
  198.2000   128.1818     6.0577     6.2434
  198.3000   128.0283     6.1620     6.3148
  198.4000   127.6849     6.2399     6.4009
  198.5000   127.2323     6.3315     6.4995
  198.6000   126.9697     6.4404     6.5393
  198.7000   126.7394     6.5470     6.6084
  198.8000   126.4929     6.6311     6.6839
  198.9000   126.1293     6.7312     6.7603
  199.0000   125.6970     6.8470     6.8375
  199.1000   125.4424     6.9480     6.9152
  199.2000   124.7030     7.0273     6.9545
  199.3000   124.1576     7.1106     7.0254
  199.4000   123.5272     7.1888     7.1056
  199.5000   122.7879     7.2710     7.1868
  199.6000   122.0727     7.3329     7.2689
  199.7000   121.5152     7.3863     7.3630
  199.8000   121.3010     7.4706     7.4360
  199.9000   121.0546     7.5715     7.4937
  200.0000   120.9396     7.5928     7.4925
  200.1000   121.0139     7.6188     7.4917
  200.2000   121.0882     7.6585     7.5507
  200.3000   121.1625     7.7025     7.6308
  200.4000   121.3770     7.7466     7.6776
  200.5000   121.8727     7.7910     7.7184
  200.6000   122.4242     7.8407     7.7626
  200.7000   122.8642     7.8806     7.8070
  200.8000   123.1951     7.9258     7.8517
  200.9000   123.7721     7.9712     7.8966
  201.0000   124.9272     8.0169     7.9499
  201.1000   126.6667     8.0629     7.9498
  201.2000   128.3976     8.1091     7.9770
  201.3000   129.3643     8.1195     8.0227
  201.4000   129.9709     8.1452     8.0614
  201.5000   130.3030     8.1919     8.0612
  201.6000   130.3030     8.2388     8.1044
  201.7000   130.3030     8.2915     8.1175
  201.8000   130.3030     8.3336     8.1174
  201.9000   130.3030     8.3496     8.1173
  202.0000   130.3030     8.3707     8.1195
  202.1000   129.8717     8.4082     8.1740
  202.2000   127.8788     8.4082     8.1739
  202.3000   126.6455     8.4562     8.2022
  202.4000   125.9806     8.5047     8.2310
  202.5000   125.6212     8.5534     8.2386
  202.6000   125.2921     8.5863     8.2885
  202.7000   124.8224     8.5915     8.2884
  202.8000   124.5455     8.6465     8.2882
  202.9000   124.5455     8.6465     8.3118
  203.0000   124.5455     8.6465     8.3461
  203.1000   124.7624     8.6682     8.3460
