~VERSION INFORMATION
 VERS.                2.0:   CWLS LOG ASCII STANDARD - VERSION 2.0
 WRAP.                 NO:   ONE LINE PER DEPTH STEP
~WELL INFORMATION
#MNEM.UNIT      DATA TYPE    INFORMATION
#----------   ------------   ------------------------------
 STRT.F            0.0000:   START DEPTH
 STOP.F         2182.0000:   STOP DEPTH
 STEP.F            0.1000:   STEP LENGTH
 NULL.          -999.2500:   NO VALUE
 COMP.       FLUOR DANIEL:   COMPANY
 WELL.   75-1 X 29 #75-29:   WELL
 FLD .             TEAPOT:   FIELD
 LOC .      S29 T39N R78W:   LOCATION
 CNTY.            NATRONA:   COUNTY
 STAT.            WYOMING:   STATE
 CTRY. UNITED STATES OF AMERICA:   COUNTRY
 SRVC.      Western Atlas:   SERVICE COMPANY
 DATE.        10-MAY-1996:   LOGDATE
 API .       490252279100:   API NUMBER
~CURVE INFORMATION
#MNEM.UNIT       API CODE    CURVE DESCRIPTION
#----------   ------------   ------------------------------
 DEPT.F                  :   
 GRR .GAPI   07 310 01 00:   GAMMA RAY
 RFOC.OHMM   07 220 04 00:   RESISTIVITY FOCUSED LOG
 RILD.OHMM   07 120 46 00:   INDUCTION LOG DEEP RESISTIVITY
 RILM.OHMM   07 120 44 00:   INDUCTION LOG MEDIUM RESISTIVITY
~PARAMETER INFORMATION
#MNEM.UNIT          VALUE    DESCRIPTION
#----------   ------------   ------------------------------
 PD  .                 GL:   PERMANENT DATUM
 EPD .F              5031:   ELEVATION PERMANENT DATUM
 LMF .                 KB:   LOG MEASURED FROM
 DAPD.F                10:   FEET ABOVE PERMANENT DATUM
 DMF .                 KB:   DRILLING MEASURED FROM
 EKB .F              5041:   KELLING BUSHING
 EDF .F              5040:   DRILLING FLOOR
 EGL .F              5031:   GROUND LEVEL
 DATE.        10-MAY-1996:   RUN DATE
 RUN .                  1:   RUN NUMBER
 DD  .F              2188:   DEPTH DRILLER
 DL  .F              2184:   DEPTH LOGGER
 BLI .F              2182:   BOTTOM LOG INTERVAL
 TLI .F               400:   TOP LOG INTERVAL
 CS  .IN                7:   CASING SIZE
 CBD .F               400:   CASING BOTTOM DRILLER
 CBL .F               400:   CASING BOTTOM LOGGER
 BS  .IN             6.25:   BIT SIZE
 BSD .F              2188:   BIT SIZE AT DEPTH
 DFT .                AIR:   DRILLING FLUID TYPE
 MRT .F                97:   MAXIMUM RECORDED TEMPERATURE
 LUN .            HL-6530:   LOGGING UNIT NUMBER
 LUL .             CASPER:   LOGGING UNIT LOCATION
 ENGI.           BROWNLOW:   RECORDING ENGINEER
 WITN.             LEBEAU:   WITNESSED BY
 CLNT.            A2DTECH:   CLIENT CODE
 ORIG.           5" PRINT:   ORIGIN OF DATA
 UWI .       490252279100:   UNIQUE WELL ID
 DICO. A2D Technologies, Inc.:   DIGITIZING COMPANY
~OTHER INFORMATION
~A    DEPT      GRR      RFOC       RILD       RILM   
# ...
  394.2000    82.9552  -999.2500  -999.2500  -999.2500
  394.3000    82.3366  -999.2500  -999.2500  -999.2500
  394.4000    81.0241  -999.2500  -999.2500  -999.2500
  394.5000    80.5442  -999.2500  -999.2500  -999.2500
  394.6000    80.0419  -999.2500  -999.2500  -999.2500
  394.7000    79.6793  -999.2500  -999.2500  -999.2500
  394.8000    79.6080  -999.2500  -999.2500  -999.2500
  394.9000    79.8593  -999.2500  -999.2500  -999.2500
  395.0000    80.1205  -999.2500  -999.2500  -999.2500
  395.1000    80.6028  -999.2500  -999.2500  -999.2500
  395.2000    80.7229  -999.2500  -999.2500  -999.2500
  395.3000    80.8641  -999.2500  -999.2500  -999.2500
  395.4000    81.0241  -999.2500  -999.2500  -999.2500
  395.5000    80.9829  -999.2500  -999.2500  -999.2500
  395.6000    80.7229  -999.2500  -999.2500  -999.2500
  395.7000    79.9956  -999.2500  -999.2500  -999.2500
  395.8000    79.6268  -999.2500  -999.2500  -999.2500
  395.9000    79.5181  -999.2500  -999.2500  -999.2500
  396.0000    79.5181  -999.2500  -999.2500  -999.2500
  396.1000    79.5606  -999.2500  -999.2500  -999.2500
  396.2000    79.8193  -999.2500  -999.2500  -999.2500
  396.3000    80.3062  -999.2500  -999.2500  -999.2500
  396.4000    80.6151  -999.2500  -999.2500  -999.2500
  396.5000    80.8664  -999.2500  -999.2500  -999.2500
  396.6000    81.1178  -999.2500  -999.2500  -999.2500
  396.7000    81.3253  -999.2500  -999.2500  -999.2500
  396.8000    81.3253  -999.2500  -999.2500  -999.2500
  396.9000    81.3253  -999.2500  -999.2500  -999.2500
  397.0000    81.3253  -999.2500  -999.2500  -999.2500
  397.1000    81.3253  -999.2500  -999.2500  -999.2500
  397.2000    81.3253  -999.2500  -999.2500  -999.2500
  397.3000    81.3253  -999.2500  -999.2500  -999.2500
  397.4000    81.3253  -999.2500  -999.2500  -999.2500
  397.5000    81.0794  -999.2500  -999.2500  -999.2500
  397.6000    81.0241  -999.2500  -999.2500  -999.2500
  397.7000    81.0241  -999.2500  -999.2500  -999.2500
  397.8000    80.9282  -999.2500  -999.2500  -999.2500
  397.9000    80.6770  -999.2500  -999.2500  -999.2500
  398.0000    80.4217  -999.2500  -999.2500  -999.2500
  398.1000    80.1745  -999.2500  -999.2500  -999.2500
  398.2000    79.7261  -999.2500  -999.2500  -999.2500
  398.3000    79.2237  -999.2500  -999.2500  -999.2500
  398.4000    78.7213  -999.2500  -999.2500  -999.2500
  398.5000    78.2661  -999.2500  -999.2500  -999.2500
  398.6000    78.0120  -999.2500  -999.2500  -999.2500
  398.7000    77.2667  -999.2500  -999.2500  -999.2500
  398.8000    76.7115  -999.2500  -999.2500  -999.2500
  398.9000    75.9121  -999.2500  -999.2500  -999.2500
  399.0000    75.0057  -999.2500  -999.2500  -999.2500
  399.1000    74.3491  -999.2500  -999.2500  -999.2500
  399.2000    74.0964  -999.2500  -999.2500  -999.2500
  399.3000    73.8469  -999.2500  -999.2500  -999.2500
  399.4000    73.5957  -999.2500  -999.2500  -999.2500
  399.5000    73.3444  -999.2500  -999.2500  -999.2500
  399.6000    72.9934  -999.2500  -999.2500  -999.2500
  399.7000    72.5407  -999.2500  -999.2500  -999.2500
  399.8000    72.2892  -999.2500  -999.2500  -999.2500
  399.9000    72.2892  -999.2500  -999.2500  -999.2500
  400.0000    73.1997  -999.2500    15.4739    21.8102
  400.1000    74.3393  -999.2500    15.8562    24.2072
  400.2000    75.4790  -999.2500    16.1748    25.0605
  400.3000    76.6186  -999.2500    16.5774    25.9322
  400.4000    77.7582  -999.2500    17.0768    26.5627
  400.5000    78.8978  -999.2500    18.0201    27.4484
  400.6000    80.0374  -999.2500    19.5223    29.0363
  400.7000    81.1771  -999.2500    22.8915    38.6797
  400.8000    82.3167  -999.2500    79.2948    81.7614
  400.9000    83.7211  -999.2500   195.4849   316.4614
  401.0000    85.6932  -999.2500   311.6749   551.1614
  401.1000    87.3294  -999.2500   427.8649   785.8613
  401.2000    88.5002  -999.2500   544.0550  1332.8832
  401.3000    89.7678  -999.2500   660.2450  1967.8357
  401.4000    91.8740  -999.2500  1131.6416  1998.8444
  401.5000    94.4789  -999.2500  1745.0764  1930.6722
  401.6000    96.8955  -999.2500  1950.4183   887.1001
  401.7000    99.9693  -999.2500  1998.5815   436.8279
  401.8000   102.6780  -999.2500   409.8967   261.8819
  401.9000   103.4926  -999.2500     6.0291    86.9359
  402.0000   104.5064  -999.2500     3.9857     5.8877
  402.1000   105.0825  -999.2500     3.1816     5.0015
  402.2000   105.0807  -999.2500     2.9115     4.4327
  402.3000   105.0789  -999.2500     2.7298     4.2750
  402.4000   105.0769  -999.2500     2.6368     4.2271
  402.5000   105.0753  -999.2500     2.5874     4.2159
  402.6000   105.0735  -999.2500     2.5552     4.2300
  402.7000   105.0717  -999.2500     2.5531     4.3041
  402.8000   105.0698  -999.2500     2.5716     4.4727
  402.9000   105.0368  -999.2500     2.6085     4.7122
  403.0000   104.7649  -999.2500     2.7865     5.0822
  403.1000   104.2877  -999.2500     3.0087     5.3583
  403.2000   103.5881  -999.2500     3.3956     5.7778
  403.3000   102.9677  -999.2500     3.8705     6.3183
  403.4000   102.6494  -999.2500     4.4231     6.9934
  403.5000   102.6476  -999.2500     5.1016     7.7943
  403.6000   102.6458  -999.2500     5.8919     8.6636
  403.7000   102.6436  -999.2500     6.9819     9.1588
  403.8000   102.8494  -999.2500     8.3382     9.8042
  403.9000   103.1015  -999.2500     9.7980    10.3914
  404.0000   103.6907  -999.2500    11.4748    10.9232
  404.1000   104.7040  -999.2500    13.6090    11.5472
  404.2000   105.8070  -999.2500    16.4412    11.9964
  404.3000   108.3558  -999.2500    19.0888    12.5145
  404.4000   109.2505  -999.2500    22.3486    13.0009
  404.5000   110.4410  -999.2500    24.6775    13.5039
  404.6000   111.5791  -999.2500    25.8666    14.6941
  404.7000   112.5103  -999.2500    26.3755    18.0188
  404.8000   113.3042  -999.2500    26.5251    26.9828
  404.9000   114.3692  -999.2500    26.5238    33.0503
  405.0000   115.5725  -999.2500    26.3946    41.2308
  405.1000   116.4525  -999.2500    25.9488    51.6654
  405.2000   117.2119  -999.2500    25.2836    67.5823
  405.3000   117.9716  -999.2500    24.3038    87.9563
  405.4000   118.7832  -999.2500    22.6238    96.5562
  405.5000   119.7842  -999.2500    20.5155   100.5344
  405.6000   120.0792  -999.2500    18.6296   104.2268
  405.7000   120.0777  -999.2500    16.8115   105.6461
  405.8000   119.9129  -999.2500    15.1824   101.7819
  405.9000   119.5415  -999.2500    13.6866    91.7321
  406.0000   119.0322  -999.2500    12.4372    79.0805
  406.1000   118.5228  -999.2500    11.6141    63.6889
  406.2000   117.9601  -999.2500    11.4876    45.1133
  406.3000   117.5037  -999.2500    11.4532    33.1881
  406.4000   116.9944  -999.2500    11.4901    28.8011
  406.5000   116.4851  -999.2500    11.5319    27.1732
  406.6000   115.9756  -999.2500    11.5436    26.5917
  406.7000   115.5037  -999.2500    11.6113    26.9615
  406.8000   115.2385  -999.2500    11.6780    27.6652
  406.9000   114.7485  -999.2500    11.7459    28.9525
  407.0000   114.4357  -999.2500    11.7720    30.4157
  407.1000   113.8811  -999.2500    11.8005    31.8017
  407.2000   113.3221  -999.2500    11.8369    33.0939
  407.3000   113.0665  -999.2500    11.7705    34.3541
  407.4000   112.8109  -999.2500    11.7699    34.9138
  407.5000   112.5148  -999.2500    11.7695    35.3748
  407.6000   112.5132  -999.2500    11.7237    35.7873
  407.7000   112.3452  -999.2500    11.6232    36.1300
  407.8000   112.2084  -999.2500    11.4879    36.3053
  407.9000   112.2066  -999.2500    11.3479    36.0528
  408.0000   112.2048  -999.2500    11.1319    35.4477
  408.1000   112.2028  -999.2500    10.9572    34.2166
  408.2000   112.2012  -999.2500    10.7669    32.4199
  408.3000   112.1994  -999.2500    10.6119    30.4066
  408.4000   112.1976  -999.2500    10.5294    28.3290
  408.5000   112.1075  -999.2500    10.5289    25.6340
  408.6000   111.8928  -999.2500    10.5285    22.4981
  408.7000   111.8909  -999.2500    10.5871    20.3994
