~VERSION INFORMATION
 VERS.                2.0:   CWLS LOG ASCII STANDARD - VERSION 2.0
 WRAP.                 NO:   ONE LINE PER DEPTH STEP
~WELL INFORMATION
#MNEM.UNIT      DATA TYPE    INFORMATION
#----------   ------------   ------------------------------
 STRT.F           30.0000:   START DEPTH
 STOP.F         2441.0000:   STOP DEPTH
 STEP.F            0.5000:   STEP LENGTH
 NULL.          -999.2500:   NO VALUE
 COMP. FENIX & SCISSON INC:   COMPANY
 WELL.      NPR 3 #81 S-4:   WELL
 FLD .             TEAPOT:   FIELD
 LOC .       S4 T38N R78W:   LOCATION
 CNTY.            NATRONA:   COUNTY
 STAT.            WYOMING:   STATE
 CTRY. UNITED STATES OF AMERICA:   COUNTRY
 SRVC.            Unknown:   SERVICE COMPANY
 DATE.        28-MAR-1978:   LOGDATE
 API .       490251060700:   API NUMBER
~CURVE INFORMATION
#MNEM.UNIT       API CODE    CURVE DESCRIPTION
#----------   ------------   ------------------------------
 DEPT.F                  :   
 CALD.IN     45 280 60 00:   CALIPER
 RHOB.G/C3   45 350 01 00:   BULK DENSITY
 DPHI.DEC    45 890 12 00:   DENSITY POROSITY SANDSTONE
 CORR.G/C3   45 356 01 00:   DENSITY CORRECTION
 GRD .GAPI   45 310 01 00:   GAMMA RAY FROM DENSITY LOG
~PARAMETER INFORMATION
#MNEM.UNIT          VALUE    DESCRIPTION
#----------   ------------   ------------------------------
 PD  .                 GL:   PERMANENT DATUM
 EPD .F              5169:   ELEVATION PERMANENT DATUM
 LMF .                 KB:   LOG MEASURED FROM
 DAPD.F                10:   FEET ABOVE PERMANENT DATUM
 DMF .                 KB:   DRILLING MEASURED FROM
 EKB .F              5179:   KELLING BUSHING
 EGL .F              5169:   GROUND LEVEL
 DATE.          3-28-1978:   RUN DATE
 RUN .                  1:   RUN NUMBER
 DD  .F              2454:   DEPTH DRILLER
 DL  .F              2443:   DEPTH LOGGER
 BLI .F              2441:   BOTTOM LOG INTERVAL
 TLI .F                40:   TOP LOG INTERVAL
 CS  .IN            9.625:   CASING SIZE
 CBD .F               660:   CASING BOTTOM DRILLER
 CBL .F               660:   CASING BOTTOM LOGGER
 BS  .IN             8.75:   BIT SIZE
 BSD .F              2454:   BIT SIZE AT DEPTH
 DFT .           AIR MIST:   DRILLING FLUID TYPE
 TCS .HRS               2:   TIME CURCULATED STOPPED
 LUN .               2958:   LOGGING UNIT NUMBER
 LUL .               CASP:   LOGGING UNIT LOCATION
 ENGI.             MILLER:   RECORDING ENGINEER
 CLNT.            A2DTECH:   CLIENT CODE
 ORIG.       2"  5" PRINT:   ORIGIN OF DATA
 UWI .       490251060700:   UNIQUE WELL ID
 DICO. A2D Technologies, Inc.:   DIGITIZING COMPANY
~OTHER INFORMATION
~A   DEPT     CALD       RHOB       DPHI       CORR        GRD   
# ...
 2287.0000     9.3394     2.4816     0.1046     0.0565   140.1566
 2287.5000     9.3522     2.4330     0.1127     0.0525   141.8326
 2288.0000     9.3656     2.4500     0.1186     0.0416   147.5594
 2288.5000     9.3793     2.4693     0.1130     0.0573   150.1310
 2289.0000     9.3747     2.4532     0.1232     0.0720   148.5380
 2289.5000     9.3687     2.4296     0.1327     0.0496   146.8531
 2290.0000     9.3628     2.4397     0.1359     0.0157   147.2094
 2290.5000     9.3569     2.4548     0.1114     0.0195   154.8335
 2291.0000     9.3510     2.4641     0.1060     0.0346   163.0781
 2291.5000     9.3452     2.4508     0.1178     0.0372   166.1094
 2292.0000     9.3402     2.4391     0.1313     0.0225   163.3516
 2292.5000     9.3403     2.4699     0.1171     0.0020   158.7583
 2293.0000     9.3403     2.4948     0.0937     0.0285   154.2331
 2293.5000     9.3403     2.5074     0.0854     0.0493   154.0489
 2294.0000     9.3403     2.5175     0.0801     0.0598   152.7677
 2294.5000     9.3403     2.5064     0.0906     0.0625   146.2688
 2295.0000     9.3403     2.5011     0.0778     0.0551   141.4045
 2295.5000     9.3403     2.5393     0.0669     0.0540   143.3196
 2296.0000     9.3403     2.5511     0.0579     0.0664   146.5999
 2296.5000     9.3403     2.5608     0.0615     0.0760   149.9055
 2297.0000     9.3403     2.5528     0.0623     0.0750   153.2243
 2297.5000     9.3403     2.5490     0.0692     0.0742   155.6743
 2298.0000     9.3403     2.5360     0.0703     0.0714   155.6131
 2298.5000     9.3403     2.5194     0.0691     0.0676   155.2281
 2299.0000     9.3423     2.4955     0.0883     0.0552   154.8869
 2299.5000     9.3510     2.4905     0.0981     0.0325   152.4032
 2300.0000     9.3594     2.4906     0.1020     0.0103   149.1622
 2300.5000     9.3677     2.4920     0.0985     0.0079   146.6688
 2301.0000     9.3761     2.4934     0.0938     0.0072   146.7074
 2301.5000     9.3845     2.4915     0.1018     0.0065   147.2183
 2302.0000     9.3928     2.4877     0.0994     0.0058   147.7697
 2302.5000     9.3991     2.4886     0.0982     0.0046   147.0299
 2303.0000     9.3936     2.4890     0.1032     0.0033   145.3359
 2303.5000     9.3883     2.4726     0.1082     0.0021   143.5783
 2304.0000     9.3830     2.4712     0.1098     0.0008   143.3276
 2304.5000     9.3777     2.4849     0.1010    -0.0004   143.8916
 2305.0000     9.3724     2.4891     0.0925    -0.0016   144.2490
 2305.5000     9.3672     2.5032     0.0992    -0.0029   144.4730
 2306.0000     9.3619     2.5040     0.0904    -0.0041   142.7079
 2306.5000     9.3566     2.4860     0.0998    -0.0053   141.0382
 2307.0000     9.3513     2.4796     0.0994    -0.0044   143.4203
 2307.5000     9.3459     2.4894     0.0961    -0.0012   148.8022
 2308.0000     9.3406     2.5016     0.0904     0.0020   156.1099
 2308.5000     9.3454     2.5063     0.0860     0.0053   159.3255
 2309.0000     9.3510     2.5112     0.0842     0.0078   158.5850
 2309.5000     9.3566     2.5123     0.0893     0.0055   157.9040
 2310.0000     9.3622     2.4978     0.0959     0.0034   158.2913
 2310.5000     9.3678     2.4832     0.1024     0.0013   158.6973
 2311.0000     9.3734     2.4777     0.1049    -0.0002   159.1080
 2311.5000     9.3790     2.4801     0.1034    -0.0007   159.5430
 2312.0000     9.3812     2.4802     0.1062    -0.0012   159.6897
 2312.5000     9.3826     2.4799     0.1043    -0.0017   154.5434
 2313.0000     9.3840     2.4875     0.0986    -0.0022   149.2983
 2313.5000     9.3855     2.4952     0.1026    -0.0027   144.0542
 2314.0000     9.3869     2.4980     0.0970    -0.0032   140.7095
 2314.5000     9.3883     2.4871     0.1022    -0.0037   138.3421
 2315.0000     9.3897     2.4781     0.1073    -0.0044   137.7904
 2315.5000     9.3912     2.4737     0.1078    -0.0059   136.9847
 2316.0000     9.3926     2.4657     0.1098    -0.0073   137.3857
 2316.5000     9.3941     2.4613     0.1126    -0.0084   138.9796
 2317.0000     9.3955     2.4665     0.1120    -0.0092   137.1086
 2317.5000     9.3969     2.4684     0.1113    -0.0099   133.3386
 2318.0000     9.3984     2.4676     0.1081    -0.0078   129.5331
 2318.5000     9.3997     2.4797     0.1001    -0.0043   126.2211
 2319.0000     9.4024     2.4993     0.0940     0.0046   126.2232
 2319.5000     9.4064     2.5060     0.0907     0.0132   135.4891
 2320.0000     9.4105     2.4756     0.1082     0.0180   149.1434
 2320.5000     9.4146     2.4649     0.1141     0.0157   161.6687
 2321.0000     9.4187     2.4483     0.1309     0.0127   159.2109
 2321.5000     9.4228     2.4316     0.1365     0.0004   155.3702
 2322.0000     9.4270     2.4235     0.1397    -0.0071   151.2682
 2322.5000     9.4311     2.4236     0.1333    -0.0101   150.8203
 2323.0000     9.4353     2.4386     0.1263    -0.0077   151.1801
 2323.5000     9.4390     2.4486     0.1253    -0.0059   150.8216
 2324.0000     9.4275     2.4322     0.1320    -0.0079   150.3684
 2324.5000     9.4148     2.4325     0.1349    -0.0100   150.8299
 2325.0000     9.4022     2.4416     0.1236    -0.0086   156.2854
 2325.5000     9.3934     2.4573     0.1154    -0.0005   160.6296
 2326.0000     9.3855     2.4730     0.1072     0.0075   155.9345
 2326.5000     9.3775     2.4788     0.1062     0.0117   154.5037
 2327.0000     9.3696     2.4649     0.1133     0.0015   153.2838
 2327.5000     9.3617     2.4620     0.1202    -0.0061   150.3584
 2328.0000     9.3537     2.4691     0.1074    -0.0060   149.2658
 2328.5000     9.3459     2.4710     0.1098    -0.0054   148.4682
 2329.0000     9.3428     2.4688     0.1072    -0.0030   148.4587
 2329.5000     9.3517     2.4795     0.1090    -0.0006   149.1367
 2330.0000     9.3605     2.4721     0.1137    -0.0010   150.6776
 2330.5000     9.3692     2.4695     0.1158    -0.0061   154.0824
 2331.0000     9.3780     2.4686     0.1191    -0.0060   157.4080
 2331.5000     9.3867     2.4543     0.1274    -0.0079   159.6690
 2332.0000     9.3954     2.4378     0.1287    -0.0199   149.9522
 2332.5000     9.4042     2.4443     0.1321    -0.0203   141.9157
 2333.0000     9.4129     2.4565     0.1055    -0.0114   141.5839
 2333.5000     9.4196     2.4905     0.0982     0.0025   143.8660
 2334.0000     9.4187     2.5061     0.0882     0.0179   145.0565
 2334.5000     9.4180     2.5120     0.0846     0.0216   140.0744
 2335.0000     9.4172     2.5109     0.0929     0.0236   135.9407
 2335.5000     9.4165     2.4805     0.1006     0.0145   131.8026
 2336.0000     9.4158     2.4952     0.1014     0.0102   130.0362
 2336.5000     9.4151     2.5150     0.0850     0.0183   131.9594
 2337.0000     9.4143     2.5130     0.0854     0.0219   134.4062
 2337.5000     9.4136     2.5103     0.0859     0.0220   136.8604
 2338.0000     9.4129     2.5195     0.0862     0.0220   138.8828
 2338.5000     9.4122     2.5288     0.0738     0.0244   136.1032
 2339.0000     9.4114     2.5156     0.0885     0.0270   132.7684
 2339.5000     9.4107     2.4922     0.1036     0.0200   127.4998
 2340.0000     9.4100     2.4685     0.1198     0.0068   122.2811
 2340.5000     9.4092     2.4656     0.1137     0.0026   118.1581
 2341.0000     9.4085     2.4773     0.1042     0.0051   118.5391
 2341.5000     9.4078     2.4869     0.0966     0.0076   118.9905
 2342.0000     9.4071     2.4979     0.0914     0.0102   119.4485
 2342.5000     9.4063     2.5088     0.0846     0.0122   119.9010
 2343.0000     9.4056     2.5199     0.0958     0.0128   117.9577
 2343.5000     9.4049     2.5191     0.0802     0.0134   115.8265
 2344.0000     9.4041     2.5043     0.0979     0.0151   113.7072
 2344.5000     9.4034     2.4996     0.0940     0.0238   112.2837
 2345.0000     9.4027     2.5066     0.0899     0.0324   112.9773
 2345.5000     9.4019     2.5143     0.0852     0.0385   115.2261
 2346.0000     9.4012     2.5254     0.0783     0.0399   120.0274
 2346.5000     9.4005     2.5376     0.0703     0.0414   123.8358
 2347.0000     9.3999     2.5427     0.0659     0.0409   122.6108
 2347.5000     9.4018     2.5438     0.0639     0.0393   120.5863
