~VERSION INFORMATION
 VERS.                2.0:   CWLS LOG ASCII STANDARD - VERSION 2.0
 WRAP.                 NO:   ONE LINE PER DEPTH STEP
~WELL INFORMATION
#MNEM.UNIT      DATA TYPE    INFORMATION
#----------   ------------   ------------------------------
 STRT.F          442.0000:   START DEPTH
 STOP.F         2636.0000:   STOP DEPTH
 STEP.F            0.5000:   STEP LENGTH
 NULL.          -999.2500:   NO VALUE
 COMP. FENIX & SCISSON INC:   COMPANY
 WELL.     25 SHX 2 #25-2:   WELL
 FLD .             TEAPOT:   FIELD
 LOC .       S2 T38N R78W:   LOCATION
 CNTY.            NATRONA:   COUNTY
 STAT.            WYOMING:   STATE
 CTRY. UNITED STATES OF AMERICA:   COUNTRY
 SRVC.              Welex:   SERVICE COMPANY
 DATE.        07-JUN-1980:   LOGDATE
 API .       490251080200:   API NUMBER
~CURVE INFORMATION
#MNEM.UNIT       API CODE    CURVE DESCRIPTION
#----------   ------------   ------------------------------
 DEPT.F                  :   
 CALD.IN     45 280 60 00:   CALIPER
 GRD .GAPI   45 310 01 00:   GAMMA RAY FROM DENSITY LOG
 DPHI.DEC    45 890 12 00:   DENSITY POROSITY SANDSTONE
 CORR.G/C3   45 356 01 00:   DENSITY CORRECTION
 RHOB.G/C3   45 350 01 00:   BULK DENSITY
~PARAMETER INFORMATION
#MNEM.UNIT          VALUE    DESCRIPTION
#----------   ------------   ------------------------------
 PD  .                 GL:   PERMANENT DATUM
 EPD .F              5120:   ELEVATION PERMANENT DATUM
 LMF .                 KB:   LOG MEASURED FROM
 DAPD.F                10:   FEET ABOVE PERMANENT DATUM
 DMF .                 KB:   DRILLING MEASURED FROM
 EKB .F              5130:   KELLING BUSHING
 EGL .F              5120:   GROUND LEVEL
 DATE.             6-7-80:   RUN DATE
 RUN .                  1:   RUN NUMBER
 DD  .F              2652:   DEPTH DRILLER
 DL  .F              2638:   DEPTH LOGGER
 BLI .F              2636:   BOTTOM LOG INTERVAL
 TLI .F              1224:   TOP LOG INTERVAL
 BS  .IN             6.75:   BIT SIZE
 BSD .F              2652:   BIT SIZE AT DEPTH
 DFT .        AIR DRILLED:   DRILLING FLUID TYPE
 TCS .HRS               2:   TIME CURCULATED STOPPED
 MRT .F               125:   MAXIMUM RECORDED TEMPERATURE
 ENGI.               REIN:   RECORDING ENGINEER
 WITN.           DINSMORE:   WITNESSED BY
 CLNT.            A2DTECH:   CLIENT CODE
 ORIG.           5" PRINT:   ORIGIN OF DATA
 UWI .       490251080200:   UNIQUE WELL ID
 DICO. A2D Technologies, Inc.:   DIGITIZING COMPANY
~OTHER INFORMATION
~A   DEPT     CALD         GRD      DPHI       CORR       RHOB   
# ...
 2089.0000     8.8852   102.5073     0.1674    -0.0287     2.3518
 2089.5000     8.8847   102.3470     0.1646    -0.0320     2.3498
 2090.0000     8.8842   102.1582     0.1576    -0.0169     2.3700
 2090.5000     8.8837   102.2954     0.1476     0.0016     2.3879
 2091.0000     8.8832   102.4251     0.1411     0.0201     2.4058
 2091.5000     8.8827   102.4001     0.1332     0.0374     2.4236
 2092.0000     8.8822   102.1733     0.1253     0.0506     2.4414
 2092.5000     8.8816   102.1658     0.1173     0.0641     2.4536
 2093.0000     8.8811   102.2419     0.1116     0.0614     2.4554
 2093.5000     8.8806   102.1386     0.1169     0.0514     2.4456
 2094.0000     8.8801   101.5713     0.1211     0.0497     2.4348
 2094.5000     8.8796   101.8699     0.1235     0.0316     2.4289
 2095.0000     8.8791   102.8557     0.1206     0.0367     2.4377
 2095.5000     8.8786   102.9930     0.1171     0.0507     2.4444
 2096.0000     8.8781   103.1092     0.1207     0.0416     2.4337
 2096.5000     8.8776   103.6558     0.1243     0.0336     2.4277
 2097.0000     8.8771   103.5196     0.1198     0.0422     2.4425
 2097.5000     8.8766   103.3411     0.1190     0.0501     2.4405
 2098.0000     8.8761   103.6846     0.1162     0.0566     2.4431
 2098.5000     8.8756   104.3058     0.1096     0.0655     2.4598
 2099.0000     8.8750   105.3565     0.1096     0.0695     2.4664
 2099.5000     8.8745   106.3933     0.1157     0.0561     2.4492
 2100.0000     8.8740   107.4250     0.1228     0.0434     2.4322
 2100.5000     8.8735   108.4603     0.1292     0.0324     2.4168
 2101.0000     8.8730   109.5275     0.1283     0.0385     2.4188
 2101.5000     8.8725   110.1619     0.1258     0.0471     2.4244
 2102.0000     8.8720   109.4082     0.1219     0.0562     2.4365
 2102.5000     8.8715   107.4798     0.1152     0.0720     2.4542
 2103.0000     8.8710   105.4695     0.1096     0.0866     2.4710
 2103.5000     8.8705   103.4600     0.1107     0.0821     2.4701
 2104.0000     8.8700   102.2405     0.1160     0.0697     2.4495
 2104.5000     8.8695   100.9832     0.1238     0.0575     2.4317
 2105.0000     8.8690    99.7226     0.1283     0.0492     2.4258
 2105.5000     8.8685    98.4616     0.1301     0.0435     2.4205
 2106.0000     8.8680    97.2038     0.1327     0.0379     2.4060
 2106.5000     8.8674    95.9342     0.1335     0.0326     2.4057
 2107.0000     8.8669    95.4789     0.1310     0.0344     2.4218
 2107.5000     8.8669    95.5630     0.1279     0.0395     2.4383
 2108.0000     8.8669    95.8259     0.1251     0.0445     2.4520
 2108.5000     8.8671    96.7931     0.1252     0.0480     2.4478
 2109.0000     8.8669    97.7576     0.1254     0.0458     2.4401
 2109.5000     8.8582    98.0973     0.1258     0.0439     2.4325
 2110.0000     8.8108    98.4092     0.1252     0.0462     2.4254
 2110.5000     8.7642    98.7230     0.1258     0.0564     2.4359
 2111.0000     8.7172    99.0418     0.1304     0.0522     2.4365
 2111.5000     8.7230    99.0892     0.1355     0.0456     2.4196
 2112.0000     8.7380    98.9858     0.1440     0.0283     2.4090
 2112.5000     8.7455    99.3178     0.1540     0.0114     2.3833
 2113.0000     8.7248    99.8620     0.1642    -0.0056     2.3586
 2113.5000     8.7053   100.4134     0.1687    -0.0146     2.3460
 2114.0000     8.6985   100.9235     0.1573     0.0228     2.3771
 2114.5000     8.7347   101.0449     0.1426     0.0531     2.4004
 2115.0000     8.7697   101.1532     0.1364     0.0672     2.4197
 2115.5000     8.8042   101.2610     0.1330     0.0771     2.4256
 2116.0000     8.8083   101.1865     0.1387     0.0679     2.4155
 2116.5000     8.8083   100.8844     0.1331     0.0769     2.4205
 2117.0000     8.8082   100.0731     0.1322     0.0883     2.4231
 2117.5000     8.8082    99.2848     0.1287     0.1001     2.4354
 2118.0000     8.8082    98.5120     0.1352     0.0922     2.4183
 2118.5000     8.8082    97.9189     0.1357     0.1101     2.4117
 2119.0000     8.8082    97.7874     0.1320     0.1293     2.4261
 2119.5000     8.8080    97.6411     0.1379     0.1268     2.4081
 2120.0000     8.8168    97.9336     0.1480     0.1139     2.3980
 2120.5000     8.8284    98.7374     0.1496     0.1136     2.3749
 2121.0000     8.8396    99.8356     0.1510     0.1228     2.3850
 2121.5000     8.8347   100.9299     0.1606     0.1223     2.3639
 2122.0000     8.7973   102.0278     0.1579     0.1327     2.3767
 2122.5000     8.7604   102.8517     0.1554     0.1427     2.3731
 2123.0000     8.7235   103.4874     0.1517     0.1400     2.3848
 2123.5000     8.6867   104.1168     0.1460     0.1220     2.3940
 2124.0000     8.6924   104.7469     0.1431     0.0970     2.4080
 2124.5000     8.7481   105.4407     0.1437     0.0692     2.3965
 2125.0000     8.8033   106.4295     0.1578     0.0413     2.3720
 2125.5000     8.8483   107.6927     0.1704     0.0169     2.3450
 2126.0000     8.8403   109.0038     0.1658     0.0288     2.3655
 2126.5000     8.8329   109.9210     0.1630     0.0327     2.3593
 2127.0000     8.8257   109.9941     0.1602     0.0402     2.3537
 2127.5000     8.8185   109.7698     0.1542     0.0513     2.3753
 2128.0000     8.8113   109.2527     0.1497     0.0592     2.3884
 2128.5000     8.8041   108.0067     0.1522     0.0569     2.3793
 2129.0000     8.7969   106.7731     0.1564     0.0523     2.3695
 2129.5000     8.7896   105.6809     0.1598     0.0490     2.3654
 2130.0000     8.7915   105.0186     0.1595     0.0463     2.3668
 2130.5000     8.7949   104.3577     0.1630     0.0406     2.3629
 2131.0000     8.7982   103.6952     0.1610     0.0441     2.3632
 2131.5000     8.8016   103.1058     0.1559     0.0534     2.3749
 2132.0000     8.8049   103.2814     0.1492     0.0629     2.3880
 2132.5000     8.8083   103.4664     0.1427     0.0711     2.3990
 2133.0000     8.8117   103.3467     0.1451     0.0744     2.4020
 2133.5000     8.8150   102.7359     0.1409     0.0765     2.4086
 2134.0000     8.8184   101.9613     0.1403     0.0673     2.4009
 2134.5000     8.8217   101.1616     0.1489     0.0565     2.3920
 2135.0000     8.8251   101.0294     0.1534     0.0456     2.3829
 2135.5000     8.8284   100.9187     0.1463     0.0522     2.3767
 2136.0000     8.8318   100.0594     0.1422     0.0604     2.3901
 2136.5000     8.8351    99.1184     0.1407     0.0645     2.3866
 2137.0000     8.8385    98.1796     0.1383     0.0681     2.4106
 2137.5000     8.8419    97.2572     0.1414     0.0611     2.4003
 2138.0000     8.8453    96.5498     0.1462     0.0543     2.3965
 2138.5000     8.8470    95.8271     0.1530     0.0475     2.3804
 2139.0000     8.8297    95.1018     0.1483     0.0571     2.3873
 2139.5000     8.8111    94.3704     0.1476     0.0625     2.3892
 2140.0000     8.7922    93.6806     0.1527     0.0657     2.3865
 2140.5000     8.7906    94.1800     0.1506     0.0648     2.3875
 2141.0000     8.7938    95.4999     0.1516     0.0584     2.3726
 2141.5000     8.7971    97.3113     0.1582     0.0534     2.3790
 2142.0000     8.8004    99.2228     0.1493     0.0617     2.3890
 2142.5000     8.8037   101.5818     0.1431     0.0692     2.3991
 2143.0000     8.8070   103.8471     0.1459     0.0735     2.4068
 2143.5000     8.8086   104.7466     0.1412     0.0713     2.3998
 2144.0000     8.8093   105.5908     0.1452     0.0701     2.3941
 2144.5000     8.8099   106.5587     0.1405     0.0805     2.4050
 2145.0000     8.8106   108.0703     0.1367     0.0896     2.4140
 2145.5000     8.8112   109.5587     0.1436     0.0803     2.3997
 2146.0000     8.8119   111.0398     0.1475     0.0805     2.3952
 2146.5000     8.8125   112.2257     0.1427     0.0935     2.3995
 2147.0000     8.8132   112.4607     0.1479     0.0817     2.3923
 2147.5000     8.8139   112.7131     0.1490     0.0704     2.3871
 2148.0000     8.8145   112.4831     0.1525     0.0762     2.3843
 2148.5000     8.8152   112.2244     0.1565     0.0810     2.3780
 2149.0000     8.8158   110.7900     0.1632     0.0588     2.3594
 2149.5000     8.8165   109.4140     0.1686     0.0622     2.3460
