~VERSION INFORMATION
 VERS.                2.0:   CWLS LOG ASCII STANDARD - VERSION 2.0
 WRAP.                 NO:   ONE LINE PER DEPTH STEP
~WELL INFORMATION
#MNEM.UNIT      DATA TYPE    INFORMATION
#----------   ------------   ------------------------------
 STRT.F           20.0000:   START DEPTH
 STOP.F          468.0000:   STOP DEPTH
 STEP.F            0.1000:   STEP LENGTH
 NULL.          -999.2500:   NO VALUE
 COMP. LAWRENCE/ALLISON INC:   COMPANY
 WELL.    63-51 SX #10-10:   WELL
 FLD .             TEAPOT:   FIELD
 LOC .      S10 T38N R78W:   LOCATION
 CNTY.            NATRONA:   COUNTY
 STAT.            WYOMING:   STATE
 CTRY. UNITED STATES OF AMERICA:   COUNTRY
 SRVC.           Gearhart:   SERVICE COMPANY
 DATE.        01-OCT-1988:   LOGDATE
 API .       490251125100:   API NUMBER
~CURVE INFORMATION
#MNEM.UNIT       API CODE    CURVE DESCRIPTION
#----------   ------------   ------------------------------
 DEPT.F                  :   
 GRR .GAPI   07 310 01 00:   GAMMA RAY
 RILD.OHMM   07 120 46 00:   INDUCTION LOG DEEP RESISTIVITY
 RILM.OHMM   07 120 44 00:   INDUCTION LOG MEDIUM RESISTIVITY
~PARAMETER INFORMATION
#MNEM.UNIT          VALUE    DESCRIPTION
#----------   ------------   ------------------------------
 PD  .                 GL:   PERMANENT DATUM
 EPD .F              5157:   ELEVATION PERMANENT DATUM
 LMF .                 KB:   LOG MEASURED FROM
 DAPD.F                 5:   FEET ABOVE PERMANENT DATUM
 DMF .                 KB:   DRILLING MEASURED FROM
 EKB .F              5162:   KELLING BUSHING
 EGL .F              5157:   GROUND LEVEL
 DATE.        01-OCT-1988:   RUN DATE
 RUN .                  1:   RUN NUMBER
 DD  .F               475:   DEPTH DRILLER
 DL  .F               476:   DEPTH LOGGER
 BLI .F               468:   BOTTOM LOG INTERVAL
 TLI .F                20:   TOP LOG INTERVAL
 CS  .IN            9.625:   CASING SIZE
 CBD .F                45:   CASING BOTTOM DRILLER
 CBL .F                46:   CASING BOTTOM LOGGER
 BS  .IN             7.87:   BIT SIZE
 BSD .F               475:   BIT SIZE AT DEPTH
 TLAB.HRS            1630:   TIME LOGGER AT BOTTOM
 MRT .F                75:   MAXIMUM RECORDED TEMPERATURE
 LUN .               7597:   LOGGING UNIT NUMBER
 LUL .           GILLETTE:   LOGGING UNIT LOCATION
 ENGI.              BENCK:   RECORDING ENGINEER
 WITN.             STRONG:   WITNESSED BY
 CLNT.            A2DTECH:   CLIENT CODE
 ORIG.           5" PRINT:   ORIGIN OF DATA
 UWI .       490251125100:   UNIQUE WELL ID
 DICO. A2D Technologies, Inc.:   DIGITIZING COMPANY
~OTHER INFORMATION
~A   DEPT       GRR      RILD       RILM   
# ...
  256.6000    78.8592    40.0444    39.2942
  256.7000    78.8605    40.0438    39.4414
  256.8000    78.8414    40.0245    39.4409
  256.9000    78.5578    39.7609    39.4402
  257.0000    78.5588    39.5741    39.2552
  257.1000    78.5600    39.4803    39.1623
  257.2000    78.5612    39.4057    39.0884
  257.3000    78.5624    39.1832    38.8862
  257.4000    78.5639    38.9252    38.8855
  257.5000    78.5649    38.7422    38.8850
  257.6000    78.5661    38.6504    38.7571
  257.7000    78.5673    38.5774    38.5387
  257.8000    78.5686    38.3775    38.3393
  257.9000    78.5700    38.3769    38.3386
  258.0000    78.5710    38.1965    38.3381
  258.1000    78.5722    37.9809    38.2120
  258.2000    78.5734    37.7665    38.0679
  258.3000    78.5950    37.5533    38.0496
  258.4000    78.8814    37.3060    37.7994
  258.5000    79.0860    37.3055    37.6220
  258.6000    79.1890    37.1826    37.4100
  258.7000    79.2716    36.9727    37.2689
  258.8000    79.5171    36.7639    37.2510
  258.9000    79.8036    36.5218    37.0061
  259.0000    80.0081    36.3502    36.8325
  259.1000    80.2536    36.2640    36.6249
  259.2000    80.4991    36.1956    36.4184
  259.3000    80.7243    35.9911    36.2130
  259.4000    80.7257    35.7541    35.9750
  259.5000    80.9303    35.4197    35.8062
  259.6000    81.0333    35.2521    35.6044
  259.7000    81.0345    35.1855    35.4038
  259.8000    81.0154    34.9705    35.2041
  259.9000    80.7318    34.5120    34.9726
  260.0000    80.5293    34.3498    34.8085
  260.1000    80.4287    34.2684    34.4994
  260.2000    80.3485    34.1399    34.2396
  260.3000    80.1055    33.7714    34.2073
  260.4000    79.8219    33.5489    33.7595
  260.5000    79.8229    33.3913    33.6011
  260.6000    79.6817    33.3121    33.4117
  260.7000    79.4386    33.1872    33.2234
  260.8000    79.2158    32.8289    33.0360
  260.9000    79.2173    32.6128    32.8188
  261.0000    79.0148    32.4595    32.5123
  261.1000    78.9142    32.3826    32.3587
  261.2000    78.9154    32.2612    32.2376
  261.3000    78.9166    31.9128    31.8901
  261.4000    78.9181    31.7027    31.6804
  261.5000    78.9191    31.5537    31.5318
  261.6000    79.0628    31.4789    31.3541
  261.7000    79.2269    31.3609    31.1773
  261.8000    79.2281    31.0223    30.9871
  261.9000    79.2295    30.8181    30.5814
  262.0000    79.4341    30.6733    30.4379
  262.1000    79.6796    30.5001    30.1676
  262.2000    79.9251    30.3279    29.8844
  262.3000    80.1705    30.1567    29.7021
  262.4000    80.4570    29.9581    29.3133
  262.5000    80.8650    29.8173    29.0395
  262.6000    81.3548    29.5521    28.7136
  262.7000    81.8446    29.2743    28.4440
  262.8000    82.3502    29.1089    28.2837
  262.9000    83.0306    28.9173    28.0977
  263.0000    83.7110    28.6468    27.8353
  263.1000    84.3915    28.4177    27.5229
  263.2000    85.0719    28.2046    27.2138
  263.3000    85.7524    27.9001    26.9204
  263.4000    86.4328    27.7164    26.7434
  263.5000    87.1132    27.4571    26.6180
  263.6000    87.7937    27.2375    26.3816
  263.7000    88.4741    27.0837    26.0853
  263.8000    89.1545    26.9183    25.8041
  263.9000    89.8350    26.5653    25.6344
  264.0000    90.5154    26.5650    25.3950
  264.1000    91.1959    26.4774    25.1922
  264.2000    91.8763    26.2789    25.0502
  264.3000    92.5567    25.9952    24.8974
  264.4000    93.2372    25.8240    24.5714
  264.5000    93.9176    25.8237    24.4562
  264.6000    94.1630    25.7386    24.3983
  264.7000    94.4085    25.6414    24.3069
  264.8000    94.5319    25.6290    24.0449
  264.9000    94.5331    25.4603    23.8868
  265.0000    94.5343    25.4600    23.7748
  265.1000    94.5356    25.4596    23.7185
  265.2000    94.5368    25.4116    23.7181
  265.3000    94.5380    25.2799    23.7067
  265.4000    94.5392    25.2794    23.5509
  265.5000    94.5405    25.2791    23.5506
  265.6000    94.2974    25.1958    23.4731
  265.7000    94.2376    25.1006    23.3846
  265.8000    94.1166    25.1003    23.3842
  265.9000    93.9346    25.0998    23.3838
  266.0000    93.9359    25.0995    23.3835
  266.1000    93.6929    25.0992    23.3832
  266.2000    93.6330    25.0989    23.3391
  266.3000    93.5121    25.0867    23.2184
  266.4000    93.3301    24.9216    23.2180
  266.5000    93.3313    24.9213    23.2177
  266.6000    93.0883    24.9209    23.1413
  266.7000    92.8452    24.9206    23.0540
  266.8000    92.6021    24.9202    23.0537
  266.9000    92.3590    24.9198    23.0533
  267.0000    92.1160    24.9195    23.0530
  267.1000    91.8730    24.9192    23.0527
  267.2000    91.4467    24.9658    23.0524
  267.3000    90.9594    25.0950    23.0521
  267.4000    90.4721    25.0945    23.0517
  267.5000    89.9847    25.0942    23.0514
  267.6000    89.2531    25.0939    23.0511
  267.7000    88.7047    25.0936    23.0508
  267.8000    88.0953    25.0932    23.0505
  267.9000    87.3637    25.0928    23.0501
  268.0000    86.6321    25.0925    23.0498
  268.1000    85.6562    25.0921    23.0495
  268.2000    84.6803    25.0918    23.0492
  268.3000    83.9487    25.0914    23.0489
  268.4000    83.4614    25.0910    23.0485
  268.5000    82.9740    25.0907    23.0482
  268.6000    82.9753    25.0904    23.0478
  268.7000    82.9765    25.0900    23.0475
  268.8000    83.0999    25.0897    23.0580
  268.9000    83.3454    25.0892    23.2098
  269.0000    83.5908    25.0889    23.2095
  269.1000    84.0806    25.0886    23.2092
  269.2000    84.5704    25.1356    23.2526
  269.3000    85.0602    25.2656    23.3727
  269.4000    85.5499    25.2651    23.3723
  269.5000    86.0397    25.2648    23.4822
  269.6000    86.7738    25.2645    23.5370
  269.7000    87.3246    25.2641    23.5810
  269.8000    87.9365    25.2757    23.7028
  269.9000    88.6094    25.4423    23.7024
  270.0000    89.0992    25.4420    23.7021
  270.1000    89.5890    25.4416    23.7018
  270.2000    89.8956    25.4893    23.7014
  270.3000    90.2632    25.6211    23.7122
  270.4000    90.6919    25.6207    23.8683
  270.5000    90.9374    25.7413    23.8680
  270.6000    91.4272    25.8015    23.8677
  270.7000    91.9169    25.8011    23.9124
  270.8000    92.2846    25.8008    24.0358
  270.9000    92.5301    25.8003    24.0354
  271.0000    92.7756    25.9218    24.0351
  271.1000    93.2654    25.9824    24.1141
  271.2000    93.5719    25.9820    24.2044
  271.3000    93.8174    25.9939    24.2155
  271.4000    94.1239    26.1652    24.3748
  271.5000    94.6137    26.1649    24.3745
  271.6000    94.8592    26.1646    24.3742
  271.7000    95.1047    26.1642    24.3739
  271.8000    95.3502    26.1762    24.3736
  271.9000    95.5957    26.3487    24.3731
  272.0000    95.8412    26.3484    24.4877
  272.1000    96.0867    26.3480    24.5449
  272.2000    96.1490    26.3477    24.5445
  272.3000    96.2724    26.3473    24.5442
  272.4000    96.4568    26.3468    24.5438
  272.5000    96.4580    26.3465    24.5435
  272.6000    96.2150    26.3462    24.6241
  272.7000    96.1551    26.3458    24.7164
  272.8000    96.0342    26.3454    24.7160
  272.9000    95.7301    26.3450    24.7156
  273.0000    95.2427    26.3447    24.7153
  273.1000    94.7554    26.3443    24.7149
  273.2000    94.4513    26.2946    24.7146
  273.3000    93.9640    26.1583    24.7027
  273.4000    93.2324    26.1579    24.5403
  273.5000    92.5008    26.1576    24.5400
  273.6000    91.7692    26.1572    24.5397
  273.7000    90.8544    26.1078    24.5393
  273.8000    89.8785    25.9725    24.5275
  273.9000    88.9637    25.9721    24.3663
  274.0000    88.2321    25.9718    24.3660
  274.1000    87.5005    25.8862    24.3656
  274.2000    86.9521    25.7884    24.3653
  274.3000    86.4647    25.7880    24.3536
  274.4000    86.0384    25.7876    24.1934
  274.5000    85.7954    25.7873    24.1931
  274.6000    85.3081    25.7869    24.1136
  274.7000    85.0040    25.7382    24.0226
