~VERSION INFORMATION
 VERS.                2.0:   CWLS LOG ASCII STANDARD - VERSION 2.0
 WRAP.                 NO:   ONE LINE PER DEPTH STEP
~WELL INFORMATION
#MNEM.UNIT      DATA TYPE    INFORMATION
#----------   ------------   ------------------------------
 STRT.F            8.0000:   START DEPTH
 STOP.F          970.0000:   STOP DEPTH
 STEP.F            0.1000:   STEP LENGTH
 NULL.          -999.2500:   NO VALUE
 COMP.       F D SERV INC:   COMPANY
 WELL. N P R 3 STX-35 #15-35:   WELL
 FLD .             TEAPOT:   FIELD
 LOC .      S35 T39N R78W:   LOCATION
 CNTY.            NATRONA:   COUNTY
 STAT.            WYOMING:   STATE
 CTRY. UNITED STATES OF AMERICA:   COUNTRY
 SRVC.     Atlas Wireline:   SERVICE COMPANY
 DATE.        02-FEB-1992:   LOGDATE
 API .       490252250100:   API NUMBER
~CURVE INFORMATION
#MNEM.UNIT       API CODE    CURVE DESCRIPTION
#----------   ------------   ------------------------------
 DEPT.F                  :   
 GRR .GAPI   07 310 01 00:   GAMMA RAY
 RILD.OHMM   07 120 46 00:   INDUCTION LOG DEEP RESISTIVITY
 RILM.OHMM   07 120 44 00:   INDUCTION LOG MEDIUM RESISTIVITY
~PARAMETER INFORMATION
#MNEM.UNIT          VALUE    DESCRIPTION
#----------   ------------   ------------------------------
 PD  .                 GL:   PERMANENT DATUM
 EPD .F              5084:   ELEVATION PERMANENT DATUM
 LMF .                 KB:   LOG MEASURED FROM
 DAPD.F                10:   FEET ABOVE PERMANENT DATUM
 DMF .                 KB:   DRILLING MEASURED FROM
 EKB .F              5094:   KELLING BUSHING
 EDF .F              5093:   DRILLING FLOOR
 EGL .F              5084:   GROUND LEVEL
 DATE.        02-FEB-1982:   RUN DATE
 RUN .                  1:   RUN NUMBER
 DD  .F               980:   DEPTH DRILLER
 CS  .IN            8.625:   CASING SIZE
 BSD .F               980:   BIT SIZE AT DEPTH
 DFT .                AIR:   DRILLING FLUID TYPE
 LUN .            HL-6272:   LOGGING UNIT NUMBER
 LUL .             CASPER:   LOGGING UNIT LOCATION
 ENGI.       R. RASMLSSEN:   RECORDING ENGINEER
 WITN.          G. STRONG:   WITNESSED BY
 CLNT.            A2DTECH:   CLIENT CODE
 ORIG.           5" PRINT:   ORIGIN OF DATA
 UWI .       490252250100:   UNIQUE WELL ID
 DICO. A2D Technologies, Inc.:   DIGITIZING COMPANY
~OTHER INFORMATION
~A    DEPT      GRR      RILD       RILM   
# ...
  899.8000   133.4251     7.7225     7.0168
  899.9000   133.1316     7.6958     7.0175
  900.0000   133.1316     7.6518     7.0310
  900.1000   133.1316     7.6087     7.0477
  900.2000   133.1316     7.5656     7.0644
  900.3000   133.1316     7.5225     7.0812
  900.4000   133.1316     7.4793     7.0979
  900.5000   133.1316     7.4362     7.1147
  900.6000   133.3062     7.3931     7.1190
  900.7000   133.4342     7.3500     7.1195
  900.8000   133.4988     7.3069     7.1200
  900.9000   133.7368     7.2638     7.1205
  901.0000   133.7368     7.2535     7.1210
  901.1000   133.9390     7.2769     7.1598
  901.2000   134.1866     7.3039     7.1715
  901.3000   134.4343     7.3038     7.1720
  901.4000   134.6819     7.3036     7.1853
  901.5000   134.9471     7.3035     7.2229
  901.6000   135.1771     7.3347     7.2234
  901.7000   135.4246     7.3543     7.2238
  901.8000   135.5522     7.3542     7.2243
  901.9000   135.5522     7.3541     7.2249
  902.0000   135.5422     7.3539     7.2254
  902.1000   135.2496     7.3538     7.2259
  902.2000   135.0471     7.3537     7.2265
  902.3000   134.7994     7.3537     7.2269
  902.4000   134.5516     7.3535     7.2274
  902.5000   134.3040     7.3534     7.2279
  902.6000   134.0393     7.3533     7.2284
  902.7000   133.8089     7.3154     7.2289
  902.8000   133.6655     7.3022     7.2295
  902.9000   133.4143     7.3022     7.2299
  903.0000   132.8188     7.3021     7.2304
  903.1000   132.4163     7.3019     7.2142
  903.2000   131.7674     7.3018     7.1813
  903.3000   131.1160     7.2651     7.1819
  903.4000   130.6172     7.2510     7.1824
  903.5000   130.1061     7.2510     7.1829
  903.6000   129.6195     7.2402     7.1834
  903.7000   129.3135     7.2006     7.1689
  903.8000   129.0655     7.2005     7.1347
  903.9000   128.9061     7.2004     7.1353
  904.0000   128.9090     7.2003     7.1358
  904.1000   128.9123     7.1821     7.1363
  904.2000   129.6202     7.1503     7.1368
  904.3000   130.5594     7.1502     7.1373
  904.4000   131.9590     7.1500     7.1378
  904.5000   133.8750     7.1161     7.1383
  904.6000   136.0830     7.1003     7.1015
  904.7000   138.0215     7.1003     7.0613
  904.8000   139.3777     7.1002     7.0214
  904.9000   140.5388     7.0999     6.9816
  905.0000   141.4243     7.0590     6.9453
  905.1000   142.1805     7.0507     6.9459
  905.2000   142.9190     7.0507     6.9463
  905.3000   143.4944     7.0505     6.9468
  905.4000   143.9284     7.0504     6.9472
  905.5000   144.2698     7.0503     6.9477
  905.6000   144.3004     7.0502     6.9482
  905.7000   144.0526     7.0501     6.9488
  905.8000   143.8049     7.0501     6.9826
  905.9000   143.5127     7.0500     6.9980
  906.0000   143.1033     7.0499     7.0154
  906.1000   142.6044     7.0497     7.0563
  906.2000   142.2073     7.0496     7.0973
  906.3000   141.9097     7.0495     7.0977
  906.4000   141.4061     7.0495     7.0982
  906.5000   140.9120     7.0494     7.1227
  906.6000   140.4133     7.0493     7.1486
  906.7000   139.9146     7.0491     7.1491
  906.8000   139.4159     7.0871     7.1496
  906.9000   138.9171     7.0981     7.1501
  907.0000   138.3941     7.0980     7.1506
  907.1000   137.9194     7.0979     7.1511
  907.2000   137.4203     7.0978     7.1516
  907.3000   136.7868     7.0977     7.1521
  907.4000   136.0376     7.0976     7.1526
  907.5000   135.3184     7.0975     7.1531
  907.6000   134.7760     7.0974     7.1536
  907.7000   133.8626     7.1093     7.1751
  907.8000   133.0388     7.1467     7.2044
  907.9000   132.5387     7.1466     7.2048
  908.0000   132.4364     7.1465     7.2054
  908.1000   132.7108     7.1463     7.2058
  908.2000   133.2792     7.1659     7.2063
  908.3000   133.7205     7.1960     7.2068
  908.4000   134.2254     7.1959     7.2073
  908.5000   134.7303     7.1958     7.2078
  908.6000   135.2350     7.2315     7.2084
  908.7000   135.7398     7.2457     7.2089
  908.8000   136.3278     7.2645     7.2094
  908.9000   136.5401     7.2961     7.2099
  909.0000   137.1091     7.2959     7.2104
  909.1000   137.6539     7.2958     7.2109
  909.2000   138.0144     7.3310     7.2115
  909.3000   138.7679     7.3465     7.2119
  909.4000   139.0218     7.3464     7.2124
  909.5000   139.6757     7.3463     7.2129
  909.6000   140.1358     7.3462     7.2212
  909.7000   140.4856     7.3461     7.2641
  909.8000   140.9467     7.3460     7.2646
  909.9000   141.2092     7.3458     7.2651
  910.0000   141.4545     7.3458     7.2656
  910.1000   141.8985     7.3457     7.2661
  910.2000   142.2653     7.3456     7.2666
  910.3000   142.5194     7.3454     7.2671
  910.4000   142.7394     7.3453     7.2676
  910.5000   142.7426     7.3453     7.2681
  910.6000   142.9780     7.3452     7.2687
  910.7000   143.0515     7.3451     7.2692
  910.8000   143.1830     7.3450     7.2697
  910.9000   143.3606     7.3448     7.2702
  911.0000   143.3636     7.3447     7.2706
  911.1000   143.3670     7.3447     7.2711
  911.2000   143.3697     7.3446     7.2716
  911.3000   143.3727     7.3445     7.2721
  911.4000   143.3757     7.3443     7.2726
  911.5000   143.3788     7.3442     7.2732
  911.6000   143.3672     7.3441     7.2736
  911.7000   143.0823     7.3441     7.2469
  911.8000   142.6585     7.3301     7.2244
  911.9000   141.9982     7.2930     7.2249
  912.0000   141.2482     7.2929     7.2254
  912.1000   140.4987     7.2928     7.2260
  912.2000   139.7542     7.2927     7.2264
  912.3000   139.1612     7.2712     7.2269
  912.4000   138.7562     7.2420     7.2274
  912.5000   138.2576     7.2377     7.2196
  912.6000   137.7590     7.1917     7.1784
  912.7000   137.2130     7.1916     7.1789
  912.8000   136.4485     7.1915     7.1794
  912.9000   135.9594     7.1713     7.1799
  913.0000   135.4607     7.1415     7.1652
  913.1000   134.8199     7.1382     7.1312
  913.2000   134.3394     7.0919     7.1318
  913.3000   134.3801     7.0563     7.0933
  913.4000   134.6487     7.0426     7.0532
  913.5000   134.6515     7.0238     7.0133
  913.6000   134.8388     6.9834     6.9869
  913.7000   134.9606     6.9431     6.9824
  913.8000   135.0436     6.8970     6.9396
  913.9000   135.2697     6.8633     6.9401
  914.0000   135.2730     6.7986     6.8844
  914.1000   135.5026     6.7375     6.8453
  914.2000   135.5818     6.6986     6.8344
  914.3000   135.7074     6.6600     6.7957
  914.4000   135.8909     6.6149     6.7525
  914.5000   135.9123     6.5524     6.7190
  914.6000   136.2004     6.5003     6.6810
  914.7000   136.4200     6.4476     6.6432
  914.8000   136.8387     6.3811     6.6057
  914.9000   137.3436     6.3443     6.5665
  915.0000   137.9091     6.3077     6.4800
  915.1000   138.6564     6.2714     6.4493
  915.2000   139.2490     6.2353     6.3897
  915.3000   139.8734     6.1993     6.3172
  915.4000   140.7838     6.1636     6.2531
  915.5000   141.6876     6.1274     6.2172
  915.6000   142.4436     6.0928     6.0905
  915.7000   143.2030     6.0848     6.0352
  915.8000   143.7056     6.0648     5.9667
  915.9000   144.4080     6.0425     5.8860
  916.0000   144.8727     6.0368     5.7858
  916.1000   145.2199     6.0005     5.6843
  916.2000   145.7247     6.0004     5.6218
  916.3000   146.2516     5.9745     5.5580
  916.4000   146.7346     5.9588     5.5299
  916.5000   147.2394     5.9587     5.5413
  916.6000   147.7443     5.9586     5.5736
  916.7000   148.2493     5.9585     5.6083
  916.8000   148.7540     5.9265     5.6387
  916.9000   149.3002     5.9170     5.6716
  917.0000   149.9937     5.9170     5.7047
  917.1000   150.9277     5.9277     5.7380
  917.2000   152.0606     5.9581     5.7747
  917.3000   153.3184     5.9580     5.8491
  917.4000   154.5977     5.9579     5.8795
  917.5000   156.2882     5.9578     5.9138
  917.6000   158.0563     5.9749     5.9647
  917.7000   160.0653     5.9992     6.0245
  917.8000   161.6103     6.0022     6.0597
  917.9000   162.2321     6.0408     6.1002
