~VERSION INFORMATION
 VERS.                2.0:   CWLS LOG ASCII STANDARD - VERSION 2.0
 WRAP.                 NO:   ONE LINE PER DEPTH STEP
~WELL INFORMATION
#MNEM.UNIT      DATA TYPE    INFORMATION
#----------   ------------   ------------------------------
 STRT.F           20.0000:   START DEPTH
 STOP.F          508.0000:   STOP DEPTH
 STEP.F            0.5000:   STEP LENGTH
 NULL.          -999.2500:   NO VALUE
 COMP. FENIX & SCISSON INC:   COMPANY
 WELL.      NPR #3 #45-10:   WELL
 FLD .             TEAPOT:   FIELD
 LOC .      S10 T38N R78W:   LOCATION
 CNTY.            NATRONA:   COUNTY
 STAT.            WYOMING:   STATE
 CTRY. UNITED STATES OF AMERICA:   COUNTRY
 SRVC.              Welex:   SERVICE COMPANY
 DATE.        09-MAY-1980:   LOGDATE
 API .       490251081000:   API NUMBER
~CURVE INFORMATION
#MNEM.UNIT       API CODE    CURVE DESCRIPTION
#----------   ------------   ------------------------------
 DEPT.F                  :   
 SPR .MV     07 010 01 00:   SPONTANEOUS POTENTIAL
 SGRD.OHMM   07 220 05 00:   SHALLOW GUARD RESISTIVITY
 ILD .OHMM   07 120 46 00:   INDUCTION LOG DEEP RESISTIVITY
 ILM .OHMM   07 120 44 00:   INDUCTION LOG MEDIUM
 GRD .GAPI   45 310 01 00:   GAMMA RAY FROM DENSITY LOG
 CALD.IN     45 280 60 00:   CALIPER
 CORR.G/C3   45 356 01 00:   DENSITY CORRECTION
 RHOB.G/C3   45 350 01 00:   BULK DENSITY
 DPHI.DEC    45 890 12 00:   DENSITY POROSITY SANDSTONE
~PARAMETER INFORMATION
#MNEM.UNIT          VALUE    DESCRIPTION
#----------   ------------   ------------------------------
 PD  .                 GL:   PERMANENT DATUM
 EPD .F              5228:   ELEVATION PERMANENT DATUM
 LMF .                 KB:   LOG MEASURED FROM
 DAPD.F                 5:   FEET ABOVE PERMANENT DATUM
 DMF .                 KB:   DRILLING MEASURED FROM
 EKB .F              5233:   KELLING BUSHING
 EGL .F              5228:   GROUND LEVEL
 DATE.             5-9-80:   RUN DATE
 RUN .                  1:   RUN NUMBER
 DD  .F               507:   DEPTH DRILLER
 DL  .F               510:   DEPTH LOGGER
 BLI .F               508:   BOTTOM LOG INTERVAL
 TLI .F                20:   TOP LOG INTERVAL
 BS  .IN            7.875:   BIT SIZE
 BSD .F               507:   BIT SIZE AT DEPTH
 DFT .                KCL:   DRILLING FLUID TYPE
 DFD .                8.9:   DRILLING FLUID DENSITY
 DFV .                 42:   DRILLING FLUID VISCOSITY
 MSS .                PIT:   MUD SAMPLE SOURCE
 RMS .OHMM            .36:   RESISTIVITY MUD SAMPLE
 MST .F                75:   MUD SAMPLE TEMPERATURE
 RMF .OHMM            .29:   RESISTIVITY MUD FILTRATE SAMPLE
 MFST.F                75:   MUD FILTRATE SAMPLE TEMPERATURE
 RMC .OHMM            .43:   RESISTIVITY MUD CAKE
 MCST.F                75:   MUD CAKE SAMPLE TEMPERATURE
 MFSS.           MEASURED:   MUD FILTRATE SAMPLE SOURCE
 MCSS.           MEASURED:   MUD CAKE SAMPLE SOURCE
 TCS .HRS               2:   TIME CURCULATED STOPPED
 MRT .F               100:   MAXIMUM RECORDED TEMPERATURE
 LUN .               9685:   LOGGING UNIT NUMBER
 LUL .             CASPER:   LOGGING UNIT LOCATION
 ENGI.            TOTHILL:   RECORDING ENGINEER
 WITN.           DINSMORE:   WITNESSED BY
 CLNT.            A2DTECH:   CLIENT CODE
 ORIG.         2.5" PRINT:   ORIGIN OF DATA
 UWI .       490251081000:   UNIQUE WELL ID
 DICO. A2D Technologies, Inc.:   DIGITIZING COMPANY
~OTHER INFORMATION
~A   DEPT      SPR       SGRD        ILD        ILM         GRD        CALD       CORR       RHOB       DPHI 
# ...
  202.5000   -44.7840     7.2986     5.9045     6.3131   102.2837     8.0082     0.0587     2.4738     0.1289
  203.0000   -45.0129     7.1359     5.9266     6.3261   103.0260     8.0291     0.0493     2.4614     0.1331
  203.5000   -45.3628     7.1240     5.8811     6.3391   102.4660     8.0497     0.0229     2.4245     0.1378
  204.0000   -45.7062     7.1015     5.8322     6.3522   102.0281     8.0666     0.0000     2.4030     0.1629
  204.5000   -45.9696     7.0792     5.7836     6.3653   102.7911     8.0465     0.0045     2.4005     0.1645
  205.0000   -45.8684     7.0568     5.7355     6.3836   103.6483     8.0281     0.0083     2.3973     0.1650
  205.5000   -45.7873     7.0346     5.6878     6.3481   103.7696     8.0102     0.0130     2.3924     0.1677
  206.0000   -45.6851     7.0124     5.6405     6.1862   103.3751     7.9885     0.0209     2.3984     0.1708
  206.5000   -45.5812     6.9457     5.5650     6.0285   102.6853     7.9848     0.0310     2.4134     0.1617
  207.0000   -45.2918     6.7192     5.4091     5.8748   101.4784     7.9269     0.0329     2.4159     0.1541
  207.5000   -44.9365     6.5002     5.2576     5.7105   100.0568     7.9071     0.0345     2.4192     0.1546
  208.0000   -44.7650     6.2882     5.1103     5.5305    98.6171     7.9316     0.0280     2.4221     0.1535
  208.5000   -45.0538     6.1121     4.9672     5.3375    97.1257     7.9613     0.0161     2.4197     0.1515
  209.0000   -45.4402     5.9974     4.8281     5.1513    96.4013     7.9873     0.0216     2.4299     0.1475
  209.5000   -45.8321     5.5507     4.6928     4.9716    96.4790     7.9878     0.0235     2.4417     0.1409
  210.0000   -45.9944     4.6555     4.4858     4.8315    96.4884     7.9870     0.0069     2.4411     0.1381
  210.5000   -45.7048     3.6570     4.5077     4.9015    97.1506     7.9898     0.0195     2.4442     0.1421
  211.0000   -45.5762     5.4011     4.5614     5.0789    98.0417     7.9871     0.0121     2.4377     0.1382
  211.5000   -45.5803     6.6251     4.6157     5.2629    98.9848     7.9915     0.0145     2.4344     0.1431
  212.0000   -45.5720     6.2661     4.6914     5.4535    99.5438     8.0376     0.0379     2.4548     0.1361
  212.5000   -45.2387     6.4132     4.8245     5.6509    99.4877     7.8979     0.0390     2.4650     0.1262
  213.0000   -44.8705     6.7242     4.9614     5.8554    99.4953     7.9220     0.0290     2.4615     0.1302
  213.5000   -44.4773     7.1169     5.1022     6.0377    99.5023     7.9794     0.0140     2.4469     0.1370
  214.0000   -44.6904     7.0606     5.2471     6.0921    99.4951     8.0535    -0.0001     2.4326     0.1440
  214.5000   -45.1451     6.9654     5.3962     6.1404    99.4974     8.0517     0.0055     2.4297     0.1455
  215.0000   -45.5830     6.8671     5.5495     6.1890    99.4925     8.0262     0.0106     2.4348     0.1437
  215.5000   -45.9349     6.7443     5.7072     6.2380    99.5015     8.0024     0.0137     2.4404     0.1419
  216.0000   -45.9615     6.7538     5.8693     6.2982    99.5082     7.9789     0.0081     2.4402     0.1377
  216.5000   -45.2228     7.0443     5.9275     6.3732    99.9163     7.9543     0.0265     2.4513     0.1314
  217.0000   -45.0479     7.3350     5.9274     6.4491   100.3880     7.9690     0.0184     2.4459     0.1358
  217.5000   -44.8669     7.5734     5.9341     6.5259   100.8520     7.9990     0.0111     2.4392     0.1404
  218.0000   -44.5143     7.6719     5.9574     6.6036   101.3211     8.0273     0.0026     2.4329     0.1446
  218.5000   -43.9409     7.7716     5.9807     6.6822   101.0731     8.0242    -0.0058     2.4313     0.1475
  219.0000   -43.3561     7.8726     6.0042     6.7618   100.6637     8.0188    -0.0139     2.4300     0.1483
  219.5000   -42.8271     7.9769     6.0279     6.8423   100.3009     8.0126    -0.0220     2.4264     0.1491
  220.0000   -42.4571     7.9461     6.0516     6.8758    99.6020     8.0069    -0.0311     2.4244     0.1480
  220.5000   -43.6399     7.9149     6.0755     6.9097    98.7043     8.0012    -0.0274     2.4383     0.1405
  221.0000   -43.9221     7.8837     6.0995     6.9382    97.7403     7.9954    -0.0023     2.4569     0.1298
  221.5000   -43.6553     7.8526     6.1231     6.9668    97.6499     7.9895     0.0093     2.4765     0.1185
  222.0000   -43.5686     7.8302     6.1496     6.9956    97.3129     7.9907    -0.0030     2.4713     0.1185
  222.5000   -43.5740     7.8712     6.1601     7.0244    97.1879     7.9999     0.0056     2.4713     0.1225
  223.0000   -43.5728     7.9179     6.1720     7.0534    98.3399     8.0084     0.0208     2.4846     0.1250
  223.5000   -43.5760     7.9649     6.1832     7.0825    99.4127     8.0164     0.0224     2.4724     0.1275
  224.0000   -43.5386     8.0122     6.1942     7.1118   100.0223     8.0260     0.0076     2.4553     0.1300
  224.5000   -43.4091     8.0598     6.2055     7.1359   100.5987     7.9843     0.0066     2.4505     0.1324
  225.0000   -43.3131     8.1273     6.2170     7.0919   101.2484     7.9261    -0.0033     2.4371     0.1401
  225.5000   -43.2090     8.0436     6.2289     7.0363   100.8304     7.8724    -0.0071     2.4231     0.1507
  226.0000   -43.8232     7.6710     6.2405     6.9811   100.2683     7.9241     0.0003     2.4287     0.1491
  226.5000   -44.7151     7.5436     6.2522     6.9264    99.6514     7.9716     0.0167     2.4426     0.1402
  227.0000   -44.9342     7.7787     6.2653     6.8720    99.5518     8.0255     0.0298     2.4553     0.1318
  227.5000   -45.1359     7.9770     6.2224     6.8181    99.6503     8.0278     0.0155     2.4487     0.1298
  228.0000   -45.3049     7.7380     6.1574     6.7645    99.7373     8.0257     0.0019     2.4188     0.1497
  228.5000   -45.5095     7.4815     6.0932     6.7043    99.8211     8.0174    -0.0012     2.4016     0.1616
  229.0000   -45.5420     7.2718     6.0300     6.5697    99.9175     8.0101     0.0048     2.4011     0.1628
  229.5000   -45.4390     7.4036     5.9646     6.4371    99.9883     8.0031    -0.0042     2.3757     0.1735
  230.0000   -45.3405     7.5447     5.9022     6.3078   100.0760     7.9949    -0.0140     2.3523     0.1855
  230.5000   -45.2446     7.3990     5.8404     6.1811    99.4090     7.9871    -0.0131     2.3415     0.1974
  231.0000   -45.3563     7.0568     5.6320     6.0569    98.5311     7.9662    -0.0038     2.3431     0.1998
  231.5000   -46.0874     6.7305     5.3485     5.9352    97.5829     7.9450    -0.0009     2.3361     0.2012
  232.0000   -46.8399     6.4192     5.0792     5.8160    97.0248     7.9246    -0.0011     2.3235     0.2062
  232.5000   -47.2586     6.1223     4.8235     5.7105    97.0829     7.9099    -0.0127     2.2939     0.2234
  233.0000   -47.3125     5.7163     4.5542     5.2200    97.0666     7.9401    -0.0292     2.2564     0.2424
  233.5000   -47.4015     5.2901     4.2519     4.8142    97.0687     7.9641    -0.0327     2.2462     0.2562
  234.0000   -47.4899     4.8957     3.9701     4.4401    97.0699     7.9867    -0.0171     2.2420     0.2582
  234.5000   -47.5706     4.5307     3.7069     4.0949    97.0274     7.9778    -0.0022     2.2479     0.2544
  235.0000   -47.5368     4.1262     3.4610     3.7761    97.5773     7.9698     0.0062     2.2691     0.2436
  235.5000   -47.4617     3.6655     3.2311     3.5171    98.4839     7.9608     0.0123     2.2893     0.2329
  236.0000   -47.3868     3.2563     3.0161     3.2972    99.8338     7.9517     0.0285     2.3356     0.2124
  236.5000   -47.3149     2.8928     2.8153     3.0910   101.5192     7.9475     0.0414     2.4103     0.1852
  237.0000   -47.2399     2.5698     2.6544     2.8970   103.0289     7.9509     0.0281     2.3962     0.1639
  237.5000   -47.1876     2.2829     2.5313     2.7680   104.8142     7.9619     0.0082     2.4055     0.1668
  238.0000   -47.1942     2.0565     2.4731     2.7680   105.2009     7.9735     0.0106     2.4175     0.1573
  238.5000   -47.1862     3.0373     2.4830     2.9494   105.6054     7.9789     0.0111     2.4255     0.1499
