~VERSION INFORMATION
 VERS.                2.0:   CWLS LOG ASCII STANDARD - VERSION 2.0
 WRAP.                 NO:   ONE LINE PER DEPTH STEP
~WELL INFORMATION
#MNEM.UNIT      DATA TYPE    INFORMATION
#----------   ------------   ------------------------------
 STRT.F            1.0000:   START DEPTH
 STOP.F          524.0000:   STOP DEPTH
 STEP.F            0.1000:   STEP LENGTH
 NULL.          -999.2500:   NO VALUE
 COMP.       F D SERV INC:   COMPANY
 WELL.    87-2 SX-3 #87-3:   WELL
 FLD .             TEAPOT:   FIELD
 LOC .       S3 T38N R78W:   LOCATION
 CNTY.            NATRONA:   COUNTY
 STAT.            WYOMING:   STATE
 CTRY. UNITED STATES OF AMERICA:   COUNTRY
 SRVC.     Atlas Wireline:   SERVICE COMPANY
 DATE.        20-OCT-1992:   LOGDATE
 API .       490252254700:   API NUMBER
~CURVE INFORMATION
#MNEM.UNIT       API CODE    CURVE DESCRIPTION
#----------   ------------   ------------------------------
 DEPT.F                  :   
 GRR .GAPI   07 310 01 00:   GAMMA RAY
 RILD.OHMM   07 120 46 00:   INDUCTION LOG DEEP RESISTIVITY
 RILM.OHMM   07 120 44 00:   INDUCTION LOG MEDIUM RESISTIVITY
~PARAMETER INFORMATION
#MNEM.UNIT          VALUE    DESCRIPTION
#----------   ------------   ------------------------------
 PD  .                 GL:   PERMANENT DATUM
 EPD .F              5124:   ELEVATION PERMANENT DATUM
 LMF .                 KB:   LOG MEASURED FROM
 DAPD.F                10:   FEET ABOVE PERMANENT DATUM
 DMF .                 KB:   DRILLING MEASURED FROM
 EKB .F              5134:   KELLING BUSHING
 EDF .F              5133:   DRILLING FLOOR
 EGL .F              5124:   GROUND LEVEL
 DATE.        20-OCT-1992:   RUN DATE
 RUN .                  1:   RUN NUMBER
 DD  .F               533:   DEPTH DRILLER
 DL  .F               532:   DEPTH LOGGER
 BLI .F               524:   BOTTOM LOG INTERVAL
 TLI .F                74:   TOP LOG INTERVAL
 CS  .IN            8.625:   CASING SIZE
 CBD .F                85:   CASING BOTTOM DRILLER
 CBL .F                74:   CASING BOTTOM LOGGER
 BS  .IN            7.875:   BIT SIZE
 BSD .F               533:   BIT SIZE AT DEPTH
 DFT .           AIR FOAM:   DRILLING FLUID TYPE
 TCS .HRS               3:   TIME CURCULATED STOPPED
 MRT .F                70:   MAXIMUM RECORDED TEMPERATURE
 LUN .            HL-6274:   LOGGING UNIT NUMBER
 LUL .             CASPER:   LOGGING UNIT LOCATION
 ENGI.             RAUTIO:   RECORDING ENGINEER
 WITN.        GARY STRONG:   WITNESSED BY
 CLNT.            A2DTECH:   CLIENT CODE
 ORIG.           5" PRINT:   ORIGIN OF DATA
 UWI .       490252254700:   UNIQUE WELL ID
 DICO. A2D Technologies, Inc.:   DIGITIZING COMPANY
~OTHER INFORMATION
~A    DEPT     GRR       RILD       RILM   
# ...
  219.4000   124.4888     7.2451     7.3540
  219.5000   125.0639     7.2717     7.3955
  219.6000   125.5862     7.2717     7.4256
  219.7000   125.9319     7.2717     7.4253
  219.8000   126.6905     7.3080     7.4249
  219.9000   127.6477     7.3226     7.4588
  220.0000   128.2675     7.3397     7.5009
  220.1000   128.8839     7.3739     7.5286
  220.2000   129.5542     7.3739     7.5329
  220.3000   130.0560     7.3739     7.5808
  220.4000   130.9346     7.4035     7.6182
  220.5000   131.5318     7.4255     7.6334
  220.6000   132.1276     7.4356     7.6330
  220.7000   132.6190     7.4775     7.6403
  220.8000   133.0828     7.4775     7.6859
  220.9000   133.3572     7.4775     7.6856
  221.0000   133.3556     7.5002     7.7162
  221.1000   133.3538     7.5299     7.7389
  221.2000   133.3520     7.5299     7.7386
  221.3000   133.3054     7.5299     7.7383
  221.4000   133.0443     7.5299     7.7380
  221.5000   132.5745     7.5299     7.7376
  221.6000   132.0794     7.5453     7.7373
  221.7000   131.5844     7.5826     7.7370
  221.8000   131.0274     7.5826     7.7398
  221.9000   130.2858     7.5826     7.7906
  222.0000   129.5441     7.6109     7.7903
  222.1000   128.9964     7.6357     7.7900
  222.2000   128.5014     7.6439     7.7896
  222.3000   128.0063     7.6892     7.7893
  222.4000   127.5331     7.6892     7.7890
  222.5000   127.2490     7.6892     7.7887
  222.6000   126.8251     7.6892     7.7883
  222.7000   126.4839     7.6892     7.7880
  222.8000   126.1390     7.6892     7.7877
  222.9000   125.6440     7.6892     7.7873
  223.0000   125.1123     7.6892     7.7870
  223.1000   124.8823     7.7130     7.7867
  223.2000   124.6338     7.7430     7.7864
  223.3000   124.4991     7.7430     7.7860
  223.4000   124.5536     7.7430     7.7857
  223.5000   124.7994     7.7430     7.7853
  223.6000   125.0431     7.7430     7.7851
  223.7000   125.4762     7.7430     7.7847
  223.8000   125.9676     7.7430     7.7844
  223.9000   126.4589     7.7430     7.7841
  224.0000   126.9342     7.7430     7.7837
  224.1000   127.2198     7.7430     7.7834
  224.2000   127.8347     7.7430     7.7831
  224.3000   128.4245     7.7430     7.7828
  224.4000   128.9159     7.7430     7.7825
  224.5000   129.3739     7.7855     7.7821
  224.6000   129.6424     7.7972     7.8232
  224.7000   129.8634     7.7972     7.8361
  224.8000   130.1082     7.7972     7.8358
  224.9000   130.3530     7.7972     7.8354
  225.0000   130.5471     7.7972     7.8351
  225.1000   130.5452     7.7972     7.8348
  225.2000   130.5435     7.7972     7.8344
  225.3000   130.3591     7.7972     7.8341
  225.4000   130.1107     7.7972     7.8471
  225.5000   129.8622     7.7972     7.8885
  225.6000   129.6138     7.7972     7.8880
  225.7000   129.3182     7.7972     7.8878
  225.8000   129.1169     7.7972     7.8874
  225.9000   128.8685     7.7972     7.8871
  226.0000   128.6201     7.7972     7.8868
  226.1000   128.3716     7.7972     7.8864
  226.2000   128.0934     7.7972     7.8861
  226.3000   127.6577     7.7972     7.8858
  226.4000   127.1627     7.7972     7.8855
  226.5000   126.6677     7.7972     7.8851
  226.6000   126.1726     7.7972     7.8848
  226.7000   125.6528     7.7972     7.8845
  226.8000   124.9484     7.7972     7.8841
  226.9000   124.2067     7.7972     7.8838
  227.0000   123.3455     7.7972     7.8835
  227.1000   122.4817     7.7972     7.8831
  227.2000   121.9964     7.7972     7.8828
  227.3000   121.9945     7.7972     7.8825
  227.4000   121.7986     7.7972     7.8821
  227.5000   121.8237     7.7972     7.8818
  227.6000   122.1480     7.7972     7.8815
  227.7000   122.6393     7.7972     7.8811
  227.8000   123.2010     7.7972     7.8808
  227.9000   123.6221     7.7972     7.8805
  228.0000   124.2675     7.7972     7.8802
  228.1000   124.9088     7.7972     7.8798
  228.2000   125.3609     7.7972     7.8795
  228.3000   125.6236     7.7972     7.8792
  228.4000   126.0790     7.7972     7.8788
  228.5000   126.3992     7.7972     7.8785
  228.6000   126.6440     7.7972     7.8782
  228.7000   126.8887     7.7972     7.8778
  228.8000   127.1343     7.7972     7.8775
  228.9000   127.1325     7.7972     7.8772
  229.0000   127.1307     7.7972     7.8769
  229.1000   126.9978     7.7972     7.8765
  229.2000   126.7493     7.7972     7.8762
  229.3000   126.4845     7.7972     7.8758
  229.4000   125.9073     7.7972     7.8755
  229.5000   125.7001     7.7972     7.8752
  229.6000   125.4517     7.7972     7.8749
  229.7000   125.2032     7.7972     7.8690
  229.8000   124.9884     7.7972     7.8193
  229.9000   124.9865     7.7972     7.8190
  230.0000   124.9848     7.7972     7.7896
  230.1000   125.1485     7.7972     7.7452
  230.2000   125.3933     7.7972     7.6929
  230.3000   125.5872     7.7972     7.6020
  230.4000   125.5854     7.7972     7.6017
  230.5000   125.5836     7.7972     7.5395
  230.6000   125.7645     7.7972     7.4955
  230.7000   126.0093     7.7972     7.4952
  230.8000   126.1860     7.7972     7.4939
  230.9000   126.1949     7.7972     7.4512
  231.0000   126.4860     7.7737     7.4088
  231.1000   126.6845     7.7430     7.3898
  231.2000   126.9293     7.7430     7.3895
  231.3000   127.1741     7.7430     7.3855
  231.4000   127.4188     7.7430     7.3374
  231.5000   127.6928     7.7430     7.3017
  231.6000   127.9084     7.7272     7.2857
  231.7000   128.3130     7.6892     7.2694
  231.8000   128.8045     7.6892     7.2280
  231.9000   129.2058     7.6892     7.1835
  232.0000   129.2036     7.6606     7.1833
  232.1000   128.9673     7.6175     7.1274
  232.2000   128.5418     7.5745     7.0647
  232.3000   128.0468     7.5299     7.0245
  232.4000   127.4894     7.5299     6.9839
  232.5000   126.7477     7.4993     6.9447
  232.6000   126.0061     7.4571     6.9052
  232.7000   125.2645     7.4150     6.8659
  232.8000   124.9337     7.3732     6.8267
  232.9000   124.9319     7.3317     6.7858
  233.0000   124.9301     7.3226     6.6952
  233.1000   124.9280     7.2776     6.6950
  233.2000   124.9264     7.2084     6.6506
  233.3000   124.9246     7.1678     6.6014
  233.4000   124.9228     7.1211     6.5924
  233.5000   124.8814     7.0872     6.5092
  233.6000   124.6151     7.0232     6.4764
  233.7000   124.6134     6.9588     6.4395
  233.8000   124.6116     6.9196     6.3878
  233.9000   124.7238     6.8769     6.3220
  234.0000   124.9118     6.8070     6.2842
  234.1000   124.9100     6.7306     6.2167
  234.2000   124.9082     6.6549     6.1464
  234.3000   125.0950     6.5800     6.0768
  234.4000   125.3398     6.5036     6.0165
  234.5000   125.6585     6.4330     5.9816
  234.6000   126.1832     6.3346     5.9140
  234.7000   127.3304     6.2281     5.8471
  234.8000   127.9464     6.1144     5.7632
  234.9000   128.8329     5.9783     5.6657
  235.0000   129.7264     5.8779     5.5672
  235.1000   130.4306     5.7536     5.4233
  235.2000   130.9688     5.6426     5.3457
  235.3000   131.6365     5.5376     5.2553
  235.4000   132.2087     5.4163     5.1665
  235.5000   132.7001     5.3122     5.0748
  235.6000   133.1404     5.2611     4.9510
  235.7000   133.3914     5.1839     4.8496
  235.8000   133.6300     5.1078     4.7227
  235.9000   133.5088     5.0418     4.6250
  236.0000   132.8835     4.9197     4.5617
  236.1000   131.9636     4.8440     4.4570
  236.2000   131.2438     4.7444     4.3591
  236.3000   130.9486     4.6268     4.2613
  236.4000   130.7469     4.4872     4.1186
  236.5000   130.4985     4.3089     3.9414
  236.6000   130.3356     4.1917     3.7891
  236.7000   130.3055     4.0415     3.6635
  236.8000   130.0277     3.9066     3.5968
  236.9000   130.0261     3.8034     3.5160
  237.0000   130.0243     3.7157     3.4370
  237.1000   130.0225     3.5442     3.3596
  237.2000   130.0207     3.4492     3.2750
  237.3000   130.0188     3.3238     3.2264
  237.4000   130.0170     3.1947     3.1266
  237.5000   129.8379     3.0737     3.0116
