~VERSION INFORMATION
 VERS.                2.0:   CWLS LOG ASCII STANDARD - VERSION 2.0
 WRAP.                 NO:   ONE LINE PER DEPTH STEP
~WELL INFORMATION
#MNEM.UNIT      DATA TYPE    INFORMATION
#----------   ------------   ------------------------------
 STRT.F            3.0000:   START DEPTH
 STOP.F          523.0000:   STOP DEPTH
 STEP.F            0.1000:   STEP LENGTH
 NULL.          -999.2500:   NO VALUE
 COMP.     BROWN JOHN E&C:   COMPANY
 WELL.   NPR 3 #52-2-SX-3:   WELL
 FLD .             TEAPOT:   FIELD
 LOC .       S3 T38N R78W:   LOCATION
 CNTY.            NATRONA:   COUNTY
 STAT.            WYOMING:   STATE
 CTRY. UNITED STATES OF AMERICA:   COUNTRY
 SRVC.     Atlas Wireline:   SERVICE COMPANY
 DATE.        18-APR-1992:   LOGDATE
 API .       490252251500:   API NUMBER
~CURVE INFORMATION
#MNEM.UNIT       API CODE    CURVE DESCRIPTION
#----------   ------------   ------------------------------
 DEPT.F                  :   
 GRR .GAPI   07 310 01 00:   GAMMA RAY
 RILD.OHMM   07 120 46 00:   INDUCTION LOG DEEP RESISTIVITY
 RILM.OHMM   07 120 44 00:   INDUCTION LOG MEDIUM RESISTIVITY
~PARAMETER INFORMATION
#MNEM.UNIT          VALUE    DESCRIPTION
#----------   ------------   ------------------------------
 PD  .                 GL:   PERMANENT DATUM
 EPD .F              5128:   ELEVATION PERMANENT DATUM
 LMF .                 KB:   LOG MEASURED FROM
 DAPD.F                 5:   FEET ABOVE PERMANENT DATUM
 DMF .                 KB:   DRILLING MEASURED FROM
 EKB .F              5133:   KELLING BUSHING
 EDF .F              5132:   DRILLING FLOOR
 EGL .F              5128:   GROUND LEVEL
 DATE.        18-APR-1992:   RUN DATE
 RUN .                  1:   RUN NUMBER
 DD  .F               525:   DEPTH DRILLER
 DL  .F               526:   DEPTH LOGGER
 BLI .F               524:   BOTTOM LOG INTERVAL
 CS  .IN            8.625:   CASING SIZE
 CBD .F                48:   CASING BOTTOM DRILLER
 CBL .F                49:   CASING BOTTOM LOGGER
 BS  .IN            7.875:   BIT SIZE
 BSD .F               525:   BIT SIZE AT DEPTH
 DFT .                AIR:   DRILLING FLUID TYPE
 TCS .HRS               2:   TIME CURCULATED STOPPED
 MRT .F                87:   MAXIMUM RECORDED TEMPERATURE
 LUN .            HL 6274:   LOGGING UNIT NUMBER
 LUL .             CASPER:   LOGGING UNIT LOCATION
 ENGI.            LEBSOCK:   RECORDING ENGINEER
 WITN.             STRONG:   WITNESSED BY
 CLNT.            A2DTECH:   CLIENT CODE
 ORIG.       2", 5" PRINT:   ORIGIN OF DATA
 UWI .       490252251500:   UNIQUE WELL ID
 DICO. A2D Technologies, Inc.:   DIGITIZING COMPANY
~OTHER INFORMATION
~A    DEPT     GRR       RILD       RILM   
# ...
  403.4000    91.2121    25.3639    22.9124
  403.5000    91.2121    25.3639    22.9102
  403.6000    91.4489    25.3639    22.9076
  403.7000    91.5152    25.3639    22.9597
  403.8000    91.5152    25.3639    23.0636
  403.9000    91.4438    25.3639    23.0605
  404.0000    91.1960    25.3639    23.0579
  404.1000    90.9091    25.3639    23.0554
  404.2000    90.7002    25.3639    23.0528
  404.3000    90.4523    25.3639    23.0502
  404.4000    90.4016    25.2269    23.0476
  404.5000    90.6061    25.1873    23.0447
  404.6000    90.6061    25.1873    23.0425
  404.7000    90.6061    25.1873    23.0399
  404.8000    90.6061    25.1873    23.0373
  404.9000    90.4802    25.1873    23.0348
  405.0000    90.3030    25.1873    23.0322
  405.1000    90.2875    25.1873    23.0296
  405.2000    90.0000    25.1873    23.0270
  405.3000    89.7917    25.1873    23.0245
  405.4000    89.5438    25.1873    23.0671
  405.5000    89.2960    25.1873    23.1810
  405.6000    89.0481    25.1873    23.1779
  405.7000    88.7879    25.1093    23.1755
  405.8000    88.3167    25.0119    23.1730
  405.9000    87.8210    25.0119    23.1704
  406.0000    87.4505    25.0119    23.1355
  406.1000    87.1325    25.0119    23.0039
  406.2000    86.6667    25.0119    23.0008
  406.3000    86.9697    25.0119    22.9987
  406.4000    87.3852    25.0119    22.9193
  406.5000    88.0335    25.0102    22.8335
  406.6000    88.7770    24.8672    22.8119
  406.7000    89.5205    24.8377    22.6692
  406.8000    90.3030    24.7561    22.6668
  406.9000    90.5379    24.6648    22.5728
  407.0000    90.9656    24.6453    22.5040
  407.1000    91.3368    24.4930    22.5015
  407.2000    91.5846    24.4930    22.4989
  407.3000    91.8182    24.4930    22.4960
  407.4000    91.8182    24.4930    22.4939
  407.5000    91.8182    24.4930    22.5702
  407.6000    91.6663    24.4930    22.6466
  407.7000    91.4184    24.4930    22.6441
  407.8000    91.2121    24.4930    22.6414
  407.9000    91.2121    24.4930    22.6390
  408.0000    90.9778    24.4930    22.7317
  408.1000    90.9091    24.4930    22.7926
  408.2000    91.0331    24.4930    22.7901
  408.3000    91.2121    24.4930    22.7876
  408.4000    91.2259    24.4930    22.7846
  408.5000    91.5152    24.4930    22.7825
  408.6000    91.5152    24.4930    22.7799
  408.7000    91.6665    24.5041    22.7774
  408.8000    91.9144    24.6648    22.7748
  408.9000    92.1212    24.6648    22.7722
  409.0000    92.1212    24.6648    22.7697
  409.1000    92.5888    24.7248    22.7672
  409.2000    92.9059    24.8377    22.7646
  409.3000    93.2771    24.8377    22.7621
  409.4000    93.7729    24.8377    22.7595
  409.5000    94.2817    24.8377    22.7567
  409.6000    95.1515    24.8377    22.7545
  409.7000    95.7691    24.8377    22.7519
  409.8000    96.8142    24.8377    22.7494
  409.9000    97.8624    24.8377    22.7468
  410.0000    98.5656    24.8377    22.7443
  410.1000    99.0909    24.7419    22.6119
  410.2000    99.0909    24.6004    22.5808
  410.3000    98.9130    24.4930    22.5783
  410.4000    98.7879    24.4930    22.5758
  410.5000    98.6525    24.4930    22.5733
  410.6000    98.1442    24.4930    22.5705
  410.7000    97.2727    24.4115    22.4519
  410.8000    96.8622    24.3224    22.4086
  410.9000    96.0663    24.3022    22.3468
  411.0000    95.0747    24.1531    22.2475
  411.1000    94.0432    24.0251    22.2420
  411.2000    92.7273    23.9849    22.0872
  411.3000    91.7970    23.9849    22.0852
  411.4000    90.9829    23.9477    22.0089
  411.5000    90.3616    23.8178    21.9265
  411.6000    89.7988    23.8178    21.9057
  411.7000    89.0551    23.8178    21.7688
  411.8000    88.1818    23.8178    21.6513
  411.9000    87.9772    23.8178    21.6125
  412.0000    87.7293    23.7935    21.5499
  412.1000    87.5758    23.6520    21.4572
  412.2000    87.6149    23.6520    21.4488
  412.3000    87.8788    23.6520    21.3026
  412.4000    88.3425    23.6520    21.3006
  412.5000    88.6616    23.6108    21.2983
  412.6000    89.0311    23.4873    21.2484
  412.7000    89.5269    23.4873    21.1452
  412.8000    90.0339    23.4873    21.1427
  412.9000    90.9091    23.4873    21.0257
  413.0000    91.3171    23.4873    20.9909
  413.1000    91.8129    23.4588    20.9886
  413.2000    92.3088    23.3237    20.9862
  413.3000    92.7659    23.3237    20.9751
  413.4000    93.0303    23.2204    20.8351
  413.5000    93.4929    23.1613    20.8331
  413.6000    93.8125    23.0722    20.8308
  413.7000    93.9394    22.8242    20.7791
  413.8000    93.8735    22.6808    20.6811
  413.9000    93.6364    22.5640    20.6787
  414.0000    93.6364    22.4350    20.6765
  414.1000    93.6364    22.3067    20.6741
  414.2000    93.4881    22.2103    20.6085
  414.3000    93.2402    22.2103    20.5256
  414.4000    92.9923    22.2103    20.5233
  414.5000    92.7273    22.2103    20.5207
  414.6000    92.4966    22.2856    20.6223
  414.7000    92.4242    22.3660    20.6603
  414.8000    92.3039    22.3660    20.6580
  414.9000    92.1212    22.3660    20.6557
  415.0000    92.1212    22.4862    20.6534
  415.1000    92.1212    22.5228    20.6510
  415.2000    91.9184    22.5228    20.6487
  415.3000    91.8182    22.5228    20.6464
  415.4000    91.8182    22.5306    20.6847
  415.5000    91.8556    22.6808    20.7868
  415.6000    92.1212    22.6808    20.7840
  415.7000    92.1212    22.6808    20.7819
  415.8000    92.2961    22.6808    20.7796
  415.9000    92.5440    22.6808    20.7773
  416.0000    92.8566    22.6808    20.7749
  416.1000    93.3524    22.6808    20.7726
  416.2000    93.9394    22.6808    20.7698
  416.3000    94.3438    22.6808    20.7680
  416.4000    94.8396    22.6808    20.7657
  416.5000    95.2434    22.6808    20.7633
  416.6000    95.5282    22.6808    20.7610
  416.7000    96.0606    22.5674    20.7585
  416.8000    96.2901    22.5228    20.7564
  416.9000    96.5380    22.4665    20.6702
  417.0000    96.7859    22.3380    20.6072
  417.1000    96.9697    22.2101    20.5734
  417.2000    96.9697    22.0832    20.4534
  417.3000    96.9697    21.9570    20.3140
  417.4000    96.7681    21.7613    20.2159
  417.5000    96.5202    21.5980    20.0982
  417.6000    96.2724    21.5980    19.9811
  417.7000    95.9522    21.5980    19.8454
  417.8000    95.1515    21.4859    19.6058
  417.9000    94.4648    21.4476    19.4972
  418.0000    93.8949    21.4476    19.3029
  418.1000    93.5178    21.4476    19.1366
  418.2000    93.2699    21.4476    18.9935
  418.3000    93.0303    21.4476    18.7747
  418.4000    93.0303    21.4476    18.5272
  418.5000    93.0303    21.3744    18.4351
  418.6000    93.1762    21.2983    18.3277
  418.7000    93.4241    21.2983    18.2210
  418.8000    93.6719    21.2983    18.1350
  418.9000    93.9394    21.1836    18.1329
  419.0000    94.3960    21.0625    18.0299
  419.1000    94.8917    21.0027    18.0027
  419.2000    95.2695    20.9684    18.0006
  419.3000    95.6430    20.8484    18.0314
  419.4000    96.3868    20.7112    18.1230
  419.5000    97.2727    20.7112    18.1205
  419.6000    97.8741    20.5625    18.1188
  419.7000    98.3271    20.3756    18.1167
  419.8000    98.6649    20.2815    18.1147
  419.9000    99.1607    20.2815    18.1127
  420.0000    99.6970    20.1685    18.1107
  420.1000    99.9246    20.1403    18.1086
  420.2000   100.1725    20.0783    18.1066
  420.3000   100.5377    20.0000    18.1046
  420.4000   100.9713    19.9885    18.1381
  420.5000   101.2192    19.8607    18.2277
  420.6000   101.5152    19.7606    18.2252
  420.7000   101.9147    19.6476    18.1295
  420.8000   102.4105    19.5353    18.0945
  420.9000   102.9063    19.3985    18.0446
  421.0000   103.4020    19.1779    17.9394
  421.1000   103.9394    19.0683    17.8299
  421.2000   104.1664    18.8739    17.4650
  421.3000   104.4144    18.6587    17.3034
  421.4000   104.5455    18.4459    17.1044
  421.5000   104.5455    18.2492    16.9075
