~VERSION INFORMATION
 VERS.                2.0:   CWLS LOG ASCII STANDARD - VERSION 2.0
 WRAP.                 NO:   ONE LINE PER DEPTH STEP
~WELL INFORMATION
#MNEM.UNIT      DATA TYPE    INFORMATION
#----------   ------------   ------------------------------
 STRT.F           12.0000:   START DEPTH
 STOP.F          754.0000:   STOP DEPTH
 STEP.F            0.5000:   STEP LENGTH
 NULL.          -999.2500:   NO VALUE
 COMP. FENIX & SCISSON INC:   COMPANY
 WELL.    62 SX 34 #62-34:   WELL
 FLD .             TEAPOT:   FIELD
 LOC .      S34 T39N R78W:   LOCATION
 CNTY.            NATRONA:   COUNTY
 STAT.            WYOMING:   STATE
 CTRY. UNITED STATES OF AMERICA:   COUNTRY
 SRVC.            Unknown:   SERVICE COMPANY
 DATE.        20-AUG-1978:   LOGDATE
 API .       490251070200:   API NUMBER
~CURVE INFORMATION
#MNEM.UNIT       API CODE    CURVE DESCRIPTION
#----------   ------------   ------------------------------
 DEPT.F                  :   
 SPR .MV     05 010 01 00:   SPONTANEOUS POTENTIAL FROM RES.
 SN  .OHMM   05 040 16 00:   SHORT NORMAL 16"
 ILD .OHMM   05 120 46 00:   INDUCTION LOG DEEP
 GRD .GAPI   45 310 01 00:   GAMMA RAY FROM DENSITY LOG
 CALD.IN     45 280 60 00:   CALIPER
 RHOB.G/C3   45 350 01 00:   BULK DENSITY
 DPHI.DEC    45 890 12 00:   DENSITY POROSITY SANDSTONE
 CORR.G/C3   45 356 01 00:   DENSITY CORRECTION
~PARAMETER INFORMATION
#MNEM.UNIT          VALUE    DESCRIPTION
#----------   ------------   ------------------------------
 PD  .                 GL:   PERMANENT DATUM
 EPD .F              5039:   ELEVATION PERMANENT DATUM
 LMF .                 KB:   LOG MEASURED FROM
 DAPD.F                 4:   FEET ABOVE PERMANENT DATUM
 DMF .                 KB:   DRILLING MEASURED FROM
 EKB .F              5043:   KELLING BUSHING
 EGL .F              5039:   GROUND LEVEL
 DATE.            8-20-78:   RUN DATE
 RUN .                  1:   RUN NUMBER
 DD  .F               750:   DEPTH DRILLER
 DL  .F               755:   DEPTH LOGGER
 BLI .F               749:   BOTTOM LOG INTERVAL
 TLI .F                30:   TOP LOG INTERVAL
 CS  .IN            8.625:   CASING SIZE
 CBD .F                30:   CASING BOTTOM DRILLER
 CBL .F                34:   CASING BOTTOM LOGGER
 BS  .IN            7.875:   BIT SIZE
 BSD .F               750:   BIT SIZE AT DEPTH
 DFT .            KCL MUD:   DRILLING FLUID TYPE
 DFD .                8.6:   DRILLING FLUID DENSITY
 DFV .                 30:   DRILLING FLUID VISCOSITY
 DFPH.                9.5:   DRILLING FLUID PH
 DFL .               10.4:   DRILLING FLUID LOSS
 MSS .          FLOW LINE:   MUD SAMPLE SOURCE
 RMS .OHMM            .28:   RESISTIVITY MUD SAMPLE
 MST .F                76:   MUD SAMPLE TEMPERATURE
 RMF .OHMM            .24:   RESISTIVITY MUD FILTRATE SAMPLE
 MFST.F                80:   MUD FILTRATE SAMPLE TEMPERATURE
 RMC .OHMM            .34:   RESISTIVITY MUD CAKE
 MCST.F                82:   MUD CAKE SAMPLE TEMPERATURE
 MFSS.               MEAS:   MUD FILTRATE SAMPLE SOURCE
 MCSS.               MEAS:   MUD CAKE SAMPLE SOURCE
 BHT .F                72:   BOTTOM HOLE TEMPERATURE
 TCS .HRS               3:   TIME CURCULATED STOPPED
 MRT .F                72:   MAXIMUM RECORDED TEMPERATURE
 LUN .               2958:   LOGGING UNIT NUMBER
 LUL .               CASP:   LOGGING UNIT LOCATION
 ENGI.           REYNOLDS:   RECORDING ENGINEER
 WITN.              AMEND:   WITNESSED BY
 CLNT.            A2DTECH:   CLIENT CODE
 ORIG.           5" PRINT:   ORIGIN OF DATA
 UWI .       490251070200:   UNIQUE WELL ID
 DICO. A2D Technologies, Inc.:   DIGITIZING COMPANY
~OTHER INFORMATION
~A   DEPT      SPR         SN        ILD         GRD      CALD       RHOB       DPHI       CORR   
   12.0000  -999.2500  -999.2500  -999.2500    69.5992  -999.2500  -999.2500  -999.2500  -999.2500
   12.5000  -999.2500  -999.2500  -999.2500    68.6084  -999.2500  -999.2500  -999.2500  -999.2500
   13.0000  -999.2500  -999.2500  -999.2500    67.1982  -999.2500  -999.2500  -999.2500  -999.2500
   13.5000  -999.2500  -999.2500  -999.2500    66.7825  -999.2500  -999.2500  -999.2500  -999.2500
   14.0000  -999.2500  -999.2500  -999.2500    66.6879  -999.2500  -999.2500  -999.2500  -999.2500
   14.5000  -999.2500  -999.2500  -999.2500    66.6057  -999.2500  -999.2500  -999.2500  -999.2500
   15.0000  -999.2500  -999.2500  -999.2500    66.5259  -999.2500  -999.2500  -999.2500  -999.2500
   15.5000  -999.2500  -999.2500  -999.2500    66.4465  -999.2500  -999.2500  -999.2500  -999.2500
   16.0000  -999.2500  -999.2500  -999.2500    66.5242  -999.2500  -999.2500  -999.2500  -999.2500
   16.5000  -999.2500  -999.2500  -999.2500    67.0189  -999.2500  -999.2500  -999.2500  -999.2500
   17.0000  -999.2500  -999.2500  -999.2500    69.3696  -999.2500  -999.2500  -999.2500  -999.2500
   17.5000  -999.2500  -999.2500  -999.2500    71.8921  -999.2500  -999.2500  -999.2500  -999.2500
   18.0000  -999.2500  -999.2500  -999.2500    73.2077  -999.2500  -999.2500  -999.2500  -999.2500
   18.5000  -999.2500  -999.2500  -999.2500    72.3800  -999.2500  -999.2500  -999.2500  -999.2500
   19.0000  -999.2500  -999.2500  -999.2500    70.9405  -999.2500  -999.2500  -999.2500  -999.2500
   19.5000  -999.2500  -999.2500  -999.2500    69.5047  -999.2500  -999.2500  -999.2500  -999.2500
   20.0000  -999.2500  -999.2500  -999.2500    68.6810  -999.2500  -999.2500  -999.2500  -999.2500
   20.5000  -999.2500  -999.2500  -999.2500    68.9494  -999.2500  -999.2500  -999.2500  -999.2500
   21.0000  -999.2500  -999.2500  -999.2500    69.2265  -999.2500  -999.2500  -999.2500  -999.2500
   21.5000  -999.2500  -999.2500  -999.2500    66.9846  -999.2500  -999.2500  -999.2500  -999.2500
   22.0000  -999.2500  -999.2500  -999.2500    63.4737  -999.2500  -999.2500  -999.2500  -999.2500
   22.5000  -999.2500  -999.2500  -999.2500    58.4787  -999.2500  -999.2500  -999.2500  -999.2500
   23.0000  -999.2500  -999.2500  -999.2500    65.8717  -999.2500  -999.2500  -999.2500  -999.2500
   23.5000  -999.2500  -999.2500  -999.2500    59.3706  -999.2500  -999.2500  -999.2500  -999.2500
   24.0000  -999.2500  -999.2500  -999.2500    52.6100  -999.2500  -999.2500  -999.2500  -999.2500
   24.5000  -999.2500  -999.2500  -999.2500    45.8312  -999.2500  -999.2500  -999.2500  -999.2500
   25.0000  -999.2500  -999.2500  -999.2500    41.5649  -999.2500  -999.2500  -999.2500  -999.2500
   25.5000  -999.2500  -999.2500  -999.2500    41.7943  -999.2500  -999.2500  -999.2500  -999.2500
   26.0000  -999.2500  -999.2500  -999.2500    43.4903  -999.2500  -999.2500  -999.2500  -999.2500
   26.5000  -999.2500  -999.2500  -999.2500    45.8531  -999.2500  -999.2500  -999.2500  -999.2500
   27.0000  -999.2500  -999.2500  -999.2500    48.2324  -999.2500  -999.2500  -999.2500  -999.2500
   27.5000  -999.2500  -999.2500  -999.2500    48.5631  -999.2500  -999.2500  -999.2500  -999.2500
   28.0000  -999.2500  -999.2500  -999.2500    48.5626  -999.2500  -999.2500  -999.2500  -999.2500
   28.5000  -999.2500  -999.2500  -999.2500    49.5042  -999.2500  -999.2500  -999.2500  -999.2500
   29.0000  -999.2500  -999.2500  -999.2500    51.0453  -999.2500  -999.2500  -999.2500  -999.2500
   29.5000  -999.2500  -999.2500  -999.2500    52.1506  -999.2500  -999.2500  -999.2500  -999.2500
   30.0000  -999.2500  -999.2500  -999.2500    51.9772  -999.2500  -999.2500  -999.2500  -999.2500
   30.5000  -999.2500  -999.2500  -999.2500    51.9465  -999.2500  -999.2500  -999.2500  -999.2500
   31.0000  -999.2500  -999.2500  -999.2500    52.3384  -999.2500  -999.2500  -999.2500  -999.2500
   31.5000  -999.2500  -999.2500  -999.2500    59.9071  -999.2500  -999.2500  -999.2500  -999.2500
   32.0000  -999.2500  -999.2500  -999.2500    69.9806  -999.2500  -999.2500  -999.2500  -999.2500
   32.5000  -999.2500  -999.2500  -999.2500    80.1575  -999.2500  -999.2500  -999.2500  -999.2500
   33.0000  -999.2500  -999.2500  -999.2500    85.1280     9.2605  -999.2500  -999.2500  -999.2500
   33.5000  -999.2500  -999.2500  -999.2500    82.0809     9.4987  -999.2500  -999.2500  -999.2500
   34.0000   -72.1792  -999.2500     4.8325    72.6791    10.0822     2.2363     0.2519     0.2992
   34.5000   -71.4368  -999.2500     5.1188    67.9351    10.1638     2.3231     0.2239     0.2640
   35.0000   -66.9188  -999.2500     5.4219    84.1313    10.1582     2.5080     0.1701     0.2167
   35.5000   -62.4333  -999.2500     5.6699    82.8104     9.7324     2.5079     0.1292     0.1654
   36.0000   -73.9169  -999.2500     5.7951    81.9433     8.3019     2.5139     0.0964     0.0914
   36.5000   -73.2810  -999.2500     5.8407    82.6384     7.9470     2.3786     0.1694     0.0258
   37.0000   -68.5734  -999.2500     5.8825    83.4841     7.9026     2.3744     0.1860     0.0285
   37.5000   -65.2004  -999.2500     6.3904    84.0071     7.8923     2.3741     0.1803     0.0298
   38.0000   -64.4716  -999.2500     6.3686    82.9400     7.8783     2.3801     0.1703     0.0310
   38.5000   -64.9312     0.4433     6.3387    82.0184     7.8776     2.3973     0.1691     0.0223
   39.0000   -64.6009     0.6494     6.2670    83.8346     7.8777     2.3835     0.1794     0.0056
   39.5000   -64.9501     1.2538     6.1826    84.2994     7.8776     2.3741     0.1870     0.0045
   40.0000   -65.6501     6.1906     6.1059    84.3593     7.8762     2.3672     0.1905     0.0058
   40.5000   -67.0708     6.2051     5.8518    87.5626     7.9408     2.3640     0.1928     0.0071
   41.0000   -68.1275     6.2038     5.5652    91.5203     8.0197     2.3608     0.1951     0.0084
   41.5000   -68.4582     6.2049     5.2676    92.9956     8.0990     2.3581     0.1953     0.0095
   42.0000   -68.7158     6.2164     5.1715    90.8592     8.1784     2.3572     0.1951     0.0095
   42.5000   -69.0375     6.1594     5.1939    87.6252     8.2573     2.3587     0.1926     0.0095
   43.0000   -69.3533     5.9379     5.2193    86.2714     8.3196     2.3602     0.1901     0.0095
   43.5000   -69.6146     5.7129     5.0932    86.0976     8.3036     2.3583     0.1929     0.0095
   44.0000   -69.6969     5.5849     4.8676    86.4717     8.2884     2.3504     0.2063     0.0106
   44.5000   -69.7811     5.4822     4.4920    86.8310     8.2735     2.3249     0.2224     0.0133
   45.0000   -69.8655     5.3281     4.1453    86.9049     8.2586     2.2990     0.2385     0.0161
   45.5000   -69.9501     5.1709     3.8525    86.6034     8.2434     2.2729     0.2539     0.0219
   46.0000   -70.0346     4.7119     3.6790    86.3029     8.2380     2.2627     0.2539     0.0320
   46.5000   -70.1191     4.1480     3.5463    86.0723     8.2499     2.3033     0.2326     0.0381
   47.0000   -70.2036     3.8168     3.5610    86.8701     8.2908     2.3395     0.2124     0.0308
   47.5000   -70.2881     3.7237     3.5731    87.6754     8.5213     2.3725     0.1922     0.0237
   48.0000   -70.3728     3.6321     3.6176    88.4634     8.6256     2.3833     0.1772     0.0215
   48.5000   -70.4572     3.5464     3.7133    88.8277     8.1088     2.3898     0.1759     0.0215
   49.0000   -70.5410     3.6544     3.9255    87.8613     8.1036     2.3893     0.1754     0.0215
   49.5000   -70.5527     3.8303     4.1432    86.9408     8.1227     2.3886     0.1751     0.0215
   50.0000   -70.4803     4.0147     4.3730    86.0207     8.1424     2.3881     0.1735     0.0215
   50.5000   -70.4087     4.1068     4.6737    85.0569     8.1618     2.4023     0.1682     0.0215
   51.0000   -70.3364     4.1580     4.6233    85.0933     8.1812     2.4099     0.1651     0.0215
   51.5000   -70.2630     4.2238     4.5984    85.4567     8.1990     2.4071     0.1695     0.0214
   52.0000   -70.1942     4.1940     4.5738    85.8332     8.1951     2.3973     0.1758     0.0214
