~VERSION INFORMATION
 VERS.                2.0:   CWLS LOG ASCII STANDARD - VERSION 2.0
 WRAP.                 NO:   ONE LINE PER DEPTH STEP
~WELL INFORMATION
#MNEM.UNIT      DATA TYPE    INFORMATION
#----------   ------------   ------------------------------
 STRT.F            0.0000:   START DEPTH
 STOP.F          633.0000:   STOP DEPTH
 STEP.F            0.5000:   STEP LENGTH
 NULL.          -999.2500:   NO VALUE
 COMP.       F D SERV INC:   COMPANY
 WELL.    82-1 SX-3 #82-3:   WELL
 FLD .          NPR NO. 3:   FIELD
 LOC .       S3 T38N R78W:   LOCATION
 CNTY.            NATRONA:   COUNTY
 STAT.            WYOMING:   STATE
 CTRY. UNITED STATES OF AMERICA:   COUNTRY
 SRVC.     Atlas Wireline:   SERVICE COMPANY
 DATE.        14-APR-1992:   LOGDATE
 API .       490252250600:   API NUMBER
~CURVE INFORMATION
#MNEM.UNIT       API CODE    CURVE DESCRIPTION
#----------   ------------   ------------------------------
 DEPT.F                  :   
 GRR .GAPI   07 310 01 00:   GAMMA RAY FROM RES
 RILD.OHMM   07 120 46 00:   INDUCTION LOG DEEP RESISTIVITY
 RILM.OHMM   07 120 44 00:   INDUCTION LOG MEDIUM RESISTIVITY
~PARAMETER INFORMATION
#MNEM.UNIT          VALUE    DESCRIPTION
#----------   ------------   ------------------------------
 PD  .                 GL:   PERMANENT DATUM
 EPD .F              5120:   ELEVATION PERMANENT DATUM
 LMF .                 KB:   LOG MEASURED FROM
 DAPD.F                 5:   FEET ABOVE PERMANENT DATUM
 DMF .                 KB:   DRILLING MEASURED FROM
 EKB .F              5125:   KELLING BUSHING
 EDF .F              5124:   DRILLING FLOOR
 EGL .F              5120:   GROUND LEVEL
 DATE.        14-APR-1992:   RUN DATE
 RUN .                  1:   RUN NUMBER
 DD  .F               640:   DEPTH DRILLER
 DL  .F               636:   DEPTH LOGGER
 BLI .F               633:   BOTTOM LOG INTERVAL
 CS  .IN            8.625:   CASING SIZE
 CBD .F                43:   CASING BOTTOM DRILLER
 CBL .F                42:   CASING BOTTOM LOGGER
 BS  .IN            7.875:   BIT SIZE
 BSD .F               640:   BIT SIZE AT DEPTH
 DFT .                AIR:   DRILLING FLUID TYPE
 LUN .           HL- 6321:   LOGGING UNIT NUMBER
 LUL .        RK. SPRINGS:   LOGGING UNIT LOCATION
 ENGI.            TRIBBLE:   RECORDING ENGINEER
 WITN.             STRONG:   WITNESSED BY
 CLNT.            A2DTECH:   CLIENT CODE
 ORIG.           5" PRINT:   ORIGIN OF DATA
 UWI .       490252250600:   UNIQUE WELL ID
 DICO. A2D Technologies, Inc.:   DIGITIZING COMPANY
~OTHER INFORMATION
~A    DEPT     GRR       RILD       RILM   
    0.0000  -999.2500  -999.2500  -999.2500
    0.5000    35.1596  -999.2500  -999.2500
    1.0000    36.9859  -999.2500  -999.2500
    1.5000    38.1240  -999.2500  -999.2500
    2.0000    38.7167  -999.2500  -999.2500
    2.5000    39.6035  -999.2500  -999.2500
    3.0000    40.1963  -999.2500  -999.2500
    3.5000    44.1134  -999.2500  -999.2500
    4.0000    48.9441  -999.2500  -999.2500
    4.5000    52.2596  -999.2500  -999.2500
    5.0000    54.0600  -999.2500  -999.2500
    5.5000    52.8301  -999.2500  -999.2500
    6.0000    50.6788  -999.2500  -999.2500
    6.5000    49.7642  -999.2500  -999.2500
    7.0000    51.2571  -999.2500  -999.2500
    7.5000    53.3605  -999.2500  -999.2500
    8.0000    55.1609  -999.2500  -999.2500
    8.5000    54.8401  -999.2500  -999.2500
    9.0000    55.1253  -999.2500  -999.2500
    9.5000    57.8348  -999.2500  -999.2500
   10.0000    61.4534  -999.2500  -999.2500
   10.5000    63.8598  -999.2500  -999.2500
   11.0000    64.4485  -999.2500  -999.2500
   11.5000    62.9151  -999.2500  -999.2500
   12.0000    61.6848  -999.2500  -999.2500
   12.5000    61.6667  -999.2500  -999.2500
   13.0000    62.2512  -999.2500  -999.2500
   13.5000    63.4455  -999.2500  -999.2500
   14.0000    63.1247  -999.2500  -999.2500
   14.5000    60.6827  -999.2500  -999.2500
   15.0000    57.6346  -999.2500  -999.2500
   15.5000    56.4047  -999.2500  -999.2500
   16.0000    57.2960  -999.2500  -999.2500
   16.5000    57.8848  -999.2500  -999.2500
   17.0000    58.7758  -999.2500  -999.2500
   17.5000    57.5252  -999.2500  -999.2500
   18.0000    55.6364  -999.2500  -999.2500
   18.5000    52.9601  -999.2500  -999.2500
   19.0000    51.7302  -999.2500  -999.2500
   19.5000    52.9245  -999.2500  -999.2500
   20.0000    55.9370  -999.2500  -999.2500
   20.5000    58.6465  -999.2500  -999.2500
   21.0000    60.1439  -999.2500  -999.2500
   21.5000    61.6412  -999.2500  -999.2500
   22.0000    62.5369  -999.2500  -999.2500
   22.5000    59.7874  -999.2500  -999.2500
   23.0000    56.4363  -999.2500  -999.2500
   23.5000    54.9030  -999.2500  -999.2500
   24.0000    56.0977  -999.2500  -999.2500
   24.5000    56.9890  -999.2500  -999.2500
   25.0000    56.3607  -999.2500  -999.2500
   25.5000    55.4338  -999.2500  -999.2500
   26.0000    55.4160  -999.2500  -999.2500
   26.5000    56.0042  -999.2500  -999.2500
   27.0000    57.5016  -999.2500  -999.2500
   27.5000    58.3974  -999.2500  -999.2500
   28.0000    58.9818  -999.2500  -999.2500
   28.5000    59.5694  -999.2500  -999.2500
   29.0000    58.9374  -999.2500  -999.2500
   29.5000    57.3778  -999.2500  -999.2500
   30.0000    56.4813  -999.2500  -999.2500
   30.5000    57.0740  -999.2500  -999.2500
   31.0000    58.2639  -999.2500  -999.2500
   31.5000    56.4279  -999.2500  -999.2500
   32.0000    55.1980  -999.2500  -999.2500
   32.5000    55.7862  -999.2500  -999.2500
   33.0000    57.2836  -999.2500  -999.2500
   33.5000    58.4779  -999.2500  -999.2500
   34.0000    57.2480  -999.2500  -999.2500
   34.5000    56.3211  -999.2500  -999.2500
   35.0000    59.4748  -999.2500  -999.2500
   35.5000    68.3111  -999.2500  -999.2500
   36.0000    79.5966  -999.2500  -999.2500
   36.5000    82.6091  -999.2500  -999.2500
   37.0000    83.8034  -999.2500  -999.2500
   37.5000    84.3962  -999.2500  -999.2500
   38.0000    82.2512  -999.2500  -999.2500
   38.5000    81.0213  -999.2500  -999.2500
   39.0000    79.7914  -999.2500  -999.2500
   39.5000    78.5615  -999.2500  -999.2500
   40.0000    75.5134  -999.2500  -999.2500
   40.5000    74.2879  -999.2500  -999.2500
   41.0000    83.3566  -999.2500  -999.2500
   41.5000   105.1570  -999.2500  -999.2500
   42.0000   118.7755  -999.2500  -999.2500
   42.5000   124.5354     4.4415     2.8440
   43.0000   123.1758     8.8807     2.9038
   43.5000   119.0207    52.3939     3.4105
   44.0000   120.8211  2221.5566     3.8409
   44.5000   122.9245 10085.3643     4.4483
   45.0000   123.8203 10085.3643     5.7222
   45.5000   119.2526    11.0661     7.2585
   46.0000   115.5984     6.9700     7.1566
   46.5000   118.3079     6.3132     6.2492
   47.0000   121.6234     7.1180     5.5555
   47.5000   123.4242     6.9214     6.0052
   48.0000   121.5878     6.7302     6.5763
   48.5000   119.0788     6.5902     6.7623
   49.0000   115.3455     6.4986     6.4379
   49.5000   113.9542     6.4082     6.1723
   50.0000   113.8788     6.3634     5.8764
   50.5000   114.5262     6.2691     5.7939
   51.0000   114.2053     6.2311     5.8748
   51.5000   114.1876     6.3634     6.1259
   52.0000   114.1698     6.4986     6.3438
   52.5000   116.6667     6.5442     6.5269
   53.0000   121.4024     6.5442     6.7064
   53.5000   124.7180     6.6366     6.8000
   54.0000   120.7608     6.7302     6.8470
   54.5000   114.9854     6.7775     6.9424
   55.0000   113.1539     6.8731     6.9904
   55.5000   117.9801     7.0684     7.0877
   56.0000   120.3866     7.1180     7.1867
   56.5000   116.4294     7.2692     7.2872
   57.0000   108.2298     7.4236     7.3887
   57.5000   108.2020     7.5283     7.4918
   58.0000   114.3192     7.6345     7.5462
   58.5000   117.5703     7.6345     7.6561
   59.0000   116.0329     7.6881     7.7551
   59.5000   113.5909     7.6881     7.7541
   60.0000   111.7549     7.8077     7.7530
   60.5000   111.4341     7.6979     7.5909
   61.0000   111.7193     7.5369     7.4844
   61.5000   112.0090     7.4312     7.3278
   62.0000   110.7746     7.3269     7.2250
   62.5000   111.0599     7.2240     7.1236
   63.0000   112.5572     7.1226     7.1226
   63.5000   113.1455     7.0720     7.1213
   64.0000   112.5212     7.0708     7.0710
   64.5000   114.6484     7.0698     7.0611
   65.0000   121.2695     7.0689     7.0195
   65.5000   122.1652     7.0679     7.0186
   66.0000   120.0218     7.1168     7.0671
   66.5000   113.6403     7.1656     7.1155
   67.0000   110.2892     7.1646     7.1146
   67.5000   112.6956     7.1636     7.1636
   68.0000   116.0112     7.1626     7.1626
   68.5000   116.0323     7.1616     7.1616
   69.0000   111.1271     7.1604     7.2109
   69.5000   105.0061     7.1595     7.2099
   70.0000   102.5657     7.1585     7.2089
   70.5000   104.0996     7.1575     7.2586
   71.0000   107.7181     7.2070     7.2573
   71.5000   110.1246     7.2058     7.3075
   72.0000   111.0159     7.2555     7.3063
   72.5000   110.0890     7.3054     7.3053
   73.0000   109.4651     7.3088     7.3043
   73.5000   109.1488     7.4064     7.3548
   74.0000   112.1568     7.4573     7.4572
   74.5000   121.8360     7.5087     7.5086
   75.0000   126.0606     7.5074     7.5075
   75.5000   125.6869     7.5064     7.5065
   76.0000   122.8363     7.4010     7.5054
   76.5000   119.9422     7.2972     7.3999
   77.0000   118.7122     7.2453     7.2960
   77.5000   117.7854     7.0938     7.1435
   78.0000   114.7373     7.0374     7.0432
   78.5000   111.6892     6.8958     6.8959
   79.0000   111.9744     6.8468     6.8469
   79.5000   116.8051     6.7981     6.7982
   80.0000   123.4540     6.7498     6.7499
   80.5000   125.5574     6.7018     6.7019
   81.0000   122.4363     6.7009     6.6542
   81.5000   113.2848     6.6532     6.6069
   82.0000   111.8676     6.5599     6.5597
   82.5000   114.2696     6.5132     6.5131
   83.0000   117.5852     6.5123     6.5122
   83.5000   122.1128     6.5112     6.5113
   84.0000   126.6405     6.5103     6.5104
   84.5000   128.7483     6.5095     6.5095
   85.0000   122.0594     6.5545     6.5545
   85.5000   118.7083     6.5534     6.5994
   86.0000   118.3875     6.5987     6.6449
   86.5000   118.0666     6.6906     6.6440
   87.0000   117.7212     6.7367     6.7367
   87.5000   116.4142     6.8347     6.8307
   88.0000   110.4330     6.9261     6.9261
   88.5000   106.1728     7.0227     7.0721
   89.0000   105.5490     7.1205     7.1705
   89.5000   109.1675     7.1698     7.2706
   90.0000   114.6043     7.2696     7.3207
   90.5000   115.8031     7.2686     7.3197
