~VERSION INFORMATION
 VERS.                2.0:   CWLS LOG ASCII STANDARD - VERSION 2.0
 WRAP.                 NO:   ONE LINE PER DEPTH STEP
~WELL INFORMATION
#MNEM.UNIT      DATA TYPE    INFORMATION
#----------   ------------   ------------------------------
 STRT.F           30.0000:   START DEPTH
 STOP.F          509.0000:   STOP DEPTH
 STEP.F            0.5000:   STEP LENGTH
 NULL.          -999.2500:   NO VALUE
 COMP. FENIX & SCISSON INC:   COMPANY
 WELL.   NPR 3 #45 SX 3-3:   WELL
 FLD .             TEAPOT:   FIELD
 LOC .       S3 T38N R78W:   LOCATION
 CNTY.            NATRONA:   COUNTY
 STAT.            WYOMING:   STATE
 CTRY. UNITED STATES OF AMERICA:   COUNTRY
 SRVC.            Unknown:   SERVICE COMPANY
 DATE.        05-OCT-1978:   LOGDATE
 API .       490251071700:   API NUMBER
~CURVE INFORMATION
#MNEM.UNIT       API CODE    CURVE DESCRIPTION
#----------   ------------   ------------------------------
 DEPT.F                  :   
 SPR .MV     05 010 01 00:   SPONTANEOUS POTENTIAL FROM RES.
 SN  .OHMM   05 040 16 00:   SHORT NORMAL 16"
 ILD .OHMM   05 120 46 00:   INDUCTION LOG DEEP
 GRD .GAPI   45 310 01 00:   GAMMA RAY FROM DENSITY LOG
 CALD.IN     45 280 60 00:   CALIPER
 RHOB.G/C3   45 350 01 00:   BULK DENSITY
 DPHI.DEC    45 890 12 00:   DENSITY POROSITY SANDSTONE
 CORR.G/C3   45 356 01 00:   DENSITY CORRECTION
~PARAMETER INFORMATION
#MNEM.UNIT          VALUE    DESCRIPTION
#----------   ------------   ------------------------------
 PD  .                 GL:   PERMANENT DATUM
 EPD .F              5188:   ELEVATION PERMANENT DATUM
 LMF .                 KB:   LOG MEASURED FROM
 DAPD.F                 4:   FEET ABOVE PERMANENT DATUM
 DMF .                 KB:   DRILLING MEASURED FROM
 EKB .F              5192:   KELLING BUSHING
 EGL .F              5188:   GROUND LEVEL
 DATE.            10-5-78:   RUN DATE
 RUN .                  1:   RUN NUMBER
 DD  .F               510:   DEPTH DRILLER
 DL  .F               509:   DEPTH LOGGER
 BLI .F               503:   BOTTOM LOG INTERVAL
 TLI .F                48:   TOP LOG INTERVAL
 CS  .IN            8.625:   CASING SIZE
 CBL .F                46:   CASING BOTTOM LOGGER
 BS  .IN            7.875:   BIT SIZE
 BSD .F               510:   BIT SIZE AT DEPTH
 DFT .                KCL:   DRILLING FLUID TYPE
 DFD .                8.7:   DRILLING FLUID DENSITY
 DFV .                 37:   DRILLING FLUID VISCOSITY
 DFPH.                  9:   DRILLING FLUID PH
 DFL .               10.4:   DRILLING FLUID LOSS
 MSS .            MUD PIT:   MUD SAMPLE SOURCE
 RMS .OHMM            .28:   RESISTIVITY MUD SAMPLE
 MST .F                58:   MUD SAMPLE TEMPERATURE
 RMF .OHMM            .32:   RESISTIVITY MUD FILTRATE SAMPLE
 MFST.F                54:   MUD FILTRATE SAMPLE TEMPERATURE
 RMC .OHMM            .24:   RESISTIVITY MUD CAKE
 MCST.F                56:   MUD CAKE SAMPLE TEMPERATURE
 MFSS.               MEAS:   MUD FILTRATE SAMPLE SOURCE
 MCSS.               MEAS:   MUD CAKE SAMPLE SOURCE
 BHT .F                64:   BOTTOM HOLE TEMPERATURE
 TCS .HRS               2:   TIME CURCULATED STOPPED
 MRT .F                64:   MAXIMUM RECORDED TEMPERATURE
 LUN .               2958:   LOGGING UNIT NUMBER
 LUL .               CASP:   LOGGING UNIT LOCATION
 ENGI.             MILLER:   RECORDING ENGINEER
 WITN.           DINSMORE:   WITNESSED BY
 CLNT.            A2DTECH:   CLIENT CODE
 ORIG.       2", 5" PRINT:   ORIGIN OF DATA
 UWI .       490251071700:   UNIQUE WELL ID
 DICO. A2D Technologies, Inc.:   DIGITIZING COMPANY
~OTHER INFORMATION
~A   DEPT      SPR         SN        ILD         GRD      CALD       RHOB       DPHI       CORR   
# ...
  354.0000    -5.0330    14.1041    15.6077    80.8156     7.2649     2.4287     0.1528     0.0529
  354.5000    -5.4803    13.9275    15.4897    80.8498     7.3004     2.4333     0.1516     0.0622
  355.0000    -5.5564    13.7522    15.2350    80.8843     7.3289     2.4320     0.1504     0.0717
  355.5000    -5.6406    13.5796    14.9843    80.9158     7.3572     2.4294     0.1530     0.0854
  356.0000    -5.7261    13.4084    14.7732    80.8096     7.3856     2.4273     0.1556     0.0992
  356.5000    -5.8116    13.4084    14.6158    80.5384     7.4139     2.4326     0.1516     0.1129
  357.0000    -5.8972    13.4084    14.4604    80.2682     7.4420     2.4411     0.1464     0.1193
  357.5000    -5.9827    13.4084    14.3066    79.9918     7.4618     2.4493     0.1427     0.1165
  358.0000    -6.0683    13.4084    14.1544    79.9658     7.4655     2.4553     0.1390     0.1122
  358.5000    -6.1538    13.4084    14.0336    80.0323     7.4696     2.4612     0.1356     0.1064
  359.0000    -6.2393    13.4084    14.0139    80.0992     7.4735     2.4692     0.1325     0.1010
  359.5000    -6.3249    13.4084    13.9937    80.1657     7.4774     2.4800     0.1234     0.0959
  360.0000    -6.4105    13.4084    13.9735    80.2320     7.4789     2.4940     0.1114     0.0803
  360.5000    -6.4961    13.4084    13.9531    80.2983     7.4748     2.5046     0.1076     0.0552
  361.0000    -6.5815    13.4084    13.9331    80.3646     7.4709     2.4914     0.1160     0.0299
  361.5000    -6.6509    13.4084    13.9106    80.4309     7.4668     2.4737     0.1245     0.0204
  362.0000    -6.6622    13.4084    14.0899    80.4972     7.4630     2.4690     0.1294     0.0142
  362.5000    -6.6744    13.4084    14.2954    80.5636     7.4652     2.4576     0.1366     0.0081
  363.0000    -6.6867    13.4084    14.5648    80.6299     7.4868     2.4426     0.1458     0.0076
  363.5000    -6.6990    13.4084    14.5546    80.6962     7.5071     2.4276     0.1550     0.0078
  364.0000    -6.7113    13.4087    14.5403    80.7625     7.5179     2.4250     0.1576     0.0079
  364.5000    -6.7237    13.4084    14.5260    80.8288     7.5120     2.4272     0.1570     0.0081
  365.0000    -6.7360    13.4084    14.5117    80.8951     7.5063     2.4300     0.1549     0.0082
  365.5000    -6.7483    13.2662    14.4974    80.9615     7.5007     2.4327     0.1527     0.0084
  366.0000    -6.7606    12.9244    14.4831    81.0279     7.4960     2.4367     0.1504     0.0085
  366.5000    -6.7730    12.8948    14.4690    81.0935     7.4915     2.4402     0.1490     0.0087
  367.0000    -6.7853    12.8639    14.4549    81.1292     7.4871     2.4400     0.1484     0.0088
  367.5000    -6.7976    12.8331    14.4403    81.1101     7.4826     2.4400     0.1484     0.0089
  368.0000    -6.8099    12.8024    14.3217    81.0919     7.4781     2.4421     0.1468     0.0091
  368.5000    -6.8223    12.7718    14.0401    81.0735     7.4736     2.4520     0.1435     0.0093
  369.0000    -6.8346    12.7412    13.7641    81.0551     7.4692     2.4616     0.1359     0.0094
  369.5000    -6.8461    12.7107    13.6412    81.0368     7.4648     2.4700     0.1287     0.0089
  370.0000    -6.8442    12.6803    13.6149    81.0184     7.4597     2.4757     0.1240     0.0069
  370.5000    -6.8469    12.6499    13.5886    81.0001     7.4334     2.4816     0.1211     0.0050
  371.0000    -6.3962    12.6197    13.5624    80.9817     7.4059     2.4867     0.1184     0.0031
  371.5000    -5.9022    12.5895    13.5366    80.9648     7.3798     2.4822     0.1191     0.0012
  372.0000    -6.0190    12.5728    13.4735    80.9494     7.3584     2.4772     0.1235    -0.0006
  372.5000    -4.8973    12.8213    13.4084    80.9260     7.3378     2.4689     0.1285    -0.0013
  373.0000    -4.2129    12.9957    13.6008    80.1516     7.3172     2.4599     0.1350    -0.0020
  373.5000    -3.5495    13.1725    13.8277    77.9847     7.3014     2.4509     0.1415    -0.0027
  374.0000    -2.8838    13.3517    14.0390    77.2516     7.3076     2.4418     0.1502    -0.0034
  374.5000    -2.2087    13.7966    15.3492    77.0063     7.3133     2.4280     0.1593    -0.0042
  375.0000    -1.9428    14.3826    16.6490    76.8362     7.3193     2.4080     0.1686    -0.0060
  375.5000    -1.7657    14.9929    18.0133    74.7404     7.3207     2.3877     0.1762    -0.0092
  376.0000    -1.5922    15.6294    19.4893    70.8245     7.3207     2.3828     0.1809    -0.0124
  376.5000    -1.5163    16.2929    21.0863    68.7261     7.3207     2.3616     0.1924    -0.0114
  377.0000    -1.5892    16.9846    22.8919    68.5167     7.3207     2.3391     0.2061    -0.0095
  377.5000    -1.6608    17.7056    25.0250    68.7264     7.3207     2.3206     0.2202    -0.0047
  378.0000    -1.6862    18.4968    27.3568    68.9443     7.3244     2.2986     0.2312    -0.0005
  378.5000    -1.6866    18.9077    27.9730    69.1592     7.3404     2.2914     0.2344    -0.0002
  379.0000    -1.6866    19.3668    27.9278    69.3733     7.3557     2.3067     0.2294     0.0000
  379.5000    -1.6864    19.3902    27.6520    69.5875     7.3710     2.3212     0.2171     0.0002
  380.0000    -1.6872    19.4145    27.3772    69.8018     7.3863     2.3204     0.2155     0.0004
  380.5000    -1.6470    19.4388    27.2100    70.0165     7.4016     2.3168     0.2203     0.0006
  381.0000    -1.5888    19.4632    27.2114    70.2275     7.4169     2.3144     0.2247     0.0009
  381.5000    -1.5305    19.4877    27.2122    70.3691     7.4323     2.3156     0.2232     0.0011
  382.0000    -1.4972    19.5117    27.2121    70.3255     7.4476     2.3167     0.2219     0.0013
  382.5000    -1.5413    19.5473    27.2121    70.2857     7.4609     2.3174     0.2212     0.0019
  383.0000    -1.5830    19.3896    27.2121    70.2452     7.4631     2.3178     0.2216     0.0043
  383.5000    -1.6245    19.1416    27.2121    70.2049     7.4655     2.3183     0.2219     0.0067
  384.0000    -1.6658    18.8969    27.2121    70.1646     7.4679     2.3212     0.2223     0.0076
  384.5000    -1.6840    18.6677    27.2123    70.1243     7.4704     2.3266     0.2186     0.0078
  385.0000    -1.6905    18.7284    27.2132    70.0835     7.4728     2.3328     0.2153     0.0079
  385.5000    -2.0798    18.7863    27.2091    70.0425     7.4753     2.3392     0.2110     0.0081
  386.0000    -2.5083    18.8379    27.2161    70.0079     7.4777     2.3455     0.2054     0.0082
  386.5000    -2.8876    18.4513    26.7493    70.2383     7.4800     2.3496     0.1999     0.0084
  387.0000    -2.8784    18.0930    26.3927    70.8579     7.4784     2.3487     0.2013     0.0086
  387.5000    -2.8756    17.7431    26.0399    71.1997     7.4768     2.3455     0.2044     0.0087
  388.0000    -2.8758    17.4988    25.6920    71.2501     7.4751     2.3419     0.2072     0.0089
  388.5000    -2.9729    17.4808    25.3488    71.3003     7.4735     2.3420     0.2078     0.0091
  389.0000    -3.6161    17.4628    24.9723    71.3500     7.4719     2.3432     0.2070     0.0092
  389.5000    -4.2459    17.4449    24.3378    71.4002     7.4702     2.3481     0.2055     0.0094
  390.0000    -4.3882    17.4269    23.6079    71.4495     7.4686     2.3586     0.2006     0.0095
  390.5000    -4.5069    17.4090    22.6424    71.5002     7.4670     2.3697     0.1914     0.0096
  391.0000    -4.6279    17.3911    22.3599    71.5481     7.4653     2.3797     0.1846     0.0096
  391.5000    -4.7496    17.3732    22.0659    72.1733     7.4637     2.3843     0.1805     0.0097
  392.0000    -4.8713    17.3553    21.7389    73.2834     7.4620     2.3843     0.1798     0.0098
  392.5000    -4.9930    17.3375    21.2411    74.3339     7.4599     2.3829     0.1822     0.0098
  393.0000    -5.1150    17.3196    20.7548    74.2747     7.4778     2.3742     0.1867     0.0099
  393.5000    -5.2377    17.3018    20.4649    74.1749     7.4992     2.3654     0.1912     0.0099
  394.0000    -5.2772    17.2840    20.5630    74.0804     7.5208     2.3579     0.1957     0.0100
