~VERSION INFORMATION
 VERS.                2.0:   CWLS LOG ASCII STANDARD - VERSION 2.0
 WRAP.                 NO:   ONE LINE PER DEPTH STEP
~WELL INFORMATION
#MNEM.UNIT      DATA TYPE    INFORMATION
#----------   ------------   ------------------------------
 STRT.F            6.0000:   START DEPTH
 STOP.F          765.0000:   STOP DEPTH
 STEP.F            0.5000:   STEP LENGTH
 NULL.          -999.2500:   NO VALUE
 COMP. FENIX & SCISSON INC:   COMPANY
 WELL.      24 SX 2 #24-2:   WELL
 FLD .        TEAPOT DOME:   FIELD
 LOC .       S2 T38N R78W:   LOCATION
 CNTY.            NATRONA:   COUNTY
 STAT.            WYOMING:   STATE
 CTRY. UNITED STATES OF AMERICA:   COUNTRY
 SRVC.           BIRDWELL:   SERVICE COMPANY
 DATE.        20-JAN-1978:   LOGDATE
 API .       490251055700:   API NUMBER
~CURVE INFORMATION
#MNEM.UNIT       API CODE    CURVE DESCRIPTION
#----------   ------------   ------------------------------
 DEPT.F                  :   
 SPR .MV     05 010 01 00:   SPONTANEOUS POTENTIAL FROM RES.
 SN  .OHMM   05 040 16 00:   SHORT NORMAL 16"
 ILD .OHMM   05 120 46 00:   INDUCTION LOG DEEP
 CALD.IN     45 280 60 00:   CALIPER FROM DENSITY LOG
 CORR.G/C3   45 356 01 00:   DENSITY CORRECTION
 DEN .G/C3   45 350 01 00:   COMPENSATED BULK DENSTIY
 DPHI.DEC    45 890 12 00:   DENSITY POROSITY SANDSTONE
 GRD .GAPI   45 310 01 00:   GAMMA RAY FROM DENSITY LOG
~PARAMETER INFORMATION
#MNEM.UNIT          VALUE    DESCRIPTION
#----------   ------------   ------------------------------
 PD  .                 GL:   PERMANENT DATUM
 EPD .F              5131:   ELEVATION PERMANENT DATUM
 LMF .                 KB:   LOG MEASURED FROM
 DMF .                 KB:   DRILLING MEASURED FROM
 EKB .F              5134:   KELLING BUSHING
 EGL .F              5131:   GROUND LEVEL
 DATE.        20-JAN-1978:   RUN DATE
 RUN .                  1:   RUN NUMBER
 DD  .F               775:   DEPTH DRILLER
 DL  .F               770:   DEPTH LOGGER
 BLI .F               770:   BOTTOM LOG INTERVAL
 TLI .F                40:   TOP LOG INTERVAL
 CS  .IN            8.625:   CASING SIZE
 CBD .F                39:   CASING BOTTOM DRILLER
 CBL .F                39:   CASING BOTTOM LOGGER
 BS  .IN            7.875:   BIT SIZE
 BSD .F               775:   BIT SIZE AT DEPTH
 DFT .                KCL:   DRILLING FLUID TYPE
 DFD .                8.6:   DRILLING FLUID DENSITY
 DFV .                 33:   DRILLING FLUID VISCOSITY
 DFPH.                9.5:   DRILLING FLUID PH
 DFL .                  8:   DRILLING FLUID LOSS
 MSS .           FLOWLINE:   MUD SAMPLE SOURCE
 RMS .OHMM            .31:   RESISTIVITY MUD SAMPLE
 MST .F                54:   MUD SAMPLE TEMPERATURE
 RMF .OHMM            .28:   RESISTIVITY MUD FILTRATE SAMPLE
 MFST.F                64:   MUD FILTRATE SAMPLE TEMPERATURE
 RMC .OHMM             .8:   RESISTIVITY MUD CAKE
 MCST.F                64:   MUD CAKE SAMPLE TEMPERATURE
 MFSS.               MEAS:   MUD FILTRATE SAMPLE SOURCE
 MCSS.               MEAS:   MUD CAKE SAMPLE SOURCE
 RMB .OHMM            .22:   RESISTIVITY MUD AT BHT
 BHT .F                76:   BOTTOM HOLE TEMPERATURE
 TCS .HRS            0400:   TIME CURCULATED STOPPED
 MRT .F                76:   MAXIMUM RECORDED TEMPERATURE
 LUN .               2958:   LOGGING UNIT NUMBER
 LUL .             CASPER:   LOGGING UNIT LOCATION
 ENGI.            POINTER:   RECORDING ENGINEER
 WITN.           MCGINLEY:   WITNESSED BY
 CLNT.            A2DTECH:   CLIENT CODE
 ORIG.           5" PRINT:   ORIGIN OF DATA
 UWI .       490251055700:   UNIQUE WELL ID
 DICO. A2D Technologies, Inc.:   DIGITIZING COMPANY
~OTHER INFORMATION
~A    DEPT     SPR         SN        ILD       CALD       CORR        DEN       DPHI         GRD  
# ...
  694.5000   -37.1055    11.0990    10.8135     7.8771     0.0902     2.3888     0.1613    60.6405
  695.0000   -38.0120    11.0944    10.8083     7.9068     0.0909     2.3889     0.1577    65.4508
  695.5000   -38.0211    11.0898    10.8031     7.9063     0.0908     2.3970     0.1552    66.6467
  696.0000   -38.0301    11.0852    10.7979     7.9073     0.0915     2.4030     0.1514    63.9269
  696.5000   -38.0392    11.0040    10.7181     7.9355     0.0914     2.4077     0.1491    56.3879
  697.0000   -38.1988    10.9234    10.6390     7.9350     0.0914     2.4129     0.1468    54.5717
  697.5000   -38.2096    10.9189    10.5506     7.9346     0.0913     2.4156     0.1426    55.4664
  698.0000   -38.2186    10.8388    10.4823     7.9340     0.0905     2.4246     0.1383    58.7707
  698.5000   -38.2276    10.7594    10.4763     7.9336     0.0882     2.4298     0.1365    62.9786
  699.0000   -38.2366    10.7550    10.4712     7.9332     0.0874     2.4335     0.1365    65.0781
  699.5000   -38.3961    10.7505    10.5403     7.9327     0.0851     2.4304     0.1378    66.2741
  700.0000   -38.4084    10.7460    10.6072     7.9323     0.0843     2.4263     0.1399    64.1566
  700.5000   -38.4757    10.7792    10.6021     7.9317     0.0838     2.4221     0.1426    61.4979
  701.0000   -38.5430    10.8094    10.6720     7.9160     0.0835     2.4190     0.1456    52.9876
  701.5000   -38.7371    10.8019    10.6656     7.9004     0.0849     2.4152     0.1502    46.3616
  702.0000   -38.5961    10.7959    10.7359     7.8847     0.0864     2.4091     0.1574    46.3773
  702.5000   -38.7575    10.7900    10.7294     7.8691     0.0894     2.4031     0.1565    50.8935
  703.0000   -38.7681    10.7840    10.7243     7.8536     0.0938     2.3985     0.1565    53.5783
  703.5000   -38.7786    10.8546    10.7191     7.8680     0.0960     2.3970     0.1541    53.8804
  704.0000   -38.7892    10.8471    10.7140     7.8673     0.0982     2.4060     0.1481    54.4699
  704.5000   -38.8018    10.8411    10.7088     7.8667     0.1003     2.4119     0.1469    54.7830
  705.0000   -38.9629    10.8351    10.6298     7.8661     0.1018     2.4149     0.1409    56.5763
  705.5000   -39.1239    10.7542    10.6247     7.8655     0.1024     2.4231     0.1349    57.4749
  706.0000   -39.2850    10.7482    10.6196     7.8649     0.1024     2.4321     0.1374    58.0723
  706.5000   -39.4461    10.6680    10.5412     7.8643     0.1023     2.4283     0.1404    59.2850
  707.0000   -39.4566    10.6621    10.4633     7.8637     0.0996     2.4268     0.1377    61.6768
  707.5000   -39.4671    10.5092    10.3861     7.8631     0.0922     2.4267     0.1395    61.9579
  708.0000   -39.4775    10.3586    10.3811     7.8625     0.0894     2.4206     0.1552    60.4134
  708.5000   -39.4880    10.3529    10.3044     7.8619     0.0901     2.4056     0.1567    59.5191
  709.0000   -39.4985    10.2756    10.2283     7.8613     0.0900     2.4025     0.1534    58.3254
  709.5000   -39.5090    10.1283    10.1527     7.8607     0.0899     2.4032     0.1495    66.5475
  710.0000   -39.5195    10.0527    10.1478     7.8601     0.0876     2.4114     0.1459    69.1567
  710.5000   -39.5299    10.0471    10.0728     7.8595     0.0853     2.4174     0.1477    69.1506
  711.0000   -39.5404     9.9721    10.0670     7.8589     0.0845     2.4166     0.1471    69.7691
  711.5000   -39.5509     9.8977    10.0622     7.8735     0.0822     2.4166     0.1465    70.3435
  712.0000   -39.5614     9.8238     9.9879     7.8728     0.0836     2.4173     0.1472    68.7833
  712.5000   -39.5719     9.8183     9.6437     7.8721     0.0821     2.4195     0.1400    67.2941
  713.0000   -39.5824     9.7450     9.5063     7.8715     0.0783     2.4202     0.1330    67.6405
  713.5000   -39.5928     9.6054     9.4361     7.8861     0.0632     2.4314     0.1291    68.8134
  714.0000   -39.6033     9.4677     9.3663     7.8853     0.0557     2.4367     0.1436    63.6586
  714.5000   -39.6138     9.3320     9.2329     7.8847     0.0721     2.4321     0.1472    64.0111
  715.0000   -39.6243     9.1983     9.2284     7.8691     0.0810     2.4125     0.1497    66.8069
  715.5000   -39.9360     9.0664     9.0970     7.8685     0.0870     2.4109     0.1461    70.4200
  716.0000   -40.0970     8.9365     9.0298     7.8679     0.0877     2.4177     0.1413    73.3333
  716.5000   -40.2581     8.9316     8.9630     7.8673     0.0884     2.4251     0.1392    74.5993
  717.0000   -40.4192     8.8035     8.7744     7.8667     0.0853     2.4228     0.1413    78.1767
  717.5000   -40.7309     8.7378     8.5303     7.8661     0.0837     2.4190     0.1452    79.9098
  718.0000   -41.1932     8.5530     7.7378     7.8655     0.0837     2.4175     0.1482    79.6026
  718.5000   -41.5049     8.3721     6.7799     7.8649     0.0836     2.4174     0.1462    79.8978
  719.0000   -41.8166     8.1384     6.3228     7.8643     0.0783     2.4189     0.1426    81.2870
  719.5000   -41.8270     7.9112     5.9376     7.8637     0.0745     2.4181     0.1390    88.6324
  720.0000   -42.1387     7.5843     5.7725     7.8631     0.0782     2.4135     0.1474    95.5824
  720.5000   -42.2998     7.3215     5.7298     7.8475     0.1104     2.3954     0.1571    96.7412
  721.0000   -42.1596     6.7327     5.6882     7.8469     0.1163     2.3936     0.1523    92.3075
  721.5000   -42.0196     6.4099     5.7641     7.8614     0.1155     2.4262     0.1378    85.0652
  722.0000   -41.7288     6.5411     5.9232     7.8607     0.1132     2.4525     0.1213    72.0162
  722.5000   -41.5887     6.9107     6.3893     7.8601     0.1071     2.4555     0.1153    69.0062
  723.0000   -41.5994     7.5591     7.1847     7.8595     0.0988     2.4599     0.1102    72.7994
  723.5000   -41.4591     8.5011     7.7501     7.8589     0.0935     2.4674     0.1186    78.8210
  724.0000   -41.3190     8.8577     8.3599     7.8733     0.0934     2.4674     0.1210    81.0364
  724.5000   -41.3082     9.1654     8.7106     7.8727     0.0881     2.4696     0.1132    81.6817
  725.0000   -40.8881     9.3532     8.8279     7.8721     0.0843     2.4703     0.1126    82.2292
  725.5000   -40.4468     9.4132     8.8861     7.8715     0.0843     2.4702     0.1175    82.2229
  726.0000   -40.1587     9.5394     8.9435     7.8709     0.0805     2.4724     0.1054    78.6424
  726.5000   -40.0186     9.6006     9.0628     7.8553     0.0737     2.4762     0.1021    74.2732
  727.0000   -39.8758     9.6621     9.1849     7.8547     0.0759     2.4766     0.1121    73.4156
  727.5000   -39.5851     9.7238     9.3085     7.8541     0.0720     2.4663     0.1223    73.1627
  728.0000   -39.4450     9.7184     9.3699     7.8685     0.0705     2.4587     0.1260    73.4581
  728.5000   -39.3075     9.8489     9.4960     7.8675     0.0824     2.4579     0.1248    74.4700
  729.0000   -39.1674     9.9120     9.6239     7.8664     0.0891     2.4579     0.1164    78.8576
  729.5000   -39.1778    10.1148     9.8201     7.8653     0.0905     2.4699     0.1092    86.2626
  730.0000   -39.0351    10.2507     9.8848     7.8642     0.0905     2.4736     0.1095    93.9145
  730.5000   -39.0482    10.3882    10.0863     7.8631     0.0897     2.4758     0.1077    95.7157
  731.0000   -39.0587    10.5275    10.2932     7.8620     0.0881     2.4810     0.1032    86.9747
  731.5000   -38.7680    10.6688    10.4331     7.8609     0.0850     2.4862     0.1020    82.7518
  732.0000   -38.4772    10.8871    10.7198     7.8598     0.0850     2.4847     0.1053    80.9386
  732.5000   -38.3345    11.0332    10.8655     7.8587     0.0864     2.4786     0.1093    80.6313
  733.0000   -38.1944    11.2591    11.0870     7.8577     0.0864     2.4755     0.1120    79.7217
  733.5000   -38.0542    11.4105    11.3144     7.8566     0.0848     2.4815     0.0966    77.3061
  734.0000   -38.0673    11.5633    11.3876     7.8555     0.0780     2.4883     0.0885    68.8663
  734.5000   -38.0778    11.5569    11.3820     7.8544     0.0689     2.5025     0.0964    66.1494
