~VERSION INFORMATION
 VERS.                2.0:   CWLS LOG ASCII STANDARD - VERSION 2.0
 WRAP.                 NO:   ONE LINE PER DEPTH STEP
~WELL INFORMATION
#MNEM.UNIT      DATA TYPE    INFORMATION
#----------   ------------   ------------------------------
 STRT.F           14.0000:   START DEPTH
 STOP.F          513.0000:   STOP DEPTH
 STEP.F            0.1000:   STEP LENGTH
 NULL.          -999.2500:   NO VALUE
 COMP.       F D SERV INC:   COMPANY
 WELL.    52-1 SX-3 #52-3:   WELL
 FLD .             TEAPOT:   FIELD
 LOC .       S3 T38N R78W:   LOCATION
 CNTY.            NATRONA:   COUNTY
 STAT.            WYOMING:   STATE
 CTRY. UNITED STATES OF AMERICA:   COUNTRY
 SRVC.     Atlas Wireline:   SERVICE COMPANY
 DATE.        21-APR-1992:   LOGDATE
 API .       490252251400:   API NUMBER
~CURVE INFORMATION
#MNEM.UNIT       API CODE    CURVE DESCRIPTION
#----------   ------------   ------------------------------
 DEPT.F                  :   
 GRR .GAPI   07 310 01 00:   GAMMA RAY
 RILD.OHMM   07 120 46 00:   INDUCTION LOG DEEP RESISTIVITY
 RILM.OHMM   07 120 44 00:   INDUCTION LOG MEDIUM RESISTIVITY
~PARAMETER INFORMATION
#MNEM.UNIT          VALUE    DESCRIPTION
#----------   ------------   ------------------------------
 PD  .                 GL:   PERMANENT DATUM
 EPD .F              5115:   ELEVATION PERMANENT DATUM
 LMF .                 KB:   LOG MEASURED FROM
 DAPD.F                 5:   FEET ABOVE PERMANENT DATUM
 DMF .                 KB:   DRILLING MEASURED FROM
 EKB .F              5120:   KELLING BUSHING
 EDF .F              5119:   DRILLING FLOOR
 EGL .F              5115:   GROUND LEVEL
 DATE.        21-APR-1992:   RUN DATE
 RUN .                  1:   RUN NUMBER
 DD  .F               515:   DEPTH DRILLER
 DL  .F               520:   DEPTH LOGGER
 BLI .F               517:   BOTTOM LOG INTERVAL
 TLI .F                50:   TOP LOG INTERVAL
 CS  .IN            9.625:   CASING SIZE
 CBD .F                45:   CASING BOTTOM DRILLER
 CBL .F                50:   CASING BOTTOM LOGGER
 BS  .IN            7.875:   BIT SIZE
 BSD .F               515:   BIT SIZE AT DEPTH
 DFT .                AIR:   DRILLING FLUID TYPE
 LUN .            HL-6272:   LOGGING UNIT NUMBER
 LUL .             CASPER:   LOGGING UNIT LOCATION
 ENGI.       P. RASMUSSEN:   RECORDING ENGINEER
 WITN.          G. STRONG:   WITNESSED BY
 CLNT.            A2DTECH:   CLIENT CODE
 ORIG.           5" PRINT:   ORIGIN OF DATA
 UWI .       490252251400:   UNIQUE WELL ID
 DICO. A2D Technologies, Inc.:   DIGITIZING COMPANY
~OTHER INFORMATION
~A   DEPT      GRR       RILD       RILM   
# ...
  287.0000   140.0926     5.3027     5.0069
  287.1000   140.5836     5.3335     5.0353
  287.2000   141.2157     5.3933     5.1092
  287.3000   141.7823     5.4549     5.1803
  287.4000   142.0266     5.5006     5.2491
  287.5000   142.2958     5.5514     5.3358
  287.6000   142.7368     5.6467     5.4041
  287.7000   143.2278     5.7576     5.4853
  287.8000   143.7188     5.7858     5.5794
  287.9000   144.1545     5.8610     5.6749
  288.0000   144.3988     5.9617     5.7786
  288.1000   143.9030     6.0577     5.9148
  288.2000   143.4071     6.1296     5.9801
  288.3000   142.7753     6.2309     6.0740
  288.4000   142.1133     6.3115     6.1781
  288.5000   141.5920     6.4024     6.2734
  288.6000   140.7586     6.4910     6.3470
  288.7000   140.5399     6.5326     6.4736
  288.8000   140.1297     6.6633     6.5667
  288.9000   139.7396     6.7271     6.6328
  289.0000   139.5408     6.8040     6.6998
  289.1000   139.5383     6.8971     6.8082
  289.2000   139.5359     7.0023     6.8911
  289.3000   139.5335     7.0446     7.0012
  289.4000   139.5311     7.1585     7.0927
  289.5000   139.5287     7.2225     7.1734
  289.6000   139.5062     7.3045     7.2550
  289.7000   139.2214     7.4073     7.3376
  289.8000   138.7964     7.4513     7.4212
  289.9000   138.4566     7.5521     7.4717
  290.0000   138.1067     7.5873     7.5386
  290.1000   137.6109     7.6305     7.6094
  290.2000   137.0948     7.6740     7.6525
  290.3000   136.1459     7.7177     7.7005
  290.4000   134.9752     7.7652     7.7395
  290.5000   133.6133     7.8059     7.7834
  290.6000   132.0602     7.8504     7.8276
  290.7000   130.3758     7.8740     7.8624
  290.8000   129.2250     7.8740     7.8623
  290.9000   129.2230     7.8740     7.8622
  291.0000   129.2206     7.8740     7.8961
  291.1000   129.4095     7.9097     7.9168
  291.2000   129.9409     7.9290     7.9305
  291.3000   130.7237     7.9290     7.9718
  291.4000   131.6480     7.9290     7.9717
  291.5000   132.8087     7.9290     8.0103
  291.6000   134.2816     7.9290     8.0271
  291.7000   135.8099     7.9594     8.0269
  291.8000   136.7641     7.9843     8.0348
  291.9000   137.0533     7.9843     8.0827
  292.0000   137.2527     7.9843     8.0826
  292.1000   137.3510     7.9843     8.0825
  292.2000   137.3486     7.9843     8.0824
  292.3000   137.3462     7.9843     8.0823
  292.4000   137.3436     7.9843     8.0821
  292.5000   137.5680     7.9843     8.0820
  292.6000   137.8123     7.9843     8.0819
  292.7000   138.0566     7.9843     8.0818
  292.8000   138.3613     8.0141     8.0817
  292.9000   138.8575     8.0401     8.0816
  293.0000   139.5951     8.0401     8.0815
  293.1000   140.3329     8.0401     8.0814
  293.2000   141.2116     8.0401     8.0812
  293.3000   142.0249     8.0401     8.0811
  293.4000   142.4858     8.0401     8.0705
  293.5000   142.7550     8.0401     8.0249
  293.6000   142.7529     8.0401     8.0248
  293.7000   142.7504     8.0401     8.0247
  293.8000   142.7480     8.0401     8.0246
  293.9000   142.7456     8.0401     8.0245
  294.0000   142.7432     8.0401     8.0244
  294.1000   142.2473     8.0401     8.0242
  294.2000   141.9428     8.0401     8.0241
  294.3000   141.2858     8.0401     8.0240
  294.4000   140.2159     8.0401     8.0239
  294.5000   139.0051     8.0401     8.0238
  294.6000   137.8946     8.0401     8.0237
  294.7000   137.0265     8.0401     8.0236
  294.8000   136.3594     8.0401     8.0235
  294.9000   135.9692     8.0401     8.0234
  295.0000   135.7200     8.0122     8.0233
  295.1000   135.4658     7.9843     8.0231
  295.2000   134.9800     7.9770     8.0230
  295.3000   134.8568     7.9290     8.0229
  295.4000   134.8544     7.9290     8.0228
  295.5000   134.9275     7.8969     8.0055
  295.6000   135.1718     7.8740     7.9670
  295.7000   135.4510     7.8740     7.9669
  295.8000   135.4489     7.8740     7.9251
  295.9000   135.4465     7.8740     7.9115
  296.0000   135.4441     7.8740     7.9114
  296.1000   135.4417     7.8740     7.9002
  296.2000   135.4392     7.8740     7.8564
  296.3000   135.4369     7.8740     7.8563
  296.4000   135.2531     7.8740     7.8561
  296.5000   135.0040     7.8740     7.8560
  296.6000   134.7549     7.8740     7.8559
  296.7000   134.5208     7.8740     7.8558
  296.8000   134.5180     7.8740     7.8557
  296.9000   134.3096     7.8740     7.8556
  297.0000   134.2115     7.8740     7.8555
  297.1000   134.2091     7.8740     7.8554
  297.2000   134.2469     7.8740     7.8553
  297.3000   134.5062     7.8740     7.8552
  297.4000   134.5039     7.8740     7.8551
  297.5000   134.8540     7.8740     7.8549
  297.6000   135.3451     7.9143     7.8548
  297.7000   135.8361     7.9290     7.8683
  297.8000   136.3474     7.9493     7.9094
  297.9000   137.5126     7.9843     7.9093
  298.0000   137.9135     7.9843     7.9092
  298.1000   138.1124     8.0299     7.9371
  298.2000   138.1100     8.0401     7.9641
  298.3000   138.1075     8.0401     7.9718
  298.4000   138.1049     8.0550     8.0195
  298.5000   138.1027     8.0962     8.0194
  298.6000   137.9291     8.0962     8.0192
  298.7000   137.4484     8.0962     8.0415
  298.8000   136.5849     8.1263     8.0750
  298.9000   135.3538     8.1726     8.0748
  299.0000   134.3643     8.2096     8.0747
  299.1000   133.5715     8.2096     8.1119
  299.2000   132.9699     8.2555     8.1579
  299.3000   132.4741     8.2669     8.2041
  299.4000   132.0387     8.2669     8.2506
  299.5000   132.0360     8.2669     8.3018
  299.6000   132.0338     8.2669     8.3017
  299.7000   132.6961     8.2669     8.3016
  299.8000   133.6805     8.2669     8.3229
  299.9000   134.6649     8.2669     8.3593
  300.0000   135.6495     8.2096     8.3591
  300.1000   136.3855     8.2560     8.2750
  300.2000   137.1577     8.3027     8.1866
  300.3000   137.8575     8.3243     8.1866
  300.4000   138.0616     8.3242     8.2201
  300.5000   138.1813     8.3241     8.2437
  300.6000   138.3613     8.3239     8.2316
  300.7000   138.3601     8.2844     8.1851
  300.8000   138.3587     8.2094     8.1299
  300.9000   138.1603     8.1170     8.0931
  301.0000   138.0544     8.0190     7.9959
  301.1000   137.9686     7.8728     7.8764
  301.2000   137.6090     7.6333     7.7779
  301.3000   136.2379     7.4073     7.5840
  301.4000   134.9320     7.1828     7.4342
  301.5000   133.1341     6.9428     7.2153
  301.6000   131.1669     6.7083     6.9745
  301.7000   129.1033     6.5602     6.7341
  301.8000   126.5643     6.4138     6.4634
  301.9000   123.9491     6.2704     6.2557
  302.0000   121.9697     6.1301     6.0475
  302.1000   120.7479     5.9948     5.8458
  302.2000   120.1466     5.8772     5.6505
  302.3000   119.9118     5.8223     5.4614
  302.4000   119.9104     5.7959     5.2468
  302.5000   119.9094     5.7958     5.1509
  302.6000   120.0532     5.7957     5.0524
  302.7000   120.4749     5.7956     4.9674
  302.8000   121.2430     5.7956     4.8909
  302.9000   122.3213     5.7955     4.8606
  303.0000   123.8713     5.7954     4.8606
  303.1000   126.4160     5.7953     4.8606
  303.2000   129.0370     5.7952     4.8728
  303.3000   131.1948     5.7952     4.9004
  303.4000   133.1915     5.7951     4.9287
  303.5000   135.1238     5.7781     5.0117
  303.6000   137.8293     5.7548     5.1195
  303.7000   142.7097     5.7564     5.2366
  303.8000   147.7484     5.7948     5.3563
  303.9000   148.9115     5.7947     5.4785
  304.0000   149.1962     5.7946     5.6245
  304.1000   148.9897     5.7945     5.7324
  304.2000   148.5938     5.7944     5.8030
  304.3000   148.0084     5.7944     5.8611
  304.4000   147.2699     5.7943     5.9612
  304.5000   146.4712     5.7942     6.0715
  304.6000   145.5676     5.8084     6.1349
  304.7000   144.5836     5.8345     6.2291
  304.8000   143.4867     5.8344     6.3524
  304.9000   142.2005     5.8343     6.4889
  305.0000   140.7251     5.8587     6.5996
  305.1000   139.0039     5.8918     6.6748
