~VERSION INFORMATION
 VERS.                2.0:   CWLS LOG ASCII STANDARD - VERSION 2.0
 WRAP.                 NO:   ONE LINE PER DEPTH STEP
~WELL INFORMATION
#MNEM.UNIT      DATA TYPE    INFORMATION
#----------   ------------   ------------------------------
 STRT.F            2.0000:   START DEPTH
 STOP.F          560.0000:   STOP DEPTH
 STEP.F            0.1000:   STEP LENGTH
 NULL.          -999.2500:   NO VALUE
 COMP.       F D SERV INC:   COMPANY
 WELL. NAVAL PETROLEUM RESERVE 3 SX-3 #88-3:   WELL
 FLD .             NPR #3:   FIELD
 LOC .       S3 T38N R78W:   LOCATION
 CNTY.            NATRONA:   COUNTY
 STAT.            WYOMING:   STATE
 CTRY. UNITED STATES OF AMERICA:   COUNTRY
 SRVC.      Western Atlas:   SERVICE COMPANY
 DATE.        30-OCT-1992:   LOGDATE
 API .       490252254900:   API NUMBER
~CURVE INFORMATION
#MNEM.UNIT       API CODE    CURVE DESCRIPTION
#----------   ------------   ------------------------------
 DEPT.F                  :   
 GRR .GAPI   07 310 01 00:   GAMMA RAY
 RILD.OHMM   07 120 46 00:   INDUCTION LOG DEEP RESISTIVITY
 RILM.OHMM   07 120 44 00:   INDUCTION LOG MEDIUM RESISTIVITY
~PARAMETER INFORMATION
#MNEM.UNIT          VALUE    DESCRIPTION
#----------   ------------   ------------------------------
 PD  .                 GL:   PERMANENT DATUM
 EPD .F              5131:   ELEVATION PERMANENT DATUM
 LMF .                 KB:   LOG MEASURED FROM
 DAPD.F                10:   FEET ABOVE PERMANENT DATUM
 DMF .                 KB:   DRILLING MEASURED FROM
 EKB .F              5141:   KELLING BUSHING
 EDF .F              5140:   DRILLING FLOOR
 EGL .F              5131:   GROUND LEVEL
 DATE.        30-OCT-1992:   RUN DATE
 RUN .                  1:   RUN NUMBER
 DD  .F               568:   DEPTH DRILLER
 DL  .F               568:   DEPTH LOGGER
 BLI .F               560:   BOTTOM LOG INTERVAL
 CS  .IN            8.625:   CASING SIZE
 CBD .F                73:   CASING BOTTOM DRILLER
 CBL .F                73:   CASING BOTTOM LOGGER
 BS  .IN            7.875:   BIT SIZE
 BSD .F               568:   BIT SIZE AT DEPTH
 DFT .           AIR FOAM:   DRILLING FLUID TYPE
 BHT .F                63:   BOTTOM HOLE TEMPERATURE
 TCS .HRS               2:   TIME CURCULATED STOPPED
 MRT .F                63:   MAXIMUM RECORDED TEMPERATURE
 LUN .            HL-6274:   LOGGING UNIT NUMBER
 LUL .             CASPER:   LOGGING UNIT LOCATION
 ENGI.             RAUTIO:   RECORDING ENGINEER
 WITN.          BOB SYLAR:   WITNESSED BY
 CLNT.            A2DTECH:   CLIENT CODE
 ORIG.           5" PRINT:   ORIGIN OF DATA
 UWI .       490252254900:   UNIQUE WELL ID
 DICO. A2D Technologies, Inc.:   DIGITIZING COMPANY
~OTHER INFORMATION
~A    DEPT      GRR      RILD       RILM   
# ...
  165.8000   112.4602    11.2390    11.0643
  165.9000   112.4590    11.2637    11.0648
  166.0000   112.6827    11.3192    11.0653
  166.1000   113.1900    11.3204    11.0657
  166.2000   113.7341    11.3216    11.0661
  166.3000   114.8637    11.3225    11.0666
  166.4000   115.3141    11.3236    11.0671
  166.5000   115.8213    11.3247    11.0788
  166.6000   116.5919    11.3427    11.1448
  166.7000   117.3534    11.4103    11.1454
  166.8000   117.6064    11.4860    11.1986
  166.9000   117.8686    11.4870    11.2236
  167.0000   117.8675    11.4881    11.2532
  167.1000   117.4703    11.4892    11.3197
  167.2000   117.1116    11.4903    11.3865
  167.3000   116.8562    11.5016    11.4610
  167.4000   116.4868    11.5724    11.5215
  167.5000   115.7229    11.5735    11.5415
  167.6000   114.8480    11.5746    11.5420
  167.7000   114.1952    11.5757    11.5425
  167.8000   113.4313    11.5489    11.5429
  167.9000   112.5442    11.4981    11.5434
  168.0000   111.1446    11.4992    11.5439
  168.1000   108.8848    11.5005    11.5444
  168.2000   106.7084    11.5015    11.5037
  168.3000   105.5245    11.5026    11.4657
  168.4000   105.2000    11.5037    11.4497
  168.5000   105.1988    11.5048    11.3834
  168.6000   105.2932    11.4974    11.3096
  168.7000   105.5462    11.4278    11.2520
  168.8000   105.7976    11.4288    11.1868
  168.9000   105.7962    11.3793    11.1220
  169.0000   106.0040    11.3522    11.0790
  169.1000   106.2570    11.3273    11.0699
  169.2000   106.5100    11.2761    11.0035
  169.3000   106.7630    11.2772    11.0040
  169.4000   106.9953    11.2007    11.0044
  169.5000   106.9939    11.2016    10.9664
  169.6000   106.9928    11.1598    10.9029
  169.7000   107.1727    11.0959    10.8398
  169.8000   107.4257    11.0508    10.7770
  169.9000   107.5916    11.0519    10.7063
  170.0000   107.5904    11.0531    10.6525
  170.1000   107.5891    10.9947    10.5909
  170.2000   108.0827    10.9789    10.5295
  170.3000   108.1892    10.9446    10.4685
  170.4000   108.4948    10.9053    10.4161
  170.5000   108.7892    10.9063    10.4166
  170.6000   108.9068    10.9074    10.3591
  170.7000   109.4016    10.8334    10.2992
  170.8000   109.6890    10.7827    10.2395
  170.9000   109.9076    10.7606    10.2042
  171.0000   110.3333    10.7335    10.1915
  171.1000   110.8406    10.6885    10.1347
  171.2000   111.3478    10.6844    10.1352
  171.3000   111.8550    10.6169    10.1356
  171.4000   112.3927    10.6179    10.0963
  171.5000   113.1085    10.5747    10.0665
  171.6000   113.8699    10.5467    10.0490
  171.7000   114.4863    10.5264     9.9907
  171.8000   114.7976    10.4661     9.9294
  171.9000   114.7964    10.4048     9.9298
  172.0000   114.7952    10.4058     9.9302
  172.1000   114.7938    10.3586     9.9306
  172.2000   114.7928    10.3360     9.9084
  172.3000   114.4631    10.3370     9.8629
  172.4000   114.0707    10.3234     9.8634
  172.5000   113.8153    10.2642     9.8638
  172.6000   113.5598    10.1980     9.8642
  172.7000   113.2806    10.1989     9.8646
  172.8000   113.0490    10.1588     9.8650
  172.9000   112.9771    10.1305     9.8485
  173.0000   113.1125    10.1315     9.7977
  173.1000   113.3655    10.1325     9.7982
  173.2000   113.6610    10.1335     9.7986
  173.3000   114.1771    10.0780     9.7990
  173.4000   114.6755    10.0655     9.7994
  173.5000   115.1828    10.0320     9.7998
  173.6000   115.8458     9.9980     9.8002
  173.7000   116.4984     9.9990     9.8014
  173.8000   117.0057     9.9979     9.8692
  173.9000   117.4980     9.9321     9.8695
  174.0000   117.7830     9.9329     9.8699
  174.1000   118.2261     9.9339     9.8703
  174.2000   118.7333     9.9349     9.8707
  174.3000   119.1124     9.9184     9.8711
  174.4000   119.2032     9.8682     9.8716
  174.5000   118.9819     9.8693     9.8720
  174.6000   118.9807     9.8702     9.8724
  174.7000   118.4968     9.8711     9.8412
  174.8000   117.9872     9.8396     9.8051
  174.9000   117.4775     9.8050     9.8055
  175.0000   117.0683     9.8059     9.8059
  175.1000   116.8129     9.8069     9.8064
  175.2000   116.5510     9.7403     9.8538
  175.3000   115.9601     9.6941     9.8752
  175.4000   115.9590     9.6749     9.8497
  175.5000   115.9578     9.6758     9.8080
  175.6000   115.9566     9.6768     9.8084
  175.7000   115.9554     9.6777     9.8088
  175.8000   115.9542     9.6787     9.8092
  175.9000   115.9529     9.6796     9.7685
  176.0000   115.9518     9.6396     9.7423
  176.1000   115.9506     9.6147     9.7227
  176.2000   115.9494     9.6156     9.6759
  176.3000   115.9482     9.6166     9.6764
  176.4000   115.9470     9.6175     9.6101
  176.5000   115.9458     9.6186     9.6104
  176.6000   115.9443     9.6193     9.6108
  176.7000   115.9434     9.6203     9.6112
  176.8000   115.9422     9.6212     9.6116
  176.9000   115.9410     9.6221     9.6120
  177.0000   115.9398     9.6231     9.6125
  177.1000   115.9386     9.6241     9.6128
  177.2000   115.9372     9.6249     9.5736
  177.3000   115.9361     9.5864     9.5473
  177.4000   115.9349     9.5604     9.5288
  177.5000   115.9337     9.5613     9.4736
  177.6000   115.9325     9.5623     9.4173
  177.7000   115.9313     9.5632     9.4177
  177.8000   115.9301     9.5641     9.4181
  177.9000   115.9289     9.5651     9.3850
  178.0000   116.1245     9.5660     9.3539
  178.1000   116.3775     9.5669     9.3543
  178.2000   116.5277     9.5678     9.3547
  178.3000   116.5265     9.5688     9.3551
  178.4000   116.5341     9.5698     9.3554
  178.5000   116.8251     9.5706     9.3180
  178.6000   116.8241     9.5715     9.3196
  178.7000   116.8229     9.5725     9.3566
  178.8000   116.9438     9.5734     9.3570
  178.9000   117.1217     9.5671     9.3574
  179.0000   117.1486     9.5093     9.3578
  179.1000   117.4204     9.5101     9.3157
  179.2000   117.6546     9.5111     9.2940
  179.3000   117.7193     9.5120     9.2944
  179.4000   117.8594     9.4911     9.2823
  179.5000   118.0181     9.4482     9.2311
  179.6000   118.0643     9.4491     9.2315
  179.7000   118.3169     9.4502     9.2318
  179.8000   118.3154     9.4510     9.2322
  179.9000   118.3145     9.4519     9.2326
  180.0000   118.3132     9.4528     9.2160
  180.1000   118.3120     9.4537     9.1697
  180.2000   118.3108     9.4488     9.1701
  180.3000   118.2900     9.3904     9.1705
  180.4000   118.0071     9.3913     9.1708
  180.5000   117.7791     9.3922     9.1712
  180.6000   117.7036     9.3931     9.1716
  180.7000   117.7024     9.3940     9.1720
  180.8000   117.6153     9.3949     9.1724
  180.9000   117.3598     9.3958     9.1728
  181.0000   117.0963     9.3969     9.1731
  181.1000   117.0952     9.4427     9.1735
  181.2000   116.6956     9.4638     9.1739
  181.3000   116.4904     9.4647     9.1581
  181.4000   116.2787     9.4656     9.1113
  181.5000   115.8273     9.4665     9.1118
  181.6000   115.5719     9.4676     9.1121
  181.7000   115.2806     9.5183     9.1125
  181.8000   114.8426     9.5351     9.1129
  181.9000   114.5044     9.5360     9.1133
  182.0000   114.2490     9.5176     9.1137
  182.1000   114.0711     9.4719     9.1140
  182.2000   114.0699     9.5388     9.1145
  182.3000   114.0686     9.5397     9.1148
  182.4000   114.0675     9.5406     9.1152
  182.5000   114.0663     9.5415     9.1409
  182.6000   113.9213     9.5424     9.1792
  182.7000   113.7626     9.5434     9.1739
  182.8000   113.7116     9.5443     9.1167
  182.9000   113.4590     9.5453     9.1665
  183.0000   113.4576     9.4974     9.1808
  183.1000   113.4566     9.4812     9.1513
  183.2000   113.4554     9.4541     9.1182
  183.3000   113.3382     9.4177     9.1186
  183.4000   113.0827     9.4109     9.1190
  183.5000   112.8494     9.3546     9.0565
  183.6000   112.8481     9.3554     9.0568
  183.7000   112.8470     9.3142     9.0572
  183.8000   112.6635     9.2609     9.0333
  183.9000   112.6787     9.2295     8.9955
