~VERSION INFORMATION
 VERS.                2.0:   CWLS LOG ASCII STANDARD - VERSION 2.0
 WRAP.                 NO:   ONE LINE PER DEPTH STEP
~WELL INFORMATION
#MNEM.UNIT      DATA TYPE    INFORMATION
#----------   ------------   ------------------------------
 STRT.F          442.0000:   START DEPTH
 STOP.F         2636.0000:   STOP DEPTH
 STEP.F            0.5000:   STEP LENGTH
 NULL.          -999.2500:   NO VALUE
 COMP. FENIX & SCISSON INC:   COMPANY
 WELL.     25 SHX 2 #25-2:   WELL
 FLD .             TEAPOT:   FIELD
 LOC .       S2 T38N R78W:   LOCATION
 CNTY.            NATRONA:   COUNTY
 STAT.            WYOMING:   STATE
 CTRY. UNITED STATES OF AMERICA:   COUNTRY
 SRVC.              Welex:   SERVICE COMPANY
 DATE.        07-JUN-1980:   LOGDATE
 API .       490251080200:   API NUMBER
~CURVE INFORMATION
#MNEM.UNIT       API CODE    CURVE DESCRIPTION
#----------   ------------   ------------------------------
 DEPT.F                  :   
 CALD.IN     45 280 60 00:   CALIPER
 GRD .GAPI   45 310 01 00:   GAMMA RAY FROM DENSITY LOG
 DPHI.DEC    45 890 12 00:   DENSITY POROSITY SANDSTONE
 CORR.G/C3   45 356 01 00:   DENSITY CORRECTION
 RHOB.G/C3   45 350 01 00:   BULK DENSITY
~PARAMETER INFORMATION
#MNEM.UNIT          VALUE    DESCRIPTION
#----------   ------------   ------------------------------
 PD  .                 GL:   PERMANENT DATUM
 EPD .F              5120:   ELEVATION PERMANENT DATUM
 LMF .                 KB:   LOG MEASURED FROM
 DAPD.F                10:   FEET ABOVE PERMANENT DATUM
 DMF .                 KB:   DRILLING MEASURED FROM
 EKB .F              5130:   KELLING BUSHING
 EGL .F              5120:   GROUND LEVEL
 DATE.             6-7-80:   RUN DATE
 RUN .                  1:   RUN NUMBER
 DD  .F              2652:   DEPTH DRILLER
 DL  .F              2638:   DEPTH LOGGER
 BLI .F              2636:   BOTTOM LOG INTERVAL
 TLI .F              1224:   TOP LOG INTERVAL
 BS  .IN             6.75:   BIT SIZE
 BSD .F              2652:   BIT SIZE AT DEPTH
 DFT .        AIR DRILLED:   DRILLING FLUID TYPE
 TCS .HRS               2:   TIME CURCULATED STOPPED
 MRT .F               125:   MAXIMUM RECORDED TEMPERATURE
 ENGI.               REIN:   RECORDING ENGINEER
 WITN.           DINSMORE:   WITNESSED BY
 CLNT.            A2DTECH:   CLIENT CODE
 ORIG.           5" PRINT:   ORIGIN OF DATA
 UWI .       490251080200:   UNIQUE WELL ID
 DICO. A2D Technologies, Inc.:   DIGITIZING COMPANY
~OTHER INFORMATION
~A   DEPT     CALD         GRD      DPHI       CORR       RHOB   
# ...
 1967.0000     8.9244    97.0782     0.1313     0.0554     2.4156
 1967.5000     8.9250    97.3546     0.1285     0.0663     2.4260
 1968.0000     8.9239    97.6414     0.1256     0.0748     2.4281
 1968.5000     8.9227    97.6483     0.1262     0.0635     2.4236
 1969.0000     8.9215    97.3802     0.1264     0.0587     2.4257
 1969.5000     8.9204    96.3150     0.1221     0.0648     2.4369
 1970.0000     8.9192    95.1531     0.1179     0.0693     2.4448
 1970.5000     8.9181    94.4292     0.1241     0.0492     2.4323
 1971.0000     8.9169    94.0466     0.1299     0.0321     2.4174
 1971.5000     8.9157    94.0431     0.1303     0.0383     2.4138
 1972.0000     8.9146    94.6078     0.1262     0.0498     2.4295
 1972.5000     8.9134    95.2117     0.1227     0.0603     2.4362
 1973.0000     8.9122    95.8144     0.1159     0.0682     2.4503
 1973.5000     8.9111    96.4159     0.1095     0.0761     2.4679
 1974.0000     8.9099    97.0109     0.1072     0.0805     2.4726
 1974.5000     8.9087    97.2872     0.1106     0.0746     2.4650
 1975.0000     8.9076    97.0217     0.1128     0.0680     2.4575
 1975.5000     8.9064    96.7644     0.1112     0.0696     2.4636
 1976.0000     8.9052    96.5040     0.1094     0.0758     2.4678
 1976.5000     8.9041    96.2367     0.1147     0.0637     2.4552
 1977.0000     8.9029    96.4680     0.1176     0.0692     2.4476
 1977.5000     8.9017    96.9766     0.1127     0.0863     2.4613
 1978.0000     8.9006    97.5793     0.1060     0.1041     2.4765
 1978.5000     8.8994    98.2047     0.1052     0.1073     2.4789
 1979.0000     8.8982    99.4135     0.1110     0.0983     2.4618
 1979.5000     8.8971   100.6239     0.1190     0.0722     2.4444
 1980.0000     8.8959   101.9186     0.1259     0.0578     2.4268
 1980.5000     8.8948   103.6719     0.1284     0.0461     2.4182
 1981.0000     8.8936   105.3869     0.1294     0.0347     2.4171
 1981.5000     8.8924   107.0981     0.1258     0.0382     2.4260
 1982.0000     8.8913   108.7948     0.1223     0.0500     2.4346
 1982.5000     8.8901   110.5069     0.1203     0.0618     2.4409
 1983.0000     8.8889   113.4956     0.1216     0.0675     2.4379
 1983.5000     8.8878   116.9111     0.1247     0.0608     2.4299
 1984.0000     8.8865   120.9485     0.1283     0.0549     2.4221
 1984.5000     8.8859   124.9631     0.1274     0.0650     2.4297
 1985.0000     8.8853   128.9923     0.1265     0.0715     2.4418
 1985.5000     8.8847   133.0159     0.1268     0.0659     2.4415
 1986.0000     8.8841   137.0576     0.1301     0.0600     2.4322
 1986.5000     8.8835   139.7000     0.1347     0.0468     2.4201
 1987.0000     8.8829   145.0009     0.1403     0.0472     2.4139
 1987.5000     8.8823   147.6482     0.1383     0.0441     2.4093
 1988.0000     8.8817   148.0763     0.1450     0.0331     2.3931
 1988.5000     8.8811   146.6441     0.1498     0.0229     2.3841
 1989.0000     8.8805   146.3996     0.1530     0.0274     2.3863
 1989.5000     8.8799   146.1859     0.1487     0.0328     2.3793
 1990.0000     8.8793   145.4492     0.1473     0.0439     2.4041
 1990.5000     8.8787   144.8214     0.1456     0.0492     2.3951
 1991.0000     8.8781   145.3752     0.1503     0.0373     2.3807
 1991.5000     8.8775   145.9456     0.1538     0.0277     2.3807
 1992.0000     8.8769   146.5116     0.1445     0.0476     2.4013
 1992.5000     8.8763   147.0773     0.1433     0.0530     2.3939
 1993.0000     8.8757   147.6516     0.1415     0.0589     2.4048
 1993.5000     8.8751   148.5935     0.1362     0.0745     2.4221
 1994.0000     8.8745   150.0993     0.1309     0.0887     2.4333
 1994.5000     8.8739   150.6181     0.1258     0.0990     2.4412
 1995.0000     8.8733   151.3958     0.1256     0.1051     2.4426
 1995.5000     8.8727   150.3010     0.1417     0.0769     2.4081
 1996.0000     8.8721   149.3163     0.1474     0.0565     2.3856
 1996.5000     8.8715   148.2916     0.1448     0.0662     2.3963
 1997.0000     8.8708   146.1313     0.1502     0.0616     2.3755
 1997.5000     8.8702   143.2440     0.1544     0.0465     2.3730
 1998.0000     8.8696   139.2484     0.1550     0.0535     2.3798
 1998.5000     8.8690   134.5784     0.1593     0.0357     2.3637
 1999.0000     8.8684   130.6361     0.1606     0.0185     2.3531
 1999.5000     8.8678   126.0335     0.1581     0.0253     2.3623
 2000.0000     8.8672   120.3422     0.1582     0.0345     2.3849
 2000.5000     8.8690   115.2681     0.1511     0.0308     2.3826
 2001.0000     8.8731   113.5502     0.1504     0.0254     2.3811
 2001.5000     8.8772   113.0943     0.1446     0.0397     2.3996
 2002.0000     8.8813   112.7382     0.1368     0.0563     2.4203
 2002.5000     8.8856   112.8704     0.1315     0.0582     2.4273
 2003.0000     8.8851   112.7465     0.1345     0.0457     2.4214
 2003.5000     8.8831   112.3060     0.1371     0.0380     2.4134
 2004.0000     8.8812   112.2104     0.1329     0.0515     2.4274
 2004.5000     8.8792   111.6971     0.1283     0.0509     2.4380
 2005.0000     8.8773   110.0295     0.1289     0.0449     2.4354
 2005.5000     8.8753   106.5944     0.1311     0.0382     2.4304
 2006.0000     8.8734   103.1599     0.1386     0.0192     2.4159
 2006.5000     8.8714    99.9873     0.1447     0.0077     2.3951
 2007.0000     8.8695    98.7768     0.1451     0.0115     2.3954
 2007.5000     8.8675    97.7810     0.1418     0.0132     2.4025
 2008.0000     8.8656    96.9270     0.1441     0.0092     2.4016
 2008.5000     8.8636    96.8865     0.1451     0.0154     2.3903
 2009.0000     8.8617    96.9475     0.1386     0.0314     2.4095
 2009.5000     8.8597    95.8531     0.1306     0.0473     2.4315
 2010.0000     8.8578    94.7154     0.1266     0.0631     2.4416
 2010.5000     8.8558    93.7774     0.1208     0.0791     2.4590
 2011.0000     8.8539    93.7647     0.1128     0.0944     2.4764
 2011.5000     8.8519    94.4598     0.1169     0.0761     2.4835
 2012.0000     8.8500    95.6583     0.1243     0.0539     2.4448
 2012.5000     8.8480    96.8535     0.1213     0.0451     2.4576
 2013.0000     8.8505    97.9665     0.1219     0.0417     2.4590
 2013.5000     8.8553    98.2743     0.1237     0.0396     2.4474
 2014.0000     8.8601    98.5552     0.1254     0.0373     2.4434
 2014.5000     8.8649    98.8801     0.1268     0.0351     2.4398
 2015.0000     8.8697    99.3896     0.1271     0.0329     2.4362
 2015.5000     8.8745    99.8854     0.1313     0.0311     2.4323
 2016.0000     8.8793   100.3786     0.1375     0.0157     2.4145
 2016.5000     8.8841   100.8753     0.1436    -0.0012     2.3970
 2017.0000     8.8858   101.1181     0.1453    -0.0091     2.3891
 2017.5000     8.8846   101.1211     0.1373     0.0150     2.4216
 2018.0000     8.8834   101.0188     0.1305     0.0315     2.4374
 2018.5000     8.8821   100.6697     0.1359     0.0116     2.4172
 2019.0000     8.8809   100.3246     0.1282     0.0323     2.4362
 2019.5000     8.8796    99.9872     0.1251     0.0377     2.4438
 2020.0000     8.8784    99.6513     0.1358     0.0036     2.4244
 2020.5000     8.8771    99.1516     0.1371     0.0135     2.4133
 2021.0000     8.8759    99.0297     0.1288     0.0346     2.4360
 2021.5000     8.8747    98.9170     0.1215     0.0519     2.4570
 2022.0000     8.8734    98.8056     0.1196     0.0519     2.4660
 2022.5000     8.8722    98.9299     0.1231     0.0449     2.4481
 2023.0000     8.8709    99.2255     0.1266     0.0377     2.4362
 2023.5000     8.8697    99.5133     0.1302     0.0365     2.4312
 2024.0000     8.8684    99.7607     0.1322     0.0414     2.4280
 2024.5000     8.8672    99.8176     0.1319     0.0423     2.4252
 2025.0000     8.8659    99.8763     0.1339     0.0393     2.4208
 2025.5000     8.8647    99.9559     0.1365     0.0360     2.4172
 2026.0000     8.8634   100.4831     0.1352     0.0452     2.4224
 2026.5000     8.8622   101.0358     0.1295     0.0532     2.4355
 2027.0000     8.8610   100.9914     0.1239     0.0713     2.4485
 2027.5000     8.8597   100.8317     0.1215     0.0700     2.4535
