~VERSION INFORMATION
 VERS.                2.0:   CWLS LOG ASCII STANDARD - VERSION 2.0
 WRAP.                 NO:   ONE LINE PER DEPTH STEP
~WELL INFORMATION
#MNEM.UNIT      DATA TYPE    INFORMATION
#----------   ------------   ------------------------------
 STRT.F          598.0000:   START DEPTH
 STOP.F         2552.0000:   STOP DEPTH
 STEP.F            0.5000:   STEP LENGTH
 NULL.          -999.2500:   NO VALUE
 COMP. FENIX & SCISSON INC:   COMPANY
 WELL.     15-SHX-2 #15-2:   WELL
 FLD .             TEAPOT:   FIELD
 LOC .       S2 T38N R78W:   LOCATION
 CNTY.            NATRONA:   COUNTY
 STAT.            WYOMING:   STATE
 CTRY. UNITED STATES OF AMERICA:   COUNTRY
 SRVC.              Welex:   SERVICE COMPANY
 DATE.        03-JUN-1979:   LOGDATE
 API .       490251002100:   API NUMBER
~CURVE INFORMATION
#MNEM.UNIT       API CODE    CURVE DESCRIPTION
#----------   ------------   ------------------------------
 DEPT.F                  :   
 CALD.IN     45 280 60 00:   CALIPER
 GRD .GAPI   45 310 01 00:   GAMMA RAY FROM DENSITY LOG
 RHOB.G/C3   45 350 01 00:   BULK DENSITY
 DPHI.DEC    45 890 12 00:   DENSITY POROSITY SANDSTONE
 CORR.G/C3   45 356 01 00:   DENSITY CORRECTION
~PARAMETER INFORMATION
#MNEM.UNIT          VALUE    DESCRIPTION
#----------   ------------   ------------------------------
 PD  .                 GL:   PERMANENT DATUM
 EPD .F              5118:   ELEVATION PERMANENT DATUM
 LMF .                 KB:   LOG MEASURED FROM
 DAPD.F                10:   FEET ABOVE PERMANENT DATUM
 DMF .                 KB:   DRILLING MEASURED FROM
 EKB .F              5128:   KELLING BUSHING
 EGL .F              5118:   GROUND LEVEL
 DATE.             6-3-79:   RUN DATE
 RUN .                  1:   RUN NUMBER
 DD  .F              2569:   DEPTH DRILLER
 DL  .F              2554:   DEPTH LOGGER
 BLI .F              2552:   BOTTOM LOG INTERVAL
 TLI .F               622:   TOP LOG INTERVAL
 CS  .IN            9.625:   CASING SIZE
 CBD .F               622:   CASING BOTTOM DRILLER
 BS  .IN             8.75:   BIT SIZE
 BSD .F              2569:   BIT SIZE AT DEPTH
 DFT .        AIR DRILLED:   DRILLING FLUID TYPE
 TCS .HRS             2.5:   TIME CURCULATED STOPPED
 MRT .F               124:   MAXIMUM RECORDED TEMPERATURE
 ENGI.               REIN:   RECORDING ENGINEER
 WITN.              AMEND:   WITNESSED BY
 CLNT.            A2DTECH:   CLIENT CODE
 ORIG.           5" PRINT:   ORIGIN OF DATA
 UWI .       490251002100:   UNIQUE WELL ID
 DICO. A2D Technologies, Inc.:   DIGITIZING COMPANY
~OTHER INFORMATION
~A   DEPT     CALD         GRD      RHOB       DPHI       CORR   
# ...
 1330.0000     9.2739    94.1393     2.5650    -0.0081     0.0237
 1330.5000     9.2714    91.7184     2.5624    -0.0081     0.0251
 1331.0000     9.2689    90.1815     2.5523    -0.0029     0.0248
 1331.5000     9.2664    92.1956     2.5469     0.0031     0.0152
 1332.0000     9.2638    91.4064     2.5330     0.0125     0.0089
 1332.5000     9.2613    93.5801     2.5194     0.0199     0.0101
 1333.0000     9.2588    94.2301     2.5254     0.0199     0.0178
 1333.5000     9.2563    92.7131     2.5352     0.0099     0.0205
 1334.0000     9.2537    91.3799     2.5366     0.0153     0.0177
 1334.5000     9.2512    92.3547     2.5216     0.0223     0.0148
 1335.0000     9.2487    90.5473     2.5074     0.0295     0.0120
 1335.5000     9.2462    88.1913     2.5070     0.0276     0.0091
 1336.0000     9.2436    86.0874     2.5072     0.0268     0.0063
 1336.5000     9.2411    89.2299     2.5118     0.0295     0.0052
 1337.0000     9.2386    88.3350     2.5168     0.0236     0.0062
 1337.5000     9.2378    86.5020     2.5221     0.0202     0.0072
 1338.0000     9.2397    87.8087     2.5159     0.0235     0.0082
 1338.5000     9.2415    89.7193     2.5095     0.0279     0.0093
 1339.0000     9.2434    89.5195     2.5186     0.0259     0.0104
 1339.5000     9.2452    87.8467     2.5299     0.0195     0.0124
 1340.0000     9.2471    86.6170     2.5412     0.0105     0.0151
 1340.5000     9.2489    85.8842     2.5527     0.0016     0.0193
 1341.0000     9.2508    84.6626     2.5605    -0.0065     0.0250
 1341.5000     9.2526    81.2113     2.5684    -0.0094     0.0289
 1342.0000     9.2545    77.7775     2.5735    -0.0123     0.0308
 1342.5000     9.2563    74.3568     2.5764    -0.0152     0.0297
 1343.0000     9.2582    75.3464     2.5743    -0.0165     0.0285
 1343.5000     9.2600    76.6117     2.5651    -0.0107     0.0272
 1344.0000     9.2619    78.9880     2.5636    -0.0093     0.0255
 1344.5000     9.2638    82.1870     2.5646    -0.0093     0.0250
 1345.0000     9.2656    85.4628     2.5649    -0.0097     0.0250
 1345.5000     9.2675    87.3549     2.5581    -0.0047     0.0232
 1346.0000     9.2693    87.5798     2.5498     0.0008     0.0208
 1346.5000     9.2712    87.4191     2.5412     0.0067     0.0173
 1347.0000     9.2728    88.9609     2.5282     0.0137     0.0166
 1347.5000     9.2742    90.6676     2.5147     0.0235     0.0162
 1348.0000     9.2867    92.3589     2.5228     0.0160     0.0158
 1348.5000     9.3155    91.0976     2.5298     0.0115     0.0154
 1349.0000     9.3170    92.9174     2.5313     0.0127     0.0150
 1349.5000     9.3168    95.0672     2.5399     0.0049     0.0154
 1350.0000     9.3167    97.1531     2.5561    -0.0025     0.0161
 1350.5000     9.3167    92.9221     2.5496     0.0012     0.0167
 1351.0000     9.3167    91.1275     2.5387     0.0050     0.0165
 1351.5000     9.3167    91.8250     2.5367     0.0091     0.0156
 1352.0000     9.3167    92.5080     2.5418     0.0083     0.0129
 1352.5000     9.3167    91.8648     2.5415     0.0087     0.0130
 1353.0000     9.3167    91.0155     2.5294     0.0149     0.0130
 1353.5000     9.3167    90.1614     2.5187     0.0212     0.0156
 1354.0000     9.3141    89.3116     2.5192     0.0227     0.0189
 1354.5000     9.3093    88.5845     2.5311     0.0154     0.0215
 1355.0000     9.3045    89.2484     2.5439     0.0076     0.0241
 1355.5000     9.2996    91.1513     2.5567    -0.0003     0.0267
 1356.0000     9.2948    93.1016     2.5641    -0.0081     0.0293
 1356.5000     9.2900    91.7996     2.5669    -0.0129     0.0320
 1357.0000     9.2851    90.9057     2.5634    -0.0079     0.0298
 1357.5000     9.2803    90.9103     2.5596    -0.0029     0.0243
 1358.0000     9.2755    88.2862     2.5501     0.0022     0.0188
 1358.5000     9.2706    85.4862     2.5376     0.0083     0.0133
 1359.0000     9.2658    84.9994     2.5428     0.0055     0.0089
 1359.5000     9.2610    86.3050     2.5488     0.0027     0.0091
 1360.0000     9.2562    90.0333     2.5513     0.0115     0.0129
 1360.5000     9.2513    93.6817     2.5521     0.0037     0.0167
 1361.0000     9.2465    95.3872     2.5466     0.0027     0.0195
 1361.5000     9.2418    92.1764     2.5403     0.0079     0.0199
 1362.0000     9.2378    89.0678     2.5370     0.0080     0.0174
 1362.5000     9.2583    86.0293     2.5377     0.0091     0.0149
 1363.0000     9.2573    85.3130     2.5427     0.0080     0.0124
 1363.5000     9.2570    85.7274     2.5496     0.0038     0.0110
 1364.0000     9.2570    86.8575     2.5558     0.0011     0.0123
 1364.5000     9.2570    88.9033     2.5528     0.0024     0.0138
 1365.0000     9.2570    90.0025     2.5496     0.0037     0.0155
 1365.5000     9.2570    88.4730     2.5467     0.0036     0.0159
 1366.0000     9.2570    89.8355     2.5338     0.0031     0.0144
 1366.5000     9.2570    91.9593     2.5239     0.0174     0.0130
 1367.0000     9.2570    91.3453     2.5256     0.0183     0.0139
 1367.5000     9.2570    92.0215     2.5307     0.0128     0.0153
 1368.0000     9.2570    91.0940     2.5386     0.0080     0.0166
 1368.5000     9.2570    91.1942     2.5478     0.0030     0.0179
 1369.0000     9.2570    90.8545     2.5540     0.0014     0.0192
 1369.5000     9.2570    88.9281     2.5472     0.0030     0.0205
 1370.0000     9.2570    86.9319     2.5526     0.0020     0.0219
 1370.5000     9.2570    86.5749     2.5593    -0.0036     0.0245
 1371.0000     9.2570    88.1314     2.5661    -0.0092     0.0250
 1371.5000     9.2570    91.2206     2.5671    -0.0117     0.0250
 1372.0000     9.2570    93.1691     2.5716    -0.0133     0.0250
 1372.5000     9.2570    94.0120     2.5797    -0.0179     0.0250
 1373.0000     9.2570    94.5494     2.5798    -0.0164     0.0250
 1373.5000     9.2570    96.0804     2.5744    -0.0149     0.0250
 1374.0000     9.2570    96.0676     2.5711    -0.0165     0.0250
 1374.5000     9.2570    95.8697     2.5619    -0.0099     0.0250
 1375.0000     9.2570    96.4902     2.5526    -0.0033     0.0250
 1375.5000     9.2570    97.0837     2.5454     0.0034     0.0250
 1376.0000     9.2570    97.0692     2.5402     0.0051     0.0251
 1376.5000     9.2569    94.3364     2.5331     0.0108     0.0256
 1377.0000     9.2571    92.2414     2.5281     0.0151     0.0260
 1377.5000     9.2465    90.9869     2.5324     0.0139     0.0265
 1378.0000     9.2375    89.7768     2.5332     0.0127     0.0269
 1378.5000     9.2401    91.2259     2.5309     0.0126     0.0263
 1379.0000     9.2425    92.9665     2.5293     0.0154     0.0252
 1379.5000     9.2450    94.4296     2.5346     0.0133     0.0240
 1380.0000     9.2474    91.8992     2.5401     0.0086     0.0235
 1380.5000     9.2498    89.5206     2.5451     0.0039     0.0264
 1381.0000     9.2523    90.0279     2.5485     0.0015     0.0287
 1381.5000     9.2548    90.8349     2.5547    -0.0036     0.0310
 1382.0000     9.2567    91.6180     2.5607    -0.0081     0.0330
 1382.5000     9.2509    92.4853     2.5667    -0.0113     0.0326
 1383.0000     9.2452    93.3213     2.5721    -0.0142     0.0318
 1383.5000     9.2396    94.1612     2.5723    -0.0149     0.0310
 1384.0000     9.2340    94.5673     2.5689    -0.0114     0.0314
 1384.5000     9.2284    94.4450     2.5626    -0.0075     0.0323
 1385.0000     9.2227    93.3446     2.5541    -0.0036     0.0330
 1385.5000     9.2171    92.2404     2.5442     0.0009     0.0330
 1386.0000     9.2115    91.3898     2.5326     0.0088     0.0330
 1386.5000     9.2058    92.3879     2.5302     0.0133     0.0330
 1387.0000     9.2002    92.3159     2.5380     0.0089     0.0330
 1387.5000     9.1946    89.9397     2.5467     0.0047     0.0329
 1388.0000     9.1889    89.6271     2.5412     0.0057     0.0307
 1388.5000     9.1833    91.6897     2.5307     0.0110     0.0294
 1389.0000     9.1777    93.3480     2.5270     0.0163     0.0280
 1389.5000     9.1721    90.2626     2.5329     0.0167     0.0266
 1390.0000     9.1664    87.0321     2.5389     0.0055     0.0252
 1390.5000     9.1609    84.9948     2.5408     0.0083     0.0238
