~VERSION INFORMATION
 VERS.                2.0:   CWLS LOG ASCII STANDARD - VERSION 2.0
 WRAP.                 NO:   ONE LINE PER DEPTH STEP
~WELL INFORMATION
#MNEM.UNIT      DATA TYPE    INFORMATION
#----------   ------------   ------------------------------
 STRT.F           21.0000:   START DEPTH
 STOP.F          543.0000:   STOP DEPTH
 STEP.F            0.5000:   STEP LENGTH
 NULL.          -999.2500:   NO VALUE
 COMP. FENIX & SCISSON INC:   COMPANY
 WELL.      NPR #3 #46-10:   WELL
 FLD .             TEAPOT:   FIELD
 LOC .      S10 T38N R78W:   LOCATION
 CNTY.            NATRONA:   COUNTY
 STAT.            WYOMING:   STATE
 CTRY. UNITED STATES OF AMERICA:   COUNTRY
 SRVC.              Welex:   SERVICE COMPANY
 DATE.        08-MAY-1980:   LOGDATE
 API .       490251081100:   API NUMBER
~CURVE INFORMATION
#MNEM.UNIT       API CODE    CURVE DESCRIPTION
#----------   ------------   ------------------------------
 DEPT.F                  :   
 SGRD.OHMM   07 220 05 00:   SHALLOW GUARD RESISTIVITY
 ILD .OHMM   07 120 46 00:   INDUCTION LOG DEEP RESISTIVITY
 ILM .OHMM   07 120 44 00:   INDUCTION LOG MEDIUM
 SPR .MV     07 010 01 00:   SPONTANEOUS POTENTIAL
 CALD.IN     45 280 60 00:   CALIPER
 GRD .GAPI   45 310 01 00:   GAMMA RAY FROM DENSITY LOG
 CORR.G/C3   45 356 01 00:   DENSITY CORRECTION
 RHOB.G/C3   45 350 01 00:   BULK DENSITY
 DPHI.DEC    45 890 12 00:   DENSITY POROSITY SANDSTONE
~PARAMETER INFORMATION
#MNEM.UNIT          VALUE    DESCRIPTION
#----------   ------------   ------------------------------
 PD  .                 GL:   PERMANENT DATUM
 EPD .F              5206:   ELEVATION PERMANENT DATUM
 LMF .                 KB:   LOG MEASURED FROM
 DAPD.F                 5:   FEET ABOVE PERMANENT DATUM
 DMF .                 KB:   DRILLING MEASURED FROM
 EKB .F              5211:   KELLING BUSHING
 EGL .F              5206:   GROUND LEVEL
 DATE.             5-8-80:   RUN DATE
 RUN .                  1:   RUN NUMBER
 DD  .F               530:   DEPTH DRILLER
 DL  .F               543:   DEPTH LOGGER
 BLI .F               541:   BOTTOM LOG INTERVAL
 TLI .F                30:   TOP LOG INTERVAL
 BS  .IN            7.875:   BIT SIZE
 BSD .F               530:   BIT SIZE AT DEPTH
 DFT .            KCL MUD:   DRILLING FLUID TYPE
 DFD .                9.1:   DRILLING FLUID DENSITY
 DFV .                 43:   DRILLING FLUID VISCOSITY
 MSS .                PIT:   MUD SAMPLE SOURCE
 RMS .OHMM            .89:   RESISTIVITY MUD SAMPLE
 MST .F                75:   MUD SAMPLE TEMPERATURE
 RMF .OHMM            .71:   RESISTIVITY MUD FILTRATE SAMPLE
 MFST.F                75:   MUD FILTRATE SAMPLE TEMPERATURE
 RMC .OHMM           1.08:   RESISTIVITY MUD CAKE
 MCST.F                75:   MUD CAKE SAMPLE TEMPERATURE
 MFSS.           MEASURED:   MUD FILTRATE SAMPLE SOURCE
 MCSS.           MEASURED:   MUD CAKE SAMPLE SOURCE
 BHT .F               100:   BOTTOM HOLE TEMPERATURE
 TCS .HRS               2:   TIME CURCULATED STOPPED
 MRT .F               100:   MAXIMUM RECORDED TEMPERATURE
 LUN .               9685:   LOGGING UNIT NUMBER
 LUL .             CASPER:   LOGGING UNIT LOCATION
 ENGI.            TOTHILL:   RECORDING ENGINEER
 WITN.              AMEND:   WITNESSED BY
 CLNT.            A2DTECH:   CLIENT CODE
 ORIG.           5" PRINT:   ORIGIN OF DATA
 UWI .       490251081100:   UNIQUE WELL ID
 DICO. A2D Technologies, Inc.:   DIGITIZING COMPANY
~OTHER INFORMATION
~A   DEPT     SGRD        ILD        ILM        SPR        CALD        GRD        CORR       RHOB     DPHI   
# ...
  313.0000    27.2907    17.4328    20.1833   -32.1881     7.8084    67.8906     0.0232     2.3243     0.2064
  313.5000    28.1305    19.2756    22.2738   -32.2005     7.8132    66.3966     0.0235     2.3143     0.2145
  314.0000    30.9678    21.3132    24.5807   -32.2195     7.8184    65.2612     0.0216     2.3003     0.2232
  314.5000    34.1492    23.5661    27.8034   -32.2573     7.8049    64.8658     0.0181     2.2842     0.2297
  315.0000    37.0743    25.8757    31.8498   -32.2950     7.7864    64.5515     0.0179     2.2896     0.2333
  315.5000    33.8825    28.7631    36.5354   -32.3330     7.7676    64.8336     0.0246     2.2968     0.2290
  316.0000    30.7027    34.2759    48.0896   -32.3703     7.7526    65.1214     0.0311     2.3084     0.2229
  316.5000    29.9439    40.8452    54.6826   -32.3796     7.7401    65.6976     0.0363     2.3092     0.2201
  317.0000    34.1186    48.6738    42.9215   -32.3053     7.7272    66.3020     0.0331     2.3022     0.2226
  317.5000    38.4270    58.0027    36.7531   -32.2324     7.6893    66.8935     0.0348     2.3057     0.2228
  318.0000    40.6760    68.7965    36.0816   -32.1972     7.6025    66.9184     0.0340     2.3027     0.2205
  318.5000    40.6760    74.0625    38.1338   -32.2762     7.5251    66.9253     0.0380     2.3073     0.2249
  319.0000    39.9328    93.2607    38.4870   -32.3780     7.5672    67.1435     0.0397     2.3012     0.2219
  319.5000    41.0294   147.1818    38.4870   -32.4812     7.6075    67.3620     0.0386     2.3001     0.2265
  320.0000    43.2497   253.9133    40.2974   -32.5840     7.6473    67.5351     0.0452     2.3052     0.2226
  320.5000    45.4346   438.0171    42.2041   -32.5522     7.6807    68.4659     0.0506     2.3102     0.2196
  321.0000    41.7907   487.2155    39.8740   -32.3259     7.6861    69.4440     0.0500     2.3117     0.2174
  321.5000    38.9054   378.3078    36.2016   -32.1029     7.7230    70.4194     0.0491     2.3145     0.2160
  322.0000    36.4365   237.7415    32.8674   -31.8802     7.7585    71.4087     0.0495     2.3302     0.2070
  322.5000    34.1242   153.4316    30.2838   -31.6574     7.7492    72.6414     0.0562     2.3500     0.1947
  323.0000    32.3027   112.9332    31.1331   -31.4338     7.7358    73.8927     0.0574     2.3586     0.1907
  323.5000    31.9243    84.5154    30.6056   -31.2266     7.7224    75.1402     0.0555     2.3570     0.1906
  324.0000    31.7704    57.9837    29.7305   -31.2888     7.7091    76.2515     0.0533     2.3466     0.1956
  324.5000    31.7125    36.8245    30.0449   -31.3644     7.6958    76.8445     0.0474     2.3390     0.2022
  325.0000    30.7222    28.2974    30.5572   -31.4392     7.6826    76.9448     0.0472     2.3434     0.1993
  325.5000    29.6079    23.4253    31.0783   -31.5137     7.6693    77.0580     0.0469     2.3503     0.1953
  326.0000    28.5344    22.1486    31.7125   -31.5881     7.6560    76.7906     0.0466     2.3573     0.1886
  326.5000    27.4988    20.9655    30.6511   -31.6628     7.6425    76.2941     0.0445     2.3560     0.1917
  327.0000    26.4990    19.8455    29.3824   -31.7383     7.6402    75.7911     0.0417     2.3459     0.1962
  327.5000    25.5406    18.9237    28.1671   -31.8037     7.6401    75.3162     0.0406     2.3405     0.2000
  328.0000    24.4973    20.2568    27.0030   -31.6838     7.6402    75.4118     0.0413     2.3366     0.2038
  328.5000    25.0893    20.7724    25.8669   -31.5592     7.6402    75.5340     0.0461     2.3454     0.1997
  329.0000    25.7027    18.2899    25.2147   -31.4358     7.6402    75.8506     0.0502     2.3546     0.1938
  329.5000    26.3311    17.5782    24.4842   -31.3124     7.6402    76.4679     0.0515     2.3602     0.1894
  330.0000    27.1120    16.7955    23.7201   -31.1892     7.6402    77.0806     0.0528     2.3624     0.1897
  330.5000    26.1798    15.5927    22.9799   -31.0603     7.6402    77.6945     0.0545     2.3784     0.1837
  331.0000    25.0458    15.4496    22.2628   -31.0565     7.6402    78.3081     0.0529     2.3759     0.1787
  331.5000    23.8290    15.2787    21.5680   -31.0915     7.6402    78.9218     0.0488     2.3725     0.1807
  332.0000    24.0817    14.8804    20.8950   -31.1273     7.6403    79.5354     0.0432     2.3711     0.1811
  332.5000    24.2725    14.8802    20.7513   -31.1628     7.6462    80.1494     0.0354     2.3514     0.1920
  333.0000    23.6500    15.5826    20.9435   -31.1981     7.6606    80.7637     0.0316     2.3458     0.1975
  333.5000    23.1790    15.7465    20.8938   -31.2335     7.6746    81.3057     0.0298     2.3450     0.1984
  334.0000    23.6246    15.4496    20.4500   -31.2689     7.6991    81.8039     0.0305     2.3426     0.1989
  334.5000    23.8290    15.5927    20.1852   -31.3043     7.7289    82.3121     0.0279     2.3388     0.2022
  335.0000    23.2432    15.5927    20.6432   -31.3397     7.7505    82.2883     0.0344     2.3535     0.1933
  335.5000    22.9662    15.5927    20.9109   -31.3751     7.7677    81.9929     0.0415     2.3696     0.1847
  336.0000    24.4973    15.8089    20.3154   -31.4105     7.7849    81.6844     0.0452     2.3735     0.1800
  336.5000    24.0475    16.0494    20.1852   -31.4459     7.8021    81.6257     0.0377     2.3538     0.1915
  337.0000    23.3907    16.3283    20.5863   -31.4813     7.8193    82.5388     0.0307     2.3382     0.2002
  337.5000    23.8647    16.0023    20.9330   -31.5167     7.8363    83.4614     0.0268     2.3319     0.2065
  338.0000    24.5019    15.5927    20.7474   -31.5521     7.8460    84.3763     0.0288     2.3356     0.2034
  338.5000    23.7028    15.9408    20.7499   -31.5875     7.8543    84.8642     0.0262     2.3286     0.2066
  339.0000    22.9662    16.4823    20.8670   -31.6228     7.8626    84.8174     0.0187     2.3159     0.2135
  339.5000    23.2612    16.4375    21.1375   -31.6582     7.8710    84.7756     0.0116     2.3047     0.2201
  340.0000    23.8290    16.3501    21.1353   -31.6936     7.8783    84.7322     0.0090     2.3009     0.2221
  340.5000    22.9416    16.2626    21.1369   -31.7291     7.8718    84.6899     0.0150     2.3141     0.2184
  341.0000    22.3397    16.1785    21.1402   -31.7645     7.8651    84.6440     0.0207     2.3195     0.2129
  341.5000    22.6196    16.1867    20.6631   -31.8024     7.8584    84.5940     0.0248     2.3272     0.2090
  342.0000    22.7570    16.0413    20.3199   -31.7494     7.8518    84.2665     0.0279     2.3351     0.2053
  342.5000    22.2200    15.8758    19.8026   -31.6677     7.8451    84.2979     0.0288     2.3352     0.2028
  343.0000    21.8202    15.8863    19.8277   -31.5853     7.8390    83.8794     0.0320     2.3399     0.2014
  343.5000    21.4284    15.5791    19.8165   -31.5032     7.8389    83.7108     0.0352     2.3452     0.1985
  344.0000    21.0437    15.3959    19.5001   -31.4212     7.8390    83.6129     0.0384     2.3507     0.1950
  344.5000    20.7513    15.2233    19.3071   -31.3391     7.8390    83.0694     0.0417     2.3561     0.1923
  345.0000    20.7020    15.0527    19.1161   -31.2571     7.8390    82.5962     0.0448     2.3609     0.1898
  345.5000    20.6188    14.8839    18.9269   -31.1750     7.8390    82.1287     0.0445     2.3583     0.1895
  346.0000    20.5609    14.7171    18.7396   -31.0930     7.8390    81.8858     0.0388     2.3422     0.1930
  346.5000    20.5609    14.5521    18.5541   -31.0109     7.8390    81.8885     0.0279     2.3238     0.2096
  347.0000    20.5611    14.4840    18.4075   -30.9291     7.8390    81.8832     0.0230     2.3097     0.2165
  347.5000    20.5827    14.4840    18.2385   -30.8533     7.8390    81.6958     0.0248     2.3128     0.2201
  348.0000    20.6042    14.4840    18.2603   -30.6154     7.8390    80.9843     0.0263     2.3163     0.2145
  348.5000    20.6258    14.4840    18.2854   -30.3613     7.8390    80.6674     0.0249     2.3111     0.2175
  349.0000    20.6474    14.4840    18.3106   -30.1071     7.8390    80.8063     0.0212     2.3010     0.2219
