~VERSION INFORMATION
 VERS.                2.0:   CWLS LOG ASCII STANDARD - VERSION 2.0
 WRAP.                 NO:   ONE LINE PER DEPTH STEP
~WELL INFORMATION
#MNEM.UNIT      DATA TYPE    INFORMATION
#----------   ------------   ------------------------------
 STRT.F            0.0000:   START DEPTH
 STOP.F          561.0000:   STOP DEPTH
 STEP.F            0.1000:   STEP LENGTH
 NULL.          -999.2500:   NO VALUE
 COMP.       F D SERV INC:   COMPANY
 WELL.  83-1 sx 10 #83-10:   WELL
 FLD .             TEAPOT:   FIELD
 LOC .      S10 T38N R78W:   LOCATION
 CNTY.            NATRONA:   COUNTY
 STAT.            WYOMING:   STATE
 CTRY. UNITED STATES OF AMERICA:   COUNTRY
 SRVC.     Atlas Wireline:   SERVICE COMPANY
 DATE.        10-DEC-1992:   LOGDATE
 API .       490252258000:   API NUMBER
~CURVE INFORMATION
#MNEM.UNIT       API CODE    CURVE DESCRIPTION
#----------   ------------   ------------------------------
 DEPT.F                  :   
 GRR .GAPI   07 310 01 00:   GAMMA RAY
 RILD.OHMM   07 120 46 00:   INDUCTION LOG DEEP RESISTIVITY
 RILM.OHMM   07 120 44 00:   INDUCTION LOG MEDIUM RESISTIVITY
~PARAMETER INFORMATION
#MNEM.UNIT          VALUE    DESCRIPTION
#----------   ------------   ------------------------------
 PD  .                 GL:   PERMANENT DATUM
 EPD .F              5170:   ELEVATION PERMANENT DATUM
 LMF .                 KB:   LOG MEASURED FROM
 DAPD.F                10:   FEET ABOVE PERMANENT DATUM
 DMF .                 KB:   DRILLING MEASURED FROM
 EKB .F              5180:   KELLING BUSHING
 EDF .F              5179:   DRILLING FLOOR
 EGL .F              5170:   GROUND LEVEL
 DATE.        10-DEC-1992:   RUN DATE
 RUN .                  1:   RUN NUMBER
 DD  .F               567:   DEPTH DRILLER
 DL  .F               569:   DEPTH LOGGER
 BLI .F               560:   BOTTOM LOG INTERVAL
 TLI .F                97:   TOP LOG INTERVAL
 CS  .IN            8.625:   CASING SIZE
 CBD .F                97:   CASING BOTTOM DRILLER
 CBL .F                97:   CASING BOTTOM LOGGER
 BS  .IN            7.875:   BIT SIZE
 BSD .F               567:   BIT SIZE AT DEPTH
 DFT .           AIR FOAM:   DRILLING FLUID TYPE
 MRT .F                65:   MAXIMUM RECORDED TEMPERATURE
 LUN .           HL- 6274:   LOGGING UNIT NUMBER
 LUL .             CASPER:   LOGGING UNIT LOCATION
 ENGI.       P. RASMUSSEN:   RECORDING ENGINEER
 WITN.          G. STRONG:   WITNESSED BY
 CLNT.            A2DTECH:   CLIENT CODE
 ORIG.           5" PRINT:   ORIGIN OF DATA
 UWI .       490252258000:   UNIQUE WELL ID
 DICO. A2D Technologies, Inc.:   DIGITIZING COMPANY
~OTHER INFORMATION
~A    DEPT      GRR      RILD       RILM   
# ...
   91.0000    85.7785  -999.2500  -999.2500
   91.1000    85.7799  -999.2500  -999.2500
   91.2000    85.7809  -999.2500  -999.2500
   91.3000    85.7821  -999.2500  -999.2500
   91.4000    85.7833  -999.2500  -999.2500
   91.5000    85.9606  -999.2500  -999.2500
   91.6000    86.4834  -999.2500  -999.2500
   91.7000    87.0088  -999.2500  -999.2500
   91.8000    87.9128  -999.2500  -999.2500
   91.9000    88.3553  -999.2500  -999.2500
   92.0000    88.7001  -999.2500  -999.2500
   92.1000    89.0974  -999.2500  -999.2500
   92.2000    89.5276  -999.2500  -999.2500
   92.3000    89.7896  -999.2500  -999.2500
   92.4000    90.0516  -999.2500  -999.2500
   92.5000    90.3492  -999.2500  -999.2500
   92.6000    90.3502  -999.2500  -999.2500
   92.7000    90.1687  -999.2500  -999.2500
   92.8000    90.0492  -999.2500  -999.2500
   92.9000    89.9531  -999.2500  -999.2500
   93.0000    89.6935  -999.2500  -999.2500
   93.1000    89.4339  -999.2500  -999.2500
   93.2000    89.1437  -999.2500  -999.2500
   93.3000    88.9147  -999.2500  -999.2500
   93.4000    88.8425  -999.2500  -999.2500
   93.5000    88.9884  -999.2500  -999.2500
   93.6000    89.2504  -999.2500  -999.2500
   93.7000    89.6902  -999.2500  -999.2500
   93.8000    90.7180  -999.2500  -999.2500
   93.9000    91.5801  -999.2500  -999.2500
   94.0000    92.0506  -999.2500  -999.2500
   94.1000    92.7654  -999.2500  -999.2500
   94.2000    93.3997  -999.2500  -999.2500
   94.3000    94.0291  -999.2500  -999.2500
   94.4000    94.7488  -999.2500  -999.2500
   94.5000    95.2716  -999.2500  -999.2500
   94.6000    95.8374  -999.2500  -999.2500
   94.7000    96.3173  -999.2500  -999.2500
   94.8000    96.6434  -999.2500  -999.2500
   94.9000    96.5975  -999.2500  -999.2500
   95.0000    96.4492  -999.2500  -999.2500
   95.1000    96.4504  -999.2500  -999.2500
   95.2000    96.3998  -999.2500  -999.2500
   95.3000    95.8459  -999.2500  -999.2500
   95.4000    95.3590  -999.2500  -999.2500
   95.5000    95.0400  -999.2500  -999.2500
   95.6000    94.7804  -999.2500  -999.2500
   95.7000    94.5208  -999.2500  -999.2500
   95.8000    94.1880  -999.2500  -999.2500
   95.9000    93.6676  -999.2500  -999.2500
   96.0000    93.1230  -999.2500  -999.2500
   96.1000    93.6214  -999.2500  -999.2500
   96.2000    94.1443  -999.2500  -999.2500
   96.3000    94.9936  -999.2500  -999.2500
   96.4000    96.1586  -999.2500  -999.2500
   96.5000    97.5417  -999.2500  -999.2500
   96.6000    99.1429  -999.2500  -999.2500
   96.7000   101.0222  -999.2500  -999.2500
   96.8000   102.8445  -999.2500  -999.2500
   96.9000   105.3730  -999.2500  -999.2500
   97.0000   108.1680  1972.5044  1972.5044
   97.1000   111.4035  1972.5044  1972.5044
   97.2000   114.9863  1800.5640  1972.5044
   97.3000   117.6171  1555.9574  1972.5044
   97.4000   118.9366  1207.2186  1843.1693
   97.5000   121.6694   631.3138  1431.6877
   97.6000   123.6080    12.6221  1020.2062
   97.7000   126.3016     7.0310   608.7247
   97.8000   128.6519     4.5711   197.2432
   97.9000   130.9146     3.5726     7.4129
   98.0000   133.8230     2.9220     5.1880
   98.1000   135.6443     2.6248     3.6348
   98.2000   136.8524     2.4403     3.1110
   98.3000   137.7332     2.2858     2.9915
   98.4000   138.4231     2.1855     2.9630
   98.5000   138.9459     2.1168     2.9639
   98.6000   139.5606     2.1169     2.9837
   98.7000   140.3441     2.1662     2.9997
   98.8000   141.1213     2.2732     3.0579
   98.9000   141.7167     2.3721     3.1431
   99.0000   142.6161     2.4734     3.2553
   99.1000   143.2967     2.5902     3.3944
   99.2000   143.8195     2.7257     3.5462
   99.3000   144.3423     3.0237     3.7769
   99.4000   144.8113     3.4051     3.9078
   99.5000   145.0845     4.1733     4.0705
   99.6000   145.6705     5.0047     4.2779
   99.7000   146.1301     5.6674     4.5486
   99.8000   146.8395     6.4612     4.6390
   99.9000   147.4792     7.7965     4.8179
  100.0000   147.8645     9.3102     5.0535
  100.1000   148.0327    10.1246     5.2681
  100.2000   148.2009    10.5440     5.4310
  100.3000   148.3692    11.0642     5.6065
  100.4000   148.5374    11.3581     5.7770
  100.5000   148.7102    11.3090     5.9391
  100.6000   148.7102    11.0051     6.0830
  100.7000   148.4975    10.5429     6.2303
  100.8000   148.2359     9.6454     6.3969
  100.9000   147.9743     9.3054     6.5365
  101.0000   147.7127     8.9971     6.6952
  101.1000   147.4059     8.7041     6.8334
  101.2000   146.8860     8.3781     6.9574
  101.3000   146.5857     8.0427     7.0720
  101.4000   145.9168     7.7620     7.1524
  101.5000   145.3131     7.5570     7.1974
  101.6000   144.6507     7.3603     7.2388
  101.7000   143.8658     7.0826     7.2824
  101.8000   143.0810     6.7694     7.2982
  101.9000   142.2962     6.5271     7.2983
  102.0000   141.4264     6.4375     7.2843
  102.1000   140.7266     6.4379     7.2409
  102.2000   139.7503     6.4383     7.1981
  102.3000   138.8534     6.4386     7.1982
  102.4000   137.9609     6.4678     7.1617
  102.5000   136.9145     6.4844     7.1191
  102.6000   135.8203     6.5011     7.0994
  102.7000   134.1426     6.5306     7.0995
  102.8000   131.9503     6.5310     7.1091
  102.9000   130.4027     6.5313     7.1547
  103.0000   129.2544     6.5317     7.2490
  103.1000   128.3259     6.5321     7.4088
  103.2000   127.5411     6.5324     7.5887
  103.3000   126.8247     6.5328     7.7728
  103.4000   126.5554     6.5331     8.0038
  103.5000   126.2519     6.5335     8.2963
  103.6000   126.2519     6.5339     8.5993
  103.7000   126.2519     6.5342     8.9251
  103.8000   126.5084     6.5659     9.2399
  103.9000   126.9453     6.6057     9.3298
  104.0000   127.2069     6.6645     9.3691
  104.1000   127.4711     6.7829     9.3418
  104.2000   128.0728     6.9933     9.2862
  104.3000   128.5175     7.2327     9.2309
  104.4000   129.4017     7.5166     9.1748
  104.5000   130.4482     7.7805     9.0507
  104.6000   131.2045     8.0510     9.0043
  104.7000   131.4661     8.2969     8.9507
  104.8000   131.7147     8.5160     8.8685
  104.9000   131.7147     8.6711     8.7833
  105.0000   131.7147     8.8290     8.7310
  105.1000   131.5239     8.9538     8.6751
  105.2000   131.2623     9.0449     8.5634
  105.3000   130.8937     9.1175     8.5166
  105.4000   130.3705     9.1448     8.4659
  105.5000   129.8240     9.1453     8.4155
  105.6000   128.9833     9.1356     8.3433
  105.7000   128.4973     9.0801     8.2581
  105.8000   127.7730     8.9573     8.2089
  105.9000   126.9882     8.8658     8.1587
  106.0000   126.0860     8.7971     8.0465
  106.1000   125.1905     8.7170     8.0466
  106.2000   124.7344     8.6134     8.0151
  106.3000   124.7344     8.5004     7.9437
  106.4000   124.7344     8.3489     7.8813
  106.5000   124.9459     8.1832     7.8727
  106.6000   125.3770     8.0546     7.8258
  106.7000   125.9002     7.9454     7.7732
  106.8000   126.5950     7.9036     7.7329
  106.9000   127.6415     7.8854     7.6869
  107.0000   128.6919     7.8386     7.6665
  107.1000   130.5008     7.7921     7.6484
  107.2000   131.8313     7.7416     7.6138
  107.3000   132.8613     7.7420     7.6101
  107.4000   133.5081     7.7079     7.5614
  107.5000   133.7431     7.6889     7.5615
  107.6000   133.4814     7.6894     7.5616
  107.7000   133.2198     7.6898     7.5617
  107.8000   132.9287     7.6902     7.5618
  107.9000   132.6966     7.6907     7.5619
  108.0000   132.4350     7.7342     7.5620
  108.1000   132.3217     7.7454     7.5621
  108.2000   132.3217     7.7459     7.6148
  108.3000   132.3217     7.7669     7.6149
  108.4000   132.3217     7.8010     7.6150
  108.5000   132.3217     7.8014     7.6384
  108.6000   132.3217     7.8019     7.6682
  108.7000   132.5222     7.8471     7.6683
  108.8000   132.7838     7.8574     7.6684
  108.9000   133.1622     7.8876     7.6685
  109.0000   133.6105     7.9134     7.6686
  109.1000   133.9051     7.9282     7.6687
