~VERSION INFORMATION
 VERS.                2.0:   CWLS LOG ASCII STANDARD - VERSION 2.0
 WRAP.                 NO:   ONE LINE PER DEPTH STEP
~WELL INFORMATION
#MNEM.UNIT      DATA TYPE    INFORMATION
#----------   ------------   ------------------------------
 STRT.F           30.0000:   START DEPTH
 STOP.F          444.0000:   STOP DEPTH
 STEP.F            0.5000:   STEP LENGTH
 NULL.          -999.2500:   NO VALUE
 COMP. FENIX & SCISSON INC:   COMPANY
 WELL.       SX 3FO #54-3:   WELL
 FLD .             TEAPOT:   FIELD
 LOC .       S3 T38N R78W:   LOCATION
 CNTY.            NATRONA:   COUNTY
 STAT.            WYOMING:   STATE
 CTRY. UNITED STATES OF AMERICA:   COUNTRY
 SRVC.              Welex:   SERVICE COMPANY
 DATE.        08-JUL-1980:   LOGDATE
 API .       490251082800:   API NUMBER
~CURVE INFORMATION
#MNEM.UNIT       API CODE    CURVE DESCRIPTION
#----------   ------------   ------------------------------
 DEPT.F                  :   
 GRD .GAPI   45 310 01 00:   GAMMA RAY FROM DENSITY LOG
 CALD.IN     45 280 60 00:   CALIPER
 RHOB.G/C3   45 350 01 00:   BULK DENSITY
 DPHI.DEC    45 890 12 00:   DENSITY POROSITY SANDSTONE
 CORR.G/C3   45 356 01 00:   DENSITY CORRECTION
~PARAMETER INFORMATION
#MNEM.UNIT          VALUE    DESCRIPTION
#----------   ------------   ------------------------------
 PD  .                 GL:   PERMANENT DATUM
 EPD .F              5162:   ELEVATION PERMANENT DATUM
 LMF .                 KB:   LOG MEASURED FROM
 DAPD.F                 5:   FEET ABOVE PERMANENT DATUM
 DMF .                 KB:   DRILLING MEASURED FROM
 EKB .F              5167:   KELLING BUSHING
 EGL .F              5162:   GROUND LEVEL
 DATE.             7-8-80:   RUN DATE
 RUN .                  1:   RUN NUMBER
 DD  .F               470:   DEPTH DRILLER
 DL  .F               446:   DEPTH LOGGER
 BLI .F               444:   BOTTOM LOG INTERVAL
 TLI .F                30:   TOP LOG INTERVAL
 CS  .IN                7:   CASING SIZE
 CBD .F                43:   CASING BOTTOM DRILLER
 BS  .IN             6.25:   BIT SIZE
 BSD .F               470:   BIT SIZE AT DEPTH
 DFT .        AIR DRILLED:   DRILLING FLUID TYPE
 BHT .F                75:   BOTTOM HOLE TEMPERATURE
 TCS .HRS             2.5:   TIME CURCULATED STOPPED
 MRT .F                75:   MAXIMUM RECORDED TEMPERATURE
 ENGI.               REIN:   RECORDING ENGINEER
 WITN.            RHOADES:   WITNESSED BY
 CLNT.            A2DTECH:   CLIENT CODE
 ORIG.           5" PRINT:   ORIGIN OF DATA
 UWI .       490251082800:   UNIQUE WELL ID
 DICO. A2D Technologies, Inc.:   DIGITIZING COMPANY
~OTHER INFORMATION
~A   DEPT       GRD      CALD       RHOB       DPHI       CORR   
# ...
  274.0000   103.3643     5.8713     2.5280     0.0942     0.1581
  274.5000   101.6656     5.8464     2.5255     0.0939     0.1673
  275.0000   100.4230     5.8216     2.5283     0.0928     0.1762
  275.5000   101.6596     5.8456     2.5304     0.0925     0.1920
  276.0000   102.5198     5.8762     2.5202     0.1002     0.1980
  276.5000    98.9703     5.8611     2.5088     0.1075     0.1924
  277.0000    95.3572     5.8366     2.4969     0.1138     0.1877
  277.5000    91.6039     5.8114     2.4904     0.1154     0.1918
  278.0000    81.3575     5.8076     2.4782     0.1225     0.1965
  278.5000    68.6231     5.8164     2.4608     0.1331     0.2017
  279.0000    61.2278     5.8252     2.4457     0.1445     0.2091
  279.5000    57.1862     5.8337     2.4484     0.1437     0.2164
  280.0000    52.7808     5.8407     2.4466     0.1421     0.2320
  280.5000    50.3115     5.8194     2.4364     0.1456     0.2549
  281.0000    52.6214     5.8014     2.4214     0.1552     0.2698
  281.5000    54.9780     5.8089     2.4068     0.1699     0.2848
  282.0000    57.3230     5.8206     2.3705     0.1857     0.2998
  282.5000    59.2070     5.7782     2.3420     0.2015     0.2888
  283.0000    58.8282     5.7096     2.3384     0.2079     0.2749
  283.5000    58.3683     5.6451     2.3457     0.2029     0.2611
  284.0000    58.5206     5.6660     2.3555     0.1994     0.2544
  284.5000    58.7091     5.7191     2.3597     0.1944     0.2763
  285.0000    59.3957     5.7727     2.3449     0.2007     0.2875
  285.5000    60.3219     5.8284     2.3360     0.2068     0.2878
  286.0000    62.2146     5.9206     2.3421     0.2091     0.3011
  286.5000    64.1123     5.8374     2.3141     0.2172     0.3086
  287.0000    65.5102     5.7557     2.2840     0.2371     0.2751
  287.5000    66.8583     5.6765     2.3054     0.2286     0.2347
  288.0000    68.2270     5.6300     2.3262     0.2074     0.1910
  288.5000    70.5377     5.6774     2.3814     0.1785     0.1483
  289.0000    73.2728     5.7954     2.3869     0.1750     0.1303
  289.5000    74.4830     5.8517     2.3972     0.1714     0.1141
  290.0000    73.6276     5.8375     2.4078     0.1661     0.1157
  290.5000    74.4820     5.8712     2.4070     0.1666     0.1174
  291.0000    74.2418     5.8501     2.4035     0.1671     0.1168
  291.5000    73.4251     5.8276     2.4072     0.1663     0.1161
  292.0000    72.6463     5.8518     2.4048     0.1684     0.1139
  292.5000    74.1795     5.8951     2.3958     0.1737     0.1049
  293.0000    76.7926     5.8775     2.3933     0.1757     0.1007
  293.5000    75.9454     5.8492     2.3958     0.1721     0.1017
  294.0000    76.9705     5.8574     2.3989     0.1687     0.0992
  294.5000    78.4235     5.8801     2.4082     0.1649     0.0965
  295.0000    77.8286     5.8998     2.4173     0.1606     0.0960
  295.5000    77.1892     5.8775     2.4266     0.1564     0.1000
  296.0000    76.6211     5.8552     2.4271     0.1541     0.1037
  296.5000    77.3622     5.8333     2.4249     0.1542     0.1020
  297.0000    77.8105     5.8331     2.4247     0.1544     0.1003
  297.5000    77.0327     5.8560     2.4279     0.1534     0.0987
  298.0000    77.5505     5.8789     2.4346     0.1496     0.0995
  298.5000    79.7237     5.8649     2.4411     0.1459     0.1031
  299.0000    78.1182     5.8416     2.4478     0.1421     0.1068
  299.5000    76.5733     5.8188     2.4453     0.1401     0.1056
  300.0000    76.6363     5.8151     2.4367     0.1450     0.1025
  300.5000    79.0262     5.8660     2.4303     0.1493     0.0994
  301.0000    80.0942     5.8917     2.4383     0.1469     0.0990
  301.5000    78.6162     5.8515     2.4491     0.1421     0.1035
  302.0000    80.3367     5.8115     2.4555     0.1377     0.1049
  302.5000    82.2495     5.8373     2.4538     0.1383     0.1014
  303.0000    81.4426     5.8805     2.4560     0.1397     0.0980
  303.5000    79.8423     5.8656     2.4654     0.1307     0.1016
  304.0000    78.2436     5.8481     2.4746     0.1218     0.1094
  304.5000    76.8235     5.8307     2.4842     0.1195     0.1085
  305.0000    77.5687     5.8247     2.4909     0.1162     0.1058
  305.5000    79.0162     5.8354     2.4929     0.1142     0.1035
  306.0000    77.8774     5.8457     2.4777     0.1258     0.0983
  306.5000    77.1580     5.8561     2.4630     0.1334     0.0939
  307.0000    78.5866     5.8542     2.4485     0.1378     0.0946
  307.5000    79.9627     5.8401     2.4338     0.1495     0.0953
  308.0000    80.5152     5.8255     2.4201     0.1613     0.0940
  308.5000    78.8341     5.8279     2.4075     0.1681     0.0871
  309.0000    77.5532     5.8364     2.4009     0.1714     0.0801
  309.5000    76.2572     5.8451     2.3948     0.1768     0.0748
  310.0000    75.4130     5.8539     2.3952     0.1734     0.0699
  310.5000    75.2356     5.8603     2.4056     0.1665     0.0738
  311.0000    76.2046     5.8366     2.4105     0.1627     0.0805
  311.5000    77.1282     5.8136     2.4157     0.1602     0.0880
  312.0000    78.6570     5.8105     2.4210     0.1577     0.0963
  312.5000    80.2558     5.8270     2.4248     0.1565     0.1037
  313.0000    79.4302     5.8405     2.4204     0.1597     0.1024
  313.5000    77.7749     5.8197     2.4143     0.1601     0.0995
  314.0000    76.0603     5.8033     2.4082     0.1637     0.0966
  314.5000    75.8166     5.8334     2.4022     0.1689     0.0979
  315.0000    75.5481     5.8315     2.4017     0.1696     0.1021
  315.5000    74.6722     5.8122     2.4017     0.1685     0.1063
  316.0000    76.6053     5.8187     2.4000     0.1713     0.1107
  316.5000    78.8288     5.8524     2.3967     0.1736     0.1095
  317.0000    80.5665     5.8463     2.3936     0.1736     0.1065
  317.5000    79.3930     5.8171     2.4001     0.1689     0.1034
  318.0000    78.0499     5.8105     2.4124     0.1620     0.1049
  318.5000    76.6746     5.8268     2.4262     0.1538     0.1111
  319.0000    76.7689     5.8435     2.4388     0.1457     0.1175
  319.5000    77.1238     5.8605     2.4458     0.1433     0.1151
  320.0000    75.1446     5.8424     2.4523     0.1375     0.1095
  320.5000    73.7721     5.8209     2.4534     0.1369     0.1041
  321.0000    74.6844     5.8032     2.4454     0.1433     0.0986
  321.5000    76.5399     5.8288     2.4376     0.1469     0.0959
  322.0000    75.9966     5.8549     2.4325     0.1491     0.0977
  322.5000    75.1006     5.8520     2.4343     0.1493     0.0969
  323.0000    74.2064     5.8391     2.4370     0.1466     0.0939
  323.5000    73.3144     5.8251     2.4432     0.1441     0.0968
  324.0000    72.4088     5.8344     2.4490     0.1417     0.0997
  324.5000    71.4988     5.8520     2.4465     0.1428     0.0932
  325.0000    72.9962     5.8467     2.4403     0.1466     0.0858
  325.5000    74.7397     5.8229     2.4346     0.1477     0.0782
  326.0000    76.5351     5.8436     2.4403     0.1428     0.0815
  326.5000    76.7661     5.8601     2.4541     0.1374     0.0888
  327.0000    76.3230     5.8326     2.4653     0.1320     0.0961
  327.5000    75.8278     5.8057     2.4771     0.1250     0.1038
  328.0000    75.2794     5.7834     2.4889     0.1165     0.1118
  328.5000    73.1537     5.8090     2.4995     0.1122     0.1197
  329.0000    72.7006     5.8342     2.4960     0.1136     0.1232
  329.5000    73.7549     5.8591     2.4909     0.1150     0.1214
  330.0000    70.4376     5.8803     2.4896     0.1154     0.1198
  330.5000    75.2032     5.8633     2.4934     0.1139     0.1208
  331.0000    75.5274     5.8466     2.4978     0.1117     0.1247
  331.5000    75.5700     5.8302     2.5023     0.1096     0.1287
  332.0000    77.4843     5.8295     2.5007     0.1129     0.1263
  332.5000    78.7013     5.8449     2.4900     0.1184     0.1196
  333.0000    76.9836     5.8606     2.4794     0.1239     0.1128
  333.5000    75.5225     5.8526     2.4742     0.1289     0.1060
  334.0000    74.5078     5.8426     2.4650     0.1322     0.0992
  334.5000    73.4565     5.8326     2.4565     0.1349     0.0959
