~VERSION INFORMATION
 VERS.                2.0:   CWLS LOG ASCII STANDARD - VERSION 2.0
 WRAP.                 NO:   ONE LINE PER DEPTH STEP
~WELL INFORMATION
#MNEM.UNIT      DATA TYPE    INFORMATION
#----------   ------------   ------------------------------
 STRT.F          276.0000:   START DEPTH
 STOP.F         2768.0000:   STOP DEPTH
 STEP.F            0.5000:   STEP LENGTH
 NULL.          -999.2500:   NO VALUE
 COMP.       TESORD PETRO:   COMPANY
 WELL. AX-20 NPR #3 #83-20:   WELL
 FLD .            WILDCAT:   FIELD
 LOC .      S20 T39N R78W:   LOCATION
 CNTY.            NATRONA:   COUNTY
 STAT.            WYOMING:   STATE
 CTRY. UNITED STATES OF AMERICA:   COUNTRY
 SRVC.       Schlumberger:   SERVICE COMPANY
 DATE.        20-JUL-1971:   LOGDATE
 API .       490251022000:   API NUMBER
~CURVE INFORMATION
#MNEM.UNIT       API CODE    CURVE DESCRIPTION
#----------   ------------   ------------------------------
 DEPT.F                  :   
 SPR .MV     05 010 01 00:   SPONTANEOUS POTENTIAL FROM RES.
 ASN .OHMM   05 041 16 00:   AMPLIFIED SHORT NORMAL 16"
 ILD .OHMM   05 120 46 00:   INDUCTION LOG DEEP
 CALD.IN     45 280 60 00:   CALIPER FROM DENSITY
 CORR.G/C3   45 356 01 00:   DENSITY CORRECTION
 DPHI.DEC    45 890 12 00:   DENSITY POROSITY SANDSTONE
 GRD .GAPI   45 310 01 00:   GAMMA RAY FROM DENSITY LOG
 RHOB.G/C3   45 350 01 00:   BULK DENSITY
 CILD.MMHO   05 110 46 00:   CONDUCTIVITY INDUCTION LOG DEEP
~PARAMETER INFORMATION
#MNEM.UNIT          VALUE    DESCRIPTION
#----------   ------------   ------------------------------
 PD  .                 GL:   PERMANENT DATUM
 EPD .F              4994:   ELEVATION PERMANENT DATUM
 LMF .                 KB:   LOG MEASURED FROM
 DAPD.F                11:   FEET ABOVE PERMANENT DATUM
 DMF .                 KB:   DRILLING MEASURED FROM
 EKB .F              5005:   KELLING BUSHING
 EGL .F              4994:   GROUND LEVEL
 DATE.        20-JUL-1971:   RUN DATE
 RUN .                  1:   RUN NUMBER
 DD  .F              2770:   DEPTH DRILLER
 DL  .F              2769:   DEPTH LOGGER
 BLI .F              2768:   BOTTOM LOG INTERVAL
 TLI .F               276:   TOP LOG INTERVAL
 CS  .IN            10.75:   CASING SIZE
 CBD .F               274:   CASING BOTTOM DRILLER
 CBL .F               276:   CASING BOTTOM LOGGER
 BS  .IN                9:   BIT SIZE
 BSD .F              2770:   BIT SIZE AT DEPTH
 DFT .      FRESH GEL MUD:   DRILLING FLUID TYPE
 DFD .                 10:   DRILLING FLUID DENSITY
 DFV .                 82:   DRILLING FLUID VISCOSITY
 DFPH.                  8:   DRILLING FLUID PH
 DFL .                4.8:   DRILLING FLUID LOSS
 MSS .           FLOWLINE:   MUD SAMPLE SOURCE
 RMS .OHMM            1.8:   RESISTIVITY MUD SAMPLE
 MST .F                73:   MUD SAMPLE TEMPERATURE
 RMF .OHMM            1.4:   RESISTIVITY MUD FILTRATE SAMPLE
 MFST.F                73:   MUD FILTRATE SAMPLE TEMPERATURE
 MFSS.               MEAS:   MUD FILTRATE SAMPLE SOURCE
 RMB .OHMM           1.15:   RESISTIVITY MUD AT BHT
 BHT .F               116:   BOTTOM HOLE TEMPERATURE
 TCS .HRS               2:   TIME CURCULATED STOPPED
 MRT .F               116:   MAXIMUM RECORDED TEMPERATURE
 LUN .               7037:   LOGGING UNIT NUMBER
 LUL .               CSPR:   LOGGING UNIT LOCATION
 ENGI.             JENSEN:   RECORDING ENGINEER
 WITN.                MAY:   WITNESSED BY
 CLNT.            A2DTECH:   CLIENT CODE
 ORIG.     1", 2.5" PRINT:   ORIGIN OF DATA
 UWI .       490251022000:   UNIQUE WELL ID
 DICO. A2D Technologies, Inc.:   DIGITIZING COMPANY
~OTHER INFORMATION
~A   DEPT      SPR          ASN        ILD     CALD       CORR       DPHI        GRD       RHOB       CILD   
# ...
 2320.0000   -27.8808    18.3403    16.7463     9.1164     0.0186     0.1263    86.9543     2.4353  -999.2500
 2320.5000   -27.8838    18.7876    17.3429     9.1520     0.0282     0.1027    88.8180     2.4922  -999.2500
 2321.0000   -28.1853    19.2349    17.7901     9.1083     0.0300     0.1059    85.5933     2.4611  -999.2500
 2321.5000   -28.4867    19.5329    18.2372     9.0773     0.0165     0.1164    85.1367     2.4573  -999.2500
 2322.0000   -28.7882    19.9803    18.6846     9.0615     0.0577     0.1089    86.4711     2.4913  -999.2500
 2322.5000   -29.0897    20.1291    19.1320     9.0453     0.1009     0.1033    87.8055     2.4841  -999.2500
 2323.0000   -29.6897    20.5764    19.5717     8.9845     0.0932     0.1150    89.5877     2.4562  -999.2500
 2323.5000   -30.2897    20.8745    19.7192     8.9237     0.0780     0.1330    87.3400     2.4247  -999.2500
 2324.0000   -30.5912    21.3218    20.0159     8.8995     0.0723     0.1436    81.9580     2.4063  -999.2500
 2324.5000   -31.1912    21.4706    20.3016     8.9406     0.0783     0.1458    78.3671     2.4308  -999.2500
 2325.0000   -31.7912    21.4701    20.4479     8.9104     0.0806     0.1473    75.2239     2.4352  -999.2500
 2325.5000   -32.6897    21.6189    20.5942     8.8206     0.0684     0.1469    74.3195     2.4144  -999.2500
 2326.0000   -33.2897    21.7677    20.5910     8.8800     0.0631     0.1397    74.7584     2.3949  -999.2500
 2326.5000   -33.5911    22.0658    20.4227     8.8797     0.0962     0.1453    72.8774     2.4099  -999.2500
 2327.0000   -33.5941    22.0654    20.2517     8.8197     0.1168     0.1549    71.6063     2.4054  -999.2500
 2327.5000   -33.2986    21.4679    19.6494     8.6701     0.1182     0.1536    74.8663     2.3814  -999.2500
 2328.0000   -33.3016    20.5719    19.0667     8.6997     0.0984     0.1584    78.1261     2.3889  -999.2500
 2328.5000   -33.0060    19.6760    18.6146     8.8486     0.0984     0.1650    82.2516     2.4053  -999.2500
 2329.0000   -33.0090    19.3770    18.2896     8.8185     0.1238     0.1554    87.2232     2.4072  -999.2500
 2329.5000   -32.7134    19.5290    17.8836     8.5495     0.1208     0.1519    93.5819     2.3933  -999.2500
 2330.0000   -32.7165    19.8289    17.7313     8.5791     0.1058     0.1525    91.0791     2.4067  -999.2500
 2330.5000   -32.4209    20.2712    17.9037     8.6982     0.0804     0.1620    78.4659     2.3888  -999.2500
 2331.0000   -32.4239    20.5777    18.2005     8.7875     0.0536     0.1680    73.2180     2.3693  -999.2500
 2331.5000   -32.4269    20.8774    18.5260     8.8473     0.0416     0.1734    70.6126     2.3633  -999.2500
 2332.0000   -32.4299    21.1773    18.9433     8.8466     0.0684     0.1710    68.8298     2.4111  -999.2500
 2332.5000   -32.4328    21.3142    19.2400     8.8463     0.0707     0.1585    70.7463     2.4006  -999.2500
 2333.0000   -32.4358    21.2983    19.5048     8.8161     0.0565     0.1541    69.8691     2.3812  -999.2500
 2333.5000   -32.4388    20.9976    19.6511     8.7824     0.0517     0.1633    69.2523     2.4006  -999.2500
 2334.0000   -32.4418    20.7158    19.7974     8.7260     0.0788     0.1627    71.8387     2.3991  -999.2500
 2334.5000   -32.4448    20.8853    19.6086     8.7205     0.0758     0.1567    76.4138     2.3990  -999.2500
 2335.0000   -32.4478    21.1627    19.3060     8.6956     0.0594     0.1465    84.4478     2.4065  -999.2500
 2335.5000   -32.4507    21.1623    19.0418     8.7251     0.0504     0.1370    87.3850     2.4394  -999.2500
 2336.0000   -32.4537    21.1618    19.2279     8.7622     0.0594     0.1253    86.0778     2.4946  -999.2500
 2336.5000   -32.4567    21.1889    19.5246     8.8224     0.0788     0.1010    83.3194     2.4961  -999.2500
 2337.0000   -32.4597    21.3395    19.7795     8.9124     0.0683     0.1170    81.9581     2.4521  -999.2500
 2337.5000   -32.7612    21.7885    19.9258     8.8831     0.0414     0.1448    81.2687     2.3970  -999.2500
 2338.0000   -32.7782    22.0556    19.7284     8.8132     0.0444     0.1551    80.5792     2.3825  -999.2500
 2338.5000   -33.3797    22.0551    19.4257     8.8841     0.0593     0.1573    80.8030     2.3841  -999.2500
 2339.0000   -33.6826    21.9053    19.0756     8.9320     0.0623     0.1587    81.2418     2.3921  -999.2500
 2339.5000   -33.9672    21.6796    18.6710     8.9185     0.0682     0.1592    81.9402     2.4115  -999.2500
 2340.0000   -33.9701    21.2278    18.4179     8.8438     0.0876     0.1598    83.9087     2.4071  -999.2500
 2340.5000   -33.9304    20.6268    18.2657     8.7523     0.0562     0.1589    90.1685     2.3898  -999.2500
 2341.0000   -33.0345    20.0692    18.1140     8.7074     0.0731     0.1472    94.1895     2.4338  -999.2500
 2341.5000   -32.4864    19.6193    18.3131     8.7975     0.1103     0.1282    94.1806     2.4660  -999.2500
 2342.0000   -32.4896    19.3653    18.4607     8.7467     0.1093     0.1263    86.1120     2.4476  -999.2500
 2342.5000   -32.5200    19.2156    18.7574     8.6910     0.0838     0.1434    85.0744     2.4104  -999.2500
 2343.0000   -33.0925    19.2655    19.0543     8.7205     0.0739     0.1476    87.4376     2.3841  -999.2500
 2343.5000   -33.3940    19.5654    19.2931     8.8397     0.0671     0.1484    89.2197     2.3807  -999.2500
 2344.0000   -33.3970    20.2173    19.4394     8.9290     0.0496     0.1427    82.9422     2.4053  -999.2500
 2344.5000   -33.0682    20.7619    19.4358     8.8391     0.0472     0.1288    78.4557     2.4624  -999.2500
 2345.0000   -32.4379    21.0617    19.4329     8.7791     0.0974     0.1245    78.4469     2.4748  -999.2500
 2345.5000   -31.5787    21.1534    19.4299     8.6892     0.0931     0.1294    81.5723     2.4344  -999.2500
 2346.0000   -30.9829    20.8822    19.2975     8.6591     0.0606     0.1409    86.9366     2.4064  -999.2500
 2346.5000   -30.4267    20.4305    18.6289     8.5991     0.0750     0.1500    87.1792     2.4028  -999.2500
 2347.0000   -30.3892    19.8937    18.0104     8.5689     0.0712     0.1554    85.5756     2.3842  -999.2500
 2347.5000   -30.1341    19.5931    17.7761     8.5686     0.0605     0.1613    89.1488     2.3875  -999.2500
 2348.0000   -30.2250    19.5770    17.7035     8.5385     0.0732     0.1578    92.2743     2.3991  -999.2500
 2348.5000   -31.3796    19.7969    17.6209     8.5382     0.0784     0.1532    86.8923     2.3964  -999.2500
 2349.0000   -31.6358    20.0272    17.6179     8.5678     0.0711     0.1665    80.1670     2.3845  -999.2500
 2349.5000   -31.6388    20.3270    17.6150     8.5675     0.0596     0.1713    79.2626     2.3656  -999.2500
 2350.0000   -31.6418    20.6269    17.6119     8.5970     0.0480     0.1784    79.2537     2.3595  -999.2500
 2350.5000   -31.9433    20.8503    17.6089     8.5967     0.0395     0.1909    83.3117     2.3603  -999.2500
 2351.0000   -32.2448    20.6936    17.6060     8.5964     0.0315     0.1791    86.4002     2.3624  -999.2500
 2351.5000   -32.2478    20.2420    17.6030     8.5937     0.0306     0.1731    84.4653     2.3671  -999.2500
 2352.0000   -31.9520    19.8719    17.6000     8.5297     0.0353     0.1599    81.4571     2.3795  -999.2500
 2352.5000   -31.8980    19.7377    17.7463     8.4721     0.0450     0.1473    85.6562     2.4045  -999.2500
 2353.0000   -31.6594    20.0376    17.9746     8.4460     0.0533     0.1426    88.7634     2.4341  -999.2500
 2353.5000   -31.3040    20.5112    18.2713     8.4457     0.0533     0.1426    91.0210     2.4281  -999.2500
 2354.0000   -30.7698    21.3228    18.8020     8.4880     0.0289     0.1408    89.8033     2.4101  -999.2500
 2354.5000   -30.4115    22.3392    19.3985     8.6159     0.0051     0.1348    79.6315     2.4161  -999.2500
 2355.0000   -30.1788    23.3835    20.0821     8.8268     0.0133     0.1306    74.1492     2.4549  -999.2500
 2355.5000   -30.1821    24.1293    20.7410     8.8923     0.0328     0.1246    73.7821     2.4643  -999.2500
 2356.0000   -30.1851    24.5766    21.4561     8.8227     0.0447     0.1216    76.7638     2.4235  -999.2500
