~VERSION INFORMATION
 VERS.                2.0:   CWLS LOG ASCII STANDARD - VERSION 2.0
 WRAP.                 NO:   ONE LINE PER DEPTH STEP
~WELL INFORMATION
#MNEM.UNIT      DATA TYPE    INFORMATION
#----------   ------------   ------------------------------
 STRT.F            0.0000:   START DEPTH
 STOP.F          547.0000:   STOP DEPTH
 STEP.F            0.1000:   STEP LENGTH
 NULL.          -999.2500:   NO VALUE
 COMP.     BROWN JOHN E&C:   COMPANY
 WELL.    NPR 3 #86-1-X-3:   WELL
 FLD .             TEAPOT:   FIELD
 LOC .       S3 T38N R78W:   LOCATION
 CNTY.            NATRONA:   COUNTY
 STAT.            WYOMING:   STATE
 CTRY. UNITED STATES OF AMERICA:   COUNTRY
 SRVC.     Atlas Wireline:   SERVICE COMPANY
 DATE.        09-FEB-1992:   LOGDATE
 API .       490252249800:   API NUMBER
~CURVE INFORMATION
#MNEM.UNIT       API CODE    CURVE DESCRIPTION
#----------   ------------   ------------------------------
 DEPT.F                  :   
 GRR .GAPI   07 310 01 00:   GAMMA RAY
 RFOC.OHMM   07 220 04 00:   RESISTIVITY FOCUSED LOG
 RILD.OHMM   07 120 46 00:   INDUCTION LOG DEEP RESISTIVITY
 RILM.OHMM   07 120 44 00:   INDUCTION LOG MEDIUM RESISTIVITY
 SPR .MV     07 010 01 00:   SPONTANEOUS POTENTIAL
~PARAMETER INFORMATION
#MNEM.UNIT          VALUE    DESCRIPTION
#----------   ------------   ------------------------------
 PD  .                 GL:   PERMANENT DATUM
 EPD .F              5145:   ELEVATION PERMANENT DATUM
 LMF .                 KB:   LOG MEASURED FROM
 DAPD.F                10:   FEET ABOVE PERMANENT DATUM
 DMF .                 KB:   DRILLING MEASURED FROM
 EKB .F              5155:   KELLING BUSHING
 EDF .F              5154:   DRILLING FLOOR
 EGL .F              5145:   GROUND LEVEL
 DATE.        09-FEB-1992:   RUN DATE
 RUN .                  1:   RUN NUMBER
 DD  .F               562:   DEPTH DRILLER
 DL  .F               550:   DEPTH LOGGER
 BLI .F               547:   BOTTOM LOG INTERVAL
 CS  .IN            8.625:   CASING SIZE
 CBD .F               183:   CASING BOTTOM DRILLER
 CBL .F               181:   CASING BOTTOM LOGGER
 BS  .IN            7.875:   BIT SIZE
 BSD .F               562:   BIT SIZE AT DEPTH
 DFT .            GEL BAR:   DRILLING FLUID TYPE
 DFD .               17.8:   DRILLING FLUID DENSITY
 DFV .                 52:   DRILLING FLUID VISCOSITY
 DFPH.                  9:   DRILLING FLUID PH
 DFL .                5.2:   DRILLING FLUID LOSS
 MSS .           FLOWLINE:   MUD SAMPLE SOURCE
 RMS .OHMM           1.78:   RESISTIVITY MUD SAMPLE
 MST .F                68:   MUD SAMPLE TEMPERATURE
 RMF .OHMM          1.335:   RESISTIVITY MUD FILTRATE SAMPLE
 MFST.F                68:   MUD FILTRATE SAMPLE TEMPERATURE
 RMC .OHMM          2.225:   RESISTIVITY MUD CAKE
 MCST.F                68:   MUD CAKE SAMPLE TEMPERATURE
 MFSS.               MEAS:   MUD FILTRATE SAMPLE SOURCE
 MCSS.               MEAS:   MUD CAKE SAMPLE SOURCE
 TCS .HRS               3:   TIME CURCULATED STOPPED
 LUN .            HL 6274:   LOGGING UNIT NUMBER
 LUL .             CASPER:   LOGGING UNIT LOCATION
 ENGI.       P. RASMUSSEN:   RECORDING ENGINEER
 WITN.          G. STRONG:   WITNESSED BY
 CLNT.            A2DTECH:   CLIENT CODE
 ORIG.           5" PRINT:   ORIGIN OF DATA
 UWI .       490252249800:   UNIQUE WELL ID
 DICO. A2D Technologies, Inc.:   DIGITIZING COMPANY
~OTHER INFORMATION
~A    DEPT      GRR      RFOC       RILD       RILM        SPR   
# ...
  366.0000    58.4193    20.5737    20.6487    19.9741   -39.9155
  366.1000    59.4868    20.9103    20.9069    20.0497   -39.9575
  366.2000    60.1993    21.1541    21.0198    20.0492   -40.0676
  366.3000    60.3939    21.6528    21.1419    20.0486   -40.0682
  366.4000    60.5276    21.9560    21.3308    20.0481   -40.1858
  366.5000    60.7781    22.2123    21.5799    20.0475   -40.4042
  366.6000    60.9949    22.4716    21.8317    19.9849   -40.5895
  366.7000    60.6880    22.7337    22.1034    19.9070   -40.7158
  366.8000    60.4498    22.9987    22.2234    19.9064   -40.8591
  366.9000    60.3793    22.9976    22.3525    19.9058   -41.1276
  367.0000    60.2431    23.1043    22.5529    19.9053   -41.2458
  367.1000    60.0705    23.1571    22.8161    19.9048   -41.3722
  367.2000    60.0681    23.1024    23.0637    19.9652   -41.4311
  367.3000    60.0655    22.9144    23.2059    20.0808   -41.4742
  367.4000    60.0632    22.5159    23.4606    20.1829   -41.6006
  367.5000    60.0608    22.0477    23.6324    20.1822   -41.7346
  367.6000    60.0584    21.6418    23.8449    20.1817   -41.7351
  367.7000    60.1362    21.0702    24.0751    20.1811   -41.7357
  367.8000    60.3866    20.4643    24.2148    20.2412   -41.7364
  367.9000    60.6588    19.8978    24.3634    20.3585   -41.7370
  368.0000    61.1186    19.4378    24.6321    20.4631   -41.7556
  368.1000    61.4419    19.0336    24.8118    20.4624   -41.8890
  368.2000    62.0790    18.9446    24.9560    20.5703   -41.8896
  368.3000    63.0103    18.7685    25.0502    20.6896   -41.8902
  368.4000    63.7130    18.6365    25.0710    20.7483   -41.8908
  368.5000    63.9876    18.6358    25.2242    20.7477   -41.9351
  368.6000    64.2140    18.6350    25.2235    20.7595   -42.0428
  368.7000    64.6419    18.6342    25.2228    20.8917   -42.0435
  368.8000    65.0188    18.8083    25.1417    21.0008   -42.0440
  368.9000    65.2693    18.9611    25.0460    21.0369   -42.0446
  369.0000    65.5197    19.1159    25.0453    21.0363   -42.0452
  369.1000    65.7967    19.3388    25.0446    21.0357   -42.0902
  369.2000    66.0206    19.5643    24.9056    21.0351   -42.1973
  369.3000    66.2711    19.7929    24.8691    21.0345   -42.1979
  369.4000    66.3976    20.0241    24.7884    21.0340   -42.3185
  369.5000    66.3222    20.1869    24.6948    21.0334   -42.3499
  369.6000    66.0887    20.3516    24.6941    21.0925   -42.3505
  369.7000    66.0860    20.5408    24.6934    21.1795   -42.3511
  369.8000    66.0839    20.5399    24.6927    21.1789   -42.3716
  369.9000    65.9089    20.6829    24.6921    21.1782   -42.5032
  370.0000    65.6535    20.7789    24.6914    21.1777   -42.5038
  370.1000    65.3982    20.8994    24.6391    21.0938   -42.6000
  370.2000    65.1235    21.0206    24.5183    21.0293   -42.6558
  370.3000    64.5517    21.1424    24.5176    20.9951   -42.6564
  370.4000    64.1069    21.2649    24.5169    20.8729   -42.6570
  370.5000    63.5987    21.2639    24.4077    20.7360   -42.6576
  370.6000    62.9713    21.2632    24.3451    20.7355   -42.7795
  370.7000    62.4827    21.2623    24.3444    20.5748   -42.9059
  370.8000    62.7163    21.2120    24.3438    20.3917   -42.9611
  370.9000    62.4094    21.0636    24.3431    20.2730   -42.9617
  371.0000    62.1884    20.8185    24.2059    20.1550   -42.9623
  371.1000    61.9331    20.5286    24.1725    20.0217   -42.9629
  371.2000    61.7945    20.2439    24.1718    19.9214   -42.9635
  371.3000    61.8578    19.8927    24.1193    19.8815   -42.9641
  371.4000    62.1082    19.5923    24.0024    19.8282   -42.9647
  371.5000    62.3948    19.3644    24.0017    19.7128   -42.9653
  371.6000    62.3927    19.1391    23.8658    19.6043   -42.9876
  371.7000    62.5556    18.9170    23.7267    19.6037   -43.1174
  371.8000    62.6918    18.6973    23.6671    19.5065   -43.1179
  371.9000    63.1320    18.5444    23.6150    19.3931   -43.1185
  372.0000    64.8268    18.4360    23.5012    19.3305   -43.1192
  372.1000    65.1157    18.3281    23.5006    19.3023   -43.0724
  372.2000    65.5417    18.2209    23.3668    19.1950   -42.9694
  372.3000    65.7192    18.0931    23.3359    19.1944   -42.9701
  372.4000    65.6049    18.0924    23.3352    19.1003   -42.9707
  372.5000    65.3495    18.0917    23.2832    19.0599   -42.8733
  372.6000    65.1040    18.0490    23.1474    19.0594   -42.7481
  372.7000    65.1011    17.9433    23.0099    19.0327   -42.6709
  372.8000    65.0991    17.8384    23.0093    18.9219   -42.6486
  372.9000    65.0967    17.8375    23.0086    18.7936   -42.5213
  373.0000    64.9848    17.8369    23.0080    18.7932   -42.3982
  373.1000    64.8462    17.7740    22.9051    18.7926   -42.2730
  373.2000    65.0894    17.6700    22.6879    18.7454   -42.1478
  373.3000    65.0865    17.5871    22.6872    18.6609   -41.9740
  373.4000    65.0845    17.5863    22.5568    18.6577   -41.7231
  373.5000    65.0821    17.5855    22.4254    18.5300   -41.4691
  373.6000    65.0796    17.5032    22.3710    18.5296   -41.3454
  373.7000    65.1331    17.4617    22.3198    18.5291   -41.2202
  373.8000    65.3788    17.4204    22.1897    18.5286   -41.0208
  373.9000    65.3758    17.3386    22.0591    18.5281   -40.8190
  374.0000    65.3739    17.3379    22.0585    18.5258   -40.6938
  374.1000    65.5271    17.3370    21.8559    18.3981   -40.5677
  374.2000    65.7775    17.3365    21.7516    18.3111   -40.4434
  374.3000    66.1350    17.3357    21.7013    18.2693   -40.3183
  374.4000    66.8889    17.2948    21.5747    18.2687   -40.2679
  374.5000    67.4889    17.1936    21.4483    18.2682   -40.2685
  374.6000    68.0998    17.0930    21.3239    18.2677   -40.2567
  374.7000    68.7028    17.0923    21.1996    18.2671   -40.1944
  374.8000    69.3083    17.0915    21.0760    18.2667   -40.1321
  374.9000    70.1156    17.0908    20.9531    18.2025   -40.1201
  375.0000    71.1246    17.0504    20.8551    18.1387   -40.0452
  375.1000    72.3868    16.9704    20.8545    18.1173   -39.9704
  375.2000    73.2450    16.9697    20.8538    18.0116   -39.9710
  375.3000    74.0013    16.9688    20.8533    18.0111   -39.9720
  375.4000    74.6578    16.8895    20.9261    18.0105   -40.1232
  375.5000    75.0643    16.8494    20.9982    18.0100   -40.2247
  375.6000    75.0614    16.7707    20.9976    18.0095   -40.2751
  375.7000    74.5581    16.6141    20.9970    18.0090   -40.3777
  375.8000    74.0498    16.6134    21.1433    18.0085   -40.6039
  375.9000    73.5416    16.4969    21.1428    18.0080   -40.7303
  376.0000    72.9362    16.4198    21.1423    18.0075   -40.8810
  376.1000    72.2213    16.3808    21.1417    18.0682   -40.8815
  376.2000    71.7033    16.3421    21.1411    18.1326   -40.9587
  376.3000    71.2049    16.2465    21.1405    18.1321   -41.0851
  376.4000    70.4998    16.1514    21.1398    18.1316   -41.1849
  376.5000    69.5928    16.1506    21.1393    18.1311   -41.1855
  376.6000    68.8632    16.1501    21.2143    18.2125   -41.1862
  376.7000    68.6079    16.1494    21.3375    18.2570   -41.1867
  376.8000    68.3452    16.1487    21.4346    18.2565   -41.1873
  376.9000    68.8340    16.1669    21.4340    18.2560   -41.1879
  377.0000    69.3373    16.2606    21.4333    18.2555   -41.1614
  377.1000    69.6972    16.2598    21.4328    18.2550   -41.0362
  377.2000    70.1324    16.2592    21.5094    18.2545   -40.8882
  377.3000    70.8061    16.3155    21.5816    18.3139   -40.8887
  377.4000    71.0662    16.3719    21.5810    18.3813   -40.8115
  377.5000    71.7932    16.3712    21.5829    18.3979   -40.6863
  377.6000    72.5494    16.3705    21.7308    18.5089   -40.5888
  377.7000    73.3057    16.3698    21.7303    18.5084   -40.5840
  377.8000    73.9721    16.3691    21.7297    18.5079   -40.2885
  377.9000    74.3979    16.3684    21.7291    18.5074   -40.2890
  378.0000    74.3950    16.3678    21.7285    18.5069   -40.2112
  378.1000    74.3927    16.3671    21.7279    18.5064   -40.1394
