~VERSION INFORMATION
 VERS.                2.0:   CWLS LOG ASCII STANDARD - VERSION 2.0
 WRAP.                 NO:   ONE LINE PER DEPTH STEP
~WELL INFORMATION
#MNEM.UNIT      DATA TYPE    INFORMATION
#----------   ------------   ------------------------------
 STRT.F          436.0000:   START DEPTH
 STOP.F         2160.0000:   STOP DEPTH
 STEP.F            0.5000:   STEP LENGTH
 NULL.          -999.2500:   NO VALUE
 COMP.   FLUOR DANIEL INC:   COMPANY
 WELL. NAVAL PETROLEUM RESERVE 3 X-29 #31-29:   WELL
 FLD .            WILDCAT:   FIELD
 LOC .      S29 T39N R78W:   LOCATION
 CNTY.            NATRONA:   COUNTY
 STAT.            WYOMING:   STATE
 CTRY. UNITED STATES OF AMERICA:   COUNTRY
 SRVC.            Unknown:   SERVICE COMPANY
 DATE.        25-JUN-1995:   LOGDATE
 API .       490252272300:   API NUMBER
~CURVE INFORMATION
#MNEM.UNIT       API CODE    CURVE DESCRIPTION
#----------   ------------   ------------------------------
 DEPT.F                  :   
 ROP .FT/HR  91 810 01 00:   RAT OF DRILLING PENETRATION
 TGAS.TC/CC  91 830 01 00:   TOTAL GAS UNIT
~PARAMETER INFORMATION
#MNEM.UNIT          VALUE    DESCRIPTION
#----------   ------------   ------------------------------
 EPD .F              5058:   ELEVATION PERMANENT DATUM
 EKB .F              5068:   KELLING BUSHING
 EGL .F              5058:   GROUND LEVEL
 DATE.        25-JUN-1995:   RUN DATE
 RUN .                  1:   RUN NUMBER
 ENGI.     C.TOWER/R.HUSK:   RECORDING ENGINEER
 CLNT.            A2DTECH:   CLIENT CODE
 ORIG.           5" PRINT:   ORIGIN OF DATA
 UWI .       490252272300:   UNIQUE WELL ID
 DICO. A2D Technologies, Inc.:   DIGITIZING COMPANY
~OTHER INFORMATION
~A   DEPT        ROP     TGAS   
# ...
  679.0000     0.5490     1.2113
  679.5000     0.5490     1.2093
  680.0000     0.5489     1.2925
  680.5000     0.5488     1.3943
  681.0000     0.5487     1.3924
  681.5000     0.5486     1.3736
  682.0000     0.5485     1.1996
  682.5000     0.5390     1.1978
  683.0000     0.5389     1.1959
  683.5000     0.5388     1.1941
  684.0000     0.5387     1.0036
  684.5000     0.5480     1.0017
  685.0000     0.5479     0.9999
  685.5000     0.5478     0.9981
  686.0000     0.5477     0.9962
  686.5000     0.5570     0.9943
  687.0000     0.5570     0.9925
  687.5000     0.5663     0.9906
  688.0000     0.5661     0.9884
  688.5000     0.5661     0.9868
  689.0000     0.5660     0.9849
  689.5000     0.5659     0.8801
  690.0000     0.5658     0.9810
  690.5000     0.5657     0.9792
  691.0000     0.5656     0.8899
  691.5000     0.5655     0.7868
  692.0000     0.5654     0.7849
  692.5000     0.5465     0.5943
  693.0000     0.5370     0.5921
  693.5000     0.5087     0.5903
  694.0000     0.5086     0.5887
  694.5000     0.5085     0.3979
  695.0000     0.5085     0.3961
  695.5000     0.5178     0.3942
  696.0000     0.5177     0.5811
  696.5000     0.5176     0.5792
  697.0000     0.5269     0.5774
  697.5000     0.5268     0.7642
  698.0000     0.5267     0.9511
  698.5000     0.5266     1.1374
  699.0000     0.5453     1.1358
  699.5000     0.5452     1.1338
  700.0000     0.5451     1.1125
  700.5000     0.5447     0.9906
  701.0000     0.5443     0.8686
  701.5000     0.5439     0.7433
  702.0000     0.5342     0.7396
  702.5000     0.5432     0.9246
  703.0000     0.5428     0.9409
  703.5000     0.5331     1.1058
  704.0000     0.7583     1.1012
  704.5000     0.7861     1.0975
  705.0000     0.7857     1.0938
  705.5000     0.7853     1.0901
  706.0000     0.7849     1.0864
  706.5000     0.7845     1.0827
  707.0000     0.7937     1.0790
  707.5000     0.7932     1.0755
  708.0000     0.8023     1.0717
  708.5000     0.9993     1.0678
  709.0000     0.9895     1.0642
  709.5000     0.9891     1.0604
  710.0000     0.9887     1.0566
  710.5000     0.9883     1.0528
  711.0000     0.9880     1.0484
  711.5000     0.9875     1.1304
  712.0000     0.9872     1.2303
  712.5000     0.9868     1.2260
  713.0000     0.9864     1.2222
  713.5000     0.9861     1.2189
  714.0000     0.9857     1.1698
  714.5000     0.9853     1.0224
  715.0000     0.9849     1.0189
  715.5000     0.9846     1.0151
  716.0000     0.9748     1.0113
  716.5000     0.9650     1.0075
  717.0000     0.9647     1.0038
  717.5000     0.9642     1.0000
  718.0000     0.9827     0.9962
  718.5000     0.4184     0.9919
  719.0000     0.4180     0.9882
  719.5000     0.4176     0.9849
  720.0000     0.4173     0.9434
  720.5000     0.4169     0.7884
  721.0000     0.4165     0.6750
  721.5000     0.4162     0.5925
  722.0000     0.4158     0.5886
  722.5000     0.4248     0.7736
  723.0000     0.4338     0.7698
  723.5000     0.4334     0.7660
  724.0000     0.4330     0.7623
  724.5000     0.4421     0.7585
  725.0000     0.4417     0.7541
  725.5000     0.4413     0.9391
  726.0000     0.4409     0.9358
  726.5000     0.4312     0.9317
  727.0000     0.4308     0.9280
  727.5000     0.4304     0.9245
  728.0000     0.4301     0.9208
  728.5000     0.4297     0.9168
  729.0000     0.4293     0.9131
  729.5000     0.4289     0.9094
  730.0000     0.4285     0.9057
  730.5000     0.4281     0.9019
  731.0000     0.4090     0.8974
  731.5000     0.4086     0.8937
  732.0000     0.4082     0.8906
  732.5000     0.4079     0.8868
  733.0000     0.4075     0.8826
  733.5000     0.4071     0.8789
  734.0000     0.4256     0.8755
  734.5000     0.4260     0.8717
  735.0000     0.4358     0.8679
  735.5000     0.4433     0.8640
  736.0000     0.4428     0.8604
  736.5000     0.4330     0.8566
  737.0000     0.4327     0.8528
  737.5000     0.4323     0.8491
  738.0000     0.4319     0.8446
  738.5000     0.4410     0.8415
  739.0000     0.4312     0.8377
  739.5000     0.4308     0.8340
  740.0000     0.4305     0.8302
  740.5000     0.4395     0.8261
  741.0000     0.4297     0.8223
  741.5000     0.4387     0.8186
  742.0000     0.4289     0.8149
  742.5000     0.4285     1.0000
  743.0000     0.4376     0.9962
  743.5000     0.4372     0.9925
  744.0000     0.7752     0.9887
  744.5000     0.7748     0.9842
  745.0000     0.7744     0.9805
  745.5000     0.7741     0.9767
  746.0000     0.7737     0.9730
  746.5000     0.9989     0.9693
  747.0000     0.9985     0.9656
  747.5000     0.9981     0.9619
  748.0000     0.5466     1.1472
  748.5000     0.5557     1.1432
  749.0000     0.5458     1.1395
  749.5000     0.5455     1.1358
  750.0000     0.5452     0.9434
  750.5000     0.5472     0.7509
  751.0000     0.5489     0.7472
  751.5000     0.5507     0.5540
  752.0000     0.5524     0.5509
  752.5000     0.5545     0.7362
  753.0000     0.5545     0.7316
  753.5000     0.5545     0.7283
  754.0000     0.5545     0.7245
  754.5000     0.5545     0.7204
  755.0000     0.5545     0.7167
  755.5000     0.5545     0.7132
  756.0000     0.5545     0.7094
  756.5000     0.5451     0.7056
  757.0000     0.5357     0.8293
  757.5000     0.5357     0.8875
  758.0000     0.5357     0.8830
  758.5000     0.5451     1.0682
  759.0000     0.5451     1.0635
  759.5000     0.5451     1.0604
  760.0000     0.5263     1.0561
  760.5000     0.5169     1.0524
  761.0000     0.5075     1.0491
  761.5000     0.5357     1.0450
  762.0000     0.6391     1.0413
  762.5000     0.6485     1.0376
  763.0000     0.6391     1.0339
  763.5000     0.6391     1.0302
  764.0000     0.6297     1.0264
  764.5000     0.6391     1.0226
  765.0000     0.6391     1.0181
  765.5000     0.6492     1.0144
  766.0000     0.7801     1.0107
  766.5000     0.7895     1.0070
  767.0000     0.7895     1.0038
  767.5000     0.7895     1.0000
  768.0000     0.7895     0.9959
  768.5000     0.7895     0.9922
  769.0000     0.7895     0.9887
  769.5000     0.7895     0.9848
  770.0000     0.9875     0.9811
  770.5000     0.9774     0.9774
  771.0000     0.9962     0.9736
  771.5000     0.9962     0.9698
  772.0000     0.9962     0.9660
  772.5000     0.6861     0.9623
  773.0000     0.6861     0.9579
  773.5000     0.6955     0.9542
  774.0000     0.6955     0.9509
  774.5000     0.6955     0.9472
  775.0000     0.6955     0.9431
  775.5000     0.6955     0.7507
  776.0000     0.7801     0.9357
  776.5000     0.7989     0.9320
  777.0000     0.7895     0.9283
  777.5000     0.7895     0.9245
  778.0000     0.7895     1.1095
  778.5000     0.7895     1.2945
  779.0000     0.7895     1.4795
  779.5000     0.7895     1.6645
  780.0000     0.7895     1.6598
  780.5000     0.7895     1.6561
  781.0000     0.7895     1.4637
  781.5000     0.7895     1.4600
  782.0000     0.7895     1.6459
  782.5000     0.7895     1.6413
  783.0000     0.7895     1.6376
  783.5000     0.7895     1.6339
  784.0000     0.7881     1.6302
  784.5000     0.7895     1.6264
  785.0000     0.7895     1.4340
  785.5000     0.7895     1.4295
  786.0000     0.7895     1.4257
  786.5000     0.7895     1.6107
  787.0000     0.7895     1.6070
  787.5000     0.7895     1.6033
  788.0000     0.7895     1.5996
  788.5000     0.7895     1.5959
  789.0000     0.7895     1.4035
  789.5000     0.7895     1.5885
  790.0000     0.7895     1.5848
  790.5000     0.7895     1.5811
  791.0000     0.7895     1.5774
  791.5000     0.7895     1.5736
  792.0000     0.7895     1.5698
  792.5000     0.7895     1.5653
  793.0000     0.7895     1.5616
  793.5000     0.7895     1.5579
  794.0000     0.7895     1.5542
  794.5000     0.7895     1.5505
  795.0000     0.7895     1.5468
  795.5000     0.7895     1.5431
  796.0000     0.7895     1.5394
  796.5000     0.7895     1.5357
  797.0000     0.7989     1.5320
  797.5000     0.8083     1.5283
  798.0000     0.7989     1.7132
  798.5000     0.7895     1.7094
  799.0000     0.7895     1.5162
  799.5000     0.7895     1.5125
  800.0000     0.7895     1.6984
