~VERSION INFORMATION
 VERS.                2.0:   CWLS LOG ASCII STANDARD - VERSION 2.0
 WRAP.                 NO:   ONE LINE PER DEPTH STEP
~WELL INFORMATION
#MNEM.UNIT      DATA TYPE    INFORMATION
#----------   ------------   ------------------------------
 STRT.F         1304.0000:   START DEPTH
 STOP.F         2900.0000:   STOP DEPTH
 STEP.F            0.5000:   STEP LENGTH
 NULL.          -999.2500:   NO VALUE
 COMP.   FLUOR DANIEL INC:   COMPANY
 WELL. NAVAL PETROLEUM RESERVE 3 SHX- #18-14:   WELL
 FLD .             TEAPOT:   FIELD
 LOC .      S14 T38N R78W:   LOCATION
 CNTY.            NATRONA:   COUNTY
 STAT.            WYOMING:   STATE
 CTRY. UNITED STATES OF AMERICA:   COUNTRY
 SRVC.            Unknown:   SERVICE COMPANY
 DATE.        17-APR-1995:   LOGDATE
 API .       490252270800:   API NUMBER
~CURVE INFORMATION
#MNEM.UNIT       API CODE    CURVE DESCRIPTION
#----------   ------------   ------------------------------
 DEPT.F                  :   
 ROP .FT/HR  91 810 01 00:   RAT OF DRILLING PENETRATION
 TGAS.TC/CC  91 830 01 00:   TOTAL GAS UNIT
~PARAMETER INFORMATION
#MNEM.UNIT          VALUE    DESCRIPTION
#----------   ------------   ------------------------------
 EKB .F              5271:   KELLING BUSHING
 EGL .F              5281:   GROUND LEVEL
 DATE.        17-APR-1995:   RUN DATE
 RUN .                  1:   RUN NUMBER
 BLI .F              2900:   BOTTOM LOG INTERVAL
 TLI .F              1310:   TOP LOG INTERVAL
 WITN.     C.TOWER/R.HUSK:   WITNESSED BY
 CLNT.            A2DTECH:   CLIENT CODE
 ORIG.           5" PRINT:   ORIGIN OF DATA
 UWI .       490252270800:   UNIQUE WELL ID
 DICO. A2D Technologies, Inc.:   DIGITIZING COMPANY
~OTHER INFORMATION
~A  DEPT         ROP     TGAS   
# ...
 2640.5000     0.6579    33.1719
 2641.0000     0.6579    32.9846
 2641.5000     0.6579    32.9869
 2642.0000     0.6579    32.8000
 2642.5000     0.6579    32.7894
 2643.0000     0.6579    32.4263
 2643.5000     0.6579    32.2395
 2644.0000     0.6579    32.4305
 2644.5000     0.6579    32.0550
 2645.0000     0.6579    32.0568
 2645.5000     0.6579    31.8695
 2646.0000     0.6579    31.8717
 2646.5000     0.6579    31.8736
 2647.0000     0.6579    31.8755
 2647.5000     0.6579    31.6887
 2648.0000     0.6579    31.6909
 2648.5000     0.6579    31.6928
 2649.0000     0.6579    31.6946
 2649.5000     0.6579    31.6962
 2650.0000     0.5451    31.8865
 2650.5000     0.5449    31.6860
 2651.0000     0.5447    31.5136
 2651.5000     0.5444    31.3266
 2652.0000     0.5442    31.3284
 2652.5000     0.5439    31.3302
 2653.0000     0.5437    31.3321
 2653.5000     0.5435    31.5226
 2654.0000     0.5432    31.3358
 2654.5000     0.5430    31.5267
 2655.0000     0.5427    31.7173
 2655.5000     0.5425    31.7191
 2656.0000     0.5422    31.7209
 2656.5000     0.5420    31.5336
 2657.0000     0.5418    31.5359
 2657.5000     0.5415    31.3491
 2658.0000     0.5413    31.3509
 2658.5000     0.5410    31.1642
 2659.0000     0.5408    31.1540
 2659.5000     0.5405    30.9791
 2660.0000     0.5403    31.2620
 2660.5000     0.5401    31.3606
 2661.0000     0.5398    31.3624
 2661.5000     0.5396    31.3642
 2662.0000     0.5393    31.1774
 2662.5000     0.5391    30.9906
 2663.0000     0.5388    30.9925
 2663.5000     0.5386    30.9947
 2664.0000     0.5384    30.8079
 2664.5000     0.5381    30.8097
 2665.0000     0.5379    30.6224
 2665.5000     0.5376    30.6247
 2666.0000     0.5374    30.6264
 2666.5000     0.5371    30.6284
 2667.0000     0.5369    30.4415
 2667.5000     0.5367    30.1247
 2668.0000     0.6205    30.0678
 2668.5000     0.7999    29.8810
 2669.0000     0.8002    29.6942
 2669.5000     0.8005    29.6965
 2670.0000     0.8008    29.6983
 2670.5000     0.9828    29.5110
 2671.0000     0.9751    29.5133
 2671.5000     0.9673    29.3265
 2672.0000     0.8107    29.1396
 2672.5000     0.6236    29.3302
 2673.0000     0.6239    29.1433
 2673.5000     0.6242    29.1456
 2674.0000     0.6244    29.1044
 2674.5000     0.6247    28.9074
 2675.0000     0.6250    28.7736
 2675.5000     0.6253    28.7756
 2676.0000     0.6256    28.6415
 2676.5000     0.6258    28.5906
 2677.0000     0.6261    28.5925
 2677.5000     0.6264    28.6509
 2678.0000     0.6267    28.7852
 2678.5000     0.6270    28.7868
 2679.0000     0.6273    28.9776
 2679.5000     0.6275    29.1681
 2680.0000     0.4869    29.1698
 2680.5000     0.4876    29.1717
 2681.0000     0.4885    29.1736
 2681.5000     0.4894    29.1755
 2682.0000     0.4902    29.3660
 2682.5000     0.4911    29.1792
 2683.0000     0.4919    29.1814
 2683.5000     0.4928    29.1833
 2684.0000     0.4937    29.1851
 2684.5000     0.4945    29.3756
 2685.0000     0.4954    29.3775
 2685.5000     0.4962    29.1906
 2686.0000     0.4971    29.1925
 2686.5000     0.4979    29.0056
 2687.0000     0.4988    29.1966
 2687.5000     0.4997    29.1984
 2688.0000     0.5005    29.2003
 2688.5000     0.5014    29.2019
 2689.0000     0.5022    29.2039
 2689.5000     0.5031    29.2058
 2690.0000     0.5039    29.2076
 2690.5000     0.5048    29.2094
 2691.0000     0.5057    29.2113
 2691.5000     0.5065    29.2136
 2692.0000     0.5074    29.2154
 2692.5000     0.5082    29.2173
 2693.0000     0.5091    29.0304
 2693.5000     0.5100    28.8436
 2694.0000     0.5108    28.8453
 2694.5000     0.5117    28.8472
 2695.0000     0.5125    28.8491
 2695.5000     0.5134    28.8509
 2696.0000     0.5142    28.8528
 2696.5000     0.5149    28.8547
 2697.0000     0.5152    28.8569
 2697.5000     0.5155    28.8587
 2698.0000     0.5158    28.8606
 2698.5000     0.5161    29.0511
 2699.0000     0.5164    29.2416
 2699.5000     0.5166    29.2434
 2700.0000     0.5733    29.2453
 2700.5000     0.5660    29.2118
 2701.0000     0.5597    29.1782
 2701.5000     0.5534    29.1447
 2702.0000     0.5471    29.1112
 2702.5000     0.5442    29.0777
 2703.0000     0.5428    29.0442
 2703.5000     0.5414    29.0107
 2704.0000     0.5401    28.9962
 2704.5000     0.5387    28.9729
 2705.0000     0.5373    28.7925
 2705.5000     0.5357    28.7835
 2706.0000     0.8271    28.5874
 2706.5000     0.8271    28.5801
 2707.0000     0.8271    28.7632
 2707.5000     0.8271    28.9426
 2708.0000     0.8271    28.9352
 2708.5000     0.5674    28.9278
 2709.0000     0.5755    28.9204
 2709.5000     0.5835    28.9131
 2710.0000     0.5915    28.9057
 2710.5000     0.5995    28.8981
 2711.0000     0.6075    28.8906
 2711.5000     0.6112    29.2590
 2712.0000     0.6118    29.2516
 2712.5000     0.6124    29.0555
 2713.0000     0.6129    29.2387
 2713.5000     0.6135    29.2294
 2714.0000     0.6141    29.0352
 2714.5000     0.6146    29.2165
 2715.0000     0.6152    28.8299
 2715.5000     0.6158    28.8225
 2716.0000     0.6164    28.8151
 2716.5000     0.6169    28.8075
 2717.0000     0.6175    28.8000
 2717.5000     0.6181    28.8160
 2718.0000     0.6186    29.1629
 2718.5000     0.6192    29.1536
 2719.0000     0.6198    29.1462
 2719.5000     0.6204    29.1389
 2720.0000     0.6218    29.3220
 2720.5000     0.6232    29.3127
 2721.0000     0.6246    29.3054
 2721.5000     0.6260    29.2980
 2722.0000     0.6274    29.2906
 2722.5000     0.6288    29.2830
 2723.0000     0.6301    29.2755
 2723.5000     0.6315    29.2665
 2724.0000     0.6329    29.0717
 2724.5000     0.6343    29.0641
 2725.0000     0.6357    29.1746
 2725.5000     0.6371    29.2388
 2726.0000     0.6385    29.2296
 2726.5000     0.6393    29.2222
 2727.0000     0.6397    29.0261
 2727.5000     0.6400    29.0187
 2728.0000     0.6404    29.2000
 2728.5000     0.6408    29.0038
 2729.0000     0.6411    28.9962
 2729.5000     0.6415    28.9887
 2730.0000     0.6419    28.9799
 2730.5000     0.6423    28.9725
 2731.0000     0.6426    28.9660
 2731.5000     0.6430    29.0136
 2732.0000     0.6434    29.1396
 2732.5000     0.6437    29.3208
 2733.0000     0.6441    29.2346
 2733.5000     0.6445    29.3057
 2734.0000     0.6448    29.2981
 2734.5000     0.6452    29.2906
 2735.0000     0.6456    29.2830
 2735.5000     0.6459    29.2755
 2736.0000     0.6463    29.2667
 2736.5000     0.6467    29.2593
 2737.0000     0.6471    29.2528
 2737.5000     0.6474    29.2445
 2738.0000     0.6478    29.0484
 2738.5000     0.6482    29.0415
 2739.0000     0.6490    28.9553
 2739.5000     0.6535    28.9281
 2740.0000     0.6581    29.0189
 2740.5000     0.6626    29.0113
 2741.0000     0.6672    29.0041
 2741.5000     0.6717    29.1854
 2742.0000     0.6767    29.1761
 2742.5000     0.6767    29.5479
 2743.0000     0.6767    29.5387
 2743.5000     0.6767    29.5321
 2744.0000     0.6485    29.5239
 2744.5000     0.6485    29.5165
 2745.0000     0.6485    29.3208
 2745.5000     0.6485    29.2268
 2746.0000     0.6485    29.1170
 2746.5000     0.6579    29.1094
 2747.0000     0.6579    28.9132
 2747.5000     0.6579    28.8821
 2748.0000     0.6579    28.7082
 2748.5000     0.6579    28.8895
 2749.0000     0.6578    28.8830
 2749.5000     0.6577    28.6868
 2750.0000     0.6576    28.7042
 2750.5000     0.6575    28.7577
 2751.0000     0.6574    28.8112
 2751.5000     0.6573    28.8646
 2752.0000     0.7370    28.9181
 2752.5000     0.8637    28.9716
 2753.0000     0.8635    29.0251
 2753.5000     0.8633    29.0700
 2754.0000     1.1060    29.0718
 2754.5000     1.1007    29.0736
 2755.0000     1.0953    29.2642
 2755.5000     1.0900    29.0773
 2756.0000     0.8257    29.2683
 2756.5000     0.8275    29.4588
 2757.0000     0.8292    29.4607
 2757.5000     0.8310    29.2738
 2758.0000     0.8327    28.8983
 2758.5000     1.5382    28.9001
 2759.0000     1.5380    28.9020
 2759.5000     1.5378    28.9038
 2760.0000     1.5376    28.9057
 2760.5000     0.8978    28.9075
 2761.0000     0.8960    29.0985
 2761.5000     0.8943    29.1003
