~VERSION INFORMATION
 VERS.                2.0:   CWLS LOG ASCII STANDARD - VERSION 2.0
 WRAP.                 NO:   ONE LINE PER DEPTH STEP
~WELL INFORMATION
#MNEM.UNIT      DATA TYPE    INFORMATION
#----------   ------------   ------------------------------
 STRT.F            3.0000:   START DEPTH
 STOP.F         3449.0000:   STOP DEPTH
 STEP.F            0.5000:   STEP LENGTH
 NULL.          -999.2500:   NO VALUE
 COMP. LAWRENCE/ALLISON INC:   COMPANY
 WELL.       NPR 3 #24-10:   WELL
 FLD .             TEAPOT:   FIELD
 LOC .      S10 T38N R78W:   LOCATION
 CNTY.            NATRONA:   COUNTY
 STAT.            WYOMING:   STATE
 CTRY. UNITED STATES OF AMERICA:   COUNTRY
 SRVC.      Dresser Atlas:   SERVICE COMPANY
 DATE.        28-JUL-1985:   LOGDATE
 API .       490251104400:   API NUMBER
~CURVE INFORMATION
#MNEM.UNIT       API CODE    CURVE DESCRIPTION
#----------   ------------   ------------------------------
 DEPT.F                  :   
 PORD.DEC    45 890 12 00:   POROSITY DENSITY SANDSTONE
 CNC .DEC    42 890 03 00:   NEUTRON POROSITY SANDSTONE
 CORR.G/C3   45 356 01 00:   DENSITY CORRECTION
 DEN .G/C3   45 350 01 00:   COMPENSATED BULK DENSTIY
 AC  .US/F   60 520 00 00:   ACCOUSTIC
 CALR.IN     07 280 01 00:   CALIPER FROM RESISTIVITY
 GRR .GAPI   07 310 01 00:   GAMMA RAY
 RFOC.OHMM   07 220 04 00:   RESISTIVITY FOCUSED LOG
 RILD.OHMM   07 120 46 00:   INDUCTION LOG DEEP RESISTIVITY
 RILM.OHMM   07 120 44 00:   INDUCTION LOG MEDIUM RESISTIVITY
 SPR .MV     07 010 01 00:   SPONTANEOUS POTENTIAL
~PARAMETER INFORMATION
#MNEM.UNIT          VALUE    DESCRIPTION
#----------   ------------   ------------------------------
 PD  .                 GL:   PERMANENT DATUM
 EPD .F              5242:   ELEVATION PERMANENT DATUM
 LMF .                 KB:   LOG MEASURED FROM
 DAPD.F                13:   FEET ABOVE PERMANENT DATUM
 DMF .                 KB:   DRILLING MEASURED FROM
 EKB .F              5255:   KELLING BUSHING
 EGL .F              5242:   GROUND LEVEL
 DATE.        28-JUL-1985:   RUN DATE
 RUN .                  1:   RUN NUMBER
 DD  .F              3451:   DEPTH DRILLER
 DL  .F              3451:   DEPTH LOGGER
 BLI .F              3449:   BOTTOM LOG INTERVAL
 CS  .IN            8.625:   CASING SIZE
 CBD .F               688:   CASING BOTTOM DRILLER
 CBL .F               686:   CASING BOTTOM LOGGER
 BS  .IN            7.875:   BIT SIZE
 BSD .F              3451:   BIT SIZE AT DEPTH
 DFT .            KCL GEL:   DRILLING FLUID TYPE
 DFD .                8.9:   DRILLING FLUID DENSITY
 DFV .                 40:   DRILLING FLUID VISCOSITY
 DFPH.                8.0:   DRILLING FLUID PH
 DFL .                 10:   DRILLING FLUID LOSS
 MSS .           FLOWLINE:   MUD SAMPLE SOURCE
 RMS .OHMM           0.87:   RESISTIVITY MUD SAMPLE
 MST .F                92:   MUD SAMPLE TEMPERATURE
 RMF .OHMM             65:   RESISTIVITY MUD FILTRATE SAMPLE
 MFST.F                92:   MUD FILTRATE SAMPLE TEMPERATURE
 RMC .OHMM           1.09:   RESISTIVITY MUD CAKE
 MCST.F                92:   MUD CAKE SAMPLE TEMPERATURE
 MFSS.               CALC:   MUD FILTRATE SAMPLE SOURCE
 MCSS.               CALC:   MUD CAKE SAMPLE SOURCE
 RMB .OHMM            .66:   RESISTIVITY MUD AT BHT
 BHT .F               121:   BOTTOM HOLE TEMPERATURE
 TCS .HRS               4:   TIME CURCULATED STOPPED
 MRT .F               121:   MAXIMUM RECORDED TEMPERATURE
 LUN .               6264:   LOGGING UNIT NUMBER
 LUL .               GLTE:   LOGGING UNIT LOCATION
 ENGI.           FAHLSING:   RECORDING ENGINEER
 WITN.             STRONG:   WITNESSED BY
 CLNT.            A2DTECH:   CLIENT CODE
 ORIG.        2" 5" PRINT:   ORIGIN OF DATA
 UWI .       490251104400:   UNIQUE WELL ID
 DICO. A2D Technologies, Inc.:   DIGITIZING COMPANY
 R1  . POROSITY WITH SANDSTONE:   REMARKS 1
~OTHER INFORMATION
~A    DEPT    PORD        CNC       CORR        DEN         AC       CALR         GRR      RFOC       RILD       RILM        SPR   
# ...
 1619.5000  -999.2500  -999.2500  -999.2500  -999.2500  -999.2500    10.3950    97.7376     7.1159     6.8579     7.1269   -45.4819
 1620.0000  -999.2500  -999.2500  -999.2500  -999.2500  -999.2500    10.3499    93.6652     7.1154     6.9502     7.1761   -45.7831
 1620.5000  -999.2500  -999.2500  -999.2500  -999.2500  -999.2500    10.3350    92.5339     7.1149     7.0468     7.2756   -46.0943
 1621.0000  -999.2500  -999.2500  -999.2500  -999.2500  -999.2500    10.3200    94.1176     7.1640     7.1447     7.2751   -46.2349
 1621.5000  -999.2500  -999.2500  -999.2500  -999.2500  -999.2500    10.3051    97.7376     7.3141     7.2943     7.3762   -46.0843
 1622.0000  -999.2500  -999.2500  -999.2500  -999.2500  -999.2500    10.3053   100.6787     7.4159     7.3958     7.4270   -45.9337
 1622.5000  -999.2500  -999.2500  -999.2500  -999.2500  -999.2500    10.3054    98.1900     7.5713     7.5506     7.4265   -45.7831
 1623.0000  -999.2500  -999.2500  -999.2500  -999.2500  -999.2500    10.3207    91.6290     7.6768     7.6557     7.4239   -45.4819
 1623.5000  -999.2500  -999.2500  -999.2500  -999.2500  -999.2500    10.3208    85.0679     7.7297     7.7620     7.3175   -45.3313
 1624.0000  -999.2500  -999.2500  -999.2500  -999.2500  -999.2500    10.3366    84.1326     7.7830     7.7078     7.1224   -45.0301
 1624.5000  -999.2500  -999.2500  -999.2500  -999.2500  -999.2500    10.3529    86.6516     7.7285     7.6011     6.9754   -44.8795
 1625.0000  -999.2500  -999.2500  -999.2500  -999.2500  -999.2500    10.3665    89.3665     7.6215     7.4959     6.8789   -44.7289
 1625.5000  -999.2500  -999.2500  -999.2500  -999.2500  -999.2500    10.3818    90.9502     7.4639     7.3411     6.8309   -44.5783
 1626.0000  -999.2500  -999.2500  -999.2500  -999.2500  -999.2500    10.4121    89.3063     7.3096     7.2394     6.8305   -44.5783
 1626.5000  -999.2500  -999.2500  -999.2500  -999.2500  -999.2500    10.4122    87.7828     7.2042     7.1889     6.8300   -44.8795
 1627.0000  -999.2500  -999.2500  -999.2500  -999.2500  -999.2500    10.4124    87.5566     7.1085     7.1884     6.8771   -45.1807
 1627.5000  -999.2500  -999.2500  -999.2500  -999.2500  -999.2500    10.3974    88.6878     7.1079     7.1879     6.8766   -45.6325
 1628.0000  -999.2500  -999.2500  -999.2500  -999.2500  -999.2500    10.3825    89.8190     7.1074     7.2375     6.8761   -46.2349
 1628.5000  -999.2500  -999.2500  -999.2500  -999.2500  -999.2500    10.3676    90.9502     7.1565     7.2873     6.9716   -46.5561
 1629.0000  -999.2500  -999.2500  -999.2500  -999.2500  -999.2500    10.3677    91.6290     7.2059     7.3885     7.0684   -46.8373
 1629.5000  -999.2500  -999.2500  -999.2500  -999.2500  -999.2500    10.3830    92.0815     7.3060     7.4394     7.1666   -46.8373
 1630.0000  -999.2500  -999.2500  -999.2500  -999.2500  -999.2500    10.3831    91.6290     7.4076     7.4907     7.3166   -46.6867
 1630.5000  -999.2500  -999.2500  -999.2500  -999.2500  -999.2500    10.3983    90.4977     7.4588     7.4902     7.4254   -46.3855
 1631.0000  -999.2500  -999.2500  -999.2500  -999.2500  -999.2500    10.4136    89.5928     7.5101     7.4896     7.4693   -46.0843
 1631.5000  -999.2500  -999.2500  -999.2500  -999.2500  -999.2500    10.4137    89.1403     7.5096     7.4891     7.4687   -45.7831
 1632.0000  -999.2500  -999.2500  -999.2500  -999.2500  -999.2500    10.3988    89.3665     7.5091     7.4886     7.4166   -45.4819
 1632.5000  -999.2500  -999.2500  -999.2500  -999.2500  -999.2500    10.3989    90.7240     7.5043     7.4881     7.3140   -45.1807
 1633.0000  -999.2500  -999.2500  -999.2500  -999.2500  -999.2500    10.4142    92.5644     7.4562     7.4876     7.3135   -44.8795
 1633.5000  -999.2500  -999.2500  -999.2500  -999.2500  -999.2500    10.4445    94.4041     7.4590     7.5392     7.3130   -44.8795
 1634.0000  -999.2500  -999.2500  -999.2500  -999.2500  -999.2500    10.4598    95.4751     7.5134     7.5912     7.4147   -45.1807
 1634.5000  -999.2500  -999.2500  -999.2500  -999.2500  -999.2500    10.4750    90.9502     7.5677     7.5992     7.4658   -45.3313
 1635.0000  -999.2500  -999.2500  -999.2500  -999.2500  -999.2500    10.4449    87.1041     7.6109     7.6429     7.5172   -45.4819
 1635.5000  -999.2500  -999.2500  -999.2500  -999.2500  -999.2500    10.3697    85.5204     7.8246     7.6423     7.5688   -45.4819
 1636.0000  -999.2500  -999.2500  -999.2500  -999.2500  -999.2500    10.3397    86.8778     8.2136     7.6418     7.5683   -45.4819
 1636.5000  -999.2500  -999.2500  -999.2500  -999.2500  -999.2500    10.3398    89.5928     8.5673     7.5884     7.4101   -45.3313
 1637.0000  -999.2500  -999.2500  -999.2500  -999.2500  -999.2500    10.3551    92.0815     8.6814     7.4834     7.0028   -45.0301
 1637.5000  -999.2500  -999.2500  -999.2500  -999.2500  -999.2500    10.3703    92.5339     7.9317     7.2781     6.7180   -44.8795
 1638.0000  -999.2500  -999.2500  -999.2500  -999.2500  -999.2500    10.4006    90.4977     7.4509     7.1278     6.6788   -44.5783
 1638.5000  -999.2500  -999.2500  -999.2500  -999.2500  -999.2500    10.4460    91.1765     7.1465     6.9805     6.6783   -44.4277
 1639.0000  -999.2500  -999.2500  -999.2500  -999.2500  -999.2500    10.4763    92.9864     7.0966     6.9318     6.8181   -44.7289
 1639.5000  -999.2500  -999.2500  -999.2500  -999.2500  -999.2500    10.5066    93.2278     7.0471     6.9314     6.8652   -45.0301
 1640.0000  -999.2500  -999.2500  -999.2500  -999.2500  -999.2500    10.5068    91.4027     7.0957     6.9791     7.0088   -45.4819
 1640.5000  -999.2500  -999.2500  -999.2500  -999.2500  -999.2500    10.5069    89.7889     7.1943     7.0273     7.1062   -45.9337
 1641.0000  -999.2500  -999.2500  -999.2500  -999.2500  -999.2500    10.4920    88.4314     7.2944     7.1249     7.2050   -46.2349
 1641.5000  -999.2500  -999.2500  -999.2500  -999.2500  -999.2500    10.4620    88.0090     7.4992     7.2311     7.3557   -46.6867
 1642.0000  -999.2500  -999.2500  -999.2500  -999.2500  -999.2500    10.4470    89.1403     7.6035     7.3752     7.4579   -46.6867
 1642.5000  -999.2500  -999.2500  -999.2500  -999.2500  -999.2500    10.4321    90.4977     7.8170     7.5297     7.4574   -46.6867
 1643.0000  -999.2500  -999.2500  -999.2500  -999.2500  -999.2500    10.4323    89.8190     7.9902     7.6345     7.5610   -46.6767
 1643.5000  -999.2500  -999.2500  -999.2500  -999.2500  -999.2500    10.4324    88.4615     8.1482     7.7943     7.5604   -46.3855
 1644.0000  -999.2500  -999.2500  -999.2500  -999.2500  -999.2500    10.4628    88.0090     8.2045     7.9028     7.5599   -46.0843
 1644.5000  -999.2500  -999.2500  -999.2500  -999.2500  -999.2500    10.4931    87.7828     8.0907     7.9573     7.3526   -45.7831
 1645.0000  -999.2500  -999.2500  -999.2500  -999.2500  -999.2500    10.5536    87.7828     7.8687     7.8470     7.0527   -45.4819
 1645.5000  -999.2500  -999.2500  -999.2500  -999.2500  -999.2500    10.5990    88.6878     7.5998     7.6318     6.8594   -45.0301
 1646.0000  -999.2500  -999.2500  -999.2500  -999.2500  -999.2500    10.6594    89.3665     7.3912     7.4224     6.7645   -44.8795
 1646.5000  -999.2500  -999.2500  -999.2500  -999.2500  -999.2500    10.7199    89.8190     7.1883     7.2189     6.7640   -44.7289
 1647.0000  -999.2500  -999.2500  -999.2500  -999.2500  -999.2500    10.7653    90.0452     7.0887     7.0209     6.8107   -44.8795
 1647.5000  -999.2500  -999.2500  -999.2500  -999.2500  -999.2500    10.8261    89.5928     7.1664     6.9237     7.0016   -45.1807
 1648.0000  -999.2500  -999.2500  -999.2500  -999.2500  -999.2500    10.8561    87.9785     7.2285     6.9739     7.1979   -45.7831
 1648.5000  -999.2500  -999.2500  -999.2500  -999.2500  -999.2500    10.8045    86.8778     7.3059     7.1175     7.4512   -46.2349
 1649.0000  -999.2500  -999.2500  -999.2500  -999.2500  -999.2500    10.5849    87.7828     7.6220     7.3171     7.7134   -46.6867
 1649.5000  -999.2500  -999.2500  -999.2500  -999.2500  -999.2500    10.4041    89.5928     7.9382     7.5224     7.9848   -47.2892
