~VERSION INFORMATION
 VERS.                2.0:   CWLS LOG ASCII STANDARD - VERSION 2.0
 WRAP.                 NO:   ONE LINE PER DEPTH STEP
~WELL INFORMATION
#MNEM.UNIT      DATA TYPE    INFORMATION
#----------   ------------   ------------------------------
 STRT.F           12.0000:   START DEPTH
 STOP.F          551.0000:   STOP DEPTH
 STEP.F            0.5000:   STEP LENGTH
 NULL.          -999.2500:   NO VALUE
 COMP. LAWRENCE-ALLISON &AS:   COMPANY
 WELL. NPR 3 #58-46SX3LP4:   WELL
 FLD .             TEAPOT:   FIELD
 LOC .       S3 T38N R78W:   LOCATION
 CNTY.            NATRONA:   COUNTY
 STAT.            WYOMING:   STATE
 CTRY. UNITED STATES OF AMERICA:   COUNTRY
 SRVC.      Dresser Atlas:   SERVICE COMPANY
 DATE.        14-DEC-1984:   LOGDATE
 API .       490251099900:   API NUMBER
~CURVE INFORMATION
#MNEM.UNIT       API CODE    CURVE DESCRIPTION
#----------   ------------   ------------------------------
 DEPT.F                  :   
 RD  .OHMM   11 220 10 00:   RESISTIVITY DEEP
 RS  .OHMM   11 220 09 00:   RESISTIVITY SHALLOW
 SPR .MV     11 010 01 00:   SPONTANEOUS POTENTIAL FROM RES.
 AC  .US/F   60 520 00 00:   ACOUSTIC SONIC
 CALD.IN     45 280 60 00:   CALIPER FROM DENSITY
 CORR.G/C3   45 356 01 00:   DENSITY CORRECTION
 DEN .G/C3   45 350 01 00:   COMPENSATED BULK DENSTIY
 GRD .GAPI   45 310 01 00:   GAMMA RAY FROM DENSITY LOG
 PORD.DEC    45 890 12 00:   POROSITY DENSITY SANDSTONE
 CNC .DEC    42 890 03 00:   NEUTRON POROSITY SANDSTONE
~PARAMETER INFORMATION
#MNEM.UNIT          VALUE    DESCRIPTION
#----------   ------------   ------------------------------
 PD  .                 GL:   PERMANENT DATUM
 EPD .F              5201:   ELEVATION PERMANENT DATUM
 LMF .                 GL:   LOG MEASURED FROM
 DMF .                 GL:   DRILLING MEASURED FROM
 EGL .F              5201:   GROUND LEVEL
 DATE.        14-DEC-1984:   RUN DATE
 RUN .                  1:   RUN NUMBER
 DD  .F               552:   DEPTH DRILLER
 DL  .F               552:   DEPTH LOGGER
 BLI .F               550:   BOTTOM LOG INTERVAL
 TLI .F                20:   TOP LOG INTERVAL
 CS  .IN            8.625:   CASING SIZE
 CBD .F                20:   CASING BOTTOM DRILLER
 CBL .F                20:   CASING BOTTOM LOGGER
 BS  .IN            7.875:   BIT SIZE
 BSD .F               552:   BIT SIZE AT DEPTH
 DFT .          KCL WATER:   DRILLING FLUID TYPE
 MSS .            MUDTANK:   MUD SAMPLE SOURCE
 RMS .OHMM          0.152:   RESISTIVITY MUD SAMPLE
 MST .F                76:   MUD SAMPLE TEMPERATURE
 RMF .OHMM           0.11:   RESISTIVITY MUD FILTRATE SAMPLE
 MFST.F                76:   MUD FILTRATE SAMPLE TEMPERATURE
 RMC .OHMM           0.19:   RESISTIVITY MUD CAKE
 MCST.F                76:   MUD CAKE SAMPLE TEMPERATURE
 MFSS.               CALC:   MUD FILTRATE SAMPLE SOURCE
 MCSS.               CALC:   MUD CAKE SAMPLE SOURCE
 TCS .HRS               5:   TIME CURCULATED STOPPED
 MRT .F               100:   MAXIMUM RECORDED TEMPERATURE
 LUN .               6270:   LOGGING UNIT NUMBER
 ENGI.            LEBSOCK:   RECORDING ENGINEER
 WITN.        GREG GROOMS:   WITNESSED BY
 CLNT.            A2DTECH:   CLIENT CODE
 ORIG.           5" PRINT:   ORIGIN OF DATA
 UWI .       490251099900:   UNIQUE WELL ID
 DICO. A2D Technologies, Inc.:   DIGITIZING COMPANY
~OTHER INFORMATION
~A   DEPT       RD         RS        SPR         AC       CALD       CORR        DEN        GRD       PORD          CNC 
# ...
  179.5000    17.1554    10.7557   -73.9269   103.3260     7.6992     0.0261     2.4583   101.9888     0.1302     0.2909
  180.0000    17.2877    10.6898   -74.3603   103.0954     7.7143     0.0276     2.4734   101.5343     0.1263     0.2920
  180.5000    17.1766    10.6227   -74.6482   103.1665     7.7293     0.0261     2.4825   103.0324     0.1203     0.2905
  181.0000    17.0688    10.5558   -75.0815   103.4631     7.7293     0.0185     2.4855   103.1795     0.1166     0.2848
  181.5000    16.6163    10.4897   -75.2181   103.9850     7.7293     0.0094     2.4824   101.8205     0.1160     0.2844
  182.0000    16.2855    10.3520   -75.5031   104.5920     7.7293     0.0064     2.4762   101.2156     0.1166     0.2829
  182.5000    15.7422    10.1411   -75.6397   105.4984     7.7293     0.0093     2.4620   103.4656     0.1260     0.2808
  183.0000    15.1122     9.7963   -75.6251   106.7002     7.7293     0.0274     2.4627   103.3108     0.1276     0.2817
  183.5000    14.4076     9.4062   -75.3166   108.8212     7.7293     0.0395     2.4627   102.7048     0.1279     0.2992
  184.0000    13.5473     8.9538   -75.0081   110.5415     7.7293     0.0470     2.4610   102.2503     0.1282     0.3022
  184.5000    12.6506     8.2097   -74.5512   111.4853     7.7293     0.0515     2.4516   103.1469     0.1331     0.3243
  185.0000    11.9777     7.6659   -74.3911   112.4092     7.7293     0.0409     2.4332   101.9394     0.1415     0.3215
  185.5000    11.2549     7.1581   -74.2310   113.5973     7.7143     0.0288     2.4189   100.4312     0.1519     0.3282
  186.0000    10.2073     6.7304   -73.9225   115.2777     7.7143    -0.0059     2.4083   100.4267     0.1561     0.3315
  186.5000     9.0837     6.1983   -73.7624   118.3528     7.7143    -0.0090     2.4052   100.4222     0.1595     0.3267
  187.0000     8.1179     5.5525   -73.6023   121.1275     7.7143     0.0091     2.4007    98.1621     0.1617     0.3239
  187.5000     6.6716     4.7719   -73.2938   126.2312     7.6992     0.0060     2.3841    97.2554     0.1663     0.3333
  188.0000     5.4320     3.9617   -73.1335   134.1147     7.7143     0.0060     2.3508    97.4013     0.1971     0.3711
  188.5000     4.7997     3.3118   -72.9733   136.4386     7.7143     0.0180     2.3138    97.3968     0.2237     0.4028
  189.0000     4.4814     3.1568   -72.8131   135.8323     7.7143     0.0331     2.2768    93.9336     0.2434     0.4034
  189.5000     4.7071     3.2478   -72.6528   132.6715     7.7143     0.0331     2.2329    90.0194     0.2759     0.3931
  190.0000     5.7153     3.5801   -72.4902   127.2568     7.7143     0.0330     2.1937    89.9549     0.2892     0.3850
  190.5000     6.2563     4.0292   -72.4785   124.6971     7.7143     0.0330     2.1884    94.2209     0.2856     0.3895
  191.0000     6.5251     4.3203   -72.4667   122.5131     7.7293     0.0239     2.2631    98.1262     0.2398     0.3862
  191.5000     7.0936     4.4751   -72.3066   120.7047     7.7293    -0.0093     2.3114   102.1819     0.2186     0.3662
  192.0000     7.9826     4.7653   -72.2949   117.8444     7.7143    -0.0003     2.3318   104.4330     0.2068     0.3315
  192.5000     9.1081     5.2529   -72.2831   113.3313     7.7293     0.0359     2.3409   105.1805     0.2032     0.3040
  193.0000    10.8322     6.7463   -72.4227   109.9452     7.7293     0.0268     2.3703   105.0256     0.1850     0.2683
  193.5000    11.9397     7.9772   -72.7076   109.6407     7.7143     0.0176     2.4081   104.5654     0.1481     0.2747
  194.0000    12.4528     8.2489   -72.8443   110.3103     7.7293     0.0041     2.4534   104.2647     0.1363     0.2813
  194.5000    12.4604     8.0206   -72.6812   110.6808     7.7293     0.0148     2.4533   106.8742     0.1338     0.2952
  195.0000    12.2335     7.8689   -72.5211   110.8271     7.7293     0.0400     2.4563   109.3985     0.1329     0.3004
  195.5000    12.2419     7.8194   -72.3610   110.8206     7.7293     0.0659     2.4593   109.0075     0.1323     0.3086
  196.0000    12.4211     7.9895   -72.3492   110.5148     7.7143     0.0566     2.4571   107.8556     0.1320     0.3103
  196.5000    12.6906     8.2756   -72.0407   110.0588     7.7143     0.0467     2.4510   108.0271     0.1339     0.3078
  197.0000    13.0560     8.5720   -71.7322   109.6027     7.6992     0.0266     2.4495   109.4085     0.1363     0.2925
  197.5000    13.0649     8.8178   -71.4237   109.5224     7.6992     0.0326     2.4548   110.8487     0.1362     0.2916
  198.0000    12.8941     8.8845   -71.1153   110.0431     7.6992     0.0476     2.4698   110.6939     0.1303     0.2849
  198.5000    12.3778     8.3536   -70.6584   112.2918     7.6992     0.0416     2.4729   110.0879     0.1251     0.2834
  199.0000    11.3986     7.4833   -70.2015   114.9161     7.6992     0.0355     2.4721   111.4368     0.1233     0.3006
  199.5000    10.3524     6.7036   -70.0414   116.4886     7.6842     0.0400     2.4638   115.4925     0.1236     0.3266
  200.0000     9.4023     6.1737   -69.8813   116.8604     7.6992     0.0395     2.4396   115.6395     0.1335     0.3508
  200.5000     9.1502     6.1779   -69.8694   115.9524     7.6991     0.0338     2.4018   113.8988     0.1655     0.3457
  201.0000     9.4152     6.4202   -69.8576   114.8209     7.6839     0.0171     2.3927   107.9639     0.1697     0.3275
  201.5000     9.6863     6.6135   -69.8460   114.1390     7.6687     0.0077     2.4115   104.4932     0.1664     0.3146
  202.0000    10.2020     6.8466   -69.9826   113.5327     7.6686     0.0273     2.4170   105.0876     0.1570     0.3061
  202.5000    10.6882     7.3337   -70.1459   112.8512     7.6835     0.0382     2.4152   106.2846     0.1558     0.3203
  203.0000    11.1745     7.8103   -70.2558   111.8693     7.6833     0.0290     2.4159   108.6847     0.1570     0.3128
  203.5000    11.7099     8.1470   -70.2411   110.8891     7.6832     0.0290     2.4264   114.0923     0.1558     0.3001
  204.0000    12.5582     8.5572   -70.3807   109.9033     7.6830     0.0289     2.4355   118.8984     0.1503     0.2963
  204.5000    13.1959     9.1133   -70.3660   108.1608     7.6829     0.0228     2.4453   117.0880     0.1424     0.3059
  205.0000    13.8687     9.5061   -70.3542   106.5139     7.6978     0.0167     2.4548   112.2700     0.1360     0.3071
  205.5000    14.7790     9.8475   -70.3425   106.0634     7.6976     0.0016     2.4666   108.0535     0.1320     0.3008
  206.0000    15.4095    10.1308   -70.3307   105.9865     7.6974    -0.0075     2.4780   106.0927     0.1244     0.2972
  206.5000    15.8371    10.3504   -70.3189   106.2074     7.6973     0.0015     2.4873   105.6356     0.1183     0.2969
  207.0000    15.9576    10.5019   -70.4585   106.5069     7.6971     0.0135     2.4903   106.0808     0.1141     0.2960
  207.5000    15.7516    10.5090   -70.8889   106.8783     7.6970     0.0360     2.4887   106.6764     0.1135     0.2881
  208.0000    15.6510    10.3699   -71.0284   107.3288     7.6968     0.0466     2.4872   106.3697     0.1138     0.2809
  208.5000    15.4463    10.2344   -71.3105   107.7714     7.6967     0.0435     2.4841   104.1081     0.1166     0.2809
  209.0000    15.1417    10.0324   -71.4500   108.1473     7.6965     0.0449     2.4803   104.7037     0.1184     0.2808
  209.5000    14.8380     9.8333   -71.7320   108.6644     7.6964     0.0554     2.4878   106.6546     0.1178     0.2691
  210.0000    14.5872     9.6377   -72.0200   109.0458     7.7113     0.0704     2.4923   107.0978     0.1136     0.2689
  210.5000    14.2560     9.4463   -72.0053   109.4823     7.7111     0.0674     2.4900   106.6408     0.1127     0.2849
  211.0000    13.6852     9.3212   -71.9935   109.6339     7.7110     0.0566     2.4869   107.2622     0.1160     0.2979
  211.5000    13.2285     9.2649   -71.9817   109.8495     7.7108     0.0097     2.4733   108.1312     0.1224     0.3111
  212.0000    12.7871     9.2073   -71.5249   110.1457     7.7107     0.0038     2.4657   107.9749     0.1257     0.3170
  212.5000    12.5328     9.2138   -70.9196   110.5234     7.7105     0.0681     2.4717   107.0667     0.1252     0.3059
