~VERSION INFORMATION
 VERS.                2.0:   CWLS LOG ASCII STANDARD - VERSION 2.0
 WRAP.                 NO:   ONE LINE PER DEPTH STEP
~WELL INFORMATION
#MNEM.UNIT      DATA TYPE    INFORMATION
#----------   ------------   ------------------------------
 STRT.F            6.0000:   START DEPTH
 STOP.F          495.0000:   STOP DEPTH
 STEP.F            0.5000:   STEP LENGTH
 NULL.          -999.2500:   NO VALUE
 COMP. FENIX & SCISSON INC:   COMPANY
 WELL. FI NPR-3 #65-25 SX3:   WELL
 FLD .  NAVAL RESERVES #3:   FIELD
 LOC .       S3 T38N R78W:   LOCATION
 CNTY.            NATRONA:   COUNTY
 STAT.            WYOMING:   STATE
 CTRY. UNITED STATES OF AMERICA:   COUNTRY
 SRVC.       Schlumberger:   SERVICE COMPANY
 DATE.        22-MAY-1980:   LOGDATE
 API .       490251080300:   API NUMBER
~CURVE INFORMATION
#MNEM.UNIT       API CODE    CURVE DESCRIPTION
#----------   ------------   ------------------------------
 DEPT.F                  :   
 SPR .MV     07 010 01 00:   SPONTANEOUS POTENTIAL
 SFL .OHMM   07 220 01 00:   SHALLOW FOCUSED LOG RESISTIVITY
 ILD .OHMM   07 120 46 00:   INDUCTION LOG DEEP RESISTIVITY
 ILM .OHMM   07 120 44 00:   INDUCTION LOG MEDIUM
 GRD .GAPI   45 310 01 00:   GAMMA RAY FROM DENSITY LOG
 CALD.IN     45 280 60 00:   CALIPER
 DPHI.DEC    45 890 12 00:   DENSITY POROSITY SANDSTONE
 RHOB.G/C3   45 350 01 00:   BULK DENSITY
 CORR.G/C3   45 356 01 00:   DENSITY CORRECTION
 NPHI.DEC    42 890 03 00:   NEUTRON POROSITY SANDSTONE
~PARAMETER INFORMATION
#MNEM.UNIT          VALUE    DESCRIPTION
#----------   ------------   ------------------------------
 PD  .                 GL:   PERMANENT DATUM
 EPD .F              5162:   ELEVATION PERMANENT DATUM
 LMF .                 KB:   LOG MEASURED FROM
 DAPD.F                 4:   FEET ABOVE PERMANENT DATUM
 DMF .                 KB:   DRILLING MEASURED FROM
 EKB .F              5166:   KELLING BUSHING
 EGL .F              5162:   GROUND LEVEL
 DATE.            5-22-80:   RUN DATE
 RUN .                  1:   RUN NUMBER
 DD  .F               500:   DEPTH DRILLER
 DL  .F               498:   DEPTH LOGGER
 BLI .F               492:   BOTTOM LOG INTERVAL
 TLI .F                10:   TOP LOG INTERVAL
 BS  .IN            9.875:   BIT SIZE
 BSD .F               500:   BIT SIZE AT DEPTH
 DFT .                KCL:   DRILLING FLUID TYPE
 DFD .                9.6:   DRILLING FLUID DENSITY
 DFV .                 45:   DRILLING FLUID VISCOSITY
 DFL .                8.9:   DRILLING FLUID LOSS
 MSS .               PITS:   MUD SAMPLE SOURCE
 RMS .OHMM            .21:   RESISTIVITY MUD SAMPLE
 MST .F                76:   MUD SAMPLE TEMPERATURE
 RMF .OHMM            .19:   RESISTIVITY MUD FILTRATE SAMPLE
 MFST.F                76:   MUD FILTRATE SAMPLE TEMPERATURE
 MFSS.               MEAS:   MUD FILTRATE SAMPLE SOURCE
 TLAB.HRS            0845:   TIME LOGGER AT BOTTOM
 LUN .               8035:   LOGGING UNIT NUMBER
 LUL .               CSPR:   LOGGING UNIT LOCATION
 ENGI.           C. DRAKE:   RECORDING ENGINEER
 WITN.              AMEND:   WITNESSED BY
 CLNT.            A2DTECH:   CLIENT CODE
 ORIG.           5" PRINT:   ORIGIN OF DATA
 UWI .       490251080300:   UNIQUE WELL ID
 DICO. A2D Technologies, Inc.:   DIGITIZING COMPANY
~OTHER INFORMATION
~A    DEPT     SPR        SFL        ILD        ILM         GRD       CALD      DPHI       RHOB       CORR        NPHI  
# ...
  307.5000   -60.0705    20.1852    20.3685    12.3808    88.9917    10.0217     0.1751     2.3835    -0.0030     0.2784
  308.0000   -60.0143    20.2839    21.1572    12.0923    90.1867    10.0217     0.1770     2.3812    -0.0036     0.2719
  308.5000   -59.7858    20.3538    21.9598    11.9311    91.3693    10.0218     0.1790     2.3773    -0.0016     0.2689
  309.0000   -59.7697    20.4240    22.7933    12.5061    92.5443    10.0218     0.1810     2.3756     0.0003     0.2710
  309.5000   -59.8786    20.4944    23.6579    13.2170    93.2555    10.0216     0.1785     2.3821     0.0093     0.2729
  310.0000   -59.9889    20.5609    24.5013    15.2947    92.7730    10.0146     0.1731     2.3926     0.0203     0.2725
  310.5000   -60.1106    20.1913    24.4974    17.4111    90.4940     9.9736     0.1671     2.3977     0.0315     0.2685
  311.0000   -60.4783    19.8480    24.4973    16.9417    89.2729     9.9258     0.1706     2.3902     0.0384     0.2640
  311.5000   -60.8512    19.5124    24.4973    13.1452    89.5241     9.8957     0.1755     2.3847     0.0384     0.2605
  312.0000   -61.2212    19.2778    24.4973    10.0168    90.3072     9.8657     0.1752     2.3855     0.0302     0.2605
  312.5000   -61.5200    19.7632    24.7527    10.5561    90.4833     9.9233     0.1735     2.3878     0.0204     0.2680
  313.0000   -61.5785    20.1496    25.8906    11.3840    90.5229    10.0096     0.1743     2.3842     0.0107     0.2758
  313.5000   -61.6396    20.5435    25.0914    12.2769    91.3645    10.0829     0.1797     2.3763     0.0029     0.2806
  314.0000   -61.7207    20.9452    24.0097    13.2398    93.8715    10.0810     0.1863     2.3641     0.0005     0.2797
  314.5000   -62.0844    21.1375    22.9733    14.3511    97.0615    10.0809     0.1967     2.3517     0.0000     0.2735
  315.0000   -61.9238    21.1375    21.9664    14.1351    97.2676    10.0810     0.1987     2.3459    -0.0022     0.2676
  315.5000   -61.7451    21.1395    21.5935    13.9071    95.7160    10.0810     0.1976     2.3479    -0.0044     0.2639
  316.0000   -62.0085    20.9393    21.3333    13.6827    93.9181    10.0810     0.1932     2.3550    -0.0012     0.2627
  316.5000   -62.4407    20.5810    22.4025    13.4542    91.2041    10.0810     0.1880     2.3651     0.0041     0.2631
  317.0000   -62.8829    20.2294    22.7605    13.3735    88.4783    10.0810     0.1843     2.3695     0.0094     0.2645
  317.5000   -63.1894    19.8842    22.5738    13.2710    86.1945    10.0810     0.1842     2.3706     0.0060     0.2655
  318.0000   -63.3727    19.5450    22.3865    13.1684    86.8327    10.0810     0.1841     2.3702    -0.0003     0.2669
  318.5000   -63.4400    19.2759    22.2011    13.0872    89.2594    10.0810     0.1832     2.3720    -0.0005     0.2697
  319.0000   -63.2369    19.2759    22.0177    13.3053    90.4211    10.0810     0.1813     2.3752     0.0005     0.2721
  319.5000   -63.1516    19.2759    21.8358    13.5279    90.3030    10.0810     0.1794     2.3787     0.0042     0.2725
  320.0000   -63.3236    19.2315    21.6553    13.7046    90.2018    10.0810     0.1775     2.3819     0.0071     0.2707
  320.5000   -63.4907    19.0295    21.4764    13.1970    90.4333    10.0810     0.1784     2.3826    -0.0005     0.2700
  321.0000   -63.6586    18.8296    21.2989    12.7945    91.9578    10.0810     0.1813     2.3768    -0.0041     0.2706
  321.5000   -63.8256    18.6317    21.1229    12.4042    92.6908    10.0810     0.1840     2.3719    -0.0083     0.2699
  322.0000   -64.0780    18.4081    20.9484    12.2692    90.9469    10.0810     0.1813     2.3737    -0.0078     0.2640
  322.5000   -64.3957    18.5204    20.7753    12.9958    90.5457    10.0810     0.1796     2.3782    -0.0041     0.2559
  323.0000   -64.7137    18.6529    20.7513    13.4542    92.3406    10.0810     0.1822     2.3759    -0.0014     0.2481
  323.5000   -65.0337    18.7978    20.7513    14.3881    94.5033    10.0810     0.1882     2.3653    -0.0015     0.2461
  324.0000   -65.3230    18.9733    20.7513    15.3216    94.1779    10.0810     0.1947     2.3539    -0.0031     0.2466
  324.5000   -65.5023    19.1505    20.7513    16.3158    93.9300    10.0810     0.1989     2.3481    -0.0034     0.2566
  325.0000   -65.5182    19.3293    20.7513    16.7863    93.6617    10.0810     0.2025     2.3407    -0.0031     0.2596
  325.5000   -65.6205    19.4544    20.7513    15.7583    92.2544    10.0810     0.2045     2.3364    -0.0027     0.2613
  326.0000   -65.6862    19.1840    20.7513    15.0134    90.7198    10.0810     0.2044     2.3361    -0.0025     0.2625
  326.5000   -65.5977    18.9793    20.7543    14.1115    91.3707    10.0810     0.2015     2.3415    -0.0025     0.2583
  327.0000   -65.5099    18.7769    20.7783    13.2084    93.2292    10.0810     0.1971     2.3523    -0.0004     0.2540
  327.5000   -65.6249    18.5766    20.8026    13.2984    93.2658    10.0810     0.1871     2.3705     0.0046     0.2509
  328.0000   -66.0731    18.4075    20.8267    13.4680    91.3201    10.0810     0.1754     2.3918    -0.0029     0.2505
  328.5000   -66.8919    18.4075    20.8510    13.6397    90.9409    10.0810     0.1671     2.4005    -0.0025     0.2471
  329.0000   -67.0769    18.4632    20.8753    13.8137    92.5796    10.0807     0.1615     2.4088    -0.0037     0.2418
  329.5000   -67.1865    18.8096    20.8993    13.9627    94.1374    10.0803     0.1548     2.4234    -0.0045     0.2366
  330.0000   -67.2873    19.1625    20.9237    13.8115    94.2683    10.0799     0.1511     2.4257    -0.0022     0.2329
  330.5000   -67.2604    19.4544    20.9394    13.6161    94.4405    10.0795     0.1575     2.4102    -0.0016     0.2389
  331.0000   -67.2012    18.7855    20.7132    13.1966    94.1890    10.0791     0.1699     2.3881     0.0028     0.2455
  331.5000   -67.1431    18.1280    20.4344    12.5010    92.4091    10.0787     0.1761     2.3841     0.0088     0.2500
  332.0000   -67.1475    17.4944    19.8005    11.8456    90.0049    10.0784     0.1768     2.3900     0.0112     0.2534
  332.5000   -67.3572    16.9919    19.1897    11.2256    88.6642    10.0780     0.1692     2.3960     0.0086     0.2565
  333.0000   -67.5600    16.5696    18.5977    10.8834    87.7415    10.0776     0.1679     2.3978     0.0025     0.2565
  333.5000   -67.8471    16.1577    18.0239    10.7836    87.9453    10.0772     0.1663     2.4027     0.0016     0.2561
  334.0000   -68.3577    15.7561    17.4678    10.9918    88.4769    10.0768     0.1615     2.4117     0.0005     0.2541
  334.5000   -68.8755    15.3645    16.9289    11.1876    90.2094    10.0764     0.1567     2.4148     0.0004     0.2516
  335.0000   -69.0119    15.2729    16.4066    11.0679    92.7766    10.0760     0.1592     2.4068    -0.0024     0.2491
  335.5000   -69.1270    15.2320    15.9004    10.9293    95.9076    10.0757     0.1655     2.3987    -0.0025     0.2469
  336.0000   -69.2452    15.1912    15.7371    10.7912    99.4953    10.0753     0.1689     2.3946    -0.0003     0.2461
  336.5000   -69.2990    15.1505    15.8586    10.6549   100.3033    10.0749     0.1690     2.3974     0.0021     0.2461
  337.0000   -69.3000    15.1100    15.9724    10.5865    97.7528    10.0745     0.1670     2.4019     0.0044     0.2453
  337.5000   -69.3000    15.0695    16.0870    10.6297    96.3139    10.0741     0.1638     2.4048     0.0062     0.2427
  338.0000   -69.2995    15.0292    16.2024    10.6588    93.8188    10.0737     0.1623     2.4026    -0.0006     0.2430
  338.5000   -69.2997    14.9889    16.3279    10.6846    91.4283    10.0734     0.1667     2.3951    -0.0049     0.2473
  339.0000   -69.3311    14.9488    16.1505    10.6249    89.8757    10.0730     0.1731     2.3841    -0.0085     0.2544
  339.5000   -69.5344    14.9088    15.9569    10.5717    90.1976    10.0726     0.1774     2.3816    -0.0104     0.2626
  340.0000   -69.7360    14.7895    15.7660    10.5187    93.6810    10.0722     0.1784     2.3900    -0.0074     0.2717
  340.5000   -69.9231    14.6033    15.5776    10.4660    94.4448    10.0718     0.1710     2.3995    -0.0011     0.2725
