~VERSION INFORMATION
 VERS.                2.0:   CWLS LOG ASCII STANDARD - VERSION 2.0
 WRAP.                 NO:   ONE LINE PER DEPTH STEP
~WELL INFORMATION
#MNEM.UNIT      DATA TYPE    INFORMATION
#----------   ------------   ------------------------------
 STRT.F            0.0000:   START DEPTH
 STOP.F          774.0000:   STOP DEPTH
 STEP.F            0.5000:   STEP LENGTH
 NULL.          -999.2500:   NO VALUE
 COMP. LAWRENCE/ALLISON INC:   COMPANY
 WELL. SX 11 WP #37-53-11:   WELL
 FLD .             TEAPOT:   FIELD
 LOC .      S11 T38N R78W:   LOCATION
 CNTY.            NATRONA:   COUNTY
 STAT.            WYOMING:   STATE
 CTRY. UNITED STATES OF AMERICA:   COUNTRY
 SRVC.            Unknown:   SERVICE COMPANY
 DATE.        19-SEP-1984:   LOGDATE
 API .       490251098900:   API NUMBER
~CURVE INFORMATION
#MNEM.UNIT       API CODE    CURVE DESCRIPTION
#----------   ------------   ------------------------------
 DEPT.F                  :   
 GRR .GAPI   07 310 01 00:   GAMMA RAY FROM RES. LOG.
 SPR .MV     07 010 01 00:   SPONTANEOUS POTENTIAL
 RFOC.OHMM   07 220 04 00:   RESISTIVITY FOCUSED LOG
 ILD .OHMM   07 120 46 00:   INDUCTION LOG DEEP RESISTIVITY
 RILM.OHMM   07 120 44 00:   INDUCTION LOG MEDIUM RESISTIVITY
 CALD.IN     45 280 60 00:   CALIPER
 DEN .G/C3   45 350 01 00:   COMPENSATED BULK DENSTIY
 CORR.G/C3   45 356 01 00:   DENSITY CORRECTION
 PORD.DEC    45 890 12 00:   POROSITY DENSITY SANDSTONE
 AC  .US/F   60 520 00 00:   ACOUSTIC SONIC
 CNC .DEC    42 890 03 00:   NEUTRON POROSITY SANDSTONE
~PARAMETER INFORMATION
#MNEM.UNIT          VALUE    DESCRIPTION
#----------   ------------   ------------------------------
 PD  .                 GL:   PERMANENT DATUM
 EPD .F              5153:   ELEVATION PERMANENT DATUM
 LMF .                 GL:   LOG MEASURED FROM
 DMF .                 GL:   DRILLING MEASURED FROM
 EGL .F              5153:   GROUND LEVEL
 DATE.       19-SEPT-1984:   RUN DATE
 RUN .                  1:   RUN NUMBER
 DD  .F               785:   DEPTH DRILLER
 DL  .F               774:   DEPTH LOGGER
 BLI .F               772:   BOTTOM LOG INTERVAL
 CS  .IN            8.625:   CASING SIZE
 CBD .F                42:   CASING BOTTOM DRILLER
 CBL .F                41:   CASING BOTTOM LOGGER
 BS  .IN            7.875:   BIT SIZE
 BSD .F               785:   BIT SIZE AT DEPTH
 DFT .          KCL WATER:   DRILLING FLUID TYPE
 MSS .           FLOWLINE:   MUD SAMPLE SOURCE
 RMS .OHMM            .27:   RESISTIVITY MUD SAMPLE
 MST .F                82:   MUD SAMPLE TEMPERATURE
 TCS .HRS               2:   TIME CURCULATED STOPPED
 MRT .F               100:   MAXIMUM RECORDED TEMPERATURE
 LUN .               6274:   LOGGING UNIT NUMBER
 LUL .               GLTE:   LOGGING UNIT LOCATION
 ENGI.         HINDS/MACK:   RECORDING ENGINEER
 WITN.             STRONG:   WITNESSED BY
 CLNT.            A2DTECH:   CLIENT CODE
 ORIG.   1", 2", 5" PRINT:   ORIGIN OF DATA
 UWI .       490251098900:   UNIQUE WELL ID
 DICO. A2D Technologies, Inc.:   DIGITIZING COMPANY
~OTHER INFORMATION
~A    DEPT      GRR       SPR       RFOC        ILD       RILM       CALD        DEN       CORR       PORD         AC        CNC   
# ...
   30.5000    76.7961  -999.2500  -999.2500  -999.2500  -999.2500  -999.2500  -999.2500  -999.2500  -999.2500  -999.2500  -999.2500
   31.0000    79.5501  -999.2500  -999.2500  -999.2500  -999.2500  -999.2500  -999.2500  -999.2500  -999.2500  -999.2500  -999.2500
   31.5000    82.0802  -999.2500  -999.2500  -999.2500  -999.2500  -999.2500  -999.2500  -999.2500  -999.2500  -999.2500  -999.2500
   32.0000    83.2573  -999.2500  -999.2500  -999.2500  -999.2500  -999.2500  -999.2500  -999.2500  -999.2500  -999.2500  -999.2500
   32.5000    80.9898  -999.2500  -999.2500  -999.2500  -999.2500  -999.2500  -999.2500  -999.2500  -999.2500  -999.2500  -999.2500
   33.0000    79.1450  -999.2500  -999.2500  -999.2500  -999.2500  -999.2500  -999.2500  -999.2500  -999.2500  -999.2500  -999.2500
   33.5000    78.5844  -999.2500  -999.2500  -999.2500  -999.2500  -999.2500  -999.2500  -999.2500  -999.2500    80.8383  -999.2500
   34.0000    79.8124  -999.2500  -999.2500  -999.2500  -999.2500  -999.2500  -999.2500  -999.2500  -999.2500    83.4891  -999.2500
   34.5000    81.0915  -999.2500  -999.2500  -999.2500  -999.2500  -999.2500  -999.2500  -999.2500  -999.2500    84.8983  -999.2500
   35.0000    82.8540  -999.2500  -999.2500  -999.2500  -999.2500  -999.2500  -999.2500  -999.2500  -999.2500    85.5960  -999.2500
   35.5000    86.0392  -999.2500  -999.2500  -999.2500  -999.2500  -999.2500  -999.2500  -999.2500  -999.2500    86.4691  -999.2500
   36.0000    86.2330  -999.2500  -999.2500  -999.2500  -999.2500  -999.2500  -999.2500  -999.2500  -999.2500    87.9389  -999.2500
   36.5000    77.9514  -999.2500  -999.2500  -999.2500  -999.2500  -999.2500  -999.2500  -999.2500  -999.2500    95.0046  -999.2500
   37.0000    73.1029  -999.2500  -999.2500  -999.2500  -999.2500  -999.2500  -999.2500  -999.2500  -999.2500   102.0393  -999.2500
   37.5000    71.9321  -999.2500  -999.2500  -999.2500  -999.2500  -999.2500  -999.2500  -999.2500  -999.2500   127.8330  -999.2500
   38.0000    70.7139  -999.2500  -999.2500  -999.2500  -999.2500  -999.2500  -999.2500  -999.2500  -999.2500   139.8977     0.3528
   38.5000    69.5693  -999.2500  -999.2500  -999.2500  -999.2500  -999.2500  -999.2500  -999.2500  -999.2500   143.3476     0.3628
   39.0000    69.8734  -999.2500  -999.2500  -999.2500  -999.2500  -999.2500  -999.2500  -999.2500  -999.2500   146.7975     0.3707
   39.5000    72.5605  -999.2500  -999.2500  -999.2500  -999.2500  -999.2500  -999.2500  -999.2500  -999.2500   151.1388     0.3787
   40.0000    80.8918  -999.2500  -999.2500  -999.2500  -999.2500  -999.2500  -999.2500  -999.2500  -999.2500   150.2107     0.3835
   40.5000    89.0040  -999.2500  -999.2500  -999.2500  -999.2500  -999.2500  -999.2500  -999.2500  -999.2500   148.6590     0.3274
   41.0000    93.4296    74.7798     2.6149     7.7818     6.5984     8.2343     2.3014    -0.0894     0.2429   147.9523     0.3289
   41.5000    94.7633    59.4577     2.7427     7.7818     6.5984     8.2343     2.3556    -0.0061     0.1969   146.6600     0.3279
   42.0000    93.5081    46.6136     3.7108     2.0230     2.4977     8.2343     2.3362    -0.0138     0.2078   144.4773     0.3173
   42.5000    90.5787    37.3755     4.2042     2.3951     2.5465     8.2343     2.3179    -0.0243     0.2137   142.1993     0.3146
   43.0000    87.6754    28.4031     4.3499     3.8413     3.0567     8.2343     2.3259    -0.0183     0.2093   136.6700     0.3166
   43.5000    87.9268    22.5589     4.4493     5.6905     3.5365     8.2343     2.3335    -0.0092     0.2040   133.9557     0.3186
   44.0000    91.7708    16.7468     4.2314     6.8448     3.9163     8.2343     2.3366    -0.0041     0.2025   133.6520     0.3206
   44.5000    95.5469    12.8092     4.0777     5.5954     4.4489     8.2343     2.3302    -0.0047     0.2075   133.3482     0.3197
   45.0000    96.1908     8.5343     3.9496     4.1088     4.9775     8.2343     2.3250    -0.0051     0.2106   133.0445     0.3086
   45.5000    95.6355     4.1741     4.0438     3.1636     5.0123     8.2343     2.3210    -0.0056     0.2134   133.0169     0.3026
   46.0000    94.8315     2.0248     4.1285     2.9831     3.8154     8.2343     2.3172    -0.0050     0.2148   134.0234     0.3140
   46.5000    93.0878     0.0232     4.1729     2.8129     3.2881     8.2343     2.3168    -0.0004     0.2146   135.8872     0.3272
   47.0000    91.4144    -3.4152     3.8362     2.7375     3.2581     8.2343     2.3178     0.0040     0.2145   136.1730     0.3321
   47.5000    92.0352    -5.1143     3.4586     2.8193     3.3354     8.2343     2.3145     0.0087     0.2177   135.9245     0.3371
   48.0000    94.9760    -6.5293     3.0579     2.9071     3.3798     8.2343     2.3100    -0.0002     0.2311   134.6109     0.3483
   48.5000    95.6667    -7.9397     3.2120     2.9985     3.3490     8.2343     2.2659    -0.0147     0.2515   132.6441     0.3584
   49.0000    92.4643    -9.3527     3.5698     3.0557     3.2888     8.2343     2.2345    -0.0295     0.2663   132.5885     0.3584
   49.5000    89.6998   -10.7773     4.0292     2.9120     3.2284     8.2343     2.2334    -0.0445     0.2663   133.6038     0.3600
   50.0000    89.2951   -11.5040     4.0557     2.8113     3.0940     8.2343     2.2628    -0.0262     0.2428   135.4202     0.3679
   50.5000    88.9410   -11.9275     3.7316     2.7141     2.9437     8.2343     2.2949     0.0010     0.2253   137.1537     0.3836
   51.0000    88.9688   -11.4318     3.4498     2.6202     2.8004     8.2343     2.3036     0.0257     0.2237   137.7952     0.3951
   51.5000    90.0804    -9.0957     3.1123     2.4926     2.6641     8.2343     2.2939     0.0258     0.2314   138.2604     0.3892
   52.0000    90.7521    -6.8509     3.1441     2.3547     2.5346     8.2343     2.2839     0.0231     0.2400   139.3866     0.3844
   52.5000    90.0621    -5.5907     3.1921     2.2243     2.4113     8.2343     2.2660     0.0153     0.2488   140.6210     0.3926
   53.0000    89.7306    -5.3879     3.1990     2.1564     2.3000     8.2343     2.2542     0.0017     0.2542   141.8554     0.4035
   53.5000    91.3510    -5.1649     3.0575     2.1560     2.3000     8.2343     2.2451    -0.0118     0.2639   142.9324     0.3996
   54.0000    95.1140    -4.3573     2.8516     2.1558     2.3000     8.2342     2.2352    -0.0200     0.2772   140.4619     0.4039
   54.5000    96.4081    -0.9057     2.6596     2.3198     2.5272     8.2342     2.2121    -0.0260     0.2906   136.7363     0.4081
   55.0000    94.1321     2.2538     2.5910     2.4600     2.7674     8.2348     2.1777    -0.0264     0.3033   132.6028     0.3889
   55.5000    89.7173     6.1681     2.9866     2.6087     3.0320     8.2469     2.1463    -0.0250     0.3184   128.2178     0.3598
   56.0000    86.9504     8.5225     3.6231     2.7665     3.2788     8.2588     2.1527     0.0073     0.3061   126.8623     0.3460
   56.5000    87.7377     9.1023     4.5733     2.9576     3.4397     8.2706     2.1933     0.0429     0.2840   128.9623     0.3337
   57.0000    89.8835     9.5566     4.3989     3.1999     3.5417     8.2824     2.2454     0.0649     0.2524   131.2608     0.3232
   57.5000    91.3880    10.0155     4.1888     3.4644     3.6467     8.2933     2.2871     0.0435     0.2282   132.3836     0.3155
   58.0000    91.8752    10.2412     4.0195     3.6358     3.7042     8.2880     2.3124    -0.0047     0.2182   133.1909     0.3142
   58.5000    91.9374     9.1870     4.0012     3.5250     3.6184     8.2819     2.3271    -0.0169     0.2101   133.4581     0.3453
   59.0000    90.9302     8.1489     3.9860     3.4423     3.5572     8.2757     2.3379    -0.0112     0.2020   133.8325     0.3453
   59.5000    90.4651     7.1230     3.7987     3.3229     3.4830     8.2696     2.3477    -0.0052     0.1967   134.6770     0.3345
   60.0000    93.0191     6.2340     3.6112     3.2025     3.3327     8.2634     2.3481     0.0008     0.1991   135.5215     0.3466
   60.5000    96.9437     5.6635     3.4317     3.0863     3.1888     8.2573     2.3331     0.0067     0.2056   136.3436     0.3650
