~VERSION INFORMATION
 VERS.                2.0:   CWLS LOG ASCII STANDARD - VERSION 2.0
 WRAP.                 NO:   ONE LINE PER DEPTH STEP
~WELL INFORMATION
#MNEM.UNIT      DATA TYPE    INFORMATION
#----------   ------------   ------------------------------
 STRT.F           20.0000:   START DEPTH
 STOP.F          930.0000:   STOP DEPTH
 STEP.F            0.5000:   STEP LENGTH
 NULL.          -999.2500:   NO VALUE
 COMP. FENIX & SCISSON INC:   COMPANY
 WELL.     NPR 3 #45-S-14:   WELL
 FLD .        TEAPOT DOME:   FIELD
 LOC .      S14 T38N R78W:   LOCATION
 CNTY.            NATRONA:   COUNTY
 STAT.            WYOMING:   STATE
 CTRY. UNITED STATES OF AMERICA:   COUNTRY
 SRVC.           BIRDWELL:   SERVICE COMPANY
 DATE.        02-JAN-1979:   LOGDATE
 API .       490251076200:   API NUMBER
~CURVE INFORMATION
#MNEM.UNIT       API CODE    CURVE DESCRIPTION
#----------   ------------   ------------------------------
 DEPT.F                  :   
 GRD .GAPI   45 310 01 00:   GAMMA RAY FROM DENSITY LOG
 CALD.IN     45 280 60 00:   CALIPER
 RHOB.G/C3   45 350 01 00:   BULK DENSITY
 DPHI.DEC    45 890 12 00:   DENSITY POROSITY SANDSTONE
 CORR.G/C3   45 356 01 00:   DENSITY CORRECTION
~PARAMETER INFORMATION
#MNEM.UNIT          VALUE    DESCRIPTION
#----------   ------------   ------------------------------
 PD  .                 GL:   PERMANENT DATUM
 EPD .F              5261:   ELEVATION PERMANENT DATUM
 LMF .                 KB:   LOG MEASURED FROM
 DAPD.F                 4:   FEET ABOVE PERMANENT DATUM
 DMF .                 KB:   DRILLING MEASURED FROM
 EKB .F              5265:   KELLING BUSHING
 EGL .F              5261:   GROUND LEVEL
 DATE.             1-7-79:   RUN DATE
 RUN .                  1:   RUN NUMBER
 DD  .F               969:   DEPTH DRILLER
 DL  .F               928:   DEPTH LOGGER
 BLI .F               928:   BOTTOM LOG INTERVAL
 TLI .F                20:   TOP LOG INTERVAL
 CS  .IN            8.625:   CASING SIZE
 CBD .F                40:   CASING BOTTOM DRILLER
 CBL .F                46:   CASING BOTTOM LOGGER
 BS  .IN            7.875:   BIT SIZE
 BSD .F               969:   BIT SIZE AT DEPTH
 DFT .                KCL:   DRILLING FLUID TYPE
 DFD .                8.8:   DRILLING FLUID DENSITY
 DFV .                 42:   DRILLING FLUID VISCOSITY
 DFPH.                9.2:   DRILLING FLUID PH
 DFL .                 10:   DRILLING FLUID LOSS
 MSS .           FLOWLINE:   MUD SAMPLE SOURCE
 RMS .OHMM            .95:   RESISTIVITY MUD SAMPLE
 MST .F                60:   MUD SAMPLE TEMPERATURE
 RMF .OHMM            1.7:   RESISTIVITY MUD FILTRATE SAMPLE
 MFST.F                60:   MUD FILTRATE SAMPLE TEMPERATURE
 RMC .OHMM            1.6:   RESISTIVITY MUD CAKE
 MCST.F                60:   MUD CAKE SAMPLE TEMPERATURE
 MFSS.           MEASURED:   MUD FILTRATE SAMPLE SOURCE
 MCSS.           MEASURED:   MUD CAKE SAMPLE SOURCE
 RMB .OHMM            .98:   RESISTIVITY MUD AT BHT
 BHT .F                58:   BOTTOM HOLE TEMPERATURE
 TCS .HRS               4:   TIME CURCULATED STOPPED
 MRT .F                58:   MAXIMUM RECORDED TEMPERATURE
 LUN .               3006:   LOGGING UNIT NUMBER
 LUL .             CASPER:   LOGGING UNIT LOCATION
 ENGI.            ROLLINS:   RECORDING ENGINEER
 WITN.           DINSMORE:   WITNESSED BY
 CLNT.            A2DTECH:   CLIENT CODE
 ORIG.           5" PRINT:   ORIGIN OF DATA
 UWI .       490251076200:   UNIQUE WELL ID
 DICO. A2D Technologies, Inc.:   DIGITIZING COMPANY
~OTHER INFORMATION
~A   DEPT      GRD         CALD     RHOB       DPHI       CORR   
# ...
   81.0000    91.5930     7.8060     2.3620     0.1880     0.0270
   81.5000    92.1960     7.8590     2.3600     0.1930     0.0270
   82.0000    92.7930     7.9090     2.3550     0.1990     0.0270
   82.5000    92.6900     7.9110     2.3460     0.2050     0.0270
   83.0000    90.8840     7.9110     2.3340     0.2090     0.0260
   83.5000    88.5020     7.9110     2.3290     0.2120     0.0260
   84.0000    88.4980     7.9110     2.3290     0.2140     0.0260
   84.5000    89.8130     7.9110     2.3290     0.2140     0.0260
   85.0000    91.8990     7.9110     2.3290     0.2080     0.0260
   85.5000    94.0570     7.9110     2.3360     0.1960     0.0260
   86.0000    94.2070     7.9110     2.3520     0.1840     0.0260
   86.5000    92.6150     7.9110     2.3700     0.1740     0.0260
   87.0000    90.9830     7.9110     2.3840     0.1650     0.0250
   87.5000    89.3660     7.9110     2.3970     0.1630     0.0250
   88.0000    88.1610     7.9110     2.4020     0.1620     0.0250
   88.5000    88.2360     7.9110     2.4020     0.1660     0.0270
   89.0000    90.9170     7.9110     2.4010     0.1730     0.0440
   89.5000    97.0070     7.9070     2.3980     0.1690     0.0710
   90.0000   100.9880     7.8860     2.4020     0.1640     0.0860
   90.5000    98.0020     7.8630     2.4080     0.1610     0.0890
   91.0000    98.6820     7.8150     2.4100     0.1630     0.0920
   91.5000    96.5640     7.6950     2.4110     0.1650     0.0940
   92.0000    94.2000     7.7660     2.4110     0.1620     0.1070
   92.5000    93.1720     7.8830     2.4150     0.1550     0.1210
   93.0000    90.6040     7.8870     2.4240     0.1490     0.1330
   93.5000    89.8440     7.8830     2.4330     0.1450     0.1310
   94.0000    90.0130     7.8780     2.4350     0.1430     0.1270
   94.5000    88.8490     7.8740     2.4350     0.1480     0.1180
   95.0000    87.8310     7.8720     2.4300     0.1570     0.0960
   95.5000    90.6290     7.8810     2.4180     0.1650     0.0750
   96.0000    95.0320     7.8880     2.4050     0.1730     0.0550
   96.5000    97.9240     7.8960     2.3870     0.1830     0.0480
   97.0000    99.7890     7.9040     2.3760     0.1830     0.0470
   97.5000    99.8970     7.9120     2.3750     0.1840     0.0450
   98.0000    97.4250     7.9200     2.3750     0.1840     0.0430
   98.5000    92.0090     7.9280     2.3750     0.1810     0.0310
   99.0000    91.2790     7.9360     2.3750     0.1780     0.0270
   99.5000    91.7850     7.9440     2.3760     0.1800     0.0270
  100.0000    93.3570     7.9500     2.3730     0.1810     0.0280
  100.5000    94.5320     7.9250     2.3700     0.1860     0.0280
  101.0000    94.8000     7.9010     2.3670     0.1860     0.0290
  101.5000    95.1710     7.8770     2.3660     0.1870     0.0290
  102.0000    97.3660     7.8540     2.3660     0.1910     0.0330
  102.5000    99.6890     7.8270     2.3660     0.1910     0.0370
  103.0000   101.4340     7.7350     2.3670     0.1900     0.0460
  103.5000   100.4850     7.6640     2.3680     0.1900     0.0570
  104.0000    94.9290     7.6470     2.3700     0.1850     0.0680
  104.5000    92.5940     7.6300     2.3740     0.1840     0.0760
  105.0000    93.9990     7.6130     2.3760     0.1830     0.0770
  105.5000    95.8210     7.5950     2.3760     0.1820     0.0770
  106.0000    96.1930     7.6030     2.3760     0.1810     0.0770
  106.5000    94.8330     7.6200     2.3760     0.1840     0.0770
  107.0000    95.9170     7.8100     2.3760     0.1790     0.0730
  107.5000    97.2790     7.8690     2.3760     0.1790     0.0590
  108.0000    96.1370     7.8720     2.3750     0.1800     0.0450
  108.5000    95.0580     7.8730     2.3710     0.1880     0.0340
  109.0000    94.5940     7.8740     2.3620     0.1960     0.0340
  109.5000    93.2940     7.8750     2.3520     0.1950     0.0320
  110.0000    91.8950     7.8760     2.3510     0.1940     0.0310
  110.5000    93.0590     7.8770     2.3510     0.1930     0.0300
  111.0000    99.1440     7.8780     2.3500     0.1940     0.0290
  111.5000    98.2480     7.8790     2.3500     0.1950     0.0310
  112.0000   102.3230     7.8800     2.3500     0.1990     0.0330
  112.5000   100.0820     7.8810     2.3490     0.2030     0.0350
  113.0000    95.3490     7.8820     2.3490     0.2030     0.0410
  113.5000    94.5800     7.8830     2.3490     0.1970     0.0440
  114.0000    94.3820     7.8840     2.3560     0.1900     0.0410
  114.5000    91.8680     7.8850     2.3640     0.1890     0.0380
  115.0000    90.3800     7.8860     2.3640     0.1910     0.0370
  115.5000    89.5460     7.8870     2.3640     0.1930     0.0360
  116.0000    89.7380     7.8880     2.3650     0.1890     0.0360
  116.5000    90.6930     7.8890     2.3670     0.1850     0.0360
  117.0000    92.1420     7.8900     2.3730     0.1830     0.0350
  117.5000    93.1830     7.8890     2.3780     0.1820     0.0350
  118.0000    95.8180     7.8820     2.3800     0.1750     0.0360
  118.5000    96.8200     7.8750     2.3860     0.1610     0.0370
  119.0000    97.1840     7.8690     2.3990     0.1600     0.0380
  119.5000    95.3460     7.8620     2.4060     0.1640     0.0400
  120.0000    91.6180     7.8550     2.4020     0.1690     0.0490
  120.5000    88.2230     7.8490     2.3990     0.1720     0.0570
  121.0000    88.7810     7.8420     2.3950     0.1720     0.0660
  121.5000    92.4110     7.8350     2.3950     0.1690     0.0750
  122.0000    93.9590     7.8200     2.3960     0.1680     0.0790
  122.5000    95.3870     7.7720     2.3960     0.1710     0.0800
  123.0000    94.8700     7.7240     2.3950     0.1730     0.0810
  123.5000    92.5060     7.6900     2.3950     0.1710     0.0820
  124.0000    91.0460     7.6970     2.3960     0.1650     0.0830
  124.5000    89.8050     7.7020     2.3970     0.1650     0.0840
  125.0000    90.7450     7.7060     2.3990     0.1650     0.0850
  125.5000    92.6820     7.6730     2.4000     0.1650     0.0830
  126.0000    93.8860     7.5970     2.4000     0.1700     0.0800
  126.5000    94.7390     7.8390     2.3900     0.1890     0.0800
  127.0000    94.7710     7.8750     2.3790     0.1860     0.0880
  127.5000    93.7990     7.8820     2.3740     0.1830     0.0990
  128.0000    93.0710     7.8870     2.3770     0.1750     0.0990
  128.5000    93.6800     7.8910     2.3920     0.1670     0.0970
  129.0000    95.5570     7.8910     2.3970     0.1640     0.0950
  129.5000    94.9390     7.8880     2.3980     0.1720     0.0780
  130.0000    94.5940     7.8800     2.3900     0.1800     0.0600
  130.5000    95.2750     7.4550     2.3780     0.1880     0.0470
  131.0000    95.8460     7.3180     2.3680     0.1920     0.0470
  131.5000    95.7630     7.3910     2.3660     0.1900     0.0460
  132.0000    94.4070     7.5660     2.3670     0.1890     0.0460
  132.5000    92.4540     7.7370     2.3700     0.1860     0.0450
  133.0000    91.0150     7.8240     2.3730     0.1780     0.0450
  133.5000    91.3710     7.8140     2.3900     0.1700     0.0390
  134.0000    92.7480     7.8040     2.4010     0.1620     0.0320
  134.5000    90.4530     7.7920     2.4070     0.1590     0.0250
  135.0000    84.8800     7.7890     2.4080     0.1680     0.0210
  135.5000    80.0520     7.8370     2.3970     0.1780     0.0250
  136.0000    76.6980     7.8890     2.3770     0.1880     0.0320
  136.5000    82.9390     7.8910     2.3630     0.1990     0.0350
  137.0000    86.0650     7.8910     2.3540     0.1990     0.0350
  137.5000    89.2020     7.8730     2.3520     0.1990     0.0380
  138.0000    93.4680     7.8500     2.3520     0.1970     0.0430
  138.5000    93.1850     7.8260     2.3580     0.1860     0.0470
  139.0000    92.9880     7.8030     2.3630     0.1850     0.0450
  139.5000    92.8530     7.7710     2.3660     0.1840     0.0430
  140.0000    92.7090     7.7300     2.3650     0.1900     0.0410
  140.5000    93.6840     7.6890     2.3570     0.1960     0.0390
  141.0000    95.5010     7.6470     2.3530     0.2010     0.0410
  141.5000    95.0400     7.6390     2.3500     0.2000     0.0470
