~VERSION INFORMATION
 VERS.                2.0:   CWLS LOG ASCII STANDARD - VERSION 2.0
 WRAP.                 NO:   ONE LINE PER DEPTH STEP
~WELL INFORMATION
#MNEM.UNIT      DATA TYPE    INFORMATION
#----------   ------------   ------------------------------
 STRT.F           20.0000:   START DEPTH
 STOP.F         2420.0000:   STOP DEPTH
 STEP.F            0.5000:   STEP LENGTH
 NULL.          -999.2500:   NO VALUE
 COMP. FENIX & SCISSON INC:   COMPANY
 WELL.    SHX 15 #71-1-15:   WELL
 FLD .             TEAPOT:   FIELD
 LOC .      S15 T38N R78W:   LOCATION
 CNTY.            NATRONA:   COUNTY
 STAT.            WYOMING:   STATE
 CTRY. UNITED STATES OF AMERICA:   COUNTRY
 SRVC.           BIRDWELL:   SERVICE COMPANY
 DATE.        03-SEP-1978:   LOGDATE
 API .       490251081800:   API NUMBER
~CURVE INFORMATION
#MNEM.UNIT       API CODE    CURVE DESCRIPTION
#----------   ------------   ------------------------------
 DEPT.F                  :   
 CALD.IN     45 280 60 00:   CALIPER
 GRD .GAPI   45 310 01 00:   GAMMA RAY FROM DENSITY LOG
 RHOB.G/C3   45 350 01 00:   BULK DENSITY
 DPHI.DEC    45 890 12 00:   DENSITY POROSITY SANDSTONE
 CORR.G/C3   45 356 01 00:   DENSITY CORRECTION
 NPHI.DEC    42 890 03 00:   NEUTRON POROSITY
~PARAMETER INFORMATION
#MNEM.UNIT          VALUE    DESCRIPTION
#----------   ------------   ------------------------------
 PD  .                 GL:   PERMANENT DATUM
 EPD .F              5249:   ELEVATION PERMANENT DATUM
 LMF .                 KB:   LOG MEASURED FROM
 DAPD.F                10:   FEET ABOVE PERMANENT DATUM
 DMF .                 KB:   DRILLING MEASURED FROM
 EKB .F              5259:   KELLING BUSHING
 EGL .F              5249:   GROUND LEVEL
 DATE.             9-3-78:   RUN DATE
 RUN .                  1:   RUN NUMBER
 DD  .F              2450:   DEPTH DRILLER
 DL  .F              2422:   DEPTH LOGGER
 BLI .F              2420:   BOTTOM LOG INTERVAL
 TLI .F                50:   TOP LOG INTERVAL
 CS  .IN            9.625:   CASING SIZE
 CBD .F               650:   CASING BOTTOM DRILLER
 CBL .F               676:   CASING BOTTOM LOGGER
 BS  .IN             8.75:   BIT SIZE
 BSD .F              2450:   BIT SIZE AT DEPTH
 DFT .           AIR MIST:   DRILLING FLUID TYPE
 LUN .               2958:   LOGGING UNIT NUMBER
 LUL .               CASP:   LOGGING UNIT LOCATION
 ENGI.             MILLER:   RECORDING ENGINEER
 WITN.           MCGINLEY:   WITNESSED BY
 CLNT.            A2DTECH:   CLIENT CODE
 ORIG.         2.5" PRINT:   ORIGIN OF DATA
 UWI .       490251081800:   UNIQUE WELL ID
 DICO. A2D Technologies, Inc.:   DIGITIZING COMPANY
~OTHER INFORMATION
~A   DEPT     CALD        GRD       RHOB       DPHI       CORR         NPHI 
# ...
 1684.0000    11.6200   122.6817     2.5400     0.0733     0.0805  -999.2500
 1684.5000    11.6200   121.6394     2.5243     0.0718     0.1014  -999.2500
 1685.0000    11.6200   120.4363     2.5307     0.0680     0.1017  -999.2500
 1685.5000    11.6200   119.6216     2.5399     0.0641     0.1016  -999.2500
 1686.0000    11.6200   120.1042     2.5398     0.0617     0.0919  -999.2500
 1686.5000    11.6200   121.6593     2.5375     0.0690     0.0820  -999.2500
 1687.0000    11.6199   123.2480     2.5327     0.0718     0.0739  -999.2500
 1687.5000    11.6216   122.8895     2.5320     0.0757     0.0722  -999.2500
 1688.0000    11.6273   120.3072     2.5269     0.0805     0.0702  -999.2500
 1688.5000    11.6328   116.2379     2.5350     0.0669     0.0752  -999.2500
 1689.0000    11.6384   115.2116     2.5368     0.0709     0.0823  -999.2500
 1689.5000    11.6439   113.9875     2.5417     0.0664     0.0866  -999.2500
 1690.0000    11.6497   111.6588     2.5465     0.0608     0.0868  -999.2500
 1690.5000    11.6551   109.6211     2.5533     0.0626     0.0875  -999.2500
 1691.0000    11.6593   109.8858     2.5520     0.0669     0.0882  -999.2500
 1691.5000    11.6517   110.7920     2.5444     0.0651     0.0889  -999.2500
 1692.0000    11.6449   112.6967     2.5470     0.0628     0.0890  -999.2500
 1692.5000    11.6375   116.6092     2.5548     0.0606     0.0904  -999.2500
 1693.0000    11.6305   117.9378     2.5589     0.0720     0.0729  -999.2500
 1693.5000    11.6230   118.0180     2.5407     0.0789     0.0470  -999.2500
 1694.0000    11.6197   116.4552     2.5219     0.0797     0.0370  -999.2500
 1694.5000    11.6200   114.7714     2.5185     0.0725     0.0366  -999.2500
 1695.0000    11.6200   114.0128     2.5245     0.0705     0.0347  -999.2500
 1695.5000    11.6200   114.0344     2.5342     0.0725     0.0336  -999.2500
 1696.0000    11.6200   114.4964     2.5371     0.0773     0.0290  -999.2500
 1696.5000    11.6200   115.3746     2.5406     0.0693     0.0239  -999.2500
 1697.0000    11.6200   116.0556     2.5347     0.0693     0.0191  -999.2500
 1697.5000    11.6200   116.2112     2.5323     0.0687     0.0139  -999.2500
 1698.0000    11.6200   116.3584     2.5458     0.0671     0.0174  -999.2500
 1698.5000    11.6200   116.6518     2.5468     0.0630     0.0219  -999.2500
 1699.0000    11.6199   117.1416     2.5480     0.0534     0.0270  -999.2500
 1699.5000    11.6201   117.6265     2.5601     0.0494     0.0322  -999.2500
 1700.0000    11.6197   117.8784     2.5682     0.0454     0.0315  -999.2500
 1700.5000    11.6201   117.9794     2.5471     0.0597     0.0260  -999.2500
 1701.0000    11.6214   120.3852     2.5360     0.0693     0.0206  -999.2500
 1701.5000    11.6400   124.2984     2.5351     0.0748     0.0193  -999.2500
 1702.0000    11.6558   123.6703     2.5342     0.0788     0.0235  -999.2500
 1702.5000    11.6728   122.1738     2.5253     0.0758     0.0306  -999.2500
 1703.0000    11.6891   120.7534     2.5331     0.0698     0.0425  -999.2500
 1703.5000    11.7060   119.3246     2.5507     0.0638     0.0543  -999.2500
 1704.0000    11.7220   118.2100     2.5678     0.0578     0.0674  -999.2500
 1704.5000    11.7387   117.7627     2.5587     0.0496     0.0729  -999.2500
 1705.0000    11.7341   118.2306     2.5627     0.0542     0.0670  -999.2500
 1705.5000    11.7284   119.8340     2.5695     0.0635     0.0623  -999.2500
 1706.0000    11.7217   121.1345     2.5562     0.0579     0.0569  -999.2500
 1706.5000    11.7157   121.0502     2.5424     0.0699     0.0538  -999.2500
 1707.0000    11.7095   120.7446     2.5281     0.0884     0.0539  -999.2500
 1707.5000    11.7030   121.8753     2.5099     0.0864     0.0541  -999.2500
 1708.0000    11.6997   123.8588     2.5142     0.0801     0.0548  -999.2500
 1708.5000    11.7001   126.2011     2.5347     0.0734     0.0669  -999.2500
 1709.0000    11.7000   126.3658     2.5244     0.0814     0.0785  -999.2500
 1709.5000    11.7000   124.0458     2.5366     0.0765     0.0769  -999.2500
 1710.0000    11.7000   117.5027     2.5343     0.0741     0.0703  -999.2500
 1710.5000    11.7000   110.3378     2.5331     0.0714     0.0699  -999.2500
 1711.0000    11.7001   110.2787     2.5441     0.0688     0.0695  -999.2500
 1711.5000    11.7001   110.9359     2.5494     0.0666     0.0626  -999.2500
 1712.0000    11.6998   113.0681     2.5344     0.0656     0.0560  -999.2500
 1712.5000    11.7006   115.2046     2.5314     0.0645     0.0562  -999.2500
 1713.0000    11.6995   115.4451     2.5407     0.0687     0.0583  -999.2500
 1713.5000    11.6976   115.1923     2.5494     0.0733     0.0557  -999.2500
 1714.0000    11.6658   114.1262     2.5377     0.0791     0.0516  -999.2500
 1714.5000    11.6367   114.5688     2.5223     0.0860     0.0477  -999.2500
 1715.0000    11.6182   115.1570     2.5179     0.0924     0.0468  -999.2500
 1715.5000    11.6204   114.6227     2.5176     0.0920     0.0488  -999.2500
 1716.0000    11.6200   113.9696     2.5212     0.0896     0.0527  -999.2500
 1716.5000    11.6198   113.5467     2.5155     0.0853     0.0591  -999.2500
 1717.0000    11.6201   113.4077     2.5056     0.0810     0.0632  -999.2500
 1717.5000    11.6199   113.3027     2.4990     0.0767     0.0657  -999.2500
 1718.0000    11.6200   113.7480     2.4854     0.0709     0.0708  -999.2500
 1718.5000    11.6200   115.7635     2.5298     0.0741     0.0842  -999.2500
 1719.0000    11.6200   118.3138     2.5187     0.0861     0.0609  -999.2500
 1719.5000    11.6200   121.3109     2.5104     0.0854     0.0446  -999.2500
 1720.0000    11.6200   121.0849     2.4934     0.0847     0.0336  -999.2500
 1720.5000    11.6200   119.4595     2.5256     0.0789     0.0607  -999.2500
 1721.0000    11.6200   117.8404     2.5340     0.0701     0.0937  -999.2500
 1721.5000    11.6199   117.9755     2.5441     0.0600     0.0820  -999.2500
 1722.0000    11.6200   121.1165     2.5344     0.0599     0.0692  -999.2500
 1722.5000    11.6200   124.0075     2.5186     0.0640     0.0557  -999.2500
 1723.0000    11.6198   122.4234     2.5337     0.0669     0.0661  -999.2500
 1723.5000    11.6203   120.3956     2.5450     0.0648     0.0813  -999.2500
 1724.0000    11.6203   118.2557     2.5474     0.0626     0.0956  -999.2500
 1724.5000    11.6432   117.7369     2.5592     0.0600     0.1125  -999.2500
 1725.0000    11.6711   118.2159     2.5781     0.0393     0.0948  -999.2500
 1725.5000    11.6983   119.7234     2.5496     0.0451     0.0856  -999.2500
 1726.0000    11.7025   121.0158     2.5418     0.0512     0.0835  -999.2500
 1726.5000    11.7089   122.3528     2.5593     0.0573     0.0769  -999.2500
 1727.0000    11.7138   122.3809     2.5526     0.0634     0.0627  -999.2500
 1727.5000    11.7193   122.5107     2.5429     0.0695     0.0604  -999.2500
 1728.0000    11.7247   122.5217     2.5335     0.0721     0.0575  -999.2500
 1728.5000    11.7300   125.3116     2.5348     0.0689     0.0630  -999.2500
 1729.0000    11.7353   126.4846     2.5426     0.0679     0.0745  -999.2500
 1729.5000    11.7407   129.5055     2.5477     0.0706     0.0732  -999.2500
 1730.0000    11.7460   127.7653     2.5407     0.0732     0.0621  -999.2500
 1730.5000    11.7513   125.3655     2.5270     0.0759     0.0542  -999.2500
 1731.0000    11.7569   122.8654     2.5225     0.0762     0.0535  -999.2500
 1731.5000    11.7619   124.0371     2.5261     0.0758     0.0524  -999.2500
 1732.0000    11.7674   125.2488     2.5254     0.0754     0.0516  -999.2500
 1732.5000    11.7740   131.4154     2.5264     0.0750     0.0507  -999.2500
 1733.0000    11.7750   135.9205     2.5281     0.0749     0.0499  -999.2500
 1733.5000    11.8147   138.1361     2.5299     0.0753     0.0490  -999.2500
 1734.0000    11.8819   138.4895     2.5310     0.0757     0.0481  -999.2500
 1734.5000    11.8891   138.7932     2.5308     0.0781     0.0473  -999.2500
 1735.0000    11.8626   139.3851     2.5305     0.0805     0.0461  -999.2500
 1735.5000    11.8417   140.2422     2.5185     0.0827     0.0490  -999.2500
