~VERSION INFORMATION
 VERS.                2.0:   CWLS LOG ASCII STANDARD - VERSION 2.0
 WRAP.                 NO:   ONE LINE PER DEPTH STEP
~WELL INFORMATION
#MNEM.UNIT      DATA TYPE    INFORMATION
#----------   ------------   ------------------------------
 STRT.F         1420.5000:   START DEPTH
 STOP.F         2187.0000:   STOP DEPTH
 STEP.F            0.5000:   STEP LENGTH
 NULL.          -999.2500:   NO VALUE
 COMP. LAWRENCE/ALLISON INC:   COMPANY
 WELL.      22-2 STX #3-3:   WELL
 FLD .            WILDCAT:   FIELD
 LOC .       S3 T38N R78W:   LOCATION
 CNTY.            NATRONA:   COUNTY
 STAT.            WYOMING:   STATE
 CTRY. UNITED STATES OF AMERICA:   COUNTRY
 SRVC.            Unknown:   SERVICE COMPANY
 DATE.        10-JUN-1991:   LOGDATE
 API .       490251103400:   API NUMBER
~CURVE INFORMATION
#MNEM.UNIT       API CODE    CURVE DESCRIPTION
#----------   ------------   ------------------------------
 DEPT.F                  :   
 ROP .MIN/FT 91 810 01 00:   RATE OF DRILLING PENETRATION
 TGAS.UNITS  91 830 01 00:   TOTAL GAS
~PARAMETER INFORMATION
#MNEM.UNIT          VALUE    DESCRIPTION
#----------   ------------   ------------------------------
 EKB .F              5218:   KELLING BUSHING
 EGL .F              5208:   GROUND LEVEL
 DATE.            6-10-91:   RUN DATE
 BLI .F              2187:   BOTTOM LOG INTERVAL
 TLI .F              1420:   TOP LOG INTERVAL
 CS  .IN            8.625:   CASING SIZE
 CBD .F               562:   CASING BOTTOM DRILLER
 TLAB.HRS            0030:   TIME LOGGER AT BOTTOM
 ENGI.              TOWER:   RECORDING ENGINEER
 WITN.               HUSK:   WITNESSED BY
 CLNT.            A2DTECH:   CLIENT CODE
 ORIG.           5" PRINT:   ORIGIN OF DATA
 UWI .       490251103400:   UNIQUE WELL ID
 DICO. A2D Technologies, Inc.:   DIGITIZING COMPANY
~OTHER INFORMATION
~A  DEPT         ROP      TGAS  
 1420.5000     1.3601   135.0132
 1421.0000     1.2437   136.8307
 1421.5000     1.1482   137.8125
 1422.0000     1.0540   138.8207
 1422.5000     0.9849   138.7677
 1423.0000     0.9236   139.7782
 1423.5000     0.8762   139.7180
 1424.0000     0.8658   140.3064
 1424.5000     0.8660   139.6167
 1425.0000     0.8783   139.5637
 1425.5000     0.8977   139.5072
 1426.0000     0.9188   139.4470
 1426.5000     0.9145   139.4045
 1427.0000     0.8683   139.3514
 1427.5000     0.7724   139.2965
 1428.0000     0.6573   139.2362
 1428.5000     0.5872   139.6832
 1429.0000     0.5157   139.1392
 1429.5000     0.4690   140.1470
 1430.0000     0.4481   140.0868
 1430.5000     0.4887   139.4971
 1431.0000     0.5523   137.2819
 1431.5000     0.6477   133.4869
 1432.0000     0.6898   129.2628
 1432.5000     0.6899   123.7764
 1433.0000     0.6900   118.5760
 1433.5000     0.6901   111.7577
 1434.0000     0.6903   103.5804
 1434.5000     0.6811    97.7473
 1435.0000     0.6591    90.2120
 1435.5000     0.6592    82.6761
 1436.0000     0.6908    74.7140
 1436.5000     0.7271    69.3472
 1437.0000     0.7687    65.2184
 1437.5000     0.7960    60.5616
 1438.0000     0.7647    58.5834
 1438.5000     0.7237    56.4005
 1439.0000     0.6678    55.2948
 1439.5000     0.5554    54.1804
 1440.0000     0.4403    53.0660
 1440.5000     0.4404    51.9445
 1441.0000     0.4706    50.2801
 1441.5000     0.5664    48.3565
 1442.0000     0.6609    47.4942
 1442.5000     0.6875    45.3658
 1443.0000     0.6588    43.6470
 1443.5000     0.6508    42.7843
 1444.0000     0.6405    39.7997
 1444.5000     0.6406    37.7258
 1445.0000     0.6561    34.8909
 1445.5000     0.6933    32.5565
 1446.0000     0.7249    29.9822
 1446.5000     0.7355    26.9018
 1447.0000     0.7016    23.6577
 1447.5000     0.6623    22.0886
 1448.0000     0.6415    19.1041
 1448.5000     0.6207    17.1392
 1449.0000     0.6208    12.8337
 1449.5000     0.6209    12.7889
 1450.0000     0.6316    11.4092
 1450.5000     0.6474    10.5464
 1451.0000     0.6686     8.3777
 1451.5000     0.6949     8.3314
 1452.0000     0.7160     7.9599
 1452.5000     0.7319     6.1026
 1453.0000     0.7426     4.9829
 1453.5000     0.7687     4.3118
 1454.0000     0.7794     3.8208
 1454.5000     0.7795     3.7677
 1455.0000     0.7796     3.7109
 1455.5000     0.7797     3.6616
 1456.0000     0.7799     3.6085
 1456.5000     0.7905     3.7280
 1457.0000     0.7801     4.5637
 1457.5000     0.7587     5.5719
 1458.0000     0.6966     6.5802
 1458.5000     0.6911     6.5271
 1459.0000     0.6624     6.4733
 1459.5000     0.6550     6.4131
 1460.0000     0.6552     6.3679
 1460.5000     0.6504     6.3149
 1461.0000     0.6615     6.2625
 1461.5000     0.7092     7.2701
 1462.0000     0.7815     7.2170
 1462.5000     0.8244     7.1639
 1463.0000     0.8687     8.1744
 1463.5000     0.9076     8.1142
 1464.0000     0.9183     9.1274
 1464.5000     0.9184     9.4588
 1465.0000     0.9153    10.0863
 1465.5000     0.9081    10.0261
 1466.0000     0.9083     9.9659
 1466.5000     0.9084     9.9233
 1467.0000     0.9085     9.6848
 1467.5000     0.9093     8.7540
 1468.0000     0.9298     8.6938
 1468.5000     0.9463     7.5884
 1469.0000     0.9510     7.2965
 1469.5000     0.9406     6.4206
 1470.0000     0.9408     6.3604
 1470.5000     0.9289     5.2535
 1471.0000     0.8716     5.2005
 1471.5000     0.8017     5.1077
 1472.0000     0.7212     4.0270
 1472.5000     0.6821     3.9800
 1473.0000     0.6585     2.8656
 1473.5000     0.6587     2.8125
 1474.0000     0.6588     2.7549
 1474.5000     0.6694     2.7064
 1475.0000     0.6731     2.6533
 1475.5000     0.6916     2.4542
 1476.0000     0.7013     1.4828
 1476.5000     0.7014     1.4226
 1477.0000     0.6870     1.3797
 1477.5000     0.5853     1.3267
 1478.0000     0.5655     1.2721
 1478.5000     0.6308     1.2119
 1479.0000     0.7169     1.1675
 1479.5000     0.7778     0.0531
 1480.0000     0.8281     0.0000
 1480.5000     0.7390     0.0000
 1481.0000     0.6821     0.0000
 1481.5000     0.6407     0.0000
 1482.0000     0.6305     0.0000
 1482.5000     0.6185     0.0000
 1483.0000     0.6103     0.0000
 1483.5000     0.6002     0.0000
 1484.0000     0.6006     0.0000
 1484.5000     0.6010     0.0000
 1485.0000     0.6014     0.0000
 1485.5000     0.6019     0.0000
 1486.0000     0.6022     0.0000
 1486.5000     0.6026     0.0000
 1487.0000     0.6030     0.0000
 1487.5000     0.6035     0.0000
 1488.0000     0.6038     0.0000
 1488.5000     0.6165     0.0000
 1489.0000     0.6360     0.0000
 1489.5000     0.6574     0.0000
 1490.0000     0.6772     0.0000
 1490.5000     0.7229     0.0000
 1491.0000     0.7634     0.0000
 1491.5000     0.7743     0.0000
 1492.0000     0.7746     0.0000
 1492.5000     0.7750     0.0000
 1493.0000     0.7754     0.0000
 1493.5000     0.7759     0.0000
 1494.0000     0.7762     0.0000
 1494.5000     0.7661     0.0000
 1495.0000     0.7665     0.0000
 1495.5000     0.7564     0.0000
 1496.0000     0.7568     0.0000
 1496.5000     0.7610     0.0000
 1497.0000     0.7786     0.0000
 1497.5000     0.8210     0.0000
 1498.0000     0.8407     0.0000
 1498.5000     0.8673     0.0000
 1499.0000     0.9059     0.0000
 1499.5000     0.9064     0.0000
 1500.0000     0.9172     0.0000
 1500.5000     0.9280     0.0000
 1501.0000     0.9180     0.0000
 1501.5000     0.9079     0.0000
 1502.0000     0.8843     0.0000
 1502.5000     0.8525     0.0000
 1503.0000     0.8252     0.0000
 1503.5000     0.7837     0.0000
 1504.0000     0.7646     0.0000
 1504.5000     0.7425     0.0000
 1505.0000     0.7325     0.0000
 1505.5000     0.7015     0.0000
 1506.0000     0.7018     0.0000
 1506.5000     0.6917     0.0000
 1507.0000     0.6921     0.0000
 1507.5000     0.6926     0.0000
 1508.0000     0.6974     0.0000
 1508.5000     0.7037     0.0000
 1509.0000     0.7042     0.0000
 1509.5000     0.7256     0.0000
 1510.0000     0.7409     0.0000
 1510.5000     0.7491     0.0000
 1511.0000     0.7686     0.0000
 1511.5000     0.7900     0.0000
 1512.0000     0.8053     0.0000
 1512.5000     0.8327     0.0000
 1513.0000     0.8436     0.0000
 1513.5000     0.8755     0.0000
 1514.0000     0.8908     0.0000
 1514.5000     0.9095     0.0000
 1515.0000     0.9290     0.0000
 1515.5000     0.9609     0.0000
 1516.0000     0.9657     0.0000
 1516.5000     0.9721     0.0000
 1517.0000     0.9725     0.0000
 1517.5000     0.9729     0.0000
 1518.0000     0.9733     0.0000
 1518.5000     0.9737     0.0000
 1519.0000     0.9741     0.0000
 1519.5000     0.9745     0.0000
 1520.0000     0.9852     0.0130
 1520.5000     0.9952     0.0000
 1521.0000     0.9943     0.0000
 1521.5000     1.0039     0.0000
 1522.0000     1.0031     0.0000
 1522.5000     1.0128     0.0000
 1523.0000     1.0121     0.0000
 1523.5000     1.0112     0.0000
 1524.0000     0.9698     0.0000
 1524.5000     0.9347     0.0000
 1525.0000     0.9131     0.0000
 1525.5000     0.9033     0.0000
 1526.0000     0.9024     0.0000
 1526.5000     0.8912     0.0000
 1527.0000     0.8923     0.0000
 1527.5000     0.9002     0.0000
 1528.0000     0.8992     0.0000
 1528.5000     0.8986     0.0000
 1529.0000     0.8978     0.0000
 1529.5000     0.8970     0.0000
 1530.0000     0.9171     0.0000
 1530.5000     0.9318     0.0000
 1531.0000     0.9599     0.0000
 1531.5000     0.9777     0.0000
 1532.0000     0.9873     0.0000
 1532.5000     0.9919     0.0000
 1533.0000     1.0069     0.0000
 1533.5000     1.0165     0.0000
 1534.0000     1.0156     0.0000
 1534.5000     1.0149     0.0000
 1535.0000     1.0171     0.0000
 1535.5000     1.0239     0.0000
 1536.0000     1.0335     0.0000
 1536.5000     1.0223     0.0000
 1537.0000     1.0182     0.0000
 1537.5000     0.9975     0.0000
 1538.0000     0.9360     0.0000
 1538.5000     0.8959     0.0000
 1539.0000     0.8294     0.0000
 1539.5000     0.7744     0.0000
 1540.0000     0.7442     0.0000
 1540.5000     0.7160     0.0000
 1541.0000     0.7073     0.0000
 1541.5000     0.6999     0.0000
