~VERSION INFORMATION
 VERS.                2.0:   CWLS LOG ASCII STANDARD - VERSION 2.0
 WRAP.                 NO:   ONE LINE PER DEPTH STEP
~WELL INFORMATION
#MNEM.UNIT      DATA TYPE    INFORMATION
#----------   ------------   ------------------------------
 STRT.F          534.0000:   START DEPTH
 STOP.F         1820.0000:   STOP DEPTH
 STEP.F            0.5000:   STEP LENGTH
 NULL.          -999.2500:   NO VALUE
 COMP.   FLUOR DANIEL INC:   COMPANY
 WELL. NAVAL PETROLEUM RESERVE 3 X-29 #45-29:   WELL
 FLD .             TEAPOT:   FIELD
 LOC .      S29 T39N R78W:   LOCATION
 CNTY.            NATRONA:   COUNTY
 STAT.            WYOMING:   STATE
 CTRY. UNITED STATES OF AMERICA:   COUNTRY
 SRVC.            Unknown:   SERVICE COMPANY
 DATE.        30-SEP-1994:   LOGDATE
 API .       490252265100:   API NUMBER
~CURVE INFORMATION
#MNEM.UNIT       API CODE    CURVE DESCRIPTION
#----------   ------------   ------------------------------
 DEPT.F                  :   
 ROP .FT/HR  91 810 01 00:   RAT OF DRILLING PENETRATION
 TGAS.TC/CC  91 830 01 00:   TOTAL GAS UNIT
~PARAMETER INFORMATION
#MNEM.UNIT          VALUE    DESCRIPTION
#----------   ------------   ------------------------------
 EKB .F              5023:   KELLING BUSHING
 EGL .F              5013:   GROUND LEVEL
 DATE.        30-SEP-1994:   RUN DATE
 RUN .                  1:   RUN NUMBER
 BLI .F              1820:   BOTTOM LOG INTERVAL
 TLI .F               540:   TOP LOG INTERVAL
 WITN.     C.TOWER/R.HUSK:   WITNESSED BY
 CLNT.            A2DTECH:   CLIENT CODE
 ORIG.           5" PRINT:   ORIGIN OF DATA
 UWI .       490252265100:   UNIQUE WELL ID
 DICO. A2D Technologies, Inc.:   DIGITIZING COMPANY
~OTHER INFORMATION
~A   DEPT        ROP       TGAS 
  534.0000     0.5728     2.2949
  534.5000     0.5723     2.3216
  535.0000     0.5624     2.1267
  535.5000     0.5619     2.1221
  536.0000     0.5709     1.9284
  536.5000     0.5703     1.9238
  537.0000     0.5699     1.9191
  537.5000     0.5694     1.9144
  538.0000     0.5690     1.9097
  538.5000     0.5685     1.9049
  539.0000     0.5680     1.9002
  539.5000     0.5676     1.8955
  540.0000     0.5671     1.8908
  540.5000     0.5666     1.8860
  541.0000     0.5661     1.8813
  541.5000     0.5656     1.8766
  542.0000     0.5651     1.8718
  542.5000     0.5647     1.8671
  543.0000     0.5642     1.8624
  543.5000     0.5638     1.8577
  544.0000     0.5633     1.8529
  544.5000     0.5628     1.8482
  545.0000     0.5624     1.8435
  545.5000     0.5619     1.8388
  546.0000     0.5614     1.8340
  546.5000     0.5609     1.8293
  547.0000     0.5604     1.8246
  547.5000     0.5600     1.8199
  548.0000     0.5595     1.8151
  548.5000     0.5590     1.8104
  549.0000     0.5586     1.8057
  549.5000     0.5581     1.8009
  550.0000     0.5576     1.7962
  550.5000     0.5572     1.7915
  551.0000     0.5567     1.7868
  551.5000     0.5562     1.7820
  552.0000     0.5557     1.7773
  552.5000     0.5552     1.7726
  553.0000     0.5548     1.7679
  553.5000     0.5543     1.7631
  554.0000     0.5538     1.7584
  554.5000     0.5534     1.9426
  555.0000     0.5435     1.9380
  555.5000     0.5430     1.7442
  556.0000     0.5425     1.7386
  556.5000     0.5325     1.7340
  557.0000     0.5321     1.7294
  557.5000     0.5412     1.7247
  558.0000     0.5406     1.7201
  558.5000     0.5401     1.7155
  559.0000     0.5397     1.7109
  559.5000     0.5297     1.7063
  560.0000     0.5293     1.7017
  560.5000     0.5383     1.6970
  561.0000     0.5378     1.6913
  561.5000     0.5372     1.6867
  562.0000     0.5368     1.6821
  562.5000     0.5459     1.6809
  563.0000     0.5454     1.6796
  563.5000     0.5448     1.6783
  564.0000     0.5444     1.6769
  564.5000     0.5535     1.6756
  565.0000     0.5529     1.6743
  565.5000     0.5525     1.6729
  566.0000     0.5425     1.6716
  566.5000     0.5421     1.6702
  567.0000     0.5415     1.6689
  567.5000     0.5410     1.6676
  568.0000     0.5406     1.6662
  568.5000     0.5401     1.6649
  569.0000     0.5397     1.6636
  569.5000     0.5392     1.6622
  570.0000     0.5482     1.6609
  570.5000     0.8124     1.6596
  571.0000     0.8214     1.6582
  571.5000     0.8221     1.6569
  572.0000     0.8203     1.6555
  572.5000     0.8010     1.6542
  573.0000     0.7910     1.6529
  573.5000     0.7811     1.6515
  574.0000     0.7807     1.6502
  574.5000     0.7802     1.6489
  575.0000     0.7798     1.6475
  575.5000     0.7793     1.6462
  576.0000     0.7788     1.6448
  576.5000     1.0241     1.6435
  577.0000     1.0235     1.6422
  577.5000     1.0231     1.6408
  578.0000     1.0226     1.6395
  578.5000     1.0222     1.6382
  579.0000     1.0217     1.6368
  579.5000     1.0212     1.6355
  580.0000     1.0208     1.6342
  580.5000     1.0203     1.6328
  581.0000     1.0198     1.6315
  581.5000     1.0194     1.6301
  582.0000     1.0189     1.6288
  582.5000     1.0279     1.6275
  583.0000     1.0273     1.6261
  583.5000     1.0269     1.6248
  584.0000     1.0359     1.6235
  584.5000     0.7802     1.6221
  585.0000     0.7893     1.6208
  585.5000     0.7887     1.6194
  586.0000     0.7883     1.6181
  586.5000     0.5043     1.6168
  587.0000     0.5132     1.6154
  587.5000     0.5222     1.6141
  588.0000     0.5217     1.6128
  588.5000     0.5212     1.6114
  589.0000     0.5207     1.6101
  589.5000     0.5298     1.6088
  590.0000     0.5293     1.6064
  590.5000     0.5194     1.6018
  591.0000     0.5189     1.5972
  591.5000     0.5279     1.5925
  592.0000     0.5274     1.5879
  592.5000     0.5364     1.5833
  593.0000     0.5358     1.5914
  593.5000     0.5354     1.5741
  594.0000     0.5349     1.5693
  594.5000     0.5440     1.5646
  595.0000     0.5529     1.5599
  595.5000     0.5524     1.5551
  596.0000     0.5520     1.5504
  596.5000     0.5515     1.5457
  597.0000     0.5605     1.5410
  597.5000     0.5599     1.5362
  598.0000     0.5595     1.5315
  598.5000     0.5495     1.5268
  599.0000     0.5491     1.5221
  599.5000     0.5486     1.5173
  600.0000     0.5460     1.5126
  600.5000     0.5455     1.5079
  601.0000     0.5545     1.5032
  601.5000     0.5633     1.4984
  602.0000     0.5627     1.4937
  602.5000     0.5621     1.6782
  603.0000     0.5616     1.4834
  603.5000     0.5610     1.4788
  604.0000     0.5605     1.6644
  604.5000     0.5599     1.4696
  605.0000     0.5593     1.6552
  605.5000     0.5588     1.6494
  606.0000     0.5582     1.8339
  606.5000     0.5576     2.0183
  607.0000     0.5571     2.2153
  607.5000     0.5565     2.3873
  608.0000     0.5559     2.3815
  608.5000     0.5554     2.1878
  609.0000     0.5548     2.1832
  609.5000     0.5542     2.1786
  610.0000     0.5537     2.1740
  610.5000     0.5531     2.3596
  611.0000     0.5525     2.3538
  611.5000     0.5520     2.3492
  612.0000     0.5514     2.1555
  612.5000     0.5508     2.1507
  613.0000     0.5503     2.1452
  613.5000     0.5497     1.5733
  614.0000     0.5492     1.3796
  614.5000     0.5486     1.5653
  615.0000     0.5480     1.5595
  615.5000     0.5475     1.5549
  616.0000     0.5469     1.5503
  616.5000     0.5463     1.3566
  617.0000     0.5458     1.3519
  617.5000     0.5452     1.3787
  618.0000     0.5446     1.5318
  618.5000     0.5441     1.5261
  619.0000     0.5435     1.5214
  619.5000     0.5429     1.3278
  620.0000     0.5424     1.3231
  620.5000     0.5418     1.3185
  621.0000     0.5412     1.1248
  621.5000     0.5407     1.1202
  622.0000     0.5401     1.1155
  622.5000     0.5395     1.1108
  623.0000     0.5390     1.1052
  623.5000     0.5384     1.1006
  624.0000     0.5379     1.0960
  624.5000     0.5372     1.2805
  625.0000     0.5367     1.2759
  625.5000     0.5549     1.2713
  626.0000     0.5544     1.2667
  626.5000     0.5633     1.0730
  627.0000     0.5627     1.0683
  627.5000     0.5716     1.0636
  628.0000     0.5709     1.0580
  628.5000     0.5892     1.0534
  629.0000     0.5886     0.8597
  629.5000     0.5881     0.8551
  630.0000     0.5875     0.8505
  630.5000     0.5870     1.0361
  631.0000     0.5864     1.0303
  631.5000     0.5858     1.0257
  632.0000     0.5852     1.0210
  632.5000     0.5843     1.0163
  633.0000     0.5833     1.0107
  633.5000     0.5822     1.0061
  634.0000     0.5812     1.0015
  634.5000     0.5801     0.9969
  635.0000     0.5791     0.9923
  635.5000     0.5780     0.9877
  636.0000     0.5770     0.9830
  636.5000     0.5759     0.9784
  637.0000     0.5749     0.9737
  637.5000     0.5738     0.9690
  638.0000     0.5728     0.9634
  638.5000     0.5717     0.9588
  639.0000     0.5707     0.9542
  639.5000     0.5696     1.1398
  640.0000     0.5686     1.1341
  640.5000     0.5675     1.3185
  641.0000     0.5665     1.3139
  641.5000     0.5654     1.3093
  642.0000     0.5646     1.3046
  642.5000     0.5640     1.1108
  643.0000     0.5634     1.2955
  643.5000     0.5724     1.6690
  644.0000     0.5717     2.0426
  644.5000     0.5711     2.0368
  645.0000     0.5800     2.2224
  645.5000     0.5794     2.0276
  646.0000     0.5789     2.0230
  646.5000     0.5783     2.0183
  647.0000     0.5683     2.0011
  647.5000     0.5677     1.8199
  648.0000     0.5672     1.8143
  648.5000     0.5666     1.8097
  649.0000     0.5566     1.6160
  649.5000     0.5655     1.6114
  650.0000     0.5650     1.6068
  650.5000     0.5738     1.7924
  651.0000     0.5732     1.7866
  651.5000     0.5632     1.9711
  652.0000     0.5626     1.7774
  652.5000     0.5621     1.9619
  653.0000     0.5616     1.7670
  653.5000     0.5610     1.7624
  654.0000     0.5699     1.7578
  654.5000     0.5599     1.7532
  655.0000     0.5593     1.7486
