~VERSION INFORMATION
 VERS.                2.0:   CWLS LOG ASCII STANDARD - VERSION 2.0
 WRAP.                 NO:   ONE LINE PER DEPTH STEP
~WELL INFORMATION
#MNEM.UNIT      DATA TYPE    INFORMATION
#----------   ------------   ------------------------------
 STRT.F           30.0000:   START DEPTH
 STOP.F          733.0000:   STOP DEPTH
 STEP.F            0.5000:   STEP LENGTH
 NULL.          -999.2500:   NO VALUE
 COMP. FENIX & SCISSON INC:   COMPANY
 WELL.    NPR-3 #51 S -34:   WELL
 FLD .             TEAPOT:   FIELD
 LOC .      S34 T39N R78W:   LOCATION
 CNTY.            NATRONA:   COUNTY
 STAT.            WYOMING:   STATE
 CTRY. UNITED STATES OF AMERICA:   COUNTRY
 SRVC.      Dresser Atlas:   SERVICE COMPANY
 DATE.        20-MAR-1977:   LOGDATE
 API .       490251031600:   API NUMBER
~CURVE INFORMATION
#MNEM.UNIT       API CODE    CURVE DESCRIPTION
#----------   ------------   ------------------------------
 DEPT.F                  :   
 CALD.IN     45 280 60 00:   CALIPER FROM DENSITY LOG
 GRD .GAPI   45 310 01 00:   GAMMA RAY FROM DENSITY LOG
 CORR.G/C3   45 356 01 00:   DENSITY CORRECTION
 DPHI.DEC    45 890 12 00:   DENSITY POROSITY SANDSTONE
 RHOB.G/C3   45 350 01 00:   BULK DENSITY
 SPR .MV     07 010 01 00:   SPONTANEOUS POTENTIAL
 ILD .OHMM   07 120 46 00:   INDUCTION LOG DEEP
 ILM .OHMM   07 120 44 00:   INDUCTION LOG MEDIUM
 SFL .OHMM   07 220 01 00:   SHALLOW FOCUSED LOG RESISTIVITY
~PARAMETER INFORMATION
#MNEM.UNIT          VALUE    DESCRIPTION
#----------   ------------   ------------------------------
 PD  .                 GL:   PERMANENT DATUM
 EPD .F              5065:   ELEVATION PERMANENT DATUM
 LMF .                 KB:   LOG MEASURED FROM
 DAPD.F                 4:   FEET ABOVE PERMANENT DATUM
 DMF .                 KB:   DRILLING MEASURED FROM
 EKB .F              5069:   KELLING BUSHING
 EGL .F              5065:   GROUND LEVEL
 DATE.        20-MAR-1977:   RUN DATE
 RUN .                  1:   RUN NUMBER
 DD  .F               735:   DEPTH DRILLER
 DL  .F               731:   DEPTH LOGGER
 BLI .F               729:   BOTTOM LOG INTERVAL
 TLI .F                42:   TOP LOG INTERVAL
 CS  .IN            8.625:   CASING SIZE
 CBD .F                40:   CASING BOTTOM DRILLER
 CBL .F                42:   CASING BOTTOM LOGGER
 BS  .IN            7.875:   BIT SIZE
 BSD .F               735:   BIT SIZE AT DEPTH
 DFT .           CHEM GEL:   DRILLING FLUID TYPE
 DFD .                9.0:   DRILLING FLUID DENSITY
 DFV .                 38:   DRILLING FLUID VISCOSITY
 DFPH.                8.5:   DRILLING FLUID PH
 DFL .                 72:   DRILLING FLUID LOSS
 MSS .           FLOWLINE:   MUD SAMPLE SOURCE
 RMS .OHMM             .4:   RESISTIVITY MUD SAMPLE
 MST .F                51:   MUD SAMPLE TEMPERATURE
 RMF .OHMM            .72:   RESISTIVITY MUD FILTRATE SAMPLE
 MFST.F                48:   MUD FILTRATE SAMPLE TEMPERATURE
 RMC .OHMM           1.16:   RESISTIVITY MUD CAKE
 MCST.F                48:   MUD CAKE SAMPLE TEMPERATURE
 MFSS.               MEAS:   MUD FILTRATE SAMPLE SOURCE
 MCSS.               MEAS:   MUD CAKE SAMPLE SOURCE
 RMB .OHMM            .31:   RESISTIVITY MUD AT BHT
 BHT .F                66:   BOTTOM HOLE TEMPERATURE
 TCS .HRS            0300:   TIME CURCULATED STOPPED
 MRT .F                66:   MAXIMUM RECORDED TEMPERATURE
 LUN .               6145:   LOGGING UNIT NUMBER
 LUL .              GLTTE:   LOGGING UNIT LOCATION
 ENGI.              RANCK:   RECORDING ENGINEER
 WITN.              BURKE:   WITNESSED BY
 CLNT.            A2DTECH:   CLIENT CODE
 ORIG.           5" PRINT:   ORIGIN OF DATA
 UWI .       490251031600:   UNIQUE WELL ID
 DICO. A2D Technologies, Inc.:   DIGITIZING COMPANY
~OTHER INFORMATION
~A   DEPT     CALD        GRD       CORR       DPHI       RHOB        SPR        ILD        ILM        SFL   
# ...
  614.0000     7.8561    71.8476     0.0035     0.1673     2.3661   -42.3744    14.3230    16.6491    19.9855
  614.5000     7.8141    73.3535     0.0083     0.1640     2.3767   -42.6564    14.2301    16.5443    20.5248
  615.0000     7.8008    70.3863     0.0175     0.1597     2.3806   -42.7893    14.2400    16.5548    18.8616
  615.5000     7.7731    73.6922     0.0192     0.1606     2.3822   -42.9221    14.1477    16.5651    16.9210
  616.0000     7.7460    73.8548     0.0208     0.1570     2.3800   -43.0590    14.0599    16.6907    17.0553
  616.5000     7.7184    73.7234     0.0210     0.1495     2.3703   -43.3370    13.9707    16.8171    18.6619
  617.0000     7.7206    73.4472     0.0212     0.1419     2.3839   -43.3206    13.8801    16.9446    19.7304
  617.5000     7.7378    73.3113     0.0214     0.1368     2.4035   -43.3041    13.7920    17.3111    19.3328
  618.0000     7.7550    73.1844     0.0216     0.1320     2.4216   -43.2877    13.8016    17.6856    18.5537
  618.5000     7.7721    73.9485     0.0265     0.1308     2.4276   -43.2713    13.7121    17.8197    18.0544
  619.0000     7.8192    76.5037     0.0310     0.1355     2.4225   -43.1056    13.7217    17.7075    17.8135
  619.5000     7.8663    78.7604     0.0312     0.1397     2.4143   -43.0891    13.7293    17.3546    17.8209
  620.0000     7.9283    80.5692     0.0283     0.1418     2.4032   -42.7742    13.7369    17.3654    17.9522
  620.5000     7.9754    79.8408     0.0225     0.1424     2.3935   -42.7578    13.7445    17.2560    18.3368
  621.0000     8.0225    77.0229     0.0211     0.1393     2.3853   -42.5921    13.7522    16.9122    18.6003
  621.5000     8.0247    76.2944     0.0259     0.1348     2.4012   -42.4264    13.7598    16.6900    18.7373
  622.0000     8.0419    74.6705     0.0306     0.1312     2.4117   -42.2607    13.6725    16.4682    18.6139
  622.5000     8.0441    71.4003     0.0322     0.1288     2.4231   -42.2443    13.6801    16.4811    18.4931
  623.0000     8.0314    80.2286     0.0339     0.1255     2.4299   -42.2278    13.6877    16.3750    18.7608
  623.5000     8.0187    82.3360     0.0356     0.1230     2.4375   -42.2114    13.6937    15.7209    19.1627
  624.0000     8.0060    81.7568     0.0358     0.1224     2.4421   -42.3484    13.7013    15.5144    19.5731
  624.5000     8.0084    78.3418     0.0360     0.1260     2.4384   -42.4812    13.7089    15.5241    19.7174
  625.0000     7.9955    76.5686     0.0346     0.1281     2.4287   -42.6140    13.7165    15.6418    19.1867
  625.5000     7.9978    75.8402     0.0348     0.1286     2.4296   -42.5935    13.5352    15.7603    18.5415
  626.0000     8.0000    73.4700     0.0335     0.1280     2.4349   -42.5770    13.4493    15.9901    18.9386
  626.5000     7.9873    75.7267     0.0322     0.1253     2.4387   -42.7098    13.4570    16.1114    19.7503
  627.0000     7.9895    74.8490     0.0308     0.1256     2.4373   -42.8468    13.3714    16.1214    18.9544
  627.5000     7.9918    77.1057     0.0280     0.1300     2.4134   -42.9796    13.2865    16.0177    15.2972
  628.0000     7.9940    77.4220     0.0282     0.1357     2.3970   -43.4068    13.1112    15.8098    17.2174
  628.5000     7.9813    77.5891     0.0206     0.1381     2.3978   -43.6889    13.0280    15.2813    17.1057
  629.0000     7.9836    77.9055     0.0271     0.1272     2.4286   -44.1202    12.9454    14.7705    16.7610
  629.5000     7.9858    78.3666     0.0333     0.1233     2.4422   -44.2572    12.8565    14.0804    16.6506
  630.0000     8.0030    75.5531     0.0335     0.1237     2.4453   -44.3900    12.7816    13.3299    17.3660
  630.5000     8.0052    76.3172     0.0261     0.1371     2.4250   -44.2202    12.6129    13.3382    17.7362
  631.0000     7.9924    77.6559     0.0127     0.1447     2.3960   -44.2038    12.5290    13.4393    16.3304
  631.5000     7.9949    77.6947    -0.0006     0.1524     2.3886   -44.1873    12.3675    13.7300    16.1108
  632.0000     7.9971    78.2726    -0.0035     0.1533     2.3909   -44.4735    12.2021    14.0271    15.6788
  632.5000     7.9997    79.8245    -0.0048     0.1487     2.3977   -44.7515    12.0432    14.3305    15.2568
  633.0000     8.0019    77.0065    -0.0046     0.1454     2.4038   -45.0377    11.8024    14.4391    14.6420
  633.5000     8.0042    74.0393    -0.0044     0.1442     2.4076   -45.4649    11.5663    14.4482    14.2479
  634.0000     7.9915    73.3109    -0.0058     0.1435     2.4107   -45.9003    11.2568    14.0622    13.7688
  634.5000     7.9937    74.5227    -0.0056     0.1412     2.4153   -46.3316    10.9555    13.4052    13.0322
  635.0000     7.9804    78.0198    -0.0069     0.1307     2.4244   -46.9081    10.5888    12.6907    12.6801
  635.5000     7.9832    81.5734    -0.0067     0.1245     2.4350   -47.1902    10.3055    12.3498    12.5979
  636.0000     7.9854    81.8897    -0.0051     0.1204     2.4493   -47.6215    10.0994    12.1895    12.6044
  636.5000     7.9877    82.5001    -0.0049     0.1161     2.4584   -47.9036     9.9661    12.2819    12.6097
  637.0000     7.9744    79.8359    -0.0017     0.1131     2.4652   -48.0405     9.9716    12.3734    12.6139
  637.5000     7.9772    77.0179    -0.0015     0.1122     2.4698   -48.1692     9.8399    12.4671    12.6191
  638.0000     7.9794    83.3044    -0.0045     0.1163     2.4616   -48.3062     9.7775    12.4749    12.7121
  638.5000     7.9817    84.3488    -0.0072     0.1139     2.4572   -48.5882     9.7154    12.4827    12.8058
  639.0000     7.9839    84.9789    -0.0054     0.1094     2.4693   -48.8662     9.6539    12.6740    12.9898
  639.5000     7.9708    83.0248    -0.0008     0.1058     2.4761   -49.1524     9.7263    12.8571    12.9952
  640.0000     7.9734    80.5274     0.0009     0.1039     2.4830   -49.4304     9.7317    13.0366    13.0909
  640.5000     7.9757    79.7613     0.0026     0.1024     2.4891   -49.7124     9.8048    13.1354    13.0964
  641.0000     7.9779    77.4384     0.0058     0.1002     2.4944   -49.6960     9.8102    13.1436    13.1018
  641.5000     7.9801    81.0547     0.0105     0.0952     2.4997   -49.8329     9.8156    13.1518    13.1983
  642.0000     7.9824    81.9702     0.0152     0.0905     2.5036   -49.9658     9.8893    13.1600    13.2956
  642.5000     7.9846    81.7015     0.0169     0.0882     2.5059   -49.9452     9.8948    13.1683    13.3936
  643.0000     7.9868    79.0023     0.0171     0.0870     2.5082   -50.0781    10.0382    13.2681    13.4923
  643.5000     7.9891    78.8238     0.0142     0.0867     2.5098   -50.0616    10.1136    13.3687    13.6862
  644.0000     7.9764    77.1184     0.0114     0.0890     2.5114   -50.1985    10.1192    13.5636    13.8828
  644.5000     7.9786    80.1751     0.0071     0.0932     2.5025   -50.6258    10.1951    13.5721    13.8886
  645.0000     7.9810    83.7051    -0.0018     0.0944     2.4921   -50.7627    10.1290    13.6750    13.8944
  645.5000     7.9980    83.1259     0.0074     0.0863     2.5019   -51.1899    10.1360    13.5888    13.8043
  646.0000     7.9847    81.5020     0.0181     0.0838     2.5095   -51.3269    10.1417    13.4106    13.7145
  646.5000     7.9875    81.2168     0.0213     0.0841     2.5118   -51.6048    10.1473    13.2344    13.6258
  647.0000     7.9900    80.7869     0.0200     0.0853     2.5134   -51.8910    10.2234    13.1513    13.6315
  647.5000     7.9920    80.3615     0.0155     0.0856     2.5127   -52.0238    10.3717    13.0687    13.7320
  648.0000     7.9942    80.0764     0.0128     0.0825     2.5120   -52.4552    10.3774    12.8971    13.9293
  648.5000     7.9965    80.3972     0.0130     0.0816     2.5144   -52.7331    10.3832    12.7276    14.0319
  649.0000     7.9987    83.9971     0.0147     0.0831     2.5190   -53.0152    10.3889    12.4738    14.3325
  649.5000     8.0009    84.4583     0.0134     0.0849     2.5198   -52.9988    10.3230    12.2249    14.3385
  650.0000     8.0027    83.4608     0.0118     0.0818     2.5101   -52.8346    10.2561    12.1980    14.5110
