~VERSION INFORMATION
 VERS.                2.0:   CWLS LOG ASCII STANDARD - VERSION 2.0
 WRAP.                 NO:   ONE LINE PER DEPTH STEP
~WELL INFORMATION
#MNEM.UNIT      DATA TYPE    INFORMATION
#----------   ------------   ------------------------------
 STRT.F         1420.5000:   START DEPTH
 STOP.F         2350.5000:   STOP DEPTH
 STEP.F            0.5000:   STEP LENGTH
 NULL.          -999.2500:   NO VALUE
 COMP. BROWN JOHN E&C INC:   COMPANY
 WELL.   15 STX-14 #15-14:   WELL
 FLD .             TEAPOT:   FIELD
 LOC .      S14 T38N R78W:   LOCATION
 CNTY.            NATRONA:   COUNTY
 STAT.            WYOMING:   STATE
 CTRY. UNITED STATES OF AMERICA:   COUNTRY
 SRVC.            Unknown:   SERVICE COMPANY
 DATE.        02-JUN-1991:   LOGDATE
 API .       490251096000:   API NUMBER
~CURVE INFORMATION
#MNEM.UNIT       API CODE    CURVE DESCRIPTION
#----------   ------------   ------------------------------
 DEPT.F                  :   
 ROP .MIN/FT 91 810 01 00:   RATE OF DRILLING PENETRATION
 TGAS.UNITS  91 830 01 00:   TOTAL GAS
~PARAMETER INFORMATION
#MNEM.UNIT          VALUE    DESCRIPTION
#----------   ------------   ------------------------------
 EKB .F              5241:   KELLING BUSHING
 EGL .F              5231:   GROUND LEVEL
 DATE.             6-2-91:   RUN DATE
 DD  .F              2350:   DEPTH DRILLER
 BLI .F              2347:   BOTTOM LOG INTERVAL
 TLI .F              1420:   TOP LOG INTERVAL
 ENGI.              TOWER:   RECORDING ENGINEER
 CLNT.            A2DTECH:   CLIENT CODE
 ORIG.         2.5" PRINT:   ORIGIN OF DATA
 UWI .       490251096000:   UNIQUE WELL ID
 DICO. A2D Technologies, Inc.:   DIGITIZING COMPANY
~OTHER INFORMATION
~A  DEPT       ROP        TGAS  
# ...
 1785.0000     0.4284  2423.0645
 1785.5000     0.4703  2412.4895
 1786.0000     0.4991  2413.0544
 1786.5000     0.5180  2413.6194
 1787.0000     0.5370  2395.4592
 1787.5000     0.5372  2395.9741
 1788.0000     0.5188  2396.4888
 1788.5000     0.5003  2378.1750
 1789.0000     0.4817  2375.2410
 1789.5000     0.4581  2360.5229
 1790.0000     0.4354  2353.8701
 1790.5000     0.4263  2342.8240
 1791.0000     0.4265  2343.3892
 1791.5000     0.4235  2331.2302
 1792.0000     0.4082  2311.1304
 1792.5000     0.4085  2288.6648
 1793.0000     0.4087  2289.1794
 1793.5000     0.4277  2270.8657
 1794.0000     0.4335  2271.4644
 1794.5000     0.4665  2272.0293
 1795.0000     0.5033  2272.5942
 1795.5000     0.5784  2273.1589
 1796.0000     0.6199  2273.7239
 1796.5000     0.6350  2274.2886
 1797.0000     0.4855  2274.8535
 1797.5000     0.4108  2256.6694
 1798.0000     0.3736  2257.1841
 1798.5000     0.3986  2257.6987
 1799.0000     0.4302  2239.3848
 1799.5000     0.4680  2240.0208
 1800.0000     0.5056  2235.9319
 1800.5000     0.5051  2221.1738
 1801.0000     0.5047  2204.5315
 1801.5000     0.5042  2205.2180
 1802.0000     0.5411  2187.0764
 1802.5000     0.5595  2187.8660
 1803.0000     0.5777  2188.6191
 1803.5000     0.6156  2189.3723
 1804.0000     0.6517  2190.1255
 1804.5000     0.6578  2190.8787
 1805.0000     0.6882  2191.6318
 1805.5000     0.7065  2192.3848
 1806.0000     0.7247  2174.4287
 1806.5000     0.7242  2175.1155
 1807.0000     0.7257  2175.8022
 1807.5000     0.7421  2157.6606
 1808.0000     0.7416  2158.4937
 1808.5000     0.7411  2159.2468
 1809.0000     0.7406  2160.0000
 1809.5000     0.7401  2170.2305
 1810.0000     0.7397  2180.3347
 1810.5000     0.7392  2181.0879
 1811.0000     0.7388  2181.9829
 1811.5000     0.7383  2182.6697
 1812.0000     0.7190  2183.3564
 1812.5000     0.7186  2184.1003
 1813.0000     0.7181  2184.8535
 1813.5000     0.7168  2180.3979
 1814.0000     0.6723  2160.5010
 1814.5000     0.6353  2140.6064
 1815.0000     0.5946  2120.7117
 1815.5000     0.5659  2100.8152
 1816.0000     0.5655  2080.9185
 1816.5000     0.5651  2058.4248
 1817.0000     0.5665  2059.1116
 1817.5000     0.6063  2039.1189
 1818.0000     0.6273  2003.9998
 1818.5000     0.6671  2000.2712
 1819.0000     0.7125  1980.3760
 1819.5000     0.7495  1952.2589
 1820.0000     0.7865  1931.7991
 1820.5000     0.8638  1920.6907
 1821.0000     0.9223  1900.7954
 1821.5000     0.9808  1877.6946
 1822.0000     1.0280  1859.5529
 1822.5000     1.0276  1860.2396
 1823.0000     1.0459  1840.0389
 1823.5000     1.0454  1820.1471
 1824.0000     1.0487  1800.2496
 1824.5000     1.0698  1780.3558
 1825.0000     1.1096  1760.4602
 1825.5000     1.1745  1740.5647
 1826.0000     1.2490  1720.6709
 1826.5000     1.3609  1696.9644
 1827.0000     1.4429  1697.6511
 1827.5000     1.6081  1679.5093
 1828.0000     1.8053  1659.9198
 1828.5000     1.7008  1640.0211
 1829.0000     1.3960  1614.9854
 1829.5000     1.2270  1581.4015
 1830.0000     1.1142  1561.5063
 1830.5000     1.0173  1541.6112
 1831.0000     0.9391  1521.7161
 1831.5000     0.8610  1487.5748
 1832.0000     0.7939  1479.1632
 1832.5000     0.8309  1442.2937
 1833.0000     0.9241  1423.3066
 1833.5000     1.1521  1403.4075
 1834.0000     1.2828  1378.9974
 1834.5000     1.2223  1351.1298
 1835.0000     1.0346  1343.7242
 1835.5000     0.9218  1323.8289
 1836.0000     0.8439  1292.1337
 1836.5000     0.8085  1265.2074
 1837.0000     0.8268  1242.0482
 1837.5000     0.8637  1223.9066
 1838.0000     0.9194  1205.5220
 1838.5000     0.9377  1185.6270
 1839.0000     0.9747  1165.7317
 1839.5000     0.9930  1145.8367
 1840.0000     0.9925  1125.9414
 1840.5000     0.9560  1106.0463
 1841.0000     0.9569  1074.9801
 1841.5000     0.9288  1060.4183
 1842.0000     0.8653  1061.3181
 1842.5000     0.8286  1043.1763
 1843.0000     0.8296  1043.8632
 1843.5000     0.8118  1044.6025
 1844.0000     0.8128  1045.3557
 1844.5000     0.8258  1046.1088
 1845.0000     0.9176  1039.9587
 1845.5000     0.9654  1028.7866
 1846.0000     0.9663  1029.5398
 1846.5000     0.9607  1030.2928
 1847.0000     0.9309  1031.0460
 1847.5000     0.9130  1031.9022
 1848.0000     0.9139  1032.5889
 1848.5000     0.8961  1034.1172
 1849.0000     0.8971  1052.8871
 1849.5000     0.8979  1053.6400
 1850.0000     0.8989  1060.6694
 1850.5000     0.9561  1082.0709
 1851.0000     0.9944  1123.3040
 1851.5000     1.0328  1221.2089
 1852.0000     1.0524  1359.4326
 1852.5000     1.0535  1585.4816
 1853.0000     0.9781  1849.7666
 1853.5000     0.8995  2077.8940
 1854.0000     0.8504  2239.8477
 1854.5000     0.8512  2341.5063
 1855.0000     0.8583  2330.9604
 1855.5000     0.9092  2297.8879
 1856.0000     0.9289  2277.9897
 1856.5000     0.9298  2246.9839
 1857.0000     0.9119  2206.4407
 1857.5000     0.8382  2157.8892
 1858.0000     0.7828  2120.9192
 1858.5000     0.7622  2008.6353
 1859.0000     0.7391  1886.7329
 1859.5000     0.7294  1730.1436
 1860.0000     0.7303  1513.8076
 1860.5000     0.7313  1335.5669
 1861.0000     0.7511  1162.4731
 1861.5000     0.7707  1050.7546
 1862.0000     0.7715  1034.8118
 1862.5000     0.8068  1035.5648
 1863.0000     0.8484  1036.4232
 1863.5000     0.8493  1037.1101
 1864.0000     0.8552  1037.8243
 1864.5000     0.8700  1036.0057
 1865.0000     0.8896  1020.5021
 1865.5000     0.8926  1021.2552
 1866.0000     0.9101  1022.0084
 1866.5000     0.9112  1022.7615
 1867.0000     0.9120  1023.5146
 1867.5000     0.9129  1024.2677
 1868.0000     0.9139  1025.1492
 1868.5000     0.9336  1044.6643
 1869.0000     0.9326  1045.3556
 1869.5000     0.9165  1046.1089
 1870.0000     0.8428  1046.8621
 1870.5000     0.7687  1047.6151
 1871.0000     0.6860  1048.3683
 1871.5000     0.6111  1049.1213
 1872.0000     0.5993  1049.8745
 1872.5000     0.6227  1050.6276
 1873.0000     0.6305  1066.0665
 1873.5000     0.6434  1071.0470
 1874.0000     0.6442  1071.7338
 1874.5000     0.6263  1072.4686
 1875.0000     0.6273  1073.2217
 1875.5000     0.6471  1073.9749
 1876.0000     0.6479  1074.7280
 1876.5000     0.6554  1075.4812
 1877.0000     0.7061  1076.2344
 1877.5000     0.7257  1076.9874
 1878.0000     0.7266  1077.7406
 1878.5000     0.7463  1078.6013
 1879.0000     0.7847  1079.2880
 1879.5000     0.7865  1080.0000
 1880.0000     0.8240  1080.7531
 1880.5000     0.7576  1081.5063
 1881.0000     0.6450  1082.2594
 1881.5000     0.6075  1075.0426
 1882.0000     0.6477  1074.7269
 1882.5000     0.7075  1084.5187
 1883.0000     0.7492  1071.8425
 1883.5000     0.7799  1048.4987
 1884.0000     0.7993  1049.1854
 1884.5000     0.8187  1049.8746
 1885.0000     0.8570  1048.7467
 1885.5000     0.8575  1032.4172
 1886.0000     0.8769  1033.3054
 1886.5000     0.8774  1034.0586
 1887.0000     0.8779  1034.8116
 1887.5000     0.8783  1035.5648
 1888.0000     0.8788  1036.3180
 1888.5000     0.8793  1037.0710
 1889.0000     0.8797  1037.9113
 1889.5000     0.8803  1038.5981
 1890.0000     0.8618  1039.3306
 1890.5000     0.8604  1043.1631
 1891.0000     0.8007  1059.6653
 1891.5000     0.7427  1060.4185
 1892.0000     0.6554  1069.7084
 1892.5000     0.6179  1091.1099
 1893.0000     0.5805  1100.3347
 1893.5000     0.5810  1115.0831
 1894.0000     0.5814  1120.7792
 1894.5000     0.5819  1121.4661
 1895.0000     0.6014  1141.0042
 1895.5000     0.6208  1144.2029
 1896.0000     0.6402  1165.6075
 1896.5000     0.6453  1187.0067
 1897.0000     0.6600  1208.4116
 1897.5000     0.6985  1229.8130
 1898.0000     0.7179  1262.7635
 1898.5000     0.7562  1318.1821
 1899.0000     0.7945  1373.1035
 1899.5000     0.8011  1430.2755
 1900.0000     0.8144  1498.4319
 1900.5000     0.5871  1573.1757
 1901.0000     0.5871  1647.9196
 1901.5000     0.5871  1741.8560
 1902.0000     0.5871  1865.1935
 1902.5000     0.5871  1940.7595
 1903.0000     0.5871  2039.1833
 1903.5000     0.5871  2123.8169
 1904.0000     0.5871  2208.4431
 1904.5000     0.5924  2308.6514
 1905.0000     0.6061  2415.3682
 1905.5000     0.6061  2463.1052
 1906.0000     0.6068  2484.4766
