~VERSION INFORMATION
 VERS.                2.0:   CWLS LOG ASCII STANDARD - VERSION 2.0
 WRAP.                 NO:   ONE LINE PER DEPTH STEP
~WELL INFORMATION
#MNEM.UNIT      DATA TYPE    INFORMATION
#----------   ------------   ------------------------------
 STRT.F           29.0000:   START DEPTH
 STOP.F          507.0000:   STOP DEPTH
 STEP.F            0.5000:   STEP LENGTH
 NULL.          -999.2500:   NO VALUE
 COMP.    FENIX & SCISSON:   COMPANY
 WELL.       NPR #64-SX-3:   WELL
 FLD .            WILDCAT:   FIELD
 LOC .       S3 T38N R78W:   LOCATION
 CNTY.            NATRONA:   COUNTY
 STAT.            WYOMING:   STATE
 CTRY. UNITED STATES OF AMERICA:   COUNTRY
 SRVC.           BIRDWELL:   SERVICE COMPANY
 DATE.        28-MAR-1977:   LOGDATE
 API .       490251032200:   API NUMBER
~CURVE INFORMATION
#MNEM.UNIT       API CODE    CURVE DESCRIPTION
#----------   ------------   ------------------------------
 DEPT.F                  :   
 SPR .MV     05 010 01 00:   SPONTANEOUS POTENTIAL FROM RES.
 ILD .OHMM   05 120 46 00:   INDUCTION LOG DEEP
 SN  .OHMM   05 040 16 00:   SHORT NORMAL 16"
 GRD .GAPI   45 310 01 00:   GAMMA RAY FROM DENSITY LOG
 CALD.IN     45 280 60 00:   CALIPER FROM DENSITY LOG
 CORR.G/C3   45 356 01 00:   DENSITY CORRECTION
 RHOB.G/C3   45 350 01 00:   BULK DENSITY
 DPHI.DEC    45 890 12 00:   DENSITY POROSITY SANDSTONE
~PARAMETER INFORMATION
#MNEM.UNIT          VALUE    DESCRIPTION
#----------   ------------   ------------------------------
 PD  .                 GL:   PERMANENT DATUM
 EPD .F              5145:   ELEVATION PERMANENT DATUM
 LMF .                 GL:   LOG MEASURED FROM
 DMF .                 GL:   DRILLING MEASURED FROM
 EKB .F              5150:   KELLING BUSHING
 EDF .F              5149:   DRILLING FLOOR
 EGL .F              5145:   GROUND LEVEL
 DATE.        28-MAR-1977:   RUN DATE
 RUN .                  1:   RUN NUMBER
 DD  .F               507:   DEPTH DRILLER
 DL  .F               507:   DEPTH LOGGER
 BLI .F               501:   BOTTOM LOG INTERVAL
 TLI .F                40:   TOP LOG INTERVAL
 CS  .IN            8.625:   CASING SIZE
 CBD .F                40:   CASING BOTTOM DRILLER
 CBL .F                43:   CASING BOTTOM LOGGER
 BS  .IN            7.875:   BIT SIZE
 BSD .F               507:   BIT SIZE AT DEPTH
 DFT .                KCL:   DRILLING FLUID TYPE
 DFD .                8.5:   DRILLING FLUID DENSITY
 DFV .                 31:   DRILLING FLUID VISCOSITY
 DFPH.                 10:   DRILLING FLUID PH
 DFL .                 78:   DRILLING FLUID LOSS
 MSS .                PIT:   MUD SAMPLE SOURCE
 RMS .OHMM            .54:   RESISTIVITY MUD SAMPLE
 MST .F                60:   MUD SAMPLE TEMPERATURE
 RMF .OHMM            .46:   RESISTIVITY MUD FILTRATE SAMPLE
 MFST.F                64:   MUD FILTRATE SAMPLE TEMPERATURE
 RMC .OHMM            .52:   RESISTIVITY MUD CAKE
 MCST.F                64:   MUD CAKE SAMPLE TEMPERATURE
 MFSS.               MEAS:   MUD FILTRATE SAMPLE SOURCE
 MCSS.               MEAS:   MUD CAKE SAMPLE SOURCE
 RMB .OHMM            .51:   RESISTIVITY MUD AT BHT
 BHT .F                63:   BOTTOM HOLE TEMPERATURE
 TCS .HRS            0300:   TIME CURCULATED STOPPED
 MRT .F                63:   MAXIMUM RECORDED TEMPERATURE
 LUN .               3026:   LOGGING UNIT NUMBER
 LUL .             CASPER:   LOGGING UNIT LOCATION
 ENGI.             RAWSON:   RECORDING ENGINEER
 WITN.         STUERINCER:   WITNESSED BY
 CLNT.            A2DTECH:   CLIENT CODE
 ORIG.           5" PRINT:   ORIGIN OF DATA
 UWI .       490251032200:   UNIQUE WELL ID
 DICO. A2D Technologies, Inc.:   DIGITIZING COMPANY
~OTHER INFORMATION
~A   DEPT      SPR        ILD         SN        GRD       CALD       CORR       RHOB       DPHI   
   29.0000  -999.2500  -999.2500  -999.2500  -999.2500  -999.2500  -999.2500  -999.2500  -999.2500
   29.5000  -999.2500  -999.2500  -999.2500    62.5702  -999.2500  -999.2500  -999.2500  -999.2500
   30.0000  -999.2500  -999.2500  -999.2500    62.7255  -999.2500  -999.2500  -999.2500  -999.2500
   30.5000  -999.2500  -999.2500  -999.2500    62.8059  -999.2500  -999.2500  -999.2500  -999.2500
   31.0000  -999.2500  -999.2500  -999.2500    60.4910  -999.2500  -999.2500  -999.2500  -999.2500
   31.5000  -999.2500  -999.2500  -999.2500    59.7000  -999.2500  -999.2500  -999.2500  -999.2500
   32.0000  -999.2500  -999.2500  -999.2500    60.9517  -999.2500  -999.2500  -999.2500  -999.2500
   32.5000  -999.2500  -999.2500  -999.2500    60.3584  -999.2500  -999.2500  -999.2500  -999.2500
   33.0000  -999.2500  -999.2500  -999.2500    59.3160  -999.2500  -999.2500  -999.2500  -999.2500
   33.5000  -999.2500  -999.2500  -999.2500    59.6210  -999.2500  -999.2500  -999.2500  -999.2500
   34.0000  -999.2500  -999.2500  -999.2500    59.8510  -999.2500  -999.2500  -999.2500  -999.2500
   34.5000  -999.2500  -999.2500  -999.2500    61.1290  -999.2500  -999.2500  -999.2500  -999.2500
   35.0000  -999.2500  -999.2500  -999.2500    61.6585  -999.2500  -999.2500  -999.2500  -999.2500
   35.5000  -999.2500  -999.2500  -999.2500    62.0383  -999.2500  -999.2500  -999.2500  -999.2500
   36.0000  -999.2500  -999.2500  -999.2500    63.5408  -999.2500  -999.2500  -999.2500  -999.2500
   36.5000  -999.2500  -999.2500  -999.2500    64.8937  -999.2500  -999.2500  -999.2500  -999.2500
   37.0000  -999.2500  -999.2500  -999.2500    64.3004  -999.2500  -999.2500  -999.2500  -999.2500
   37.5000  -999.2500  -999.2500  -999.2500    65.0544  -999.2500  -999.2500  -999.2500  -999.2500
   38.0000  -999.2500  -999.2500  -999.2500    65.3643  -999.2500  -999.2500  -999.2500  -999.2500
   38.5000  -999.2500  -999.2500  -999.2500    64.1673  -999.2500  -999.2500  -999.2500  -999.2500
   39.0000  -999.2500  -999.2500  -999.2500    63.5704  -999.2500  -999.2500  -999.2500  -999.2500
   39.5000  -999.2500  -999.2500  -999.2500    63.5797  -999.2500  -999.2500  -999.2500  -999.2500
   40.0000  -999.2500  -999.2500  -999.2500    63.9346  -999.2500  -999.2500  -999.2500  -999.2500
   40.5000  -999.2500  -999.2500  -999.2500    65.0142  -999.2500  -999.2500  -999.2500  -999.2500
   41.0000  -999.2500  -999.2500  -999.2500    65.9928  -999.2500  -999.2500  -999.2500  -999.2500
   41.5000  -999.2500  -999.2500  -999.2500    67.2707  -999.2500  -999.2500  -999.2500  -999.2500
   42.0000  -999.2500  -999.2500  -999.2500    69.7463  -999.2500  -999.2500  -999.2500  -999.2500
   42.5000  -999.2500  -999.2500  -999.2500    70.4255  -999.2500  -999.2500  -999.2500  -999.2500
   43.0000  -999.2500  -999.2500  -999.2500    70.8802  -999.2500  -999.2500  -999.2500  -999.2500
   43.5000   -24.9216  -999.2500    11.3697    70.8108     7.4506    -0.2465     2.4503     0.1065
   44.0000   -27.0372  -999.2500    11.6084    70.1427     7.5123    -0.2617     2.4662     0.1017
   44.5000   -27.6454     8.4697    11.7697    69.4520     7.8135    -0.2513     2.4724     0.1180
   45.0000   -27.8018     8.0677    11.6875    69.4985     8.1447    -0.1790     2.4725     0.1487
   45.5000   -27.5064     7.8464    11.5243    70.5969     8.2514    -0.1041     2.4620     0.1616
   46.0000   -26.3073     7.5785    11.0546    71.8855     8.4029    -0.1012     2.4011     0.1585
   46.5000   -26.1625     7.3707    10.9774    70.9942     8.4497    -0.1225     2.3816     0.1517
   47.0000   -26.0176     7.1684    10.9766    70.1015     8.4665    -0.1301     2.3801     0.1417
   47.5000   -26.1755     7.0203    10.9759    69.9560     8.4529    -0.1273     2.3999     0.1403
   48.0000   -26.6330     6.9232    10.8239    71.1605     8.4253    -0.1244     2.4045     0.1518
   48.5000   -27.5424     6.8273    10.2221    71.5403     8.3673    -0.1230     2.4009     0.1650
   49.0000   -28.4518     6.7797     9.6178    70.9470     8.2194    -0.1292     2.3927     0.1662
   49.5000   -29.2108     6.7324     9.2891    70.0543     8.2662    -0.1490     2.3807     0.1561
   50.0000   -29.5190     6.7787     9.0342    69.5359     8.3279    -0.1566     2.3801     0.1529
   50.5000   -29.5248     6.7782     8.7862    68.6340     8.3298    -0.1493     2.3886     0.1558
   51.0000   -29.6812     6.8251     8.6026    68.1237     8.3017    -0.1208     2.3938     0.1639
   51.5000   -30.4400     6.9198     8.3683    68.8038     8.2586    -0.1179     2.3867     0.1645
   52.0000   -31.8012     7.0186     8.1386    69.8569     8.1707    -0.1212     2.3758     0.1638
   52.5000   -31.8084     7.2630     8.0259    70.4609     8.0203    -0.1243     2.3745     0.1623
   53.0000   -31.8142     7.4152     7.9700    70.7655     7.4197    -0.1335     2.3776     0.1562
   53.5000   -31.8199     7.5707     8.0807    70.1719     7.2630    -0.1638     2.3838     0.1492
   54.0000   -31.9763     7.7830     8.1931    69.2780     7.2650    -0.1911     2.4042     0.1398
   54.5000   -31.9821     7.8912     8.3071    70.1079     7.3271    -0.2033     2.4133     0.1172
   55.0000   -32.1486     7.9456     8.4812    69.8132     7.4936    -0.2306     2.4248     0.1132
   55.5000   -32.4469     7.8900     8.6591    68.9189     7.5703    -0.2352     2.4656     0.1210
   56.0000   -32.4527     7.7808     8.8407    70.4224     7.5722    -0.1180     2.4694     0.1421
   56.5000   -32.4584     7.8346     8.9016    69.0807     7.5586    -0.0714     2.4326     0.1469
   57.0000   -32.3136     7.8885     8.5379    68.0380     7.5609    -0.0671     2.4123     0.1360
   57.5000   -32.1687     7.8879     8.3035    68.1929     7.5628    -0.0401     2.4162     0.1465
   58.0000   -32.0239     7.8873     8.3030    69.6951     7.6095    -0.0584     2.4057     0.1510
   58.5000   -32.0312     7.8868     8.5361    68.8021     7.6862    -0.0857     2.4005     0.1428
   59.0000   -32.0369     7.8862     8.7759    67.0108     7.9725    -0.1190     2.4036     0.1271
   59.5000   -32.0427     7.8857     9.0852    67.1657     8.0043    -0.1284     2.4195     0.1309
   60.0000   -32.1991     7.8852     8.9592    68.3685     7.7517    -0.0816     2.4332     0.1469
   60.5000   -32.5061     7.8847     8.8351    69.7210     7.5584    -0.0472     2.4152     0.1423
   61.0000   -32.6627     7.8840     8.8345    69.5017     7.5907    -0.0488     2.4085     0.1390
   61.5000   -32.8203     7.9385     8.9574    69.3570     7.6075    -0.0475     2.4161     0.1390
   62.0000   -32.9766     7.9932     9.0192    69.9611     7.6094    -0.0461     2.4177     0.1420
   62.5000   -32.9824     8.0482     9.0184    69.9663     7.6412    -0.0493     2.4140     0.1422
   63.0000   -32.8373     8.0476     9.1441    69.9716     7.7029    -0.0540     2.4119     0.1401
   63.5000   -32.8434     8.1031     9.2071    70.1325     7.7646    -0.0602     2.4119     0.1397
   64.0000   -32.5494     8.1590     9.2064    70.7467     7.8263    -0.0680     2.4120     0.1391
   64.5000   -32.5551     8.2152     9.0788    71.0345     7.8887    -0.0757     2.4121     0.1379
   65.0000   -32.5609     8.2718     9.1415    69.8434     7.9199    -0.0788     2.4145     0.1336
   65.5000   -32.5667     8.2711     9.2685    68.4265     7.9218    -0.0727     2.4191     0.1312
   66.0000   -32.2713     8.2134     9.2038    68.5813     7.9062    -0.0742     2.4192     0.1387
   66.5000   -32.1264     8.1560     9.0135    69.9334     7.7163    -0.1079     2.4071     0.1410
   67.0000   -31.9816     8.2123     8.7055    68.8059     7.5385    -0.1110     2.4130     0.1392
   67.5000   -31.9888     8.2117     8.7655    67.9224     7.4950    -0.1067     2.4246     0.1349
   68.0000   -32.1452     8.2111     9.0116    69.2762     7.6620    -0.1159     2.4414     0.1313
   68.5000   -32.4522     8.2106     9.2007    68.9815     7.8584    -0.0649     2.4475     0.1346
   69.0000   -32.7592     8.3246     9.2642    68.3879     7.9501    -0.0530     2.4409     0.1339
