~VERSION INFORMATION
 VERS.                2.0:   CWLS LOG ASCII STANDARD - VERSION 2.0
 WRAP.                 NO:   ONE LINE PER DEPTH STEP
~WELL INFORMATION
#MNEM.UNIT      DATA TYPE    INFORMATION
#----------   ------------   ------------------------------
 STRT.F          248.0000:   START DEPTH
 STOP.F         2495.0000:   STOP DEPTH
 STEP.F            0.5000:   STEP LENGTH
 NULL.          -999.2500:   NO VALUE
 COMP. FENIX & SCISSON INC:   COMPANY
 WELL.      85 SHX #28-28:   WELL
 FLD .             TEAPOT:   FIELD
 LOC .      S28 T39N R78W:   LOCATION
 CNTY.            NATRONA:   COUNTY
 STAT.            WYOMING:   STATE
 CTRY. UNITED STATES OF AMERICA:   COUNTRY
 SRVC.           BIRDWELL:   SERVICE COMPANY
 DATE.        18-AUG-1979:   LOGDATE
 API .       490251079700:   API NUMBER
~CURVE INFORMATION
#MNEM.UNIT       API CODE    CURVE DESCRIPTION
#----------   ------------   ------------------------------
 DEPT.F                  :   
 CALD.IN     45 280 60 00:   CALIPER
 CORR.G/C3   45 356 01 00:   DENSITY CORRECTION
 RHOB.G/C3   45 350 01 00:   BULK DENSITY
 DPHI.DEC    45 890 12 00:   DENSITY POROSITY SANDSTONE
 GRD .GAPI   45 310 01 00:   GAMMA RAY FROM DENSITY LOG
~PARAMETER INFORMATION
#MNEM.UNIT          VALUE    DESCRIPTION
#----------   ------------   ------------------------------
 PD  .                 GL:   PERMANENT DATUM
 EPD .F              5044:   ELEVATION PERMANENT DATUM
 LMF .                 DF:   LOG MEASURED FROM
 DMF .                 KB:   DRILLING MEASURED FROM
 EKB .F              5054:   KELLING BUSHING
 EDF .F              5052:   DRILLING FLOOR
 EGL .F              5044:   GROUND LEVEL
 DATE.            8-18-79:   RUN DATE
 RUN .                  1:   RUN NUMBER
 DD  .F              2500:   DEPTH DRILLER
 DL  .F              2495:   DEPTH LOGGER
 BLI .F              2495:   BOTTOM LOG INTERVAL
 CS  .IN            9.625:   CASING SIZE
 CBD .F               520:   CASING BOTTOM DRILLER
 CBL .F               505:   CASING BOTTOM LOGGER
 BS  .IN             8.75:   BIT SIZE
 BSD .F              2500:   BIT SIZE AT DEPTH
 DFT .                AIR:   DRILLING FLUID TYPE
 TCS .HRS               2:   TIME CURCULATED STOPPED
 ENGI.          B. MILLER:   RECORDING ENGINEER
 WITN.           DINSMORE:   WITNESSED BY
 CLNT.            A2DTECH:   CLIENT CODE
 ORIG.           5" PRINT:   ORIGIN OF DATA
 UWI .       490251079700:   UNIQUE WELL ID
 DICO. A2D Technologies, Inc.:   DIGITIZING COMPANY
~OTHER INFORMATION
~A   DEPT     CALD       CORR       RHOB       DPHI         GRD  
# ...
 1407.0000     9.2679     0.0025     2.5057     0.0214   126.8042
 1407.5000     9.2492     0.0025     2.5080     0.0203   124.2453
 1408.0000     9.2303     0.0054     2.4965     0.0280   132.4022
 1408.5000     9.2134     0.0096     2.4821     0.0387   140.0086
 1409.0000     9.2153     0.0213     2.4689     0.0497   145.1794
 1409.5000     9.2174     0.0318     2.4429     0.0649   147.7363
 1410.0000     9.2195     0.0567     2.4047     0.0816   149.3297
 1410.5000     9.2215     0.0687     2.3665     0.0985   145.2975
 1411.0000     9.2236     0.0739     2.3398     0.1149   141.0726
 1411.5000     9.2257     0.1032     2.3957     0.1181   137.2562
 1412.0000     9.2277     0.1289     2.4631     0.0489   140.1856
 1412.5000     9.2297     0.0939     2.4467     0.0566   146.3610
 1413.0000     9.2313     0.0963     2.4509     0.0533   146.7496
 1413.5000     9.2354     0.0926     2.4642     0.0463   145.6290
 1414.0000     9.3068     0.1033     2.4909     0.0232   145.2612
 1414.5000     9.3802     0.0896     2.5089     0.0199   147.1444
 1415.0000     9.4533     0.0476     2.4837     0.0371   151.6916
 1415.5000     9.5258     0.0421     2.4731     0.0426   156.2905
 1416.0000     9.5835     0.0624     2.4674     0.0463   160.9471
 1416.5000     9.6138     0.0817     2.4692     0.0453   162.7914
 1417.0000     9.6445     0.0976     2.4598     0.0511   154.4653
 1417.5000     9.6751     0.1003     2.4561     0.0520   151.9731
 1418.0000     9.7057     0.1033     2.4894     0.0314   154.8486
 1418.5000     9.7364     0.0957     2.5127     0.0215   157.5849
 1419.0000     9.7665     0.0794     2.5068     0.0216   153.9201
 1419.5000     9.7904     0.0630     2.4893     0.0299   157.6058
 1420.0000     9.8255     0.0465     2.4713     0.0425   161.2399
 1420.5000     9.8470     0.0302     2.4546     0.0540   161.1178
 1421.0000     9.8802     0.0320     2.4458     0.0583   152.7116
 1421.5000     9.9134     0.0361     2.4391     0.0623   151.4210
 1422.0000     9.9468     0.0435     2.4360     0.0640   157.9835
 1422.5000     9.9803     0.0567     2.4490     0.0531   162.1233
 1423.0000    10.0137     0.0686     2.4587     0.0484   159.0039
 1423.5000    10.0467     0.0768     2.4643     0.0454   153.8699
 1424.0000    10.0728     0.0849     2.4621     0.0486   153.0432
 1424.5000    10.0812     0.0851     2.4548     0.0527   152.1539
 1425.0000    10.0901     0.0790     2.4473     0.0571   152.5387
 1425.5000    10.0988     0.0749     2.4396     0.0621   157.1569
 1426.0000    10.1076     0.0880     2.4285     0.0672   154.2777
 1426.5000    10.1164     0.0997     2.4044     0.0810   153.8021
 1427.0000    10.1251     0.1068     2.3754     0.0924   153.8325
 1427.5000    10.1339     0.1212     2.3828     0.0989   151.6758
 1428.0000    10.1425     0.1219     2.3854     0.0917   148.8506
 1428.5000    10.1504     0.1053     2.3702     0.0992   146.7646
 1429.0000    10.1723     0.1202     2.3897     0.0872   145.6963
 1429.5000    10.1947     0.1319     2.3918     0.0932   147.2026
 1430.0000    10.2170     0.1435     2.3612     0.1038   149.8169
 1430.5000    10.2393     0.1621     2.3504     0.1112   150.6219
 1431.0000    10.2616     0.1865     2.3560     0.1066   150.5258
 1431.5000    10.2839     0.2108     2.3582     0.1062   147.1174
 1432.0000    10.3061     0.2351     2.3543     0.1084   143.0975
 1432.5000    10.3089     0.2592     2.3504     0.1106   142.6019
 1433.0000    10.3088     0.2728     2.3503     0.1086   142.8481
 1433.5000    10.3088     0.2940     2.3692     0.1011   145.1473
 1434.0000    10.3088     0.3165     2.3742     0.0952   148.6422
 1434.5000    10.3088     0.3313     2.3752     0.0916   148.8795
 1435.0000    10.3088     0.3419     2.3879     0.0896   146.4465
 1435.5000    10.3088     0.3408     2.3864     0.0921   144.5567
 1436.0000    10.3085     0.3237     2.3774     0.0968   140.8255
 1436.5000    10.3099     0.3064     2.3633     0.1036   137.1745
 1437.0000    10.2847     0.2908     2.3548     0.1091   137.9270
 1437.5000    10.2784     0.3032     2.3779     0.0944   140.0738
 1438.0000    10.2705     0.3230     2.4074     0.0744   143.8006
 1438.5000    10.2629     0.3268     2.4377     0.0589   146.8132
 1439.0000    10.2553     0.2965     2.4487     0.0533   146.9507
 1439.5000    10.2452     0.2766     2.4589     0.0499   144.6072
 1440.0000    10.2228     0.2682     2.4678     0.0435   142.7864
 1440.5000    10.2006     0.2661     2.4671     0.0455   146.6260
 1441.0000    10.1784     0.2730     2.4727     0.0420   148.0265
 1441.5000    10.1562     0.2804     2.4709     0.0417   143.2920
 1442.0000    10.1339     0.2801     2.4630     0.0475   142.1393
 1442.5000    10.1117     0.2793     2.4595     0.0456   148.7264
 1443.0000    10.0895     0.2635     2.4687     0.0421   149.4267
 1443.5000    10.0672     0.2282     2.4711     0.0457   148.1971
 1444.0000    10.0453     0.1931     2.4624     0.0491   146.9068
 1444.5000    10.0322     0.1581     2.4441     0.0573   145.6127
 1445.0000    10.0412     0.1276     2.4249     0.0703   145.3827
 1445.5000    10.0496     0.1357     2.4203     0.0732   145.5716
 1446.0000    10.0582     0.1445     2.4343     0.0608   147.1167
 1446.5000    10.0667     0.1448     2.4490     0.0502   148.7619
 1447.0000    10.0753     0.1227     2.4634     0.0460   150.0203
 1447.5000    10.0838     0.0997     2.4654     0.0451   147.3546
 1448.0000    10.0924     0.0824     2.4611     0.0480   143.6292
 1448.5000    10.1009     0.0903     2.4560     0.0512   140.3580
 1449.0000    10.1095     0.0966     2.4437     0.0616   149.5182
 1449.5000    10.1180     0.0968     2.4272     0.0710   149.8397
 1450.0000    10.1266     0.1173     2.4185     0.0733   148.9387
 1450.5000    10.1351     0.1562     2.4128     0.0752   148.1763
 1451.0000    10.1437     0.1948     2.4120     0.0743   148.6629
 1451.5000    10.1522     0.2336     2.4373     0.0554   152.7150
 1452.0000    10.1607     0.2724     2.4696     0.0328   149.3177
 1452.5000    10.1693     0.3099     2.4897     0.0320   143.3737
 1453.0000    10.1778     0.3434     2.4910     0.0313   142.4288
 1453.5000    10.1864     0.3760     2.4948     0.0294   143.7199
 1454.0000    10.1949     0.4054     2.5062     0.0195   148.0732
 1454.5000    10.2034     0.4065     2.4951     0.0279   155.3465
 1455.0000    10.2095     0.3721     2.4762     0.0406   162.8289
 1455.5000    10.1960     0.3721     2.4710     0.0399   162.6818
 1456.0000    10.1785     0.3814     2.4743     0.0417   156.3230
 1456.5000    10.1609     0.3878     2.4950     0.0263   149.5693
 1457.0000    10.1433     0.3632     2.5047     0.0238   144.0830
 1457.5000    10.1255     0.3255     2.4847     0.0263   144.0195
 1458.0000    10.1090     0.2886     2.4595     0.0516   150.8868
 1458.5000    10.0880     0.2564     2.4293     0.0656   157.3168
 1459.0000    10.0796     0.2453     2.4460     0.0536   160.5937
 1459.5000    10.0692     0.2406     2.4723     0.0339   161.1583
 1460.0000    10.0585     0.1960     2.4839     0.0446   161.6297
 1460.5000    10.0491     0.1441     2.4360     0.0656   159.9709
 1461.0000    10.0345     0.1144     2.4020     0.0845   157.9446
 1461.5000    10.0294     0.0953     2.3836     0.0952   156.7876
 1462.0000    10.0380     0.0846     2.3719     0.0988   156.2358
 1462.5000    10.0745     0.0863     2.3793     0.0945   153.4295
 1463.0000    10.1097     0.0952     2.3884     0.0914   152.9489
 1463.5000    10.1449     0.1255     2.3868     0.0890   158.1457
 1464.0000    10.1800     0.1649     2.3980     0.0826   155.7981
 1464.5000    10.2154     0.1997     2.4102     0.0759   151.5013
 1465.0000    10.2291     0.2117     2.4117     0.0746   149.5057
 1465.5000    10.2371     0.2671     2.4131     0.0698   145.7390
 1466.0000    10.2450     0.3214     2.4328     0.0632   142.7566
 1466.5000    10.2528     0.3728     2.4551     0.0480   151.3192
 1467.0000    10.2606     0.4171     2.4794     0.0339   150.1603
 1467.5000    10.2685     0.4476     2.5114     0.0117   148.4733
