~VERSION INFORMATION
 VERS.                2.0:   CWLS LOG ASCII STANDARD - VERSION 2.0
 WRAP.                 NO:   ONE LINE PER DEPTH STEP
~WELL INFORMATION
#MNEM.UNIT      DATA TYPE    INFORMATION
#----------   ------------   ------------------------------
 STRT.F           30.0000:   START DEPTH
 STOP.F          597.0000:   STOP DEPTH
 STEP.F            0.5000:   STEP LENGTH
 NULL.          -999.2500:   NO VALUE
 COMP. FENIX & SCISSON-U.S. NAVY:   COMPANY
 WELL.    NPR #3 #15-S-11:   WELL
 FLD .             TEAPOT:   FIELD
 LOC .      S11 T38N R78W:   LOCATION
 CNTY.            NATRONA:   COUNTY
 STAT.            WYOMING:   STATE
 CTRY. UNITED STATES OF AMERICA:   COUNTRY
 SRVC.       Schlumberger:   SERVICE COMPANY
 DATE.        22-FEB-1977:   LOGDATE
 API .       490251028000:   API NUMBER
~CURVE INFORMATION
#MNEM.UNIT       API CODE    CURVE DESCRIPTION
#----------   ------------   ------------------------------
 DEPT.F                  :   
 SPR .MV     07 010 01 00:   SPONTANEOUS POTENTIAL
 ILD .OHMM   07 120 46 00:   INDUCTION LOG DEEP RES
 ILM .OHMM   07 120 44 00:   INDUCTION LOG MEDIUM RES
 LL8 .OHMM   07 220 08 00:   LATEROLOG-8 RES
 CALD.IN     45 280 60 00:   CALIPER FROM DENSITY LOG
 GRD .GAPI   45 310 01 00:   GAMMA RAY FROM DENSITY LOG
 CORR.G/C3   45 356 01 00:   DENSITY CORRECTION
 RHOB.G/C3   45 350 01 00:   BULK DENSITY
 DPHI.DEC    45 890 12 00:   DENSITY POROSITY SANDSTONE
~PARAMETER INFORMATION
#MNEM.UNIT          VALUE    DESCRIPTION
#----------   ------------   ------------------------------
 PD  .                 GL:   PERMANENT DATUM
 EPD .F              5188:   ELEVATION PERMANENT DATUM
 LMF .                 KB:   LOG MEASURED FROM
 DAPD.F                 5:   FEET ABOVE PERMANENT DATUM
 DMF .                 KB:   DRILLING MEASURED FROM
 EKB .F              5193:   KELLING BUSHING
 EGL .F              5188:   GROUND LEVEL
 DATE.         22FEB-1977:   RUN DATE
 RUN .                  1:   RUN NUMBER
 DD  .F               598:   DEPTH DRILLER
 DL  .F               598:   DEPTH LOGGER
 BLI .F               597:   BOTTOM LOG INTERVAL
 TLI .F                35:   TOP LOG INTERVAL
 CS  .IN            8.625:   CASING SIZE
 CBD .F                42:   CASING BOTTOM DRILLER
 CBL .F                45:   CASING BOTTOM LOGGER
 BS  .IN            7.875:   BIT SIZE
 BSD .F               598:   BIT SIZE AT DEPTH
 DFT .                KCL:   DRILLING FLUID TYPE
 DFD .                8.7:   DRILLING FLUID DENSITY
 DFV .                 31:   DRILLING FLUID VISCOSITY
 DFPH.                  8:   DRILLING FLUID PH
 DFL .                7.2:   DRILLING FLUID LOSS
 MSS .           MUD TANK:   MUD SAMPLE SOURCE
 RMS .OHMM           .526:   RESISTIVITY MUD SAMPLE
 MST .F                70:   MUD SAMPLE TEMPERATURE
 RMF .OHMM           .515:   RESISTIVITY MUD FILTRATE SAMPLE
 MFST.F                71:   MUD FILTRATE SAMPLE TEMPERATURE
 RMC .OHMM            .77:   RESISTIVITY MUD CAKE
 MCST.F                70:   MUD CAKE SAMPLE TEMPERATURE
 MFSS.               MEAS:   MUD FILTRATE SAMPLE SOURCE
 MCSS.               CALC:   MUD CAKE SAMPLE SOURCE
 RMB .OHMM            .67:   RESISTIVITY MUD AT BHT
 BHT .F                55:   BOTTOM HOLE TEMPERATURE
 TCS .HRS            0600:   TIME CURCULATED STOPPED
 MRT .F                55:   MAXIMUM RECORDED TEMPERATURE
 LUN .               5642:   LOGGING UNIT NUMBER
 LUL .               CSPR:   LOGGING UNIT LOCATION
 ENGI.                FIX:   RECORDING ENGINEER
 WITN.         STUEBINGER:   WITNESSED BY
 CLNT.            A2DTECH:   CLIENT CODE
 ORIG.           5" PRINT:   ORIGIN OF DATA
 UWI .       490251028000:   UNIQUE WELL ID
 DICO. A2D Technologies, Inc.:   DIGITIZING COMPANY
~OTHER INFORMATION
~A   DEPT      SPR        ILD        ILM        LL8       CALD         GRD      CORR       RHOB       DPHI   
# ...
  504.5000   -26.5230    11.8011    13.2810    13.3259     8.1021    97.5425     0.0189     2.4291     0.1377
  505.0000   -26.8158    11.8029    13.2843    13.3279     8.1181    96.3514     0.0212     2.4359     0.1327
  505.5000   -26.8098    11.8048    13.1955    13.2376     8.1192    98.3144     0.0099     2.4254     0.1354
  506.0000   -26.8038    11.8066    13.1070    13.3317     8.1202   100.5772    -0.0013     2.4142     0.1426
  506.5000   -26.6476    11.8084    13.1105    13.3337     8.1213    99.6869     0.0009     2.4127     0.1432
  507.0000   -26.4915    11.7284    13.1134    13.3356     8.1071    96.3941     0.0047     2.4270     0.1369
  507.5000   -26.1852    11.7307    13.0260    13.3376     8.1084    94.6029     0.0085     2.4315     0.1363
  508.0000   -26.0290    11.6513    13.0289    13.3395     8.1095    94.4607     0.0168     2.4307     0.1353
  508.5000   -25.7227    11.6535    12.9421    13.2496     8.1106    97.0264     0.0183     2.4420     0.1257
  509.0000   -25.5666    11.5747    12.9450    13.2516     8.0964    99.8898     0.0205     2.4488     0.1206
  509.5000   -25.5606    11.5768    12.8587    13.1618     8.0977   102.0025     0.0131     2.4376     0.1242
  510.0000   -25.4059    11.4984    12.8616    13.0732     8.0835   103.5146     0.0063     2.4255     0.1335
  510.5000   -25.5501    11.5007    12.7758    12.9856     8.0697   104.2732    -0.0012     2.4173     0.1413
  511.0000   -25.6942    11.5025    12.6906    12.8976     8.0558    99.4816     0.0003     2.4188     0.1431
  511.5000   -26.1386    11.4245    12.6059    12.8108     8.0122    99.1893    -0.0034     2.4203     0.1389
  512.0000   -26.5816    11.2698    12.4359    12.8131     8.0432   101.0043    -0.0049     2.4211     0.1413
  512.5000   -27.0260    11.1935    12.4385    12.7263     8.0891   101.3125     0.0079     2.4309     0.1389
  513.0000   -27.3218    11.1957    12.3555    12.7286     8.1051   100.2746     0.0132     2.4369     0.1316
  513.5000   -27.6161    11.1198    12.2731    12.5559     8.1211    99.9823     0.0132     2.4407     0.1277
  514.0000   -27.7603    11.0449    12.2760    12.3855     8.1221   102.3979     0.0132     2.4422     0.1271
  514.5000   -27.7528    11.0471    12.2787    12.3873     8.1080   104.6607     0.0125     2.4324     0.1286
  515.0000   -27.4464    11.0488    12.2815    12.3891     8.1093   105.1217    -0.0010     2.4264     0.1310
  515.5000   -27.2903    11.0505    12.2843    12.3057     8.1103   103.3305    -0.0040     2.4325     0.1346
  516.0000   -26.9840    11.0522    12.2871    12.3927     8.1114   101.8395     0.0057     2.4445     0.1336
  516.5000   -26.6777    11.0540    12.2898    12.3945     8.1124   103.9522     0.0073     2.4483     0.1219
  517.0000   -26.6717    10.9791    12.3779    12.4822     8.1135   103.3622     0.0005     2.4318     0.1270
  517.5000   -26.5155    10.9056    12.2953    12.4840     8.1145   104.4238    -0.0025     2.4228     0.1336
  518.0000   -26.5095    10.9073    12.2981    12.4858     8.1156   105.6355    -0.0062     2.4160     0.1387
  518.5000   -26.6552    10.9090    12.3863    12.4877     8.1166   104.1446    -0.0100     2.4123     0.1423
  519.0000   -26.6476    10.8351    12.3036    12.4031     8.1177   103.2516    -0.0107     2.4161     0.1429
  519.5000   -26.9434    10.8372    12.3918    12.4053     8.1187   104.3159    -0.0062     2.4288     0.1393
  520.0000   -27.2377    10.7638    12.3092    12.4071     8.1046   103.9640    -0.0016     2.4409     0.1242
  520.5000   -27.3819    10.6912    12.3120    12.4090     8.1057   104.4428     0.0006     2.4446     0.1215
  521.0000   -27.6762    10.6192    12.2298    12.3249     8.1067   105.8468     0.0030     2.4394     0.1269
  521.5000   -27.8203    10.5477    12.1483    12.2423     8.1077   105.2147     0.0061     2.4334     0.1314
  522.0000   -28.1131    10.4049    12.0673    12.1599     8.0938   104.4805     0.0085     2.4394     0.1323
  522.5000   -28.4089    10.3344    11.9868    12.0775     8.0949   103.4757     0.0112     2.4552     0.1217
  523.0000   -28.4014    10.2648    11.8250    11.9141     8.0959   103.7989     0.0113     2.4710     0.1145
  523.5000   -28.3954    10.1258    11.8276    11.7524     8.0970   104.4070     0.0143     2.4668     0.1097
  524.0000   -28.3894    10.0572    11.7487    11.6728     8.0980   105.6218     0.0183     2.4515     0.1166
  524.5000   -28.3834     9.9894    11.6704    11.4356     8.0991   107.2807     0.0228     2.4703     0.1125
  525.0000   -28.3774     9.8538    11.5127    11.3581     8.1001   109.5345     0.0206     2.4559     0.1172
  525.5000   -28.2212     9.7874    11.3572    11.2044     8.1012   111.0466     0.0111     2.4477     0.1256
  526.0000   -27.9149     9.6545    11.2038    11.1285     8.0275   110.7569     0.0074     2.4463     0.1277
  526.5000   -27.7588     9.5234    11.0524    10.9020     7.8791   106.2629     0.0061     2.4447     0.1222
  527.0000   -27.6026     9.3297    10.8279    10.6804     7.9698   104.9221     0.0068     2.4410     0.1192
  527.5000   -27.5966     9.1396    10.5349    10.4630     8.0606   104.4822     0.0077     2.4396     0.1245
  528.0000   -27.7422     8.9533    10.2498    10.2496     8.0766   104.4928     0.0099     2.4542     0.1313
  528.5000   -28.1852     8.7705    10.0415     9.9719     8.0627   106.1550     0.0107     2.4521     0.1215
  529.0000   -28.4795     8.5329     9.7699     9.7017     8.0787   111.1205     0.0104     2.4425     0.1180
  529.5000   -28.9254     8.3591     9.5055     9.4391     8.0947   112.7828     0.0053     2.4365     0.1204
  530.0000   -29.3684     8.1323     9.2483     9.1834     8.0957   111.4420     0.0024     2.4337     0.1234
  530.5000   -29.6627     7.8572     8.9980     8.9345     8.0968   112.3534     0.0063     2.4338     0.1261
  531.0000   -29.8083     7.3843     8.9379     8.6326     8.0826   114.7664     0.0100     2.4421     0.1255
  531.5000   -30.1011     6.7973     8.0594     8.3987     8.0839   119.5818     0.0122     2.4465     0.1221
  532.0000   -30.0951     6.1711     6.8760     8.1149     8.0999   126.1989     0.0131     2.4351     0.1236
  532.5000   -30.2407     5.4498     5.3992     7.4707     8.1010   133.4167     0.0137     2.4164     0.1330
  533.0000   -30.2332     4.7796     4.8260     5.9906     8.1020   136.5804     0.0122     2.3984     0.1459
  533.5000   -30.2272     4.0493     4.4167     4.4833     8.1031   136.1405     0.0107     2.3834     0.1591
  534.0000   -30.0711     3.6257     4.4717     3.5950     8.1041   128.0430     0.0077     2.4127     0.1648
  534.5000   -29.9149     4.5559     5.1992     5.5934     8.0900   118.2938     0.0047     2.4481     0.1353
  535.0000   -29.6086     5.1605     5.9797     8.6426     8.0761   110.6467     0.0018     2.4646     0.1193
  535.5000   -29.3023     5.7651     7.0160     9.7204     8.0774   109.0056     0.0027     2.4646     0.1133
  536.0000   -28.8458     6.6212     8.0914    10.0633     8.0784   105.2624     0.0105     2.4902     0.1122
  536.5000   -28.6897     7.3460     8.5421    10.1345     8.0944   104.3721     0.0229     2.4958     0.0970
  537.0000   -28.5335     8.0381     8.9112    10.1360     8.0955   105.1334     0.0168     2.4774     0.1023
  537.5000   -28.8278     8.5556     9.4196    10.2077     8.0965   108.5974     0.0099     2.4647     0.1088
  538.0000   -28.9735     8.7969     9.9572    10.2799     8.0976   110.4098     0.0018     2.4527     0.1145
  538.5000   -29.4179     8.9208    10.3697    10.2814     8.0986   113.7236    -0.0003     2.4422     0.1209
  539.0000   -30.0110     9.0464    10.5165    10.2829     8.0845   116.8874     0.0051     2.4467     0.1198
  539.5000   -30.1567     9.0479    10.6705    10.3556     8.0858   118.0991     0.0117     2.4580     0.1159
  540.0000   -30.3008     9.1753    10.9669    10.5739     8.0869   115.2568     0.0048     2.4573     0.1168
  540.5000   -30.2933     9.3045    11.2042    10.9469     8.1029   114.6642    -0.0056     2.4475     0.1237
