~VERSION INFORMATION
 VERS.                2.0:   CWLS LOG ASCII STANDARD - VERSION 2.0
 WRAP.                 NO:   ONE LINE PER DEPTH STEP
~WELL INFORMATION
#MNEM.UNIT      DATA TYPE    INFORMATION
#----------   ------------   ------------------------------
 STRT.F            0.0000:   START DEPTH
 STOP.F          545.0000:   STOP DEPTH
 STEP.F            0.1000:   STEP LENGTH
 NULL.          -999.2500:   NO VALUE
 COMP.       F D SERV INC:   COMPANY
 WELL. NAVAL PETROLEUM RESERVE 3 SX-3 #88-5-3:   WELL
 FLD .             TEAPOT:   FIELD
 LOC .       S3 T38N R78W:   LOCATION
 CNTY.            NATRONA:   COUNTY
 STAT.            WYOMING:   STATE
 CTRY. UNITED STATES OF AMERICA:   COUNTRY
 SRVC.     Atlas Wireline:   SERVICE COMPANY
 DATE.        14-OCT-1992:   LOGDATE
 API .       490252255700:   API NUMBER
~CURVE INFORMATION
#MNEM.UNIT       API CODE    CURVE DESCRIPTION
#----------   ------------   ------------------------------
 DEPT.F                  :   
 GRR .GAPI   07 310 01 00:   GAMMA RAY
 RILD.OHMM   07 120 46 00:   INDUCTION LOG DEEP RESISTIVITY
 RILM.OHMM   07 120 44 00:   INDUCTION LOG MEDIUM RESISTIVITY
~PARAMETER INFORMATION
#MNEM.UNIT          VALUE    DESCRIPTION
#----------   ------------   ------------------------------
 PD  .                 GL:   PERMANENT DATUM
 EPD .F              5152:   ELEVATION PERMANENT DATUM
 LMF .                 KB:   LOG MEASURED FROM
 DAPD.F                10:   FEET ABOVE PERMANENT DATUM
 DMF .                 KB:   DRILLING MEASURED FROM
 EKB .F              5162:   KELLING BUSHING
 EDF .F              5161:   DRILLING FLOOR
 EGL .F              5152:   GROUND LEVEL
 DATE.        14-OCT-1992:   RUN DATE
 RUN .                  1:   RUN NUMBER
 DD  .F               555:   DEPTH DRILLER
 DL  .F               552:   DEPTH LOGGER
 BLI .F               546:   BOTTOM LOG INTERVAL
 CS  .IN            8.625:   CASING SIZE
 CBD .F                85:   CASING BOTTOM DRILLER
 CBL .F                96:   CASING BOTTOM LOGGER
 BS  .IN            7.875:   BIT SIZE
 BSD .F               555:   BIT SIZE AT DEPTH
 DFT .           AIR FOAM:   DRILLING FLUID TYPE
 BHT .F                72:   BOTTOM HOLE TEMPERATURE
 TCS .HRS               2:   TIME CURCULATED STOPPED
 MRT .F                72:   MAXIMUM RECORDED TEMPERATURE
 LUN .            HL-6274:   LOGGING UNIT NUMBER
 LUL .             CASPER:   LOGGING UNIT LOCATION
 ENGI.             RAUTIO:   RECORDING ENGINEER
 WITN.        GARY STRONG:   WITNESSED BY
 CLNT.            A2DTECH:   CLIENT CODE
 ORIG.           5" PRINT:   ORIGIN OF DATA
 UWI .       490252255700:   UNIQUE WELL ID
 DICO. A2D Technologies, Inc.:   DIGITIZING COMPANY
~OTHER INFORMATION
~A    DEPT      GRR      RILD       RILM   
# ...
  127.4000   142.9878     7.6172     7.4533
  127.5000   142.4725     7.6595     7.4892
  127.6000   141.9996     7.6701     7.4907
  127.7000   141.7417     7.6701     7.5414
  127.8000   141.1411     7.6701     7.5415
  127.9000   140.7115     7.6701     7.5734
  128.0000   140.3684     7.6751     7.6187
  128.1000   140.3698     7.7234     7.6469
  128.2000   140.7143     7.7234     7.6470
  128.3000   141.2296     7.7234     7.6471
  128.4000   141.7450     7.7517     7.6472
  128.5000   142.3423     7.7770     7.6880
  128.6000   142.7756     7.7770     7.7340
  128.7000   143.1169     7.7770     7.7541
  128.8000   143.1119     7.7770     7.7542
  128.9000   142.9429     7.7770     7.7543
  129.0000   142.8969     7.8137     7.7580
  129.1000   142.6392     7.8310     7.8084
  129.2000   142.3423     7.8526     7.8085
  129.3000   142.1239     7.8854     7.8437
  129.4000   141.8663     7.8854     7.8629
  129.5000   141.4755     7.8854     7.8630
  129.6000   141.0506     7.8854     7.8755
  129.7000   140.7451     7.9232     7.9179
  129.8000   140.2193     7.9704     7.9180
  129.9000   139.0390     7.9953     7.9624
  130.0000   137.4975     7.9953     7.9732
  130.1000   136.5818     8.0022     8.0024
  130.2000   136.3363     8.0508     8.0503
  130.3000   136.3363     8.1067     8.0985
  130.4000   136.3860     8.1462     8.1469
  130.5000   136.6506     8.1947     8.1975
  130.6000   137.2372     8.2197     8.1976
  130.7000   137.6812     8.2355     8.2368
  130.8000   138.0172     8.2846     8.2861
  130.9000   138.2749     8.3342     8.3122
  131.0000   138.4384     8.3342     8.3277
  131.1000   138.5413     8.3754     8.3775
  131.2000   139.0390     8.4253     8.4284
  131.3000   138.7387     8.4504     8.4285
  131.4000   138.5149     8.4673     8.4286
  131.5000   138.2572     8.5177     8.4619
  131.6000   137.9996     8.5681     8.4874
  131.7000   137.7420     8.5681     8.5044
  131.8000   137.5375     8.5681     8.5466
  131.9000   137.5481     8.5681     8.5467
  132.0000   137.8378     8.5943     8.5468
  132.1000   138.2891     8.6276     8.5469
  132.2000   138.8044     8.6370     8.5470
  132.3000   139.0390     8.6875     8.5737
  132.4000   139.1367     8.6875     8.6066
  132.5000   139.3944     8.6875     8.6067
  132.6000   139.6521     8.6875     8.6085
  132.7000   139.9399     8.6875     8.6668
  132.8000   140.1674     8.6875     8.6669
  132.9000   140.2402     8.6875     8.6670
  133.0000   140.2402     8.6875     8.6671
  133.1000   140.2402     8.6875     8.6672
  133.2000   140.2402     8.6875     8.6674
  133.3000   140.2118     8.6875     8.6675
  133.4000   139.6396     8.6875     8.6676
  133.5000   139.1812     8.6875     8.6677
  133.6000   138.4793     8.6875     8.6678
  133.7000   137.9942     8.6875     8.6680
  133.8000   137.8378     8.6875     8.6681
  133.9000   137.8378     8.6875     8.6682
  134.0000   137.8378     8.6875     8.6683
  134.1000   137.8378     8.6875     8.6684
  134.2000   137.8378     8.6875     8.6686
  134.3000   137.8378     8.6875     8.6687
  134.4000   137.6921     8.6875     8.6688
  134.5000   137.4344     8.6875     8.6470
  134.6000   137.1768     8.6417     8.6093
  134.7000   136.9191     8.6276     8.6042
  134.8000   136.6366     8.6276     8.5501
  134.9000   136.6366     8.6073     8.5502
  135.0000   136.4464     8.5681     8.5504
  135.1000   136.1888     8.5681     8.5505
  135.2000   136.0360     8.5681     8.5278
  135.3000   136.0360     8.5681     8.4917
  135.4000   136.0360     8.5306     8.4919
  135.5000   136.0360     8.5090     8.4920
  135.6000   136.0360     8.4884     8.4437
  135.7000   136.2280     8.4504     8.4337
  135.8000   136.7844     8.4504     8.4338
  135.9000   137.8775     8.4504     8.4339
  136.0000   139.1671     8.4504     8.4340
  136.1000   139.6396     8.4504     8.4341
  136.2000   139.6396     8.4504     8.4342
  136.3000   140.1125     8.4504     8.4344
  136.4000   140.2402     8.4504     8.4345
  136.5000   140.3914     8.4504     8.4346
  136.6000   140.5405     8.4504     8.4099
  136.7000   140.6064     8.4504     8.3767
  136.8000   140.8408     8.4504     8.3768
  136.9000   140.8408     8.4504     8.3769
  137.0000   141.0791     8.4504     8.3770
  137.1000   141.1411     8.4504     8.3771
  137.2000   141.2941     8.4504     8.3772
  137.3000   141.4414     8.4504     8.3773
  137.4000   141.3738     8.4504     8.3775
  137.5000   141.1161     8.4504     8.3776
  137.6000   140.8408     8.4504     8.3777
  137.7000   140.6008     8.4504     8.3778
  137.8000   140.3431     8.4504     8.3779
  137.9000   139.7760     8.4504     8.3780
  138.0000   138.7788     8.4504     8.3782
  138.1000   137.4904     8.4504     8.3783
  138.2000   136.2021     8.4504     8.3784
  138.3000   134.8348     8.4504     8.3785
  138.4000   133.8674     8.4504     8.3786
  138.5000   133.2353     8.4504     8.3787
  138.6000   132.8765     8.4504     8.3789
  138.7000   132.8467     8.4504     8.3790
  138.8000   133.0330     8.4504     8.3791
  138.9000   133.0903     8.4504     8.3792
  139.0000   133.6336     8.4504     8.3793
  139.1000   134.1209     8.4504     8.3794
  139.2000   134.2342     8.4504     8.3796
  139.3000   134.3926     8.4504     8.4173
  139.4000   134.6503     8.4504     8.4380
  139.5000   134.9079     8.4504     8.4381
  139.6000   135.1655     8.4504     8.4382
  139.7000   135.4354     8.4504     8.4383
  139.8000   135.4354     8.4504     8.4384
  139.9000   135.6382     8.4504     8.4386
  140.0000   135.8959     8.4504     8.4387
  140.1000   136.0360     8.4504     8.4388
  140.2000   136.1109     8.4504     8.4616
  140.3000   136.3686     8.4920     8.4976
  140.4000   136.6366     8.5090     8.5040
  140.5000   136.6366     8.5342     8.5569
  140.6000   136.8413     8.5681     8.5570
  140.7000   137.0989     8.5681     8.5571
  140.8000   137.2372     8.5683     8.5897
  140.9000   137.3906     8.6276     8.6168
  141.0000   137.8719     8.6708     8.6328
  141.1000   138.1381     8.6875     8.6845
  141.2000   138.4384     8.7139     8.7372
  141.3000   138.8512     8.7658     8.7980
  141.4000   138.7115     8.8086     8.7981
  141.5000   138.1962     8.8094     8.8329
  141.6000   137.5240     8.8698     8.8595
  141.7000   136.5650     8.9148     8.8772
  141.8000   136.0360     8.9314     8.9303
  141.9000   135.7357     8.9314     8.9837
  142.0000   135.5275     8.9504     9.0458
  142.1000   135.2699     9.0037     9.0916
  142.2000   135.0122     9.0558     9.1460
  142.3000   134.7546     9.0558     9.2007
  142.4000   134.4592     9.1024     9.2557
  142.5000   133.9339     9.1567     9.3219
  142.6000   133.6336     9.2220     9.4301
  142.7000   133.4236     9.2968     9.4302
  142.8000   133.1660     9.3716     9.5284
  142.9000   132.9083     9.4464     9.5619
  143.0000   132.6506     9.5212     9.5930
  143.1000   132.4324     9.5960     9.6504
  143.2000   132.4324     9.6707     9.7081
  143.3000   132.4324     9.7681     9.7662
  143.4000   132.4324     9.8399     9.8309
  143.5000   132.0941     9.8399     9.8834
  143.6000   130.5664     9.8430     9.8995
  143.7000   128.3254     9.9082     9.9331
  143.8000   126.8208     9.9082     9.9925
  143.9000   125.5255     9.9510    10.0522
  144.0000   124.6246     9.9770    10.1077
  144.1000   124.1974    10.0005    10.1078
  144.2000   123.3400    10.0601    10.1632
  144.3000   122.3094    10.1161    10.2240
  144.4000   121.4502    10.1161    10.2491
  144.5000   121.0210    10.1704    10.2753
  144.6000   121.0210    10.2310    10.3368
  144.7000   121.0210    10.3272    10.3924
  144.8000   121.2364    10.4000    10.3925
  144.9000   121.4941    10.4150    10.4509
  145.0000   121.8819    10.4771    10.5134
  145.1000   122.3972    10.5449    10.5378
  145.2000   122.9573    10.5449    10.5662
  145.3000   123.7325    10.5920    10.6294
  145.4000   124.9249    10.6551    10.6851
  145.5000   125.5766    10.6919    10.6852
