~VERSION INFORMATION
 VERS.                2.0:   CWLS LOG ASCII STANDARD - VERSION 2.0
 WRAP.                 NO:   ONE LINE PER DEPTH STEP
~WELL INFORMATION
#MNEM.UNIT      DATA TYPE    INFORMATION
#----------   ------------   ------------------------------
 STRT.F           18.0000:   START DEPTH
 STOP.F          647.0000:   STOP DEPTH
 STEP.F            0.5000:   STEP LENGTH
 NULL.          -999.2500:   NO VALUE
 COMP. FENIX & SCISSON INC:   COMPANY
 WELL. NAVAL PETROLEUM RESERVE 3 SX-1 #82-15:   WELL
 FLD .        TEAPOT DOME:   FIELD
 LOC .      S15 T38N R78W:   LOCATION
 CNTY.            NATRONA:   COUNTY
 STAT.            WYOMING:   STATE
 CTRY. UNITED STATES OF AMERICA:   COUNTRY
 SRVC.            Unknown:   SERVICE COMPANY
 DATE.        15-MAR-1979:   LOGDATE
 API .       490251076500:   API NUMBER
~CURVE INFORMATION
#MNEM.UNIT       API CODE    CURVE DESCRIPTION
#----------   ------------   ------------------------------
 DEPT.F                  :   
 SPR .MV     05 010 01 00:   SPONTANEOUS POTENTIAL FROM RES.
 SN  .OHMM   05 040 16 00:   SHORT NORMAL 16"
 IL  .OHMM   05 120 00 00:   INDUCTION LOG
 CALD.IN     45 280 60 00:   CALIPER
 GRD .GAPI   45 310 01 00:   GAMMA RAY FROM DENSITY LOG
 RHOB.G/C3   45 350 01 00:   BULK DENSITY
 DPHI.DEC    45 890 12 00:   DENSITY POROSITY SANDSTONE
 CORR.G/C3   45 356 01 00:   DENSITY CORRECTION
~PARAMETER INFORMATION
#MNEM.UNIT          VALUE    DESCRIPTION
#----------   ------------   ------------------------------
 PD  .                 GL:   PERMANENT DATUM
 EPD .F              5249:   ELEVATION PERMANENT DATUM
 LMF .                 KB:   LOG MEASURED FROM
 DAPD.F                 4:   FEET ABOVE PERMANENT DATUM
 DMF .                 KB:   DRILLING MEASURED FROM
 EKB .F              5253:   KELLING BUSHING
 EGL .F              5249:   GROUND LEVEL
 DATE.            1-15-79:   RUN DATE
 RUN .                  1:   RUN NUMBER
 DD  .F               670:   DEPTH DRILLER
 DL  .F               647:   DEPTH LOGGER
 BLI .F               640:   BOTTOM LOG INTERVAL
 TLI .F                30:   TOP LOG INTERVAL
 CS  .IN            8.625:   CASING SIZE
 CBD .F                40:   CASING BOTTOM DRILLER
 CBL .F                34:   CASING BOTTOM LOGGER
 BS  .IN            7.875:   BIT SIZE
 BSD .F               670:   BIT SIZE AT DEPTH
 DFT .                KCL:   DRILLING FLUID TYPE
 DFD .                8.9:   DRILLING FLUID DENSITY
 DFV .                 44:   DRILLING FLUID VISCOSITY
 DFPH.                8.5:   DRILLING FLUID PH
 DFL .               14.8:   DRILLING FLUID LOSS
 MSS .           FLOWLINE:   MUD SAMPLE SOURCE
 RMS .OHMM            .26:   RESISTIVITY MUD SAMPLE
 MST .F                61:   MUD SAMPLE TEMPERATURE
 RMF .OHMM            .25:   RESISTIVITY MUD FILTRATE SAMPLE
 MFST.F                60:   MUD FILTRATE SAMPLE TEMPERATURE
 RMC .OHMM             .2:   RESISTIVITY MUD CAKE
 MCST.F                60:   MUD CAKE SAMPLE TEMPERATURE
 MFSS.           MEASURED:   MUD FILTRATE SAMPLE SOURCE
 MCSS.           MEASURED:   MUD CAKE SAMPLE SOURCE
 RMB .OHMM            .27:   RESISTIVITY MUD AT BHT
 BHT .F                58:   BOTTOM HOLE TEMPERATURE
 TCS .HRS               5:   TIME CURCULATED STOPPED
 MRT .F                58:   MAXIMUM RECORDED TEMPERATURE
 LUN .               3006:   LOGGING UNIT NUMBER
 LUL .             CASPER:   LOGGING UNIT LOCATION
 ENGI.            ROLLINS:   RECORDING ENGINEER
 WITN.              AMEND:   WITNESSED BY
 CLNT.            A2DTECH:   CLIENT CODE
 ORIG.         2.5" PRINT:   ORIGIN OF DATA
 UWI .       490251076500:   UNIQUE WELL ID
 DICO. A2D Technologies, Inc.:   DIGITIZING COMPANY
~OTHER INFORMATION
~A   DEPT      SPR         SN         IL       CALD         GRD      RHOB       DPHI       CORR   
# ...
  139.5000   -67.9440     6.3420     6.4870     8.2400   103.8730     2.4460     0.1320     0.0740
  140.0000   -67.9440     6.3310     6.4870     8.2400   104.6140     2.4580     0.1340     0.0780
  140.5000   -67.9440     6.3200     6.4870     8.2400   106.5480     2.4700     0.1390     0.0860
  141.0000   -67.9440     6.3080     6.4870     8.2400   109.4120     2.4680     0.1430     0.0930
  141.5000   -67.9440     6.2980     6.4880     8.2400   109.7640     2.4580     0.1460     0.0990
  142.0000   -67.9440     6.2860     6.4870     8.2400   107.2080     2.4510     0.1470     0.1030
  142.5000   -67.9440     6.2740     6.4870     8.2400   104.8350     2.4510     0.1460     0.1040
  143.0000   -67.9440     6.2660     6.4890     8.2400   103.3580     2.4500     0.1450     0.1070
  143.5000   -67.9440     6.2560     6.4820     8.2400   105.4820     2.4490     0.1490     0.1180
  144.0000   -67.9440     6.3430     6.5580     8.2400   107.6180     2.4480     0.1540     0.1650
  144.5000   -67.9440     6.4400     6.6860     8.2400   108.9760     2.4450     0.1400     0.2130
  145.0000   -67.9440     6.5370     6.8150     8.2400   107.8130     2.4540     0.1250     0.2410
  145.5000   -67.9440     6.6340     6.9440     8.2400   105.6490     2.4770     0.1110     0.2320
  146.0000   -67.9440     6.7310     7.0730     8.2400   104.5950     2.5000     0.0960     0.1920
  146.5000   -67.9440     6.8280     7.2010     8.2400   106.3630     2.5230     0.0840     0.1390
  147.0000   -67.9440     6.9250     7.3300     8.2400   106.3950     2.5450     0.0950     0.0840
  147.5000   -67.9440     7.0220     7.3820     8.2370   102.6020     2.5560     0.1170     0.0310
  148.0000   -67.9440     7.1140     7.2470     8.2340   100.2150     2.5340     0.1400     0.0320
  148.5000   -67.9440     7.1140     7.1670     8.2310   102.0790     2.4900     0.1480     0.0320
  149.0000   -67.9440     7.0550     7.0920     8.2280   105.9440     2.4580     0.1470     0.0340
  149.5000   -67.9440     6.9890     7.0170     8.2250   109.5300     2.4520     0.1470     0.0350
  150.0000   -67.9440     6.9230     6.9410     8.2220   109.4220     2.4510     0.1470     0.0370
  150.5000   -67.9440     6.8560     6.8660     8.2190   105.4850     2.4520     0.1430     0.0370
  151.0000   -67.9440     6.7900     6.7910     8.2160   103.6910     2.4570     0.1370     0.0440
  151.5000   -67.9440     6.7240     6.7150     8.2130   103.4650     2.4650     0.1320     0.0570
  152.0000   -67.9440     6.6580     6.6400     8.2100   100.4470     2.4730     0.1290     0.0680
  152.5000   -67.9440     6.5910     6.5650     8.2070    96.0970     2.4780     0.1320     0.0780
  153.0000   -67.9440     6.5250     6.4870     8.2040    95.3590     2.4750     0.1350     0.0770
  153.5000   -67.9440     6.4590     6.6220     8.2010   102.7460     2.4720     0.1380     0.0760
  154.0000   -67.9440     6.3680     6.7620     8.2070   110.6740     2.4680     0.1410     0.0750
  154.5000   -67.9440     6.3950     6.9010     8.2170   116.3550     2.4630     0.1430     0.0750
  155.0000   -67.9440     6.4370     7.0410     8.2260   113.0870     2.4550     0.1450     0.0750
  155.5000   -67.9440     6.4790     7.2470     8.2360   108.8650     2.4530     0.1460     0.0830
  156.0000   -67.9430     6.5200     7.2410     8.2400   108.8310     2.4530     0.1430     0.0900
  156.5000   -67.9440     6.5620     7.2300     8.2400   111.0320     2.4530     0.1360     0.0980
  157.0000   -67.9440     6.6040     7.2190     8.2400   110.1050     2.4600     0.1420     0.1090
  157.5000   -67.9640     6.6460     7.2080     8.2400   107.2480     2.4620     0.1480     0.1320
  158.0000   -67.9880     6.6880     7.1970     8.2400   105.5450     2.4600     0.1370     0.1640
  158.5000   -68.0130     6.7290     7.1860     8.2400   107.7130     2.4560     0.1250     0.1760
  159.0000   -68.0370     6.7710     7.1750     8.2400   110.5360     2.4700     0.1130     0.1700
  159.5000   -68.0610     6.8130     7.1640     8.2400   111.9060     2.4930     0.1020     0.1440
  160.0000   -68.0850     6.8560     7.1530     8.2400   110.4110     2.5140     0.0940     0.0980
  160.5000   -68.1090     6.8560     7.1430     8.2400   107.6520     2.5300     0.1040     0.0500
  161.0000   -68.1340     6.8560     7.1320     8.2400   105.0390     2.5230     0.1220     0.0200
  161.5000   -68.1580     6.8560     7.1210     8.2400   102.0900     2.5010     0.1420     0.0120
  162.0000   -68.1820     6.8560     7.0860     8.2400   102.4620     2.4800     0.1440     0.0060
  162.5000   -68.2060     6.8560     7.0240     8.2400   103.2250     2.4590     0.1440     0.0060
  163.0000   -68.2300     6.8280     6.9620     8.2400   104.0450     2.4550     0.1440     0.0060
  163.5000   -68.2550     6.7750     6.9000     8.2400   106.0150     2.4530     0.1460     0.0090
  164.0000   -68.2770     6.7200     6.8380     8.2400   108.6010     2.4510     0.1520     0.0180
  164.5000   -68.3030     6.6650     6.7760     8.2400   111.0820     2.4430     0.1570     0.0260
  165.0000   -68.3260     6.6100     6.7140     8.2400   113.6990     2.4320     0.1600     0.0350
  165.5000   -68.3370     6.5550     6.6520     8.2400   115.2070     2.4310     0.1550     0.0430
  166.0000   -68.2390     6.5000     6.5900     8.2400   113.6700     2.4360     0.1490     0.0450
  166.5000   -68.1550     6.4460     6.5280     8.2400   111.0350     2.4440     0.1430     0.0410
  167.0000   -68.0640     6.3680     6.4870     8.2400   110.1600     2.4520     0.1350     0.0390
  167.5000   -67.9780     6.3940     6.5350     8.2400   110.5710     2.4590     0.1380     0.0360
  168.0000   -67.8890     6.4380     6.5850     8.2400   114.4660     2.4670     0.1430     0.0330
  168.5000   -67.8010     6.4820     6.6350     8.2400   114.2560     2.4640     0.1490     0.0300
  169.0000   -67.7130     6.5270     6.6850     8.2400   113.3980     2.4520     0.1540     0.0310
  169.5000   -67.6250     6.5710     6.7350     8.2400   112.2730     2.4400     0.1540     0.0320
  170.0000   -67.5370     6.6150     6.7850     8.2400   111.2720     2.4390     0.1520     0.0330
  170.5000   -67.4490     6.6600     6.8560     8.2400   110.2730     2.4380     0.1520     0.0330
  171.0000   -67.3610     6.7310     6.8490     8.2400   110.3820     2.4380     0.1530     0.0400
  171.5000   -67.2720     6.7180     6.8350     8.2400   112.6790     2.4370     0.1540     0.0510
  172.0000   -67.1840     6.6850     6.8210     8.2400   113.8960     2.4370     0.1500     0.0620
  172.5000   -67.0960     6.6520     6.8070     8.2400   111.5280     2.4400     0.1440     0.0730
  173.0000   -67.0080     6.6190     6.7930     8.2400   107.3980     2.4510     0.1380     0.0840
  173.5000   -66.9200     6.5860     6.7790     8.2400   102.5810     2.4620     0.1350     0.0960
  174.0000   -66.8320     6.5530     6.7650     8.2400   100.0690     2.4630     0.1410     0.1320
  174.5000   -66.7440     6.5200     6.7490     8.2400   100.9690     2.4570     0.1480     0.1660
  175.0000   -66.6550     6.4870     6.7310     8.2400   108.4410     2.4500     0.1430     0.1740
  175.5000   -66.5680     6.5770     6.8070     8.2400   107.0200     2.4470     0.1300     0.1430
  176.0000   -66.4810     6.6660     6.9330     8.2400   105.7760     2.4730     0.1120     0.1150
  176.5000   -66.3840     6.7520     7.0580     8.2390   103.0390     2.5130     0.1190     0.0840
  177.0000   -66.3390     6.8280     7.1830     8.2400   104.4500     2.5030     0.1300     0.0680
  177.5000   -66.3870     6.9040     7.3080     8.2170   109.4370     2.4810     0.1400     0.0740
  178.0000   -66.4240     6.9800     7.4330     8.1850   109.7400     2.4600     0.1440     0.0830
  178.5000   -66.4660     7.0570     7.5580     8.1530   111.2160     2.4530     0.1450     0.0950
  179.0000   -66.5060     7.1330     7.6830     8.1200   114.7340     2.4550     0.1360     0.0890
  179.5000   -66.5460     7.2090     7.8080     8.0890   116.9390     2.4660     0.1220     0.0700
