~VERSION INFORMATION
 VERS.                2.0:   CWLS LOG ASCII STANDARD - VERSION 2.0
 WRAP.                 NO:   ONE LINE PER DEPTH STEP
~WELL INFORMATION
#MNEM.UNIT      DATA TYPE    INFORMATION
#----------   ------------   ------------------------------
 STRT.F          248.0000:   START DEPTH
 STOP.F         2495.0000:   STOP DEPTH
 STEP.F            0.5000:   STEP LENGTH
 NULL.          -999.2500:   NO VALUE
 COMP. FENIX & SCISSON INC:   COMPANY
 WELL.      85 SHX #28-28:   WELL
 FLD .             TEAPOT:   FIELD
 LOC .      S28 T39N R78W:   LOCATION
 CNTY.            NATRONA:   COUNTY
 STAT.            WYOMING:   STATE
 CTRY. UNITED STATES OF AMERICA:   COUNTRY
 SRVC.           BIRDWELL:   SERVICE COMPANY
 DATE.        18-AUG-1979:   LOGDATE
 API .       490251079700:   API NUMBER
~CURVE INFORMATION
#MNEM.UNIT       API CODE    CURVE DESCRIPTION
#----------   ------------   ------------------------------
 DEPT.F                  :   
 CALD.IN     45 280 60 00:   CALIPER
 CORR.G/C3   45 356 01 00:   DENSITY CORRECTION
 RHOB.G/C3   45 350 01 00:   BULK DENSITY
 DPHI.DEC    45 890 12 00:   DENSITY POROSITY SANDSTONE
 GRD .GAPI   45 310 01 00:   GAMMA RAY FROM DENSITY LOG
~PARAMETER INFORMATION
#MNEM.UNIT          VALUE    DESCRIPTION
#----------   ------------   ------------------------------
 PD  .                 GL:   PERMANENT DATUM
 EPD .F              5044:   ELEVATION PERMANENT DATUM
 LMF .                 DF:   LOG MEASURED FROM
 DMF .                 KB:   DRILLING MEASURED FROM
 EKB .F              5054:   KELLING BUSHING
 EDF .F              5052:   DRILLING FLOOR
 EGL .F              5044:   GROUND LEVEL
 DATE.            8-18-79:   RUN DATE
 RUN .                  1:   RUN NUMBER
 DD  .F              2500:   DEPTH DRILLER
 DL  .F              2495:   DEPTH LOGGER
 BLI .F              2495:   BOTTOM LOG INTERVAL
 CS  .IN            9.625:   CASING SIZE
 CBD .F               520:   CASING BOTTOM DRILLER
 CBL .F               505:   CASING BOTTOM LOGGER
 BS  .IN             8.75:   BIT SIZE
 BSD .F              2500:   BIT SIZE AT DEPTH
 DFT .                AIR:   DRILLING FLUID TYPE
 TCS .HRS               2:   TIME CURCULATED STOPPED
 ENGI.          B. MILLER:   RECORDING ENGINEER
 WITN.           DINSMORE:   WITNESSED BY
 CLNT.            A2DTECH:   CLIENT CODE
 ORIG.           5" PRINT:   ORIGIN OF DATA
 UWI .       490251079700:   UNIQUE WELL ID
 DICO. A2D Technologies, Inc.:   DIGITIZING COMPANY
~OTHER INFORMATION
~A   DEPT     CALD       CORR       RHOB       DPHI         GRD  
# ...
  858.0000     9.7932     0.0754     2.4809     0.0462   149.4102
  858.5000     9.8039     0.0326     2.4421     0.0653   142.3109
  859.0000     9.8146     0.0592     2.4576     0.0581   140.3281
  859.5000     9.8253     0.0888     2.4773     0.0387   143.5184
  860.0000     9.8360     0.0930     2.4884     0.0344   146.4501
  860.5000     9.8467     0.0861     2.5001     0.0263   145.9476
  861.0000     9.8574     0.0569     2.4824     0.0381   145.8475
  861.5000     9.8681     0.0287     2.4590     0.0536   146.9207
  862.0000     9.8788     0.0349     2.4530     0.0556   158.9636
  862.5000     9.8895     0.0445     2.4552     0.0552   167.7946
  863.0000     9.9002     0.0537     2.4595     0.0529   161.4978
  863.5000     9.9109     0.0721     2.4638     0.0490   153.8425
  864.0000     9.9216     0.0865     2.4661     0.0463   150.9500
  864.5000     9.9323     0.0898     2.4610     0.0515   157.1812
  865.0000     9.9430     0.0995     2.4551     0.0552   160.1325
  865.5000     9.9537     0.1032     2.4494     0.0577   159.5640
  866.0000     9.9645     0.1187     2.4495     0.0523   165.1372
  866.5000     9.9740     0.1406     2.4614     0.0524   162.2585
  867.0000     9.9823     0.1491     2.4437     0.0625   158.6095
  867.5000     9.9905     0.1772     2.4362     0.0660   155.8505
  868.0000     9.9988     0.2191     2.4552     0.0588   154.9801
  868.5000    10.0070     0.2569     2.4708     0.0453   154.0998
  869.0000    10.0153     0.2823     2.4753     0.0426   152.0250
  869.5000    10.0236     0.3077     2.4846     0.0371   149.3360
  870.0000    10.0318     0.3311     2.5056     0.0221   149.2840
  870.5000    10.0401     0.3233     2.5139     0.0297   158.5894
  871.0000    10.0484     0.3086     2.4924     0.0272   153.5432
  871.5000    10.0566     0.2939     2.4782     0.0430   147.7055
  872.0000    10.0649     0.2790     2.4631     0.0534   141.8407
  872.5000    10.0732     0.2719     2.4265     0.0686   141.2534
  873.0000    10.0814     0.2812     2.3617     0.0918   148.4431
  873.5000    10.0897     0.3124     2.2973     0.1525   154.9595
  874.0000    10.0980     0.3895     2.2263     0.1981   152.2920
  874.5000    10.1062     0.5023     2.2937     0.1541   147.2165
  875.0000    10.1145     0.4992     2.4135     0.0585   142.4919
  875.5000    10.1228     0.4990     2.6205    -0.0860   144.1141
  876.0000    10.1310     0.4991     2.8505    -0.0998   146.8830
  876.5000    10.1393     0.4992     2.6085    -0.0334   147.1973
  877.0000    10.1483     0.4852     2.5431     0.0136   147.5738
  877.5000    10.1293     0.4213     2.4790     0.0337   149.9995
  878.0000    10.1034     0.3574     2.4659     0.0490   155.1889
  878.5000    10.0773     0.2939     2.4359     0.0657   152.7869
  879.0000    10.0514     0.2304     2.4032     0.0863   148.9176
  879.5000    10.0254     0.1669     2.3699     0.1069   145.1296
  880.0000     9.9994     0.1326     2.3500     0.1144   145.3877
  880.5000     9.9734     0.1550     2.3824     0.0922   160.9969
  881.0000     9.9503     0.1776     2.4103     0.0791   162.9889
  881.5000     9.9523     0.1773     2.4168     0.0765   155.8741
  882.0000     9.9549     0.1651     2.4148     0.0786   147.9256
  882.5000     9.9574     0.1530     2.4128     0.0792   139.9033
  883.0000     9.9599     0.1410     2.3993     0.0877   136.2340
  883.5000     9.9623     0.1322     2.3798     0.0961   139.0363
  884.0000     9.9648     0.1394     2.3679     0.1048   145.4863
  884.5000     9.9673     0.1723     2.3676     0.1044   145.4724
  885.0000     9.9697     0.2056     2.3785     0.0951   138.9495
  885.5000     9.9722     0.2181     2.3916     0.0883   135.0899
  886.0000     9.9747     0.2114     2.4010     0.0870   135.5075
  886.5000     9.9771     0.2008     2.3950     0.0889   135.1665
  887.0000     9.9796     0.1986     2.3891     0.0912   145.4464
  887.5000     9.9821     0.2041     2.3918     0.0896   150.9028
  888.0000     9.9846     0.2111     2.4073     0.0814   144.0849
  888.5000     9.9870     0.2082     2.4100     0.0808   138.6631
  889.0000     9.9895     0.2018     2.4083     0.0824   138.3533
  889.5000     9.9920     0.1967     2.4079     0.0797   139.3472
  890.0000     9.9944     0.1977     2.4143     0.0755   140.5987
  890.5000     9.9969     0.1987     2.4271     0.0685   143.0276
  891.0000     9.9994     0.2048     2.4398     0.0615   149.8020
  891.5000    10.0019     0.2219     2.4507     0.0572   151.8740
  892.0000    10.0043     0.2421     2.4478     0.0588   150.6303
  892.5000    10.0068     0.2632     2.3614     0.1138   148.5847
  893.0000    10.0094     0.3129     2.3162     0.1328   146.5007
  893.5000    10.0093     0.3961     2.3777     0.0996   145.9551
  894.0000    10.0084     0.4146     2.4209     0.0490   145.4797
  894.5000    10.0075     0.3416     2.5301     0.0099   145.1896
  895.0000    10.0065     0.2566     2.4696     0.0563   144.5308
  895.5000    10.0056     0.1790     2.4170     0.0730   144.2505
  896.0000    10.0047     0.1902     2.4318     0.0703   145.0552
  896.5000    10.0038     0.1998     2.4513     0.0572   146.4298
  897.0000    10.0029     0.1754     2.4352     0.0572   147.7811
  897.5000    10.0020     0.1482     2.4105     0.0800   149.0047
  898.0000    10.0011     0.1222     2.3882     0.0903   148.7370
  898.5000    10.0001     0.1325     2.3946     0.0920   144.8320
  899.0000     9.9992     0.1481     2.4052     0.0822   142.0155
  899.5000     9.9983     0.1673     2.4166     0.0718   143.4650
  900.0000     9.9974     0.1854     2.4376     0.0602   145.3818
  900.5000     9.9965     0.1982     2.4561     0.0523   146.3483
  901.0000     9.9956     0.1628     2.4361     0.0668   149.6505
  901.5000     9.9947     0.1307     2.4103     0.0821   154.7432
  902.0000     9.9937     0.1070     2.3978     0.0870   150.4077
  902.5000     9.9928     0.0901     2.3943     0.0894   144.8834
  903.0000     9.9919     0.0909     2.3907     0.0918   140.6526
  903.5000     9.9910     0.0993     2.3881     0.0921   146.3425
  904.0000     9.9899     0.1116     2.3970     0.0872   154.1216
  904.5000     9.9974     0.1324     2.4068     0.0841   155.4279
  905.0000    10.0074     0.1531     2.4195     0.0740   150.5946
  905.5000    10.0173     0.1738     2.4305     0.0676   146.2357
  906.0000    10.0273     0.1884     2.4333     0.0712   141.9359
  906.5000    10.0372     0.1968     2.4196     0.0759   138.7247
  907.0000    10.0471     0.1974     2.4044     0.0838   138.5623
  907.5000    10.0570     0.2307     2.4038     0.0829   138.8076
  908.0000    10.0670     0.2728     2.4161     0.0796   139.0216
  908.5000    10.0769     0.3152     2.4266     0.0707   138.8165
  909.0000    10.0868     0.3575     2.4570     0.0399   139.2814
  909.5000    10.0967     0.3804     2.4916     0.0459   139.8428
  910.0000    10.1071     0.3716     2.4821     0.0339   139.0529
  910.5000    10.1142     0.3611     2.4761     0.0420   137.9483
  911.0000    10.1289     0.3572     2.4756     0.0397   136.6345
  911.5000    10.1304     0.3589     2.5012     0.0258   136.4852
  912.0000    10.0928     0.3536     2.5399     0.0055   138.9149
  912.5000    10.0729     0.3333     2.5539    -0.0007   141.4810
  913.0000    10.0566     0.2547     2.4904     0.0432   141.9454
  913.5000    10.0404     0.1883     2.4512     0.0622   137.1855
  914.0000    10.0240     0.1491     2.4302     0.0692   132.2242
  914.5000    10.0077     0.1219     2.4135     0.0774   138.5523
  915.0000     9.9914     0.0992     2.3976     0.0860   145.0244
  915.5000     9.9751     0.0805     2.3814     0.0945   143.1627
  916.0000     9.9586     0.0912     2.3768     0.0988   140.1998
  916.5000     9.9376     0.1063     2.4040     0.0836   138.8150
  917.0000     9.9112     0.1192     2.4248     0.0668   141.8905
  917.5000     9.8849     0.1077     2.4312     0.0716   145.6171
  918.0000     9.8585     0.0940     2.4136     0.0792   147.1568
  918.5000     9.8321     0.0870     2.4155     0.0762   144.8997
