~VERSION INFORMATION
 VERS.                2.0:   CWLS LOG ASCII STANDARD - VERSION 2.0
 WRAP.                 NO:   ONE LINE PER DEPTH STEP
~WELL INFORMATION
#MNEM.UNIT      DATA TYPE    INFORMATION
#----------   ------------   ------------------------------
 STRT.F           48.0000:   START DEPTH
 STOP.F          650.0000:   STOP DEPTH
 STEP.F            0.5000:   STEP LENGTH
 NULL.          -999.2500:   NO VALUE
 COMP. FENIX & SCISSON INC:   COMPANY
 WELL.    36 SX 34 #36-34:   WELL
 FLD .             TEAPOT:   FIELD
 LOC .      S34 T39N R78W:   LOCATION
 CNTY.            NATRONA:   COUNTY
 STAT.            WYOMING:   STATE
 CTRY. UNITED STATES OF AMERICA:   COUNTRY
 SRVC.            Unknown:   SERVICE COMPANY
 DATE.        19-JAN-1979:   LOGDATE
 API .       490251076800:   API NUMBER
~CURVE INFORMATION
#MNEM.UNIT       API CODE    CURVE DESCRIPTION
#----------   ------------   ------------------------------
 DEPT.F                  :   
 SPR .MV     05 010 01 00:   SPONTANEOUS POTENTIAL FROM RES.
 SN  .OHMM   05 040 16 00:   SHORT NORMAL 16"
 IL  .OHMM   05 120 00 00:   INDUCTION LOG
 CALD.IN     45 280 60 00:   CALIPER
 GRD .GAPI   45 310 01 00:   GAMMA RAY FROM DENSITY LOG
 RHOB.G/C3   45 350 01 00:   BULK DENSITY
 DPHI.DEC    45 890 12 00:   DENSITY POROSITY SANDSTONE
 CORR.G/C3   45 356 01 00:   DENSITY CORRECTION
~PARAMETER INFORMATION
#MNEM.UNIT          VALUE    DESCRIPTION
#----------   ------------   ------------------------------
 PD  .                 GL:   PERMANENT DATUM
 EPD .F              5125:   ELEVATION PERMANENT DATUM
 LMF .                 KB:   LOG MEASURED FROM
 DAPD.F                 4:   FEET ABOVE PERMANENT DATUM
 DMF .                 KB:   DRILLING MEASURED FROM
 EKB .F              5129:   KELLING BUSHING
 EGL .F              5125:   GROUND LEVEL
 DATE.            1-19-79:   RUN DATE
 RUN .                  1:   RUN NUMBER
 DD  .F               650:   DEPTH DRILLER
 DL  .F               650:   DEPTH LOGGER
 BLI .F               643:   BOTTOM LOG INTERVAL
 TLI .F                50:   TOP LOG INTERVAL
 CS  .IN            8.625:   CASING SIZE
 CBD .F                40:   CASING BOTTOM DRILLER
 CBL .F                36:   CASING BOTTOM LOGGER
 BS  .IN            7.875:   BIT SIZE
 BSD .F               650:   BIT SIZE AT DEPTH
 DFT .                KCL:   DRILLING FLUID TYPE
 DFD .                8.8:   DRILLING FLUID DENSITY
 DFV .                 34:   DRILLING FLUID VISCOSITY
 DFL .                8.8:   DRILLING FLUID LOSS
 MSS .           FLOWLINE:   MUD SAMPLE SOURCE
 RMS .OHMM            .17:   RESISTIVITY MUD SAMPLE
 MST .F                62:   MUD SAMPLE TEMPERATURE
 RMF .OHMM            .15:   RESISTIVITY MUD FILTRATE SAMPLE
 MFST.F                62:   MUD FILTRATE SAMPLE TEMPERATURE
 RMC .OHMM            .22:   RESISTIVITY MUD CAKE
 MCST.F                63:   MUD CAKE SAMPLE TEMPERATURE
 MFSS.           MEASURED:   MUD FILTRATE SAMPLE SOURCE
 MCSS.           MEASURED:   MUD CAKE SAMPLE SOURCE
 RMB .OHMM            .18:   RESISTIVITY MUD AT BHT
 BHT .F                60:   BOTTOM HOLE TEMPERATURE
 TCS .HRS               3:   TIME CURCULATED STOPPED
 MRT .F                60:   MAXIMUM RECORDED TEMPERATURE
 LUN .                 30:   LOGGING UNIT NUMBER
 LUL .             CASPER:   LOGGING UNIT LOCATION
 ENGI.         B. ROLLINS:   RECORDING ENGINEER
 WITN.           DINSMORE:   WITNESSED BY
 CLNT.            A2DTECH:   CLIENT CODE
 ORIG.           5" PRINT:   ORIGIN OF DATA
 UWI .       490251076800:   UNIQUE WELL ID
 DICO. A2D Technologies, Inc.:   DIGITIZING COMPANY
~OTHER INFORMATION
~A   DEPT      SPR           SN        IL      CALD        GRD       RHOB       DPHI       CORR   
# ...
  129.0000   -55.7460     7.0940     7.6150     9.1950    94.9220     2.5020     0.1020     0.0280
  129.5000   -55.3750     7.1630     7.6720    11.3660   101.7810     2.4850     0.1100     0.0280
  130.0000   -55.0050     7.2330     7.7290    10.0760   105.1370     2.4700     0.1160     0.0260
  130.5000   -54.6360     7.3020     7.7870     8.1220   103.2260     2.4700     0.1170     0.0250
  131.0000   -54.7640     7.3720     7.8440     8.1440   103.0620     2.4700     0.1170     0.0230
  131.5000   -55.2160     7.4280     7.9010     8.1450   106.0900     2.4690     0.1170     0.0230
  132.0000   -55.6640     7.2960     7.9250     8.5520   107.7090     2.4750     0.1130     0.0270
  132.5000   -55.9560     7.1850     7.9030     8.2430   106.0960     2.4840     0.1060     0.0310
  133.0000   -55.6480     7.0740     7.8390     8.1410   106.9330     2.4920     0.1000     0.0360
  133.5000   -54.4810     6.9630     7.7740     8.0630   107.8320     2.5020     0.0930     0.0380
  134.0000   -54.5470     6.8520     7.7100     7.9850   106.5970     2.5200     0.0860     0.0350
  134.5000   -54.7870     6.7410     7.6450     7.9510   105.8750     2.5380     0.0800     0.0280
  135.0000   -53.9950     6.6310     7.5810     8.0380   106.2770     2.5260     0.0750     0.0200
  135.5000   -54.1710     6.5200     7.5170     8.0940   107.8870     2.5020     0.0890     0.0270
  136.0000   -54.4080     6.4060     7.4520     8.0960   109.8880     2.4780     0.1010     0.0310
  136.5000   -54.4430     6.3470     7.3880     8.0990   111.2680     2.4750     0.1070     0.0320
  137.0000   -53.9880     6.2880     7.3230     8.1020   111.1340     2.4740     0.1070     0.0330
  137.5000   -53.7650     6.3670     7.2920     8.1050   110.2530     2.4750     0.1040     0.0340
  138.0000   -54.3850     6.4370     7.2920     8.1080   109.3510     2.4840     0.0970     0.0370
  138.5000   -55.2340     6.5070     7.3680     8.1110   109.0100     2.5040     0.0900     0.0400
  139.0000   -55.4550     6.5770     7.4380     8.1200   109.5540     2.5250     0.0840     0.0440
  139.5000   -55.5940     6.6470     7.5090     8.1360   109.9130     2.5430     0.0770     0.0520
  140.0000   -56.3950     6.7170     7.5790     8.1510   107.8390     2.5400     0.0700     0.0660
  140.5000   -56.2960     6.7870     7.6500     8.1670   105.2000     2.5310     0.0790     0.0690
  141.0000   -55.9790     6.8580     7.7200     8.1830   102.9010     2.5230     0.0870     0.0530
  141.5000   -56.0450     6.9280     7.7900     8.1990   100.6280     2.5150     0.0960     0.0430
  142.0000   -56.1370     6.9980     7.8610     8.2150   101.1840     2.5100     0.0980     0.0380
  142.5000   -56.1710     7.0680     7.9310     8.2300   102.0000     2.5070     0.1000     0.0340
  143.0000   -55.7010     7.0920     7.9990     8.2150   102.8160     2.5040     0.1020     0.0340
  143.5000   -55.0020     7.0860     7.9380     8.1970   103.7120     2.5010     0.1040     0.0360
  144.0000   -54.4590     7.0560     7.8650     8.1790   105.0740     2.4960     0.1060     0.0450
  144.5000   -54.1730     7.0260     7.7920     8.1620   103.7800     2.4900     0.1080     0.0440
  145.0000   -54.0400     6.9960     7.7180     8.1440   102.1600     2.4840     0.1100     0.0410
  145.5000   -54.4840     6.9660     7.6450     8.1260   101.4670     2.4800     0.1120     0.0410
  146.0000   -54.9370     6.9370     7.5720     8.1090   100.8080     2.4730     0.1150     0.0420
  146.5000   -54.3950     6.9070     7.4980     8.0910   100.6990     2.4660     0.1200     0.0450
  147.0000   -53.8100     6.8770     7.4250     8.0740   104.5460     2.4630     0.1220     0.0520
  147.5000   -54.0650     6.8470     7.3520     8.0850   108.7220     2.4700     0.1180     0.0590
  148.0000   -54.6550     6.8170     7.2790     8.1040   112.8850     2.4740     0.1150     0.0600
  148.5000   -55.4270     6.7880     7.2050     8.1230   112.1530     2.4710     0.1130     0.0510
  149.0000   -55.9950     6.7580     7.0920     8.1430   110.7290     2.4700     0.1150     0.0410
  149.5000   -55.3830     6.7280     7.0920     8.1500   109.3620     2.4730     0.1150     0.0390
  150.0000   -54.6120     6.6980     7.0920     8.1470   108.4440     2.4850     0.1070     0.0430
  150.5000   -53.8290     6.6680     7.0920     8.1450   107.5180     2.5000     0.1000     0.0530
  151.0000   -53.6040     6.6390     7.1440     8.1410   106.6280     2.5150     0.0920     0.0620
  151.5000   -54.5200     6.6090     7.2200     8.1380   106.9140     2.5240     0.0860     0.0600
  152.0000   -55.4240     6.5790     7.2960     8.1350   111.8990     2.5190     0.0900     0.0520
  152.5000   -55.2730     6.5490     7.3730     8.1340   111.4950     2.5090     0.0940     0.0440
  153.0000   -54.9380     6.5250     7.4490     8.1660   110.7080     2.4980     0.0990     0.0440
  153.5000   -54.5990     6.6700     7.5250     8.1980   112.2940     2.4970     0.0990     0.0450
  154.0000   -54.5330     6.7900     7.6010     8.2320   110.1830     2.5010     0.0970     0.0470
  154.5000   -55.0000     6.9110     7.6780     8.2640   106.5620     2.5130     0.0890     0.0480
  155.0000   -55.4610     7.0320     7.7540     8.2840   102.9060     2.5300     0.0790     0.0500
  155.5000   -55.9370     7.1530     7.8300     8.7980    99.2300     2.5460     0.0660     0.0440
  156.0000   -55.7240     7.2740     7.9070     9.9520    95.5550     2.5560     0.0680     0.0340
  156.5000   -55.2350     7.3940     7.9830     8.0350    91.8960     2.5460     0.0740     0.0280
  157.0000   -54.7600     7.5150     8.0590     8.2840    89.8810     2.5370     0.0800     0.0370
  157.5000   -54.2620     7.6360     8.1350     8.1880   102.1990     2.5160     0.0880     0.0450
  158.0000   -53.7800     7.7800     8.1490     8.2000   108.1550     2.4890     0.0970     0.0400
  158.5000   -53.4090     7.7230     8.1320     8.1940   105.9690     2.4810     0.1050     0.0360
  159.0000   -53.6360     7.6280     8.0500     8.1900   103.7760     2.4770     0.1090     0.0330
  159.5000   -53.8540     7.5330     7.9680     8.1860   102.0200     2.4740     0.1160     0.0300
  160.0000   -54.0730     7.4380     7.8860     8.1820   104.7820     2.4730     0.1110     0.0350
  160.5000   -53.8760     7.3430     7.8030     8.1780   107.4380     2.4860     0.1050     0.0410
  161.0000   -53.4050     7.2490     7.7210     8.1740   108.0730     2.4980     0.0990     0.0460
  161.5000   -53.7800     7.1540     7.6390     8.2300   109.1320     2.5050     0.0960     0.0520
  162.0000   -54.1460     7.0590     7.5560     8.3110   110.5200     2.5020     0.0960     0.0560
  162.5000   -54.4890     7.0270     7.4740     8.2940   111.7130     2.4980     0.0990     0.0500
  163.0000   -55.4120     7.0270     7.4280     8.2800   111.9560     2.4940     0.1010     0.0440
  163.5000   -56.3200     7.0340     7.4280     8.2660   112.8420     2.4910     0.1030     0.0390
  164.0000   -56.0510     7.0470     7.4460     8.2520   113.2780     2.4890     0.1010     0.0350
  164.5000   -55.7430     7.0590     7.4750     8.2490   110.2800     2.4930     0.1000     0.0400
  165.0000   -55.4390     7.0710     7.5050     8.2480   110.0540     2.4970     0.0990     0.0410
  165.5000   -55.1590     7.0830     7.5340     8.2460   110.8300     2.4970     0.1000     0.0380
  166.0000   -55.3620     7.0950     7.5640     8.2440   111.6400     2.4950     0.1030     0.0360
  166.5000   -55.5870     7.1070     7.5930     8.2420   112.4630     2.4930     0.1050     0.0330
  167.0000   -54.7970     7.1200     7.6230     8.2410   113.9930     2.4910     0.1060     0.0320
  167.5000   -54.0860     7.1320     7.6520     8.2390   115.6560     2.4890     0.1050     0.0330
  168.0000   -53.3760     7.1440     7.6820     8.2370   113.5670     2.4930     0.1030     0.0330
  168.5000   -52.9550     7.1560     7.7110     8.2350   110.9390     2.4970     0.1010     0.0330
  169.0000   -53.9030     7.1680     7.7410     8.2330   110.6190     2.4970     0.0990     0.0340
