~VERSION INFORMATION
 VERS.                2.0:   CWLS LOG ASCII STANDARD - VERSION 2.0
 WRAP.                 NO:   ONE LINE PER DEPTH STEP
~WELL INFORMATION
#MNEM.UNIT      DATA TYPE    INFORMATION
#----------   ------------   ------------------------------
 STRT.F          372.0000:   START DEPTH
 STOP.F         1845.0000:   STOP DEPTH
 STEP.F            0.5000:   STEP LENGTH
 NULL.          -999.2500:   NO VALUE
 COMP.             T.H.E.:   COMPANY
 WELL. 63-1-STX-29 #63-29:   WELL
 FLD .             TEAPOT:   FIELD
 LOC .      S29 T39N R78W:   LOCATION
 CNTY.            NATRONA:   COUNTY
 STAT.            WYOMING:   STATE
 CTRY. UNITED STATES OF AMERICA:   COUNTRY
 SRVC.            Unknown:   SERVICE COMPANY
 DATE.        20-MAY-1996:   LOGDATE
 API .       490252279200:   API NUMBER
~CURVE INFORMATION
#MNEM.UNIT       API CODE    CURVE DESCRIPTION
#----------   ------------   ------------------------------
 DEPT.F                  :   
 ROP .MIN/FT 91 810 01 00:   RATE OF DRILLING PENETRATION
 TGAS.UNITS  91 830 01 00:   TOTAL GAS FROM HOTWIRE
~PARAMETER INFORMATION
#MNEM.UNIT          VALUE    DESCRIPTION
#----------   ------------   ------------------------------
 EKB .F              4983:   KELLING BUSHING
 EGL .F              4973:   GROUND LEVEL
 DATE.          5-20-1996:   RUN DATE
 RUN .                  1:   RUN NUMBER
 BLI .F              1845:   BOTTOM LOG INTERVAL
 TLI .F               372:   TOP LOG INTERVAL
 CS  .IN                7:   CASING SIZE
 CBD .F               354:   CASING BOTTOM DRILLER
 ENGI.   C. TOWER/R. HUSK:   RECORDING ENGINEER
 CLNT.            A2DTECH:   CLIENT CODE
 ORIG.           5" PRINT:   ORIGIN OF DATA
 UWI .       490252279200:   UNIQUE WELL ID
 DICO. A2D Technologies, Inc.:   DIGITIZING COMPANY
~OTHER INFORMATION
~A   DEPT        ROP     TGAS   
# ...
  493.5000     0.5393     0.0315
  494.0000     0.5498     0.0315
  494.5000     0.5497     0.0315
  495.0000     0.5390     0.0315
  495.5000     0.5389     0.0315
  496.0000     0.5388     0.0315
  496.5000     0.5387     0.0315
  497.0000     0.5386     0.0315
  497.5000     0.5385     0.0315
  498.0000     0.5384     0.0315
  498.5000     0.5383     0.0315
  499.0000     0.5382     0.0315
  499.5000     0.5381     0.0315
  500.0000     0.5380     0.0315
  500.5000     0.5272     0.0315
  501.0000     0.5376     0.0315
  501.5000     0.5373     0.0315
  502.0000     0.5371     0.0315
  502.5000     0.5369     0.0315
  503.0000     0.5367     0.0315
  503.5000     0.5365     0.0315
  504.0000     0.5363     0.0315
  504.5000     0.5361     0.0315
  505.0000     0.5359     0.0430
  505.5000     0.5357     0.0465
  506.0000     0.5354     0.0507
  506.5000     0.5352     0.0551
  507.0000     0.5245     0.0599
  507.5000     0.5218     0.0634
  508.0000     0.5135     0.0676
  508.5000     0.5027     0.0727
  509.0000     0.5025     0.0768
  509.5000     0.5023     0.0803
  510.0000     0.5021     0.0845
  510.5000     0.5019     0.0888
  511.0000     0.4953     0.0930
  511.5000     0.4909     0.0972
  512.0000     0.4802     0.1014
  512.5000     0.4799     0.1057
  513.0000     0.7013     0.1099
  513.5000     0.7011     0.1141
  514.0000     0.7008     0.1183
  514.5000     0.6795     0.1226
  515.0000     0.5422     0.1274
  515.5000     0.5420     0.1310
  516.0000     0.5418     0.1352
  516.5000     0.5416     0.1395
  517.0000     0.5413     0.1443
  517.5000     0.5411     0.1479
  518.0000     0.5515     0.1521
  518.5000     0.5526     0.1563
  519.0000     0.5721     0.1612
  519.5000     0.5824     0.1648
  520.0000     0.5823     0.1690
  520.5000     0.5821     0.1732
  521.0000     0.5819     0.1780
  521.5000     0.5816     0.1817
  522.0000     0.5814     0.1859
  522.5000     0.5812     0.1901
  523.0000     0.5810     0.1949
  523.5000     0.5808     0.1986
  524.0000     0.5806     0.2028
  524.5000     0.5804     0.2070
  525.0000     0.5802     0.2118
  525.5000     0.5799     0.2155
  526.0000     0.5797     0.2197
  526.5000     0.5795     0.2239
  527.0000     0.5793     0.2287
  527.5000     0.5791     0.2324
  528.0000     0.5789     0.2366
  528.5000     0.5787     0.2408
  529.0000     0.5785     0.2459
  529.5000     0.5783     0.2493
  530.0000     0.5886     0.2535
  530.5000     0.5884     0.2577
  531.0000     0.5882     0.2624
  531.5000     0.5880     0.2662
  532.0000     0.5877     0.2704
  532.5000     0.5876     0.2746
  533.0000     0.5873     0.2796
  533.5000     0.5888     0.2831
  534.0000     0.6080     0.2873
  534.5000     0.6078     0.2915
  535.0000     0.6076     0.2962
  535.5000     0.6074     0.3000
  536.0000     0.6072     0.3042
  536.5000     0.3960     0.3085
  537.0000     0.3958     0.3130
  537.5000     0.3956     0.3169
  538.0000     0.3954     0.3211
  538.5000     0.3951     0.3254
  539.0000     0.3949     0.3296
  539.5000     0.3947     0.3338
  540.0000     0.3945     0.3380
  540.5000     0.3943     0.3426
  541.0000     0.3941     0.3468
  541.5000     0.3939     0.3507
  542.0000     0.3937     0.3549
  542.5000     0.3935     0.3592
  543.0000     0.3932     0.3636
  543.5000     0.3930     0.3676
  544.0000     0.3928     0.3718
  544.5000     0.3821     0.3761
  545.0000     0.3924     0.3805
  545.5000     0.4027     0.3853
  546.0000     0.4063     0.3887
  546.5000     0.4142     0.3930
  547.0000     0.4337     0.3974
  547.5000     0.4335     0.4022
  548.0000     0.4439     0.4056
  548.5000     0.4437     0.4099
  549.0000     0.4435     0.4143
  549.5000     0.4432     0.4191
  550.0000     0.4325     0.4225
  550.5000     0.4335     0.4268
  551.0000     0.4343     0.4311
  551.5000     0.4352     0.4360
  552.0000     0.4361     0.4394
  552.5000     0.4370     0.4437
  553.0000     0.4378     0.4480
  553.5000     0.4387     0.4528
  554.0000     0.4396     0.4563
  554.5000     0.4405     0.4606
  555.0000     0.4413     0.4649
  555.5000     0.4422     0.4697
  556.0000     0.4431     0.4732
  556.5000     0.4439     0.4775
  557.0000     0.4448     0.4818
  557.5000     0.4457     0.4866
  558.0000     0.4466     0.4901
  558.5000     0.4474     0.4944
  559.0000     0.4483     0.4986
  559.5000     0.4492     0.5035
  560.0000     0.4501     0.5070
  560.5000     0.4509     0.5113
  561.0000     0.4518     0.5155
  561.5000     0.4527     0.7316
  562.0000     0.4536     0.7352
  562.5000     0.4544     0.7394
  563.0000     0.4553     0.7437
  563.5000     0.4556     0.9597
  564.0000     0.4552     1.2821
  564.5000     0.4549     1.3901
  565.0000     0.4546     1.3944
  565.5000     0.4543     1.3992
  566.0000     0.4539     1.4028
  566.5000     0.4431     1.4070
  567.0000     0.4322     1.4113
  567.5000     0.4319     1.4160
  568.0000     0.4211     1.4197
  568.5000     0.7478     1.4239
  569.0000     0.7475     1.4282
  569.5000     0.7365     1.4329
  570.0000     0.7365     1.4366
  570.5000     0.7365     1.4408
  571.0000     0.7365     1.4451
  571.5000     0.7366     1.4498
  572.0000     0.7366     1.4535
  572.5000     0.7367     1.4577
  573.0000     0.7367     1.4620
  573.5000     0.7367     1.4666
  574.0000     0.7368     1.4704
  574.5000     0.7368     1.4746
  575.0000     0.7369     1.4940
  575.5000     0.7369     1.5203
  576.0000     0.7369     1.4873
  576.5000     0.7370     1.4915
  577.0000     0.7370     1.5133
  577.5000     0.7371     1.7117
  578.0000     0.7371     1.7155
  578.5000     0.7371     1.6476
  579.0000     0.7372     1.7239
  579.5000     0.7372     1.7285
  580.0000     0.7373     1.7324
  580.5000     0.7373     1.5254
  581.0000     0.7373     1.5296
  581.5000     0.7374     1.7454
  582.0000     0.7374     1.7493
  582.5000     0.7375     1.7535
  583.0000     0.7375     1.7577
  583.5000     0.7375     1.7623
  584.0000     0.7376     1.7662
  584.5000     0.7376     1.7704
  585.0000     0.7377     1.7746
  585.5000     0.7377     1.7792
  586.0000     0.7377     1.7831
  586.5000     0.7378     1.7873
  587.0000     0.7378     1.7916
  587.5000     0.7379     1.7960
  588.0000     0.7379     1.8000
  588.5000     0.7379     1.5930
  589.0000     0.7380     1.8085
  589.5000     0.7380     1.8129
  590.0000     0.7381     1.8177
  590.5000     0.7381     1.8211
  591.0000     0.7381     1.7910
  591.5000     0.7382     1.8301
  592.0000     0.7382     1.8346
  592.5000     0.7383     1.8380
  593.0000     0.7383     1.8423
  593.5000     0.7383     1.6354
  594.0000     0.7384     1.6402
  594.5000     0.7384     1.6437
  595.0000     0.7385     1.6479
  595.5000     0.7385     1.6523
  596.0000     0.7385     1.6571
  596.5000     0.7386     1.6606
  597.0000     0.7386     1.7065
  597.5000     0.7387     1.6691
  598.0000     0.7387     1.6740
  598.5000     0.7387     1.6775
  599.0000     0.7388     1.7257
  599.5000     0.7387     1.8973
  600.0000     0.5485     1.4788
  600.5000     0.5482     2.1138
  601.0000     0.5585     2.3263
  601.5000     0.5581     2.6300
  602.0000     0.5576     2.7924
  602.5000     0.5556     2.9631
  603.0000     0.5463     2.7528
  603.5000     0.5353     2.4395
  604.0000     0.5705     2.3322
  604.5000     0.6718     2.1222
  605.0000     0.6714     2.1234
  605.5000     0.6731     2.1243
  606.0000     0.6707     2.0608
  606.5000     0.6703     1.9151
  607.0000     0.6699     1.9163
  607.5000     0.6695     1.9173
  608.0000     0.6691     1.9183
  608.5000     0.6688     1.9194
  609.0000     0.6685     1.9205
  609.5000     0.6681     1.9217
  610.0000     0.6677     1.9225
  610.5000     0.6674     1.9236
  611.0000     0.6670     1.9247
  611.5000     0.6666     1.9259
  612.0000     0.6662     1.9268
  612.5000     0.6727     1.9278
  613.0000     0.6761     1.9289
  613.5000     0.6757     1.9301
  614.0000     0.6753     1.9310
  614.5000     0.6749     1.9320
