~VERSION INFORMATION
 VERS.                2.0:   CWLS LOG ASCII STANDARD - VERSION 2.0
 WRAP.                 NO:   ONE LINE PER DEPTH STEP
~WELL INFORMATION
#MNEM.UNIT      DATA TYPE    INFORMATION
#----------   ------------   ------------------------------
 STRT.F            2.0000:   START DEPTH
 STOP.F          592.0000:   STOP DEPTH
 STEP.F            0.1000:   STEP LENGTH
 NULL.          -999.2500:   NO VALUE
 COMP. BROWN JOHN E&C INC:   COMPANY
 WELL. NAVAL PETROLEUM RESERVE 3 SX-3 #73-3:   WELL
 FLD .             TEAPOT:   FIELD
 LOC .       S3 T38N R78W:   LOCATION
 CNTY.            NATRONA:   COUNTY
 STAT.            WYOMING:   STATE
 CTRY. UNITED STATES OF AMERICA:   COUNTRY
 SRVC.     Atlas Wireline:   SERVICE COMPANY
 DATE.        22-APR-1992:   LOGDATE
 API .       490252251000:   API NUMBER
~CURVE INFORMATION
#MNEM.UNIT       API CODE    CURVE DESCRIPTION
#----------   ------------   ------------------------------
 DEPT.F                  :   
 GRR .GAPI   07 310 01 00:   GAMMA RAY
 RILD.OHMM   07 120 46 00:   INDUCTION LOG DEEP RESISTIVITY
 RILM.OHMM   07 120 44 00:   INDUCTION LOG MEDIUM RESISTIVITY
~PARAMETER INFORMATION
#MNEM.UNIT          VALUE    DESCRIPTION
#----------   ------------   ------------------------------
 PD  .                 GL:   PERMANENT DATUM
 EPD .F              5148:   ELEVATION PERMANENT DATUM
 LMF .                 KB:   LOG MEASURED FROM
 DAPD.F                 5:   FEET ABOVE PERMANENT DATUM
 DMF .                 KB:   DRILLING MEASURED FROM
 EKB .F              5153:   KELLING BUSHING
 EDF .F              5152:   DRILLING FLOOR
 EGL .F              5148:   GROUND LEVEL
 DATE.        22-APR-1992:   RUN DATE
 RUN .                  1:   RUN NUMBER
 DD  .F               600:   DEPTH DRILLER
 DL  .F               601:   DEPTH LOGGER
 BLI .F               592:   BOTTOM LOG INTERVAL
 TLI .F                51:   TOP LOG INTERVAL
 CS  .IN            8.625:   CASING SIZE
 CBD .F                48:   CASING BOTTOM DRILLER
 CBL .F                51:   CASING BOTTOM LOGGER
 BS  .IN            7.875:   BIT SIZE
 BSD .F               600:   BIT SIZE AT DEPTH
 DFT .                AIR:   DRILLING FLUID TYPE
 LUN .            HL-5272:   LOGGING UNIT NUMBER
 LUL .             CASPER:   LOGGING UNIT LOCATION
 ENGI.       P. RAGMUSSEN:   RECORDING ENGINEER
 WITN.          G. STRONG:   WITNESSED BY
 CLNT.            A2DTECH:   CLIENT CODE
 ORIG.           5" PRINT:   ORIGIN OF DATA
 UWI .       490252251000:   UNIQUE WELL ID
 DICO. A2D Technologies, Inc.:   DIGITIZING COMPANY
~OTHER INFORMATION
~A    DEPT      GRR      RILD       RILM   
# ...
  384.2000   128.0280     9.3239     9.4712
  384.3000   129.0098     9.3772     9.5682
  384.4000   129.6046     9.4309     9.6247
  384.5000   130.0967     9.4924     9.7310
  384.6000   130.5101     9.5856     9.8832
  384.7000   130.7359     9.6949    10.0241
  384.8000   130.7379     9.7838    10.1384
  384.9000   130.9483     9.8484    10.2557
  385.0000   131.1952     9.9699    10.4316
  385.1000   131.3483    10.0743    10.5155
  385.2000   131.3138    10.1893    10.6432
  385.3000   131.0495    10.3318    10.8512
  385.4000   131.0511    10.5084    11.1155
  385.5000   130.7200    10.6923    11.3797
  385.6000   130.2316    10.9314    11.6440
  385.7000   129.6918    11.0881    11.9082
  385.8000   128.9404    11.2468    12.1725
  385.9000   127.5079    11.4392    12.4367
  386.0000   126.2210    11.6346    12.7010
  386.1000   124.6260    11.8339    12.9652
  386.2000   122.4681    12.0368    13.2294
  386.3000   119.6817    12.2038    13.4937
  386.4000   113.5205    12.3890    13.7579
  386.5000   110.3759    12.6651    14.0222
  386.6000   107.5694    12.9134    14.2864
  386.7000   105.6921    13.0394    14.5507
  386.8000   103.8324    13.2347    14.8149
  386.9000   100.2163    13.4612    15.0792
  387.0000    97.4636    13.6797    15.3434
  387.1000    93.9706    13.8492    15.6077
  387.2000    89.6185    14.0660    15.8719
  387.3000    84.7398    14.3621    16.1362
  387.4000    82.3735    14.7277    16.4004
  387.5000    79.6532    15.1855    16.6647
  387.6000    77.0519    15.8132    16.9289
  387.7000    74.8265    16.2544    17.2063
  387.8000    72.7593    16.7910    17.5230
  387.9000    70.2796    17.2209    17.9280
  388.0000    68.1027    17.4890    18.4373
  388.1000    67.7446    17.6910    18.9666
  388.2000    68.3725    17.9942    19.5688
  388.3000    69.3548    18.3027    20.1761
  388.4000    70.3007    18.6161    20.6307
  388.5000    70.5934    18.9344    21.0503
  388.6000    70.7945    19.2582    21.3447
  388.7000    70.8992    19.6374    21.5678
  388.8000    70.9010    19.9236    21.6913
  388.9000    70.8756    20.1942    21.8017
  389.0000    70.6023    20.4686    21.8034
  389.1000    69.9594    20.7844    21.6973
  389.2000    69.3832    20.9143    21.6550
  389.3000    68.7948    21.0230    21.6565
  389.4000    68.1040    21.0632    21.6369
  389.5000    67.5856    21.0646    21.5093
  389.6000    67.3573    21.0423    21.3973
  389.7000    66.9417    20.9215    21.2785
  389.8000    66.5683    20.9229    21.2163
  389.9000    66.3824    20.8386    21.2177
  390.0000    66.3843    20.7806    21.2192
  390.1000    66.3861    20.7519    21.2207
  390.2000    66.7631    20.6367    21.2222
  390.3000    67.9057    20.5222    21.2237
  390.4000    69.6954    20.4083    21.2251
  390.5000    71.7041    20.3582    21.2266
  390.6000    74.8675    20.3235    21.2283
  390.7000    77.7079    20.2197    21.2296
  390.8000    80.7051    20.2214    21.2311
  390.9000    83.4025    20.1266    21.2325
  391.0000    86.3134    20.0837    21.2340
  391.1000    91.2153    20.0851    21.2356
  391.2000    91.8704    20.0865    21.2370
  391.3000    92.4472    20.0880    21.2385
  391.4000    92.7334    20.0893    21.2399
  391.5000    92.6445    20.1666    21.2414
  391.6000    92.1320    20.2819    21.2429
  391.7000    90.0366    20.3979    21.3586
  391.8000    88.5353    20.5191    21.3942
  391.9000    87.5476    20.6319    21.4540
  392.0000    86.7535    20.7499    21.5768
  392.1000    85.7692    20.9265    21.7002
  392.2000    84.2999    21.1345    21.8246
  392.3000    83.7846    21.2576    21.9495
  392.4000    83.6744    21.5001    22.1433
  392.5000    83.6005    21.7456    22.3960
  392.6000    83.3754    21.9936    22.6609
  392.7000    83.3776    22.3236    23.1117
  392.8000    83.1734    22.8230    23.6697
  392.9000    82.9302    23.2764    24.3486
  393.0000    82.7776    23.4998    25.0460
  393.1000    82.7461    23.7678    25.7222
  393.2000    82.4789    23.9884    26.2061
  393.3000    82.0387    24.1437    26.6116
  393.4000    81.7137    24.4472    26.9654
  393.5000    81.2588    24.6978    27.3403
  393.6000    80.3805    24.8861    27.8080
  393.7000    78.8569    25.0891    28.3015
  393.8000    76.9695    25.3749    28.7696
  393.9000    75.0109    25.6769    29.1420
  394.0000    73.4160    25.9570    29.4744
  394.1000    72.2561    26.2531    29.7666
  394.2000    71.2772    26.5525    29.9412
  394.3000    70.2991    26.8551    30.2831
  394.4000    69.3208    27.1608    30.3567
  394.5000    68.3421    27.4711    30.3588
  394.6000    67.4422    27.6625    30.4161
  394.7000    66.7300    27.9063    30.5752
  394.8000    66.1691    28.2243    30.5776
  394.9000    65.7531    28.5344    30.5794
  395.0000    65.4160    28.7246    30.4755
  395.1000    65.1728    28.8619    30.3715
  395.2000    64.9295    29.1258    30.3736
  395.3000    64.6652    29.3366    30.3759
  395.4000    64.8907    29.3601    30.2219
  395.5000    65.1377    29.5459    30.0541
  395.6000    65.4937    29.5477    29.8871
  395.7000    66.1915    29.5497    29.7210
  395.8000    67.6999    29.5518    29.5519
  395.9000    68.8970    29.5230    29.3919
  396.0000    70.4870    29.3510    29.1074
  396.1000    71.8319    29.3529    28.9470
  396.2000    72.8140    29.3549    28.9050
  396.3000    73.7876    29.2779    28.7443
  396.4000    74.6703    29.1155    28.5532
  396.5000    74.8684    28.9538    28.2981
  396.6000    74.9761    28.7932    28.1619
  396.7000    74.8962    28.7583    28.1111
  396.8000    74.6770    28.6735    27.9548
  396.9000    74.6792    28.5627    27.7786
  397.0000    74.4689    28.5542    27.7803
  397.1000    74.3800    28.3688    27.7822
  397.2000    74.3818    28.2382    27.7224
  397.3000    74.4231    28.1757    27.5930
  397.4000    74.6882    28.1208    27.5953
  397.5000    74.6898    27.9646    27.5971
  397.6000    74.8611    27.7921    27.5990
  397.7000    75.2200    27.7938    27.5301
  397.8000    75.8207    27.6939    27.4114
  397.9000    76.8151    27.6048    27.4133
  398.0000    77.7852    27.5787    27.4152
  398.1000    78.5825    27.4172    27.4171
  398.2000    79.3196    27.4190    27.4190
  398.3000    79.9177    27.4209    27.4650
  398.4000    80.1525    27.3497    27.6144
  398.5000    80.1546    27.2345    27.6167
  398.6000    79.9564    27.2369    27.6183
  398.7000    79.5710    27.3928    27.7109
  398.8000    79.0825    27.4305    27.8151
  398.9000    78.5942    27.5150    27.8345
  399.0000    78.0456    27.6723    28.0135
  399.1000    77.8324    27.8209    28.0152
  399.2000    77.4316    27.8232    28.1190
  399.3000    77.0431    27.9546    28.2149
  399.4000    76.8420    28.0210    28.2445
  399.5000    76.8443    28.0791    28.4161
  399.6000    76.8460    28.2207    28.4179
  399.7000    77.0202    28.2230    28.4199
  399.8000    77.4969    28.2247    28.4974
  399.9000    78.2913    28.3300    28.6225
  400.0000    79.2738    28.3959    28.6244
  400.1000    80.0300    28.3252    28.6040
  400.2000    80.7862    28.2545    28.5836
  400.3000    81.5424    28.1838    28.5632
  400.4000    82.3653    28.1130    28.5428
  400.5000    83.2649    28.0423    28.5223
  400.6000    83.9147    27.9716    28.5019
  400.7000    84.2968    27.9009    28.4815
  400.8000    84.5458    27.8302    28.4611
  400.9000    84.7933    27.7595    28.3805
  401.0000    84.7963    27.6888    28.2222
  401.1000    84.6077    27.6181    28.0629
  401.2000    84.3648    27.5474    28.0656
  401.3000    84.0417    27.4767    27.9466
  401.4000    83.5527    27.4060    27.7908
  401.5000    83.0019    27.3353    27.6357
  401.6000    82.5750    27.2256    27.4668
  401.7000    82.0862    27.0736    27.1190
  401.8000    81.5973    26.9264    26.9873
  401.9000    81.1083    26.9291    26.8369
  402.0000    80.6034    26.8089    26.6872
  402.1000    80.1304    26.6593    26.5685
  402.2000    79.8238    26.5630    26.5712
  402.3000    79.4544    26.5652    26.5738
