~VERSION INFORMATION
 VERS.                2.0:   CWLS LOG ASCII STANDARD - VERSION 2.0
 WRAP.                 NO:   ONE LINE PER DEPTH STEP
~WELL INFORMATION
#MNEM.UNIT      DATA TYPE    INFORMATION
#----------   ------------   ------------------------------
 STRT.F           19.0000:   START DEPTH
 STOP.F          600.0000:   STOP DEPTH
 STEP.F            0.5000:   STEP LENGTH
 NULL.          -999.2500:   NO VALUE
 COMP. FENIX & SCISSON INC:   COMPANY
 WELL.       NPR-3 #18-34:   WELL
 FLD .             TEAPOT:   FIELD
 LOC .      S34 T39N R78W:   LOCATION
 CNTY.            NATRONA:   COUNTY
 STAT.            WYOMING:   STATE
 CTRY. UNITED STATES OF AMERICA:   COUNTRY
 SRVC.           BIRDWELL:   SERVICE COMPANY
 DATE.        10-AUG-1978:   LOGDATE
 API .       490251068100:   API NUMBER
~CURVE INFORMATION
#MNEM.UNIT       API CODE    CURVE DESCRIPTION
#----------   ------------   ------------------------------
 DEPT.F                  :   
 SPR .MV     05 010 01 00:   SPONTANEOUS POTENTIAL FROM RES.
 SN  .OHMM   05 040 16 00:   SHORT NORMAL 16"
 ILD .OHMM   05 120 46 00:   INDUCTION LOG DEEP
 GRD .GAPI   45 310 01 00:   GAMMA RAY FROM DENSITY LOG
 CALD.IN     45 280 60 00:   CALIPER
 CORR.G/C3   45 356 01 00:   DENSITY CORRECTION
 DPHI.DEC    45 890 12 00:   DENSITY POROSITY SANDSTONE
 DEN .G/C3   45 350 01 00:   COMPENSATED BULK DENSTIY
~PARAMETER INFORMATION
#MNEM.UNIT          VALUE    DESCRIPTION
#----------   ------------   ------------------------------
 PD  .                 GL:   PERMANENT DATUM
 EPD .F              5159:   ELEVATION PERMANENT DATUM
 LMF .                 KB:   LOG MEASURED FROM
 DAPD.F                 4:   FEET ABOVE PERMANENT DATUM
 DMF .                 KB:   DRILLING MEASURED FROM
 EKB .F              5163:   KELLING BUSHING
 EGL .F              5159:   GROUND LEVEL
 DATE.            8-10-78:   RUN DATE
 RUN .                  1:   RUN NUMBER
 DD  .F               605:   DEPTH DRILLER
 DL  .F               606:   DEPTH LOGGER
 BLI .F               600:   BOTTOM LOG INTERVAL
 TLI .F                35:   TOP LOG INTERVAL
 CS  .IN            8.625:   CASING SIZE
 CBD .F                40:   CASING BOTTOM DRILLER
 BS  .IN            7.875:   BIT SIZE
 BSD .F               605:   BIT SIZE AT DEPTH
 DFT .                KCL:   DRILLING FLUID TYPE
 DFD .                8.7:   DRILLING FLUID DENSITY
 DFV .                 33:   DRILLING FLUID VISCOSITY
 DFPH.                  9:   DRILLING FLUID PH
 MSS .          FLOW LINE:   MUD SAMPLE SOURCE
 RMS .OHMM            .14:   RESISTIVITY MUD SAMPLE
 MST .F                88:   MUD SAMPLE TEMPERATURE
 MFSS.               MEAS:   MUD FILTRATE SAMPLE SOURCE
 MCSS.               MEAS:   MUD CAKE SAMPLE SOURCE
 TCS .HRS               1:   TIME CURCULATED STOPPED
 LUN .               3006:   LOGGING UNIT NUMBER
 LUL .               CASP:   LOGGING UNIT LOCATION
 ENGI.             MILLER:   RECORDING ENGINEER
 WITN.           MCGINLEY:   WITNESSED BY
 CLNT.            A2DTECH:   CLIENT CODE
 ORIG.           5" PRINT:   ORIGIN OF DATA
 UWI .       490251068100:   UNIQUE WELL ID
 DICO. A2D Technologies, Inc.:   DIGITIZING COMPANY
~OTHER INFORMATION
~A   DEPT      SPR         SN        ILD         GRD      CALD       CORR       DPHI        DEN   
# ...
  464.5000   -25.9000     9.2904     9.8478    72.1806     7.7347     0.0261     0.1352     2.4462
  465.0000   -25.9000     9.2953     9.8630    76.1596     7.7580     0.0282     0.1341     2.4527
  465.5000   -25.9000     9.3003     9.8876    78.1056     7.7801     0.0265     0.1381     2.4499
  466.0000   -25.9000     9.3051     9.9123    74.2434     7.7139     0.0249     0.1383     2.4434
  466.5000   -25.9000     9.3098     9.9371    73.9798     7.6368     0.0255     0.1425     2.4403
  467.0000   -25.9001     9.3151     9.9620    77.3107     7.5597     0.0262     0.1510     2.4320
  467.5000   -25.9000     9.3483     9.9869    79.4268     7.4824     0.0270     0.1595     2.4161
  468.0000   -25.9006     9.4725    10.0118    79.1951     7.4553     0.0314     0.1684     2.4004
  468.5000   -25.8260     9.5983    10.0817    80.3041     7.4847     0.0366     0.1777     2.3845
  469.0000   -25.6500     9.8032    10.2908    81.5392     7.8220     0.0449     0.1871     2.3688
  469.5000   -25.2767    10.1097    10.5533    75.7600     7.8990     0.0654     0.1962     2.3570
  470.0000   -24.7773    10.4259    10.8833    74.4771     7.9386     0.0804     0.1981     2.3460
  470.5000   -23.7982    10.7519    11.2236    69.1757     7.9235     0.0841     0.2000     2.3418
  471.0000   -22.6266    11.0882    11.5746    64.1085     7.8865     0.0878     0.2015     2.3398
  471.5000   -22.3493    11.4097    12.0973    64.4981     7.8994     0.0957     0.2055     2.3389
  472.0000   -22.0363    11.7163    12.6692    65.4084     7.9184     0.1090     0.2073     2.3387
  472.5000   -21.6601    12.0098    13.2686    66.3199     7.9375     0.1296     0.1775     2.3603
  473.0000   -21.5421    12.3107    13.8969    64.9011     7.9573     0.1501     0.1478     2.4053
  473.5000   -21.6480    12.6192    14.1479    59.6815     7.9300     0.1695     0.1181     2.4969
  474.0000   -21.7555    12.9353    14.2169    54.5714     7.8847     0.1522     0.0946     2.5263
  474.5000   -21.8636    13.1482    14.2874    54.2421     7.8389     0.1221     0.1151     2.5101
  475.0000   -21.9715    13.2193    14.3583    57.5288     7.7930     0.1097     0.1355     2.4945
  475.5000   -22.0794    13.1403    14.4295    61.0091     7.7476     0.1025     0.1558     2.4299
  476.0000   -22.1853    13.0797    14.4934    64.4558     7.7552     0.0985     0.1664     2.4012
  476.5000   -22.3166    13.0190    14.3200    65.1038     7.7728     0.0986     0.1745     2.3945
  477.0000   -21.0522    12.9505    14.1652    65.2414     7.7904     0.0986     0.1826     2.3765
  477.5000   -20.4767    12.8605    13.8417    65.3969     7.8049     0.0995     0.1986     2.3577
  478.0000   -20.4083    12.7718    13.8603    67.0156     7.8222     0.1006     0.1967     2.3499
  478.5000   -20.3523    12.6836    13.8959    67.3881     7.8413     0.1018     0.1943     2.3493
  479.0000   -20.2973    12.6250    13.9316    67.3974     7.9391     0.1029     0.1978     2.3480
  479.5000   -20.2413    12.6250    13.9697    68.2277     8.0459     0.1041     0.2010     2.3462
  480.0000   -20.1856    12.5070    13.7924    69.3876     8.1230     0.1052     0.2014     2.3454
  480.5000   -20.1305    12.2812    13.5893    66.6033     8.1216     0.1064     0.2014     2.3447
  481.0000   -20.1393    12.2603    13.5756    64.2924     8.1215     0.1035     0.2003     2.3446
  481.5000   -20.2244    12.1196    13.5506    63.6322     8.1215     0.0995     0.1946     2.3459
  482.0000   -20.2946    11.9469    13.5254    62.3273     8.1213     0.0954     0.2043     2.3428
  482.5000   -20.2021    11.9992    13.4993    60.7911     8.1323     0.0948     0.2057     2.3373
  483.0000   -20.1096    12.0573    13.4649    59.3402     8.1476     0.0956     0.2057     2.3361
  483.5000   -20.0177    11.8433    13.4762    60.1981     8.1607     0.0965     0.2082     2.3379
  484.0000   -19.9201    11.6623    13.0368    63.6748     8.1555     0.0929     0.1938     2.3553
  484.5000   -20.0269    11.6009    12.7812    67.1106     8.1501     0.0794     0.1902     2.3562
  485.0000   -20.2032    11.5741    12.6250    70.2725     8.1447     0.0595     0.1902     2.3497
  485.5000   -20.3792    11.5474    12.6250    69.9784     8.1393     0.0413     0.2013     2.3381
  486.0000   -20.5133    11.5208    12.6250    68.0989     8.1339     0.0265     0.2129     2.3256
  486.5000   -20.5466    11.5152    12.6250    66.3986     8.1285     0.0249     0.2249     2.3102
  487.0000   -20.5823    11.5151    12.6250    66.5975     8.1220     0.0258     0.2210     2.3027
  487.5000   -20.6175    11.5151    12.6250    68.5848     8.1776     0.0271     0.2124     2.3173
  488.0000   -20.6528    11.5152    12.6247    70.4632     8.2579     0.0283     0.2101     2.3294
  488.5000   -20.6881    11.5152    12.6238    70.2672     8.2761     0.0285     0.2068     2.3357
  489.0000   -20.7234    11.5152    12.6278    69.1455     8.2674     0.0278     0.2022     2.3419
  489.5000   -20.7587    11.5152    12.4440    68.8354     8.2528     0.0270     0.2022     2.3425
  490.0000   -20.7940    11.5152    12.2249    69.7305     8.2240     0.0296     0.2022     2.3432
  490.5000   -20.8293    11.5153    12.0387    69.3721     8.1955     0.0332     0.1982     2.3488
  491.0000   -20.8645    11.5143    11.9556    68.6047     8.1429     0.0351     0.1957     2.3549
  491.5000   -20.9007    11.4926    11.8730    68.5830     8.0660     0.0357     0.1903     2.3609
  492.0000   -20.9589    11.4703    11.7910    69.1815     7.9915     0.0363     0.1892     2.3651
  492.5000   -21.0182    11.4483    11.7290    70.3792     7.9702     0.0369     0.1877     2.3649
  493.0000   -21.0774    11.4263    11.7181    71.3393     8.0010     0.0392     0.1834     2.3693
  493.5000   -21.1366    11.4043    11.7053    72.0669     8.0202     0.0407     0.1823     2.3718
  494.0000   -21.1959    11.3824    11.6924    72.5745     8.0001     0.0306     0.1955     2.3613
  494.5000   -21.2549    11.3605    11.6796    72.1842     7.9801     0.0208     0.2042     2.3496
  495.0000   -21.3011    11.3386    11.6667    67.7540     7.9601     0.0218     0.2060     2.3377
  495.5000   -21.3001    11.3168    11.6540    65.1587     7.9403     0.0228     0.2070     2.3371
  496.0000   -21.3000    11.2951    11.6411    65.4061     7.9225     0.0236     0.2048     2.3374
  496.5000   -21.3000    11.2734    11.6291    67.0263     7.9108     0.0245     0.2007     2.3392
  497.0000   -21.3000    11.2517    11.5700    71.3501     7.8772     0.0254     0.2058     2.3392
  497.5000   -21.3000    11.2301    11.5109    74.4160     7.7877     0.0263     0.1970     2.3450
  498.0000   -21.3000    11.2085    11.5008    73.9498     7.7749     0.0260     0.1974     2.3518
  498.5000   -21.2996    11.1869    11.4909    72.4747     7.7909     0.0230     0.1905     2.3621
  499.0000   -21.2974    11.1655    11.4810    71.0375     7.7996     0.0200     0.1835     2.3712
  499.5000   -21.3022    11.1440    11.4712    68.2194     7.7875     0.0171     0.1815     2.3702
  500.0000   -21.5226    11.1227    11.4614    64.7995     7.7757     0.0166     0.1863     2.3691
  500.5000   -22.4733    11.1005    11.4516    64.5390     7.7633     0.0227     0.1707     2.3813
  501.0000   -22.8889    11.0704    11.4419    65.1045     7.7761     0.0270     0.1565     2.4182
  501.5000   -23.5060    11.0386    11.4322    65.7841     7.7948     0.0269     0.1423     2.4537
  502.0000   -24.1714    11.0069    11.4224    67.3398     7.8137     0.0263     0.1282     2.4808
  502.5000   -24.8400    10.8345    11.4126    69.7686     7.8208     0.0207     0.1169     2.4825
  503.0000   -25.5336    10.5999    11.3769    71.4676     7.8154     0.0171     0.1323     2.4665
  503.5000   -25.7041    10.3708    11.3117    67.2313     7.8098     0.0150     0.1513     2.4411
  504.0000   -26.2653    10.2149    11.2468    67.7591     7.8033     0.0255     0.1556     2.4154
  504.5000   -26.7376    10.2170    11.1305    70.8766     7.8397     0.0287     0.1610     2.4094
