~VERSION INFORMATION
 VERS.                2.0:   CWLS LOG ASCII STANDARD - VERSION 2.0
 WRAP.                 NO:   ONE LINE PER DEPTH STEP
~WELL INFORMATION
#MNEM.UNIT      DATA TYPE    INFORMATION
#----------   ------------   ------------------------------
 STRT.F          371.0000:   START DEPTH
 STOP.F         1998.0000:   STOP DEPTH
 STEP.F            0.5000:   STEP LENGTH
 NULL.          -999.2500:   NO VALUE
 COMP.       ANADARKO PET:   COMPANY
 WELL. StX-21 NPR #3 #17-21:   WELL
 FLD .             TEAPOT:   FIELD
 LOC .      S21 T39N R78W:   LOCATION
 CNTY.            NATRONA:   COUNTY
 STAT.            WYOMING:   STATE
 CTRY. UNITED STATES OF AMERICA:   COUNTRY
 SRVC.            Unknown:   SERVICE COMPANY
 DATE.        11-OCT-1994:   LOGDATE
 API .       490252266400:   API NUMBER
~CURVE INFORMATION
#MNEM.UNIT       API CODE    CURVE DESCRIPTION
#----------   ------------   ------------------------------
 DEPT.F                  :   
 ROP .MIN/FT 91 810 01 00:   RATE OF DRILLING PENETRATION
 TGAS.UNITS  91 830 01 00:   TOTAL GAS FROM HOTWIRE
~PARAMETER INFORMATION
#MNEM.UNIT          VALUE    DESCRIPTION
#----------   ------------   ------------------------------
 DATE.         10-11-1994:   RUN DATE
 RUN .                  1:   RUN NUMBER
 DD  .F              1997:   DEPTH DRILLER
 BLI .F              2000:   BOTTOM LOG INTERVAL
 TLI .F               360:   TOP LOG INTERVAL
 CS  .IN                7:   CASING SIZE
 CBD .F               344:   CASING BOTTOM DRILLER
 ENGI.   C. TOWER R. HUSK:   RECORDING ENGINEER
 CLNT.            A2DTECH:   CLIENT CODE
 ORIG.         2.5" PRINT:   ORIGIN OF DATA
 UWI .       490252266400:   UNIQUE WELL ID
 DICO. A2D Technologies, Inc.:   DIGITIZING COMPANY
~OTHER INFORMATION
~A   DEPT        ROP       TGAS 
# ...
  978.5000     0.5133     1.8595
  979.0000     0.5138     1.8595
  979.5000     0.5142     1.8595
  980.0000     0.5148     1.8595
  980.5000     0.5152     1.8595
  981.0000     0.5157     1.4876
  981.5000     0.5161     1.4876
  982.0000     0.5166     1.4876
  982.5000     0.5170     1.4876
  983.0000     0.5175     1.4876
  983.5000     0.5179     1.4164
  984.0000     0.5000     1.1157
  984.5000     0.5005     1.1157
  985.0000     0.5009     0.9607
  985.5000     0.5014     0.7438
  986.0000     0.5018     0.7438
  986.5000     0.5023     0.3719
  987.0000     0.5028     0.3719
  987.5000     0.5033     0.3719
  988.0000     0.5037     0.0000
  988.5000     0.4858     0.0000
  989.0000     0.4863     0.0000
  989.5000     0.4867     0.0000
  990.0000     0.4871     0.0000
  990.5000     0.4876     0.0000
  991.0000     0.4696     0.0000
  991.5000     0.4701     0.0000
  992.0000     0.4706     0.0000
  992.5000     0.4710     0.0000
  993.0000     0.4748     0.0000
  993.5000     0.4803     0.0000
  994.0000     0.4858     0.0000
  994.5000     0.4913     0.0000
  995.0000     0.4967     0.0000
  995.5000     0.5022     0.0000
  996.0000     0.5077     0.0000
  996.5000     0.5132     0.0000
  997.0000     0.5186     0.0000
  997.5000     0.5241     0.0000
  998.0000     0.5296     0.0000
  998.5000     0.5351     0.0000
  999.0000     0.5405     0.0000
  999.5000     0.5460     0.0001
 1000.0000     0.5515     0.0005
 1000.5000     0.5519     0.0019
 1001.0000     0.5524     0.0037
 1001.5000     0.5528     0.0056
 1002.0000     0.5533     0.0078
 1002.5000     0.5538     0.0096
 1003.0000     0.5543     0.0114
 1003.5000     0.5548     0.0132
 1004.0000     0.5552     0.0150
 1004.5000     0.5557     0.0168
 1005.0000     0.5561     0.0186
 1005.5000     0.5566     0.0205
 1006.0000     0.5570     0.0225
 1006.5000     0.5575     0.0242
 1007.0000     0.5579     0.0264
 1007.5000     0.5584     0.0279
 1008.0000     0.5588     0.0298
 1008.5000     0.5593     0.0316
 1009.0000     0.5597     0.0336
 1009.5000     0.5602     0.0353
 1010.0000     0.5607     0.0372
 1010.5000     0.5611     0.0390
 1011.0000     0.5616     0.0409
 1011.5000     0.5620     0.0428
 1012.0000     0.5625     0.0446
 1012.5000     0.5630     0.0465
 1013.0000     0.5634     0.0483
 1013.5000     0.5639     0.0502
 1014.0000     0.5644     0.0521
 1014.5000     0.5648     0.0539
 1015.0000     0.5653     0.0558
 1015.5000     0.5658     0.0576
 1016.0000     0.5662     0.1636
 1016.5000     0.5667     0.4333
 1017.0000     0.5671     0.4352
 1017.5000     0.5676     0.4370
 1018.0000     0.5680     0.4388
 1018.5000     0.5685     0.4407
 1019.0000     0.5689     0.4426
 1019.5000     0.5694     0.4444
 1020.0000     0.5699     0.4463
 1020.5000     0.5703     0.4481
 1021.0000     0.5708     0.4500
 1021.5000     0.5712     0.4519
 1022.0000     0.5717     0.4538
 1022.5000     0.5722     0.4556
 1023.0000     0.5727     0.4574
 1023.5000     0.5731     0.4593
 1024.0000     0.5735     0.4612
 1024.5000     0.5740     0.4634
 1025.0000     0.5745     0.4652
 1025.5000     0.5750     0.4667
 1026.0000     0.5754     0.4686
 1026.5000     0.5758     0.4705
 1027.0000     0.5763     0.4723
 1027.5000     0.5767     0.4742
 1028.0000     0.5772     0.4760
 1028.5000     0.5777     0.4779
 1029.0000     0.5781     0.4798
 1029.5000     0.5786     0.4820
 1030.0000     0.5790     0.4835
 1030.5000     0.5795     0.4856
 1031.0000     0.5800     0.4872
 1031.5000     0.5804     0.4890
 1032.0000     0.5809     0.4913
 1032.5000     0.5813     0.4928
 1033.0000     0.5819     0.4946
 1033.5000     0.5823     0.4965
 1034.0000     0.5827     0.4983
 1034.5000     0.5832     0.5002
 1035.0000     0.5836     0.5021
 1035.5000     0.5841     0.5039
 1036.0000     0.5846     0.5058
 1036.5000     0.5851     0.5076
 1037.0000     0.5856     0.5095
 1037.5000     0.5860     0.5114
 1038.0000     0.5865     0.5132
 1038.5000     0.5869     0.5151
 1039.0000     0.5874     0.5169
 1039.5000     0.5878     0.5188
 1040.0000     0.5883     0.5207
 1040.5000     0.5888     0.5225
 1041.0000     0.5892     0.5244
 1041.5000     0.5896     0.5262
 1042.0000     0.5901     0.5285
 1042.5000     0.5905     0.5300
 1043.0000     0.5910     0.5318
 1043.5000     0.5915     0.5337
 1044.0000     0.5919     0.5355
 1044.5000     0.5924     0.5375
 1045.0000     0.5928     0.5393
 1045.5000     0.5933     0.5411
 1046.0000     0.5937     0.5432
 1046.5000     0.5942     0.5448
 1047.0000     0.5947     0.5467
 1047.5000     0.5952     0.5486
 1048.0000     0.5956     0.5507
 1048.5000     0.5960     0.5523
 1049.0000     0.5966     0.5543
 1049.5000     0.5970     0.5564
 1050.0000     0.5975     0.6110
 1050.5000     0.5979     0.9316
 1051.0000     0.5983     0.5615
 1051.5000     0.5989     0.5635
 1052.0000     0.5993     0.5653
 1052.5000     0.5997     0.5671
 1053.0000     0.6002     0.9405
 1053.5000     0.6006     0.7443
 1054.0000     0.6011     0.9446
 1054.5000     0.6016     0.9468
 1055.0000     0.6020     0.9486
 1055.5000     0.6025     0.9504
 1056.0000     0.6029     0.9522
 1056.5000     0.6034     0.9540
 1057.0000     0.6039     0.9558
 1057.5000     0.6043     0.9576
 1058.0000     0.6048     0.9595
 1058.5000     0.6053     0.9615
 1059.0000     0.6058     0.9633
 1059.5000     0.6062     0.9651
 1060.0000     0.6067     0.9669
 1060.5000     0.6071     0.9690
 1061.0000     0.5892     0.9707
 1061.5000     0.5345     0.9725
 1062.0000     0.3511     0.9747
 1062.5000     0.3700     0.9762
 1063.0000     0.3704     0.9781
 1063.5000     0.3709     0.9800
 1064.0000     0.3713     0.9818
 1064.5000     0.3718     0.9837
 1065.0000     0.3538     0.9855
 1065.5000     0.3543     0.9874
 1066.0000     0.3548     0.9893
 1066.5000     0.3611     0.9912
 1067.0000     0.3741     0.9930
 1067.5000     0.3745     0.9948
 1068.0000     0.3750     0.9967
 1068.5000     0.3755     0.9986
 1069.0000     0.3759     1.0004
 1069.5000     0.3764     1.0023
 1070.0000     0.3769     1.0041
 1070.5000     0.3774     1.0060
 1071.0000     0.3778     1.0079
 1071.5000     0.3967     1.0097
 1072.0000     0.3971     1.0116
 1072.5000     0.3976     1.0137
 1073.0000     0.3980     1.0153
 1073.5000     0.3984     1.0171
 1074.0000     0.3989     1.0190
 1074.5000     0.3994     1.0209
 1075.0000     0.3998     1.0230
 1075.5000     0.4003     1.0246
 1076.0000     0.4007     1.0264
 1076.5000     0.4012     1.0283
 1077.0000     0.4017     1.0302
 1077.5000     0.4021     1.0320
 1078.0000     0.4026     1.0339
 1078.5000     0.4030     1.0357
 1079.0000     0.4035     1.0376
 1079.5000     0.4040     1.0395
 1080.0000     0.4044     1.0413
 1080.5000     0.4049     1.0432
 1081.0000     0.4054     1.0452
 1081.5000     0.4059     1.0469
 1082.0000     0.4062     1.0491
 1082.5000     0.4067     1.0506
 1083.0000     0.4072     1.0525
 1083.5000     0.4076     1.0543
 1084.0000     0.4081     1.0562
 1084.5000     0.4086     1.0581
 1085.0000     0.4090     1.0599
 1085.5000     0.4095     1.0618
 1086.0000     0.4099     1.0636
 1086.5000     0.4104     1.0655
 1087.0000     0.4108     1.0677
 1087.5000     0.4113     1.0692
 1088.0000     0.4118     1.0711
 1088.5000     0.4123     1.0729
 1089.0000     0.4128     1.0749
 1089.5000     0.4132     1.0767
 1090.0000     0.4137     1.0788
 1090.5000     0.4141     1.0806
 1091.0000     0.4146     1.0822
 1091.5000     0.4150     1.0841
 1092.0000     0.4155     1.0863
 1092.5000     0.4159     1.0881
 1093.0000     0.4164     1.0899
 1093.5000     0.4169     1.0917
 1094.0000     0.4173     1.0935
 1094.5000     0.4178     1.0953
 1095.0000     0.4182     1.0971
 1095.5000     0.4187     1.0990
 1096.0000     0.4192     1.1008
 1096.5000     0.4196     1.1027
 1097.0000     0.4200     1.1045
 1097.5000     0.4205     1.1064
 1098.0000     0.4210     0.7360
 1098.5000     0.4214     0.7382
 1099.0000     0.4219     0.3682
 1099.5000     0.4223     0.0000
