~VERSION INFORMATION
 VERS.                2.0:   CWLS LOG ASCII STANDARD - VERSION 2.0
 WRAP.                 NO:   ONE LINE PER DEPTH STEP
~WELL INFORMATION
#MNEM.UNIT      DATA TYPE    INFORMATION
#----------   ------------   ------------------------------
 STRT.F          630.0000:   START DEPTH
 STOP.F         1708.0000:   STOP DEPTH
 STEP.F            0.5000:   STEP LENGTH
 NULL.          -999.2500:   NO VALUE
 COMP. FENIX & SCISSON INC:   COMPANY
 WELL.      SHX 34 #58-34:   WELL
 FLD .             TEAPOT:   FIELD
 LOC .      S34 T39N R78W:   LOCATION
 CNTY.            NATRONA:   COUNTY
 STAT.            WYOMING:   STATE
 CTRY. UNITED STATES OF AMERICA:   COUNTRY
 SRVC.           BIRDWELL:   SERVICE COMPANY
 DATE.        28-MAR-1979:   LOGDATE
 API .       490251077400:   API NUMBER
~CURVE INFORMATION
#MNEM.UNIT       API CODE    CURVE DESCRIPTION
#----------   ------------   ------------------------------
 DEPT.F                  :   
 CORR.G/C3   45 356 01 00:   DENSITY CORRECTION
 DPHI.DEC    45 890 12 00:   DENSITY POROSITY SANDSTONE
 RHOB.G/C3   45 350 01 00:   BULK DENSITY
 CALD.IN     45 280 60 00:   CALIPER
 GRD .GAPI   45 310 01 00:   GAMMA RAY FROM DENSITY LOG
~PARAMETER INFORMATION
#MNEM.UNIT          VALUE    DESCRIPTION
#----------   ------------   ------------------------------
 PD  .                 GL:   PERMANENT DATUM
 EPD .F              5120:   ELEVATION PERMANENT DATUM
 LMF .                 KB:   LOG MEASURED FROM
 DAPD.F                10:   FEET ABOVE PERMANENT DATUM
 DMF .                 KB:   DRILLING MEASURED FROM
 EKB .F              5130:   KELLING BUSHING
 EGL .F              5120:   GROUND LEVEL
 DATE.            3-28-79:   RUN DATE
 RUN .                  2:   RUN NUMBER
 DD  .F              1720:   DEPTH DRILLER
 DL  .F              1708:   DEPTH LOGGER
 BLI .F              1708:   BOTTOM LOG INTERVAL
 TLI .F               649:   TOP LOG INTERVAL
 CS  .IN            9.625:   CASING SIZE
 CBD .F               639:   CASING BOTTOM DRILLER
 CBL .F               646:   CASING BOTTOM LOGGER
 BS  .IN             8.75:   BIT SIZE
 BSD .F              1720:   BIT SIZE AT DEPTH
 DFT .                OIL:   DRILLING FLUID TYPE
 TCS .HRS               3:   TIME CURCULATED STOPPED
 MRT .F               150:   MAXIMUM RECORDED TEMPERATURE
 LUN .               2959:   LOGGING UNIT NUMBER
 LUL .             CASPER:   LOGGING UNIT LOCATION
 ENGI.         B. ROLLINS:   RECORDING ENGINEER
 WITN.              AMEND:   WITNESSED BY
 CLNT.            A2DTECH:   CLIENT CODE
 ORIG.           5" PRINT:   ORIGIN OF DATA
 UWI .       490251077400:   UNIQUE WELL ID
 DICO. A2D Technologies, Inc.:   DIGITIZING COMPANY
~OTHER INFORMATION
~A   DEPT     CORR       DPHI       RHOB       CALD         GRD  
# ...
 1606.0000    -0.0080     0.0171     2.5230     9.0338   120.3515
 1606.5000    -0.0079     0.0115     2.5322     9.0345   121.6717
 1607.0000    -0.0079     0.0059     2.5409     9.0352   123.0593
 1607.5000    -0.0049     0.0032     2.5485     9.0359   125.0236
 1608.0000    -0.0010     0.0075     2.5435     9.0366   128.9891
 1608.5000    -0.0029     0.0120     2.5371     9.0373   131.9051
 1609.0000    -0.0089     0.0096     2.5405     9.0380   131.0860
 1609.5000    -0.0146     0.0128     2.5392     9.0387   125.8983
 1610.0000    -0.0205     0.0190     2.5247     9.0395   121.2252
 1610.5000    -0.0240     0.0223     2.5163     9.0402   118.3934
 1611.0000    -0.0199     0.0231     2.5177     9.0409   121.8078
 1611.5000    -0.0162     0.0188     2.5186     9.0416   124.2631
 1612.0000    -0.0161     0.0217     2.5134     9.0423   131.2211
 1612.5000    -0.0159     0.0247     2.5083     9.0430   126.9500
 1613.0000    -0.0158     0.0279     2.5042     9.0437   121.8928
 1613.5000    -0.0116     0.0262     2.5088     9.0444   115.2050
 1614.0000    -0.0071     0.0260     2.5105     9.0452   117.8317
 1614.5000    -0.0024     0.0263     2.5075     9.0459   124.6794
 1615.0000     0.0022     0.0202     2.5191     9.0466   123.8556
 1615.5000     0.0068     0.0129     2.5326     9.0473   122.1833
 1616.0000     0.0112     0.0088     2.5440     9.0480   123.8341
 1616.5000     0.0159     0.0112     2.5329     9.0487   125.8826
 1617.0000     0.0137     0.0139     2.5281     9.0494   123.7255
 1617.5000     0.0094     0.0172     2.5225     9.0501   123.3091
 1618.0000     0.0052     0.0199     2.5175     9.0509   124.5872
 1618.5000     0.0010     0.0229     2.5125     9.0516   122.1245
 1619.0000    -0.0030     0.0225     2.5149     9.0523   118.6585
 1619.5000    -0.0077     0.0198     2.5278     9.0530   117.9764
 1620.0000    -0.0121     0.0087     2.5399     9.0537   120.7317
 1620.5000    -0.0160     0.0032     2.5482     9.0544   123.8023
 1621.0000    -0.0159     0.0100     2.5371     9.0551   128.0878
 1621.5000    -0.0160     0.0192     2.5237     9.0559   120.3188
 1622.0000    -0.0160     0.0200     2.5197     9.0566   123.9152
 1622.5000    -0.0159     0.0237     2.5121     9.0573   120.8763
 1623.0000    -0.0159     0.0254     2.5092     9.0580   116.7093
 1623.5000    -0.0159     0.0214     2.5189     9.0587   116.3618
 1624.0000    -0.0159     0.0175     2.5256     9.0594   118.6735
 1624.5000    -0.0159     0.0145     2.5309     9.0600   113.7348
 1625.0000    -0.0160     0.0197     2.5254     9.0600   114.9441
 1625.5000    -0.0159     0.0253     2.5136     9.0600   121.4717
 1626.0000    -0.0159     0.0261     2.5087     9.0600   119.7178
 1626.5000    -0.0160     0.0287     2.5035     9.0600   117.9738
 1627.0000    -0.0159     0.0308     2.4979     9.0600   121.3874
 1627.5000    -0.0157     0.0332     2.4940     9.0600   125.8398
 1628.0000    -0.0105     0.0334     2.4971     9.0600   125.6360
 1628.5000    -0.0051     0.0256     2.5036     9.0600   124.9546
 1629.0000     0.0005     0.0199     2.5173     9.0600   122.1378
 1629.5000     0.0060     0.0162     2.5271     9.0600   119.3116
 1630.0000     0.0115     0.0144     2.5347     9.0600   122.8950
 1630.5000     0.0158     0.0170     2.5393     9.0600   115.6666
 1631.0000     0.0097     0.0196     2.5220     9.0600   120.0997
 1631.5000     0.0041     0.0221     2.5140     9.0600   118.2120
 1632.0000     0.0031     0.0245     2.5080     9.0600   119.9682
 1632.5000     0.0021     0.0268     2.5045     9.0600   122.9386
 1633.0000     0.0009     0.0271     2.5070     9.0600   118.3108
 1633.5000    -0.0002     0.0247     2.5105     9.0600   119.2842
 1634.0000    -0.0060     0.0231     2.5150     9.0600   124.5452
 1634.5000    -0.0123     0.0255     2.5116     9.0600   123.1075
 1635.0000    -0.0159     0.0252     2.5116     9.0600   119.1204
 1635.5000    -0.0142     0.0242     2.5130     9.0600   115.0791
 1636.0000    -0.0129     0.0231     2.5151     9.0600   118.8682
 1636.5000    -0.0125     0.0247     2.5127     9.0600   125.1915
 1637.0000    -0.0146     0.0255     2.5082     9.0600   123.8296
 1637.5000    -0.0151     0.0258     2.5082     9.0600   120.9908
 1638.0000    -0.0121     0.0263     2.5141     9.0600   116.5111
 1638.5000    -0.0092     0.0220     2.5176     9.0600   117.7470
 1639.0000    -0.0062     0.0173     2.5252     9.0600   122.9676
 1639.5000    -0.0034     0.0127     2.5338     9.0600   128.1434
 1640.0000    -0.0002     0.0078     2.5410     9.0599   125.6740
 1640.5000    -0.0006     0.0016     2.5481     9.0583   120.7587
 1641.0000    -0.0012     0.0036     2.5391     9.0570   118.6706
 1641.5000    -0.0020     0.0094     2.5315     9.0556   119.7937
 1642.0000    -0.0027     0.0159     2.5236     9.0542   121.9836
 1642.5000    -0.0033     0.0141     2.5283     9.0528   125.2202
 1643.0000    -0.0040     0.0120     2.5330     9.0514   121.8440
 1643.5000    -0.0047  -999.2500     2.5319     9.0500   118.6148
 1644.0000    -0.0053  -999.2500     2.5286     9.0486   119.6658
 1644.5000    -0.0059  -999.2500     2.5265     9.0473   122.1701
 1645.0000    -0.0065  -999.2500     2.5236     9.0459   121.1021
 1645.5000    -0.0072  -999.2500     2.5203     9.0445   120.3156
 1646.0000    -0.0078  -999.2500     2.5170     9.0431   119.9103
 1646.5000    -0.0084  -999.2500     2.5136     9.0417   122.6003
 1647.0000    -0.0090  -999.2500     2.5153     9.0403   125.5994
 1647.5000    -0.0097  -999.2500     2.5209     9.0390   128.3465
 1648.0000    -0.0103  -999.2500     2.5167     9.0376   121.7840
 1648.5000    -0.0109  -999.2500     2.5208     9.0362   123.3959
 1649.0000    -0.0116     0.0192     2.5273     9.0348   125.7003
 1649.5000    -0.0123     0.0175     2.5260     9.0334   122.8674
 1650.0000    -0.0130     0.0202     2.5157     9.0320   120.4271
 1650.5000    -0.0138     0.0247     2.5105     9.0307   117.9795
 1651.0000    -0.0146     0.0256     2.5111     9.0293   116.1193
 1651.5000    -0.0155     0.0259     2.5108     9.0279   114.3666
 1652.0000    -0.0150     0.0263     2.5126     9.0265   116.4091
 1652.5000    -0.0114     0.0263     2.5186     9.0251   117.3462
 1653.0000    -0.0081     0.0159     2.5242     9.0237   116.0453
 1653.5000    -0.0047     0.0150     2.5287     9.0224   113.9913
 1654.0000    -0.0039     0.0150     2.5276     9.0210   114.9039
 1654.5000    -0.0025     0.0151     2.5256     9.0196   118.8615
 1655.0000    -0.0010     0.0143     2.5265     9.0182   119.7045
 1655.5000    -0.0003     0.0127     2.5315     9.0168   115.8287
 1656.0000    -0.0017     0.0149     2.5286     9.0154   114.2204
 1656.5000    -0.0029     0.0190     2.5187     9.0140   116.0286
 1657.0000    -0.0038     0.0215     2.5151     9.0127   117.6643
 1657.5000    -0.0009     0.0181     2.5253     9.0113   117.9627
 1658.0000     0.0037     0.0159     2.5212     9.0099   116.4358
 1658.5000     0.0028     0.0177     2.5233     9.0085   117.6172
 1659.0000     0.0003     0.0171     2.5273     9.0071   120.2322
 1659.5000    -0.0025     0.0151     2.5233     9.0057   121.4497
 1660.0000    -0.0044     0.0231     2.5222     9.0044   122.2906
 1660.5000    -0.0013     0.0208     2.5245     9.0030   121.1776
 1661.0000     0.0042     0.0167     2.5292     9.0016   115.9705
 1661.5000     0.0075     0.0127     2.5317     9.0002   111.7224
 1662.0000     0.0052     0.0145     2.5277     8.9988   107.6042
 1662.5000     0.0066     0.0165     2.5233     8.9974   116.1270
 1663.0000     0.0158     0.0183     2.5250     8.9960   123.6471
 1663.5000     0.0245     0.0162     2.5272     8.9947   130.3143
 1664.0000     0.0315     0.0133     2.5297     8.9933   125.8914
 1664.5000     0.0223     0.0132     2.5312     8.9919   118.8192
 1665.0000     0.0095     0.0145     2.5273     8.9905   116.5530
 1665.5000    -0.0032     0.0203     2.5141     8.9891   122.3522
 1666.0000    -0.0149     0.0327     2.5062     8.9877   125.5922
 1666.5000    -0.0206     0.0318     2.5020     8.9864   129.5867
