~VERSION INFORMATION
 VERS.                2.0:   CWLS LOG ASCII STANDARD - VERSION 2.0
 WRAP.                 NO:   ONE LINE PER DEPTH STEP
~WELL INFORMATION
#MNEM.UNIT      DATA TYPE    INFORMATION
#----------   ------------   ------------------------------
 STRT.F         1596.0000:   START DEPTH
 STOP.F         3210.0000:   STOP DEPTH
 STEP.F            0.5000:   STEP LENGTH
 NULL.          -999.2500:   NO VALUE
 COMP.   FLUOR DANIEL INC:   COMPANY
 WELL. NAVAL PETROLEUM RESERVE 3 X-23 #73-23:   WELL
 FLD .             TEAPOT:   FIELD
 LOC .      S23 T38N R78W:   LOCATION
 CNTY.            NATRONA:   COUNTY
 STAT.            WYOMING:   STATE
 CTRY. UNITED STATES OF AMERICA:   COUNTRY
 SRVC.            Unknown:   SERVICE COMPANY
 DATE.        29-JAN-1995:   LOGDATE
 API .       490252265000:   API NUMBER
~CURVE INFORMATION
#MNEM.UNIT       API CODE    CURVE DESCRIPTION
#----------   ------------   ------------------------------
 DEPT.F                  :   
 TGAS.TC/CC  91 830 01 00:   TOTAL GAS UNIT
 ROP .FT/HR  91 810 01 00:   RAT OF DRILLING PENETRATION
~PARAMETER INFORMATION
#MNEM.UNIT          VALUE    DESCRIPTION
#----------   ------------   ------------------------------
 EKB .F              5433:   KELLING BUSHING
 EGL .F              5423:   GROUND LEVEL
 DATE.        29-JAN-1995:   RUN DATE
 RUN .                  1:   RUN NUMBER
 BLI .F              3210:   BOTTOM LOG INTERVAL
 TLI .F              1600:   TOP LOG INTERVAL
 WITN.     C.TOWER/R.HUSK:   WITNESSED BY
 CLNT.            A2DTECH:   CLIENT CODE
 ORIG.           5" PRINT:   ORIGIN OF DATA
 UWI .       490252265000:   UNIQUE WELL ID
 DICO. A2D Technologies, Inc.:   DIGITIZING COMPANY
~OTHER INFORMATION
~A  DEPT        TGAS        ROP 
# ...
 2446.5000     0.2254     0.7298
 2447.0000     0.1354     0.7292
 2447.5000     0.2594     0.7287
 2448.0000     0.2642     0.7378
 2448.5000     0.2689     0.5169
 2449.0000     0.4632     0.5167
 2449.5000     0.4678     0.5166
 2450.0000     0.6612     0.5165
 2450.5000     0.6658     0.5258
 2451.0000     0.6698     0.5257
 2451.5000     0.4853     0.5161
 2452.0000     0.4911     0.5160
 2452.5000     0.4953     0.5159
 2453.0000     0.5000     0.5252
 2453.5000     0.5047     0.5251
 2454.0000     0.5097     0.6193
 2454.5000     0.5144     0.6098
 2455.0000     0.5191     0.6097
 2455.5000     0.7124     0.6190
 2456.0000     0.7170     0.6189
 2456.5000     0.7217     0.6187
 2457.0000     0.9151     0.6186
 2457.5000     0.9198     0.6091
 2458.0000     0.9245     1.0146
 2458.5000     0.9292     1.0145
 2459.0000     1.1235     1.0144
 2459.5000     1.1282     1.0143
 2460.0000     1.1329     1.0047
 2460.5000     1.1375     1.0046
 2461.0000     1.1422     1.0045
 2461.5000     0.9570     1.0138
 2462.0000     0.7730     1.0042
 2462.5000     0.5889     1.0047
 2463.0000     0.5948     1.0229
 2463.5000     0.5994     1.0039
 2464.0000     0.6041     0.7773
 2464.5000     0.6087     0.7867
 2465.0000     0.8021     0.7865
 2465.5000     0.7240     0.7864
 2466.0000     0.6426     0.7863
 2466.5000     0.5612     0.6824
 2467.0000     0.4797     0.6823
 2467.5000     0.3983     0.6539
 2468.0000     0.5660     0.7670
 2468.5000     0.5660     0.7668
 2469.0000     0.7547     0.7667
 2469.5000     0.7547     0.7761
 2470.0000     0.7860     0.7759
 2470.5000     0.9434     0.7853
 2471.0000     0.9434     0.7946
 2471.5000     0.9434     0.7945
 2472.0000     0.9434     0.6905
 2472.5000     1.1321     0.6433
 2473.0000     1.1321     0.6526
 2473.5000     1.3208     0.6525
 2474.0000     1.1321     0.6523
 2474.5000     1.3208     0.6522
 2475.0000     1.3208     0.6616
 2475.5000     1.3208     0.6520
 2476.0000     1.5094     0.6519
 2476.5000     1.3208     0.6517
 2477.0000     1.3208     0.6611
 2477.5000     1.5094     0.6610
 2478.0000     1.5094     0.6608
 2478.5000     1.6981     0.6607
 2479.0000     1.6981     0.6606
 2479.5000     1.8868     0.6605
 2480.0000     2.0755     0.6509
 2480.5000     1.8790     0.6603
 2481.0000     1.6821     0.6587
 2481.5000     1.5094     0.6559
 2482.0000     1.4781     0.6532
 2482.5000     1.3208     0.6504
 2483.0000     1.1321     0.6476
 2483.5000     1.3208     0.6459
 2484.0000     1.3208     0.6452
 2484.5000     1.3208     0.6445
 2485.0000     1.3208     0.6438
 2485.5000     1.3208     0.6431
 2486.0000     1.3208     0.6424
 2486.5000     1.3208     0.6512
 2487.0000     1.1321     0.6410
 2487.5000     0.9434     0.6403
 2488.0000     0.9434     0.7566
 2488.5000     0.7547     0.7805
 2489.0000     0.5660     0.7796
 2489.5000     0.3774     0.7696
 2490.0000     0.4168     0.7784
 2490.5000     0.5039     0.7871
 2491.0000     0.5909     0.7863
 2491.5000     0.6779     0.7856
 2492.0000     0.7650     0.7849
 2492.5000     0.8257     0.7842
 2493.0000     1.0085     0.7835
 2493.5000     1.0038     0.7814
 2494.0000     1.1878     0.9708
 2494.5000     1.1831     0.9605
 2495.0000     1.1785     0.9598
 2495.5000     1.3636     0.9591
 2496.0000     1.5472     0.7792
 2496.5000     1.7316     0.7785
 2497.0000     1.9145     0.7778
 2497.5000     1.9098     0.7771
 2498.0000     1.9051     0.7670
 2498.5000     1.9004     0.7568
 2499.0000     1.8958     0.7561
 2499.5000     1.8911     0.7553
 2500.0000     1.8864     0.7640
 2500.5000     2.0716     0.7633
 2501.0000     1.8770     0.7723
 2501.5000     1.8724     0.7714
 2502.0000     1.6790     0.7707
 2502.5000     1.6743     0.6285
 2503.0000     1.4810     0.6278
 2503.5000     1.2876     0.6366
 2504.0000     1.2829     0.6453
 2504.5000     0.9009     0.6446
 2505.0000     0.7098     0.6343
 2505.5000     0.7141     0.6336
 2506.0000     0.7185     0.6425
 2506.5000     0.7228     0.6417
 2507.0000     0.7271     0.6410
 2507.5000     0.7314     0.6499
 2508.0000     0.7358     0.7811
 2508.5000     0.7401     0.7899
 2509.0000     0.7444     0.7891
 2509.5000     0.7488     0.7979
 2510.0000     0.7531     0.7972
 2510.5000     0.9434     0.7209
 2511.0000     0.9434     0.7202
 2511.5000     1.1321     0.7195
 2512.0000     1.1321     0.6905
 2512.5000     1.3208     0.6925
 2513.0000     1.3208     0.6948
 2513.5000     1.3208     0.6971
 2514.0000     1.3208     0.6994
 2514.5000     1.3208     0.7017
 2515.0000     1.3208     0.7040
 2515.5000     1.3208     0.7063
 2516.0000     1.3208     0.7075
 2516.5000     1.3208     0.6981
 2517.0000     1.3208     0.6981
 2517.5000     1.3208     0.7075
 2518.0000     1.5094     0.6981
 2518.5000     1.5094     0.7075
 2519.0000     1.5094     0.7075
 2519.5000     1.5094     0.6887
 2520.0000     1.5094     0.7925
 2520.5000     1.5070     0.8019
 2521.0000     1.3208     0.8113
 2521.5000     1.3208     0.8109
 2522.0000     1.1321     0.8013
 2522.5000     1.1084     0.8001
 2523.0000     0.9434     0.7990
 2523.5000     0.9434     0.7978
 2524.0000     0.9434     0.7967
 2524.5000     0.9434     0.7955
 2525.0000     0.9434     0.7944
 2525.5000     0.9434     0.7932
 2526.0000     0.9434     0.6981
 2526.5000     0.9434     0.6981
 2527.0000     0.9434     0.6981
 2527.5000     0.7547     0.6887
 2528.0000     0.7547     0.6792
 2528.5000     0.7547     0.6792
 2529.0000     0.5660     0.6792
 2529.5000     0.7547     0.6792
 2530.0000     0.7547     0.6965
 2530.5000     0.8077     0.7736
 2531.0000     0.8921     0.7642
 2531.5000     0.9765     0.7642
 2532.0000     1.0609     0.6321
 2532.5000     1.1453     0.5660
 2533.0000     1.2297     0.5472
 2533.5000     1.3141     0.5377
 2534.0000     1.3774     0.5283
 2534.5000     1.3726     0.5283
 2535.0000     1.1792     0.5283
 2535.5000     0.9858     0.5189
 2536.0000     0.7915     0.5200
 2536.5000     0.5982     0.5283
 2537.0000     0.7834     0.5283
 2537.5000     0.7776     0.5283
 2538.0000     0.7729     0.5283
 2538.5000     0.7683     0.5283
 2539.0000     0.7636     0.5189
 2539.5000     0.9477     0.5189
 2540.0000     0.9430     0.5283
 2540.5000     0.9384     0.5289
 2541.0000     0.9337     0.5300
 2541.5000     0.9291     0.5311
 2542.0000     0.9244     0.5322
 2542.5000     0.9198     0.5332
 2543.0000     0.9151     0.5343
 2543.5000     0.7217     0.5354
 2544.0000     0.7170     0.5358
 2544.5000     0.7113     0.5262
 2545.0000     0.8965     0.5259
 2545.5000     1.0794     0.5257
 2546.0000     1.0747     0.5160
 2546.5000     1.0701     0.5158
 2547.0000     1.0654     0.5155
 2547.5000     1.2506     0.5248
 2548.0000     1.2448     0.5340
 2548.5000     1.2402     0.5337
 2549.0000     1.0468     0.5335
 2549.5000     1.0422     0.5427
 2550.0000     1.0375     0.5424
 2550.5000     1.0329     0.5422
 2551.0000     0.9210     0.5514
 2551.5000     0.8061     0.5512
 2552.0000     0.7170     0.5604
 2552.5000     0.8097     0.5601
 2553.0000     0.8872     0.5599
 2553.5000     0.8756     0.5597
 2554.0000     0.8664     0.5594
 2554.5000     0.8571     0.5592
 2555.0000     0.8479     0.5590
 2555.5000     0.8387     0.5493
 2556.0000     0.8302     0.5490
 2556.5000     0.8202     0.5394
 2557.0000     0.8109     0.5391
 2557.5000     0.8017     0.5389
 2558.0000     0.7925     0.5387
 2558.5000     0.9719     0.5384
 2559.0000     0.9623     0.5382
 2559.5000     0.9511     0.5379
 2560.0000     0.9419     0.5472
 2560.5000     0.7439     0.5469
 2561.0000     0.7347     0.5467
 2561.5000     0.7255     0.5438
 2562.0000     0.7162     0.5368
 2562.5000     0.7070     0.5366
 2563.0000     0.5091     0.5269
 2563.5000     0.4998     0.5266
 2564.0000     0.6792     0.5264
 2564.5000     0.6698     0.5262
 2565.0000     0.6604     0.5259
 2565.5000     0.6492     0.5257
 2566.0000     0.6400     0.5254
 2566.5000     0.6307     0.5252
 2567.0000     0.6226     0.5250
 2567.5000     0.6122     0.5247
