~VERSION INFORMATION
 VERS.                2.0:   CWLS LOG ASCII STANDARD - VERSION 2.0
 WRAP.                 NO:   ONE LINE PER DEPTH STEP
~WELL INFORMATION
#MNEM.UNIT      DATA TYPE    INFORMATION
#----------   ------------   ------------------------------
 STRT.F            0.0000:   START DEPTH
 STOP.F          404.0000:   STOP DEPTH
 STEP.F            0.1000:   STEP LENGTH
 NULL.          -999.2500:   NO VALUE
 COMP.   FLUOR DANIEL INC:   COMPANY
 WELL.   62-1 X 10 #62-10:   WELL
 FLD .             TEAPOT:   FIELD
 LOC .      S10 T38N R78W:   LOCATION
 CNTY.            NATRONA:   COUNTY
 STAT.            WYOMING:   STATE
 CTRY. UNITED STATES OF AMERICA:   COUNTRY
 SRVC.      Western Atlas:   SERVICE COMPANY
 DATE.        29-MAR-1995:   LOGDATE
 API .       490252270300:   API NUMBER
~CURVE INFORMATION
#MNEM.UNIT       API CODE    CURVE DESCRIPTION
#----------   ------------   ------------------------------
 DEPT.F                  :   
 GRR .GAPI   07 310 01 00:   GAMMA RAY
 RILD.OHMM   07 120 46 00:   INDUCTION LOG DEEP RESISTIVITY
 RILM.OHMM   07 120 44 00:   RESITIVITY LONG MEDIUM
~PARAMETER INFORMATION
#MNEM.UNIT          VALUE    DESCRIPTION
#----------   ------------   ------------------------------
 PD  .                 GL:   PERMANENT DATUM
 EPD .F              5160:   ELEVATION PERMANENT DATUM
 LMF .                 KB:   LOG MEASURED FROM
 DAPD.F                10:   FEET ABOVE PERMANENT DATUM
 DMF .                 KB:   DRILLING MEASURED FROM
 EKB .F              5170:   KELLING BUSHING
 EDF .F              5169:   DRILLING FLOOR
 EGL .F              5160:   GROUND LEVEL
 DATE.        29-MAR-1995:   RUN DATE
 RUN .                  1:   RUN NUMBER
 DD  .F               455:   DEPTH DRILLER
 DL  .F               416:   DEPTH LOGGER
 BLI .F               408:   BOTTOM LOG INTERVAL
 TLI .F                95:   TOP LOG INTERVAL
 CS  .IN            9.625:   CASING SIZE
 CBD .F                95:   CASING BOTTOM DRILLER
 CBL .F                95:   CASING BOTTOM LOGGER
 BS  .IN             8.75:   BIT SIZE
 BSD .F               455:   BIT SIZE AT DEPTH
 DFT .                AIR:   DRILLING FLUID TYPE
 MRT .F               204:   MAXIMUM RECORDED TEMPERATURE
 LUN .            HL 6530:   LOGGING UNIT NUMBER
 LUL .             CASPER:   LOGGING UNIT LOCATION
 ENGI.        VERN RAUTIO:   RECORDING ENGINEER
 WITN.        GARY STRONG:   WITNESSED BY
 CLNT.            A2DTECH:   CLIENT CODE
 ORIG.           5" PRINT:   ORIGIN OF DATA
 UWI .       490252270300:   UNIQUE WELL ID
 DICO. A2D Technologies, Inc.:   DIGITIZING COMPANY
~OTHER INFORMATION
~A    DEPT      GRR      RILD       RILM   
# ...
  127.4000   122.3071     6.0179     5.1946
  127.5000   122.4736     6.0181     5.1244
  127.6000   122.4736     6.0183     5.0425
  127.7000   122.4748     6.0185     5.0119
  127.8000   122.7753     6.0186     4.9554
  127.9000   122.9888     6.0188     4.9202
  128.0000   123.4148     6.0190     4.9268
  128.1000   123.9288     6.0191     4.9433
  128.2000   124.4428     6.0193     4.9511
  128.3000   124.9569     6.0195     4.9805
  128.4000   125.4902     6.0196     5.0128
  128.5000   125.9849     6.0198     5.0400
  128.6000   126.9044     6.0200     5.0921
  128.7000   127.6163     6.0201     5.1357
  128.8000   128.0169     6.0203     5.1662
  128.9000   128.2051     6.0205     5.2033
  129.0000   128.2051     6.0206     5.2643
  129.1000   128.2051     6.0436     5.3001
  129.2000   128.2051     6.0629     5.3271
  129.3000   128.0133     6.0631     5.3805
  129.4000   127.6090     6.0673     5.4282
  129.5000   127.0950     6.1057     5.4605
  129.6000   126.5810     6.1398     5.4930
  129.7000   126.0403     6.1764     5.5264
  129.8000   124.8869     6.1916     5.5651
  129.9000   124.2100     6.2221     5.5916
  130.0000   123.4389     6.2962     5.6041
  130.1000   122.6679     6.3711     5.6192
  130.2000   121.4384     6.4559     5.6527
  130.3000   119.5705     6.5239     5.6863
  130.4000   118.5520     6.5740     5.7227
  130.5000   118.5520     6.6341     5.7542
  130.6000   118.7668     6.6989     5.7884
  130.7000   119.0238     6.7461     5.8228
  130.8000   119.5318     6.8261     5.8575
  130.9000   120.3029     6.8737     5.8923
  131.0000   121.1101     6.9077     5.9274
  131.1000   122.1719     6.9488     5.9672
  131.2000   122.4205     6.9902     5.9673
  131.3000   122.6775     7.0318     5.9921
  131.4000   122.7753     7.0737     6.0277
  131.5000   122.8899     7.1178     6.0636
  131.6000   123.0069     7.1179     6.0935
  131.7000   122.7499     7.1510     6.0937
  131.8000   122.4736     7.1935     6.0939
  131.9000   122.2359     7.2364     6.0941
  132.0000   121.5927     7.2686     6.0942
  132.1000   120.8217     7.2688     6.0944
  132.2000   120.2582     7.2691     6.1051
  132.3000   119.9421     7.2692     6.1372
  132.4000   119.4425     7.2694     6.1374
  132.5000   119.1554     7.2696     6.1375
  132.6000   118.9285     7.2698     6.1377
  132.7000   118.6715     7.2700     6.1379
  132.8000   118.4145     7.2712     6.1380
  132.9000   118.1575     7.3212     6.1382
  133.0000   117.9004     7.3213     6.1384
  133.1000   117.6471     7.3215     6.1386
  133.2000   117.6471     7.3217     6.1387
  133.3000   117.6471     7.3219     6.1648
  133.4000   117.6471     7.3221     6.1818
  133.5000   117.7738     7.3223     6.1820
  133.6000   118.0307     7.3225     6.1822
  133.7000   118.3251     7.3227     6.1823
  133.8000   118.8537     7.3230     6.1825
  133.9000   118.8537     7.3232     6.1827
  134.0000   119.2639     7.3234     6.1828
  134.1000   119.7780     7.3236     6.1830
  134.2000   120.2920     7.3238     6.1832
  134.3000   120.8060     7.3240     6.1834
  134.4000   121.3200     7.3242     6.1835
  134.5000   121.8703     7.3244     6.1837
  134.6000   122.1092     7.3078     6.1839
  134.7000   122.3662     7.2741     6.1840
  134.8000   122.6232     7.2727     6.1842
  134.9000   122.9852     7.2242     6.1844
  135.0000   123.4389     7.1877     6.1817
  135.1000   123.6959     7.1745     6.1420
  135.2000   123.9819     7.1531     6.1421
  135.3000   124.2100     7.1253     6.1423
  135.4000   124.6504     7.1255     6.1425
  135.5000   125.0257     7.1257     6.1426
  135.6000   125.2827     7.1259     6.1356
  135.7000   125.5397     7.1261     6.1005
  135.8000   125.7919     7.1263     6.1007
  135.9000   125.1885     7.1264     6.1008
  136.0000   124.3198     7.1266     6.1010
  136.1000   123.1192     7.1268     6.0833
  136.2000   121.9620     7.1271     6.0591
  136.3000   121.0171     7.1272     6.0540
  136.4000   120.2848     7.1274     6.0176
  136.5000   119.7587     7.1521     6.0177
  136.6000   119.1554     7.1775     5.9897
  136.7000   119.1554     7.1777     5.9546
  136.8000   119.3170     7.1757     5.9353
  136.9000   119.5741     7.1285     5.9260
  137.0000   119.8311     7.1286     5.8913
  137.1000   120.1158     7.1288     5.8539
  137.2000   120.6637     7.1290     5.8225
  137.3000   121.3840     7.1292     5.7883
  137.4000   121.9596     7.1220     5.7737
  137.5000   122.4736     7.0803     5.7606
  137.6000   122.8814     7.0315     5.7268
  137.7000   123.2000     6.9975     5.6932
  137.8000   123.6971     6.9565     5.6554
  137.9000   123.9819     6.8965     5.6267
  138.0000   124.4404     6.8156     5.6166
  138.1000   124.7698     6.7309     5.5997
  138.2000   125.0269     6.6065     5.5669
  138.3000   125.2839     6.5332     5.5343
  138.4000   125.5409     6.4567     5.5014
  138.5000   125.7979     6.3810     5.4636
  138.6000   126.0935     6.2908     5.4376
  138.7000   126.3119     6.1892     5.4057
  138.8000   126.7427     6.1165     5.3595
  138.9000   127.1276     6.0372     5.2967
  139.0000   127.4691     5.9117     5.2313
  139.1000   127.9831     5.7497     5.1335
  139.2000   128.5068     5.5825     5.0220
  139.3000   129.1101     5.4200     4.9269
  139.4000   129.5252     5.2738     4.8405
  139.5000   129.8763     5.1816     4.7444
  139.6000   130.3699     5.1112     4.6275
  139.7000   131.0673     5.0609     4.4941
  139.8000   131.5234     5.0212     4.3770
  139.9000   131.5234     4.9775     4.2873
  140.0000   131.5234     4.9282     4.1531
  140.1000   131.3267     4.8993     4.0087
  140.2000   131.0697     4.8695     3.9092
  140.3000   130.5978     4.8696     3.8863
  140.4000   129.9523     4.8697     3.8635
  140.5000   129.6773     4.8699     3.8637
  140.6000   129.1101     4.8700     3.8638
  140.7000   128.6492     4.8701     3.8938
  140.8000   128.3210     4.8703     3.9180
  140.9000   127.9228     4.8704     3.9251
  141.0000   127.4088     4.8705     3.9484
  141.1000   126.7909     4.8707     3.9731
  141.2000   125.7630     4.8708     4.0070
  141.3000   124.5852     4.8709     4.0426
  141.4000   123.2675     4.8711     4.0714
  141.5000   122.0754     4.8712     4.1059
  141.6000   121.1777     4.8714     4.1487
  141.7000   120.3210     4.8715     4.1734
  141.8000   119.3339     4.8716     4.2008
  141.9000   118.5520     4.8717     4.2457
  142.0000   117.3454     4.8814     4.2842
  142.1000   116.3016     4.9060     4.3183
  142.2000   115.1807     4.9061     4.3525
  142.3000   114.7499     4.9063     4.3902
  142.4000   115.0818     4.9064     4.4428
  142.5000   115.6562     4.9065     4.5036
  142.6000   116.7421     4.9198     4.5262
  142.7000   117.9547     4.9410     4.5623
  142.8000   119.4378     4.9441     4.6030
  142.9000   120.6734     4.9757     4.6483
  143.0000   121.8099     4.9758     4.7036
  143.1000   123.1590     4.9981     4.7615
  143.2000   124.6819     5.0450     4.8163
  143.3000   126.0935     5.1051     4.8737
  143.4000   127.4835     5.1728     4.9317
  143.5000   128.4646     5.2653     4.9904
  143.6000   129.3781     5.3718     5.0419
  143.7000   130.4060     5.4842     5.0745
  143.8000   131.3810     5.5923     5.1403
  143.9000   132.1351     5.6749     5.1682
  144.0000   132.4284     5.7425     5.2217
  144.1000   132.4284     5.8108     5.2838
  144.2000   132.2522     5.8804     5.3223
  144.3000   131.9952     5.9629     5.3358
  144.4000   131.6513     6.0211     5.3993
  144.5000   131.0528     6.1162     5.4727
  144.6000   130.0151     6.2084     5.4728
  144.7000   128.2051     6.2934     5.5174
  144.8000   126.9454     6.3971     5.5663
  144.9000   125.7340     6.4374     5.5994
  145.0000   124.7059     6.5096     5.6327
  145.1000   123.6778     6.5574     5.6668
  145.2000   122.7125     6.5965     5.7065
  145.3000   122.1719     6.6357     5.7339
  145.4000   121.9282     6.6752     5.7680
  145.5000   121.6712     6.7125     5.8023
