~VERSION INFORMATION
 VERS.                2.0:   CWLS LOG ASCII STANDARD - VERSION 2.0
 WRAP.                 NO:   ONE LINE PER DEPTH STEP
~WELL INFORMATION
#MNEM.UNIT      DATA TYPE    INFORMATION
#----------   ------------   ------------------------------
 STRT.F          750.0000:   START DEPTH
 STOP.F         1490.0000:   STOP DEPTH
 STEP.F            0.5000:   STEP LENGTH
 NULL.          -999.2500:   NO VALUE
 COMP.    FENIX & SCISSON:   COMPANY
 WELL.  53 STX 15 #53 -15:   WELL
 FLD .             TEAPOT:   FIELD
 LOC .      S15 T38N R78W:   LOCATION
 CNTY.            NATRONA:   COUNTY
 STAT.            WYOMING:   STATE
 CTRY. UNITED STATES OF AMERICA:   COUNTRY
 SRVC.              Welex:   SERVICE COMPANY
 DATE.        01-JUN-1980:   LOGDATE
 API .       490251082000:   API NUMBER
~CURVE INFORMATION
#MNEM.UNIT       API CODE    CURVE DESCRIPTION
#----------   ------------   ------------------------------
 DEPT.F                  :   
 CALD.IN     45 280 60 00:   CALIPER
 GRD .GAPI   45 310 01 00:   GAMMA RAY FROM DENSITY LOG
 CORR.G/C3   45 356 01 00:   DENSITY CORRECTION
 RHOB.G/C3   45 350 01 00:   BULK DENSITY
 DPHI.DEC    45 890 12 00:   DENSITY POROSITY SANDSTONE
~PARAMETER INFORMATION
#MNEM.UNIT          VALUE    DESCRIPTION
#----------   ------------   ------------------------------
 PD  .                 GL:   PERMANENT DATUM
 EPD .F              5257:   ELEVATION PERMANENT DATUM
 LMF .                 KB:   LOG MEASURED FROM
 DAPD.F                10:   FEET ABOVE PERMANENT DATUM
 DMF .                 KB:   DRILLING MEASURED FROM
 EKB .F              5267:   KELLING BUSHING
 EGL .F              5257:   GROUND LEVEL
 DATE.             6-1-80:   RUN DATE
 RUN .                  1:   RUN NUMBER
 DD  .F              1498:   DEPTH DRILLER
 DL  .F              1492:   DEPTH LOGGER
 BLI .F              1490:   BOTTOM LOG INTERVAL
 TLI .F               750:   TOP LOG INTERVAL
 CS  .IN            9.625:   CASING SIZE
 CBD .F               772:   CASING BOTTOM DRILLER
 BS  .IN             8.75:   BIT SIZE
 BSD .F              1498:   BIT SIZE AT DEPTH
 DFT .        AIR DRILLED:   DRILLING FLUID TYPE
 TCS .HRS               4:   TIME CURCULATED STOPPED
 MRT .F                88:   MAXIMUM RECORDED TEMPERATURE
 ENGI.               REIN:   RECORDING ENGINEER
 WITN.            RHOADES:   WITNESSED BY
 CLNT.            A2DTECH:   CLIENT CODE
 ORIG.           5" PRINT:   ORIGIN OF DATA
 UWI .       490251082000:   UNIQUE WELL ID
 DICO. A2D Technologies, Inc.:   DIGITIZING COMPANY
~OTHER INFORMATION
~A   DEPT     CALD         GRD      CORR       RHOB       DPHI   
# ...
 1299.0000     9.1915    85.2943     0.0615     2.4937     0.0322
 1299.5000     9.2500    85.4393     0.0590     2.5011     0.0334
 1300.0000     9.2041    85.6901     0.0629     2.5056     0.0215
 1300.5000     9.1897    85.9438     0.0670     2.4993     0.0199
 1301.0000     9.1884    86.1055     0.0631     2.4857     0.0333
 1301.5000     9.1414    85.4676     0.0590     2.4907     0.0358
 1302.0000     8.9760    84.8271     0.0642     2.4975     0.0273
 1302.5000     8.9762    84.1984     0.0691     2.4877     0.0351
 1303.0000     8.9907    83.7445     0.0626     2.4965     0.0316
 1303.5000     9.0046    83.6983     0.0556     2.4834     0.0273
 1304.0000     9.0181    83.5891     0.0419     2.4656     0.0483
 1304.5000     9.0317    83.4819     0.0261     2.4681     0.0499
 1305.0000     9.0453    83.1988     0.0342     2.4695     0.0467
 1305.5000     9.0588    82.8526     0.0358     2.4544     0.0466
 1306.0000     9.0724    82.5301     0.0267     2.4377     0.0590
 1306.5000     9.0860    82.0462     0.0228     2.4326     0.0746
 1307.0000     9.0994    82.7226     0.0228     2.4497     0.0596
 1307.5000     9.1089    83.4508     0.0270     2.4443     0.0636
 1308.0000     9.1169    82.7483     0.0306     2.4413     0.0636
 1308.5000     9.1259    81.9922     0.0192     2.4309     0.0691
 1309.0000     9.1349    81.2295     0.0158     2.4244     0.0744
 1309.5000     9.1439    80.4649     0.0145     2.4216     0.0782
 1310.0000     9.1528    80.6834     0.0134     2.4202     0.0797
 1310.5000     9.1618    81.1610     0.0143     2.4304     0.0790
 1311.0000     9.1708    81.6193     0.0218     2.4494     0.0712
 1311.5000     9.1798    81.7291     0.0344     2.4683     0.0537
 1312.0000     9.1890    81.2222     0.0484     2.4739     0.0458
 1312.5000     9.1579    80.6786     0.0557     2.4774     0.0484
 1313.0000     9.1013    80.1273     0.0628     2.4820     0.0395
 1313.5000     9.0454    79.5837     0.0595     2.4862     0.0415
 1314.0000     9.0033    79.3473     0.0503     2.4708     0.0342
 1314.5000     9.0399    80.2514     0.0430     2.4552     0.0544
 1315.0000     9.1819    80.0039     0.0385     2.4556     0.0573
 1315.5000     9.2044    79.2554     0.0394     2.4688     0.0502
 1316.0000     9.1819    78.6063     0.0435     2.4809     0.0467
 1316.5000     9.1694    78.6912     0.0393     2.4740     0.0395
 1317.0000     9.1969    78.8974     0.0310     2.4632     0.0465
 1317.5000     9.2099    79.0966     0.0281     2.4648     0.0528
 1318.0000     9.1734    79.2297     0.0295     2.4710     0.0503
 1318.5000     9.1264    78.9495     0.0440     2.4948     0.0389
 1319.0000     9.0721    78.4747     0.0551     2.5008     0.0274
 1319.5000     9.0492    77.9971     0.0514     2.4971     0.0280
 1320.0000     8.9994    77.5193     0.0564     2.4980     0.0313
 1320.5000     8.9801    77.0418     0.0645     2.5049     0.0271
 1321.0000     9.0146    76.5635     0.0656     2.5055     0.0221
 1321.5000     9.0464    76.0822     0.0626     2.4935     0.0296
 1322.0000     9.0108    75.6253     0.0533     2.4923     0.0354
 1322.5000     8.9479    75.8350     0.0455     2.4983     0.0269
 1323.0000     9.0108    76.0781     0.0480     2.4846     0.0355
 1323.5000     9.1774    76.3166     0.0413     2.4809     0.0395
 1324.0000     9.1925    76.5176     0.0324     2.4908     0.0396
 1324.5000     9.0997    76.1927     0.0688     2.5211     0.0223
 1325.0000     9.0056    75.6697     0.0873     2.5451     0.0072
 1325.5000     8.9712    75.1430     0.0922     2.5343    -0.0039
 1326.0000     9.0529    74.6141     0.0829     2.5200     0.0084
 1326.5000     9.0655    74.1092     0.0730     2.5049     0.0187
 1327.0000     9.0519    74.0916     0.0626     2.5064     0.0269
 1327.5000     9.0994    74.0942     0.0727     2.5155     0.0169
 1328.0000     9.2282    74.0921     0.0735     2.5101     0.0173
 1328.5000     9.2484    73.9407     0.0566     2.4859     0.0280
 1329.0000     9.2428    73.5601     0.0213     2.4619     0.0438
 1329.5000     9.2368    73.1792     0.0230     2.4462     0.0595
 1330.0000     9.2310    72.7966     0.0284     2.4557     0.0637
 1330.5000     9.2252    72.3110     0.0307     2.4655     0.0540
 1331.0000     9.2194    72.5885     0.0308     2.4757     0.0463
 1331.5000     9.2137    72.8469     0.0307     2.4887     0.0406
 1332.0000     9.2094    72.7530     0.0310     2.4903     0.0318
 1332.5000     9.2161    72.0640     0.0436     2.5058     0.0366
 1333.0000     9.2229    71.3904     0.0573     2.5148     0.0178
 1333.5000     9.2292    70.7121     0.0656     2.5133     0.0192
 1334.0000     9.2294    70.5011     0.0730     2.5193     0.0167
 1334.5000     9.2294    70.6213     0.0666     2.5032     0.0149
 1335.0000     9.2292    70.7428     0.0552     2.4826     0.0289
 1335.5000     9.2302    70.8639     0.0399     2.4642     0.0434
 1336.0000     9.1785    70.9855     0.0368     2.4609     0.0543
 1336.5000     9.1112    71.1270     0.0368     2.4661     0.0515
 1337.0000     9.0730    71.3577     0.0368     2.4683     0.0471
 1337.5000     9.1262    71.0018     0.0368     2.4631     0.0516
 1338.0000     9.2070    70.5578     0.0369     2.4770     0.0411
 1338.5000     9.2497    70.1148     0.0366     2.4697     0.0447
 1339.0000     9.2278    69.9821     0.0296     2.4573     0.0580
 1339.5000     9.2064    70.2373     0.0306     2.4727     0.0534
 1340.0000     9.1853    70.4717     0.0398     2.4681     0.0459
 1340.5000     9.1646    70.2473     0.0471     2.4703     0.0483
 1341.0000     9.1530    69.9197     0.0446     2.4618     0.0477
 1341.5000     9.1600    70.1954     0.0390     2.4553     0.0556
 1342.0000     9.1182    70.9040     0.0303     2.4526     0.0575
 1342.5000     9.0877    71.6079     0.0268     2.4526     0.0592
 1343.0000     9.0999    71.9890     0.0266     2.4489     0.0583
 1343.5000     9.1166    71.7929     0.0231     2.4432     0.0628
 1344.0000     9.1334    71.6730     0.0179     2.4454     0.0653
 1344.5000     9.1506    71.9445     0.0164     2.4434     0.0617
 1345.0000     9.1693    72.2470     0.0147     2.4385     0.0627
 1345.5000     9.0892    72.5452     0.0092     2.4297     0.0706
 1346.0000     8.9982    72.7429     0.0047     2.4234     0.0794
 1346.5000     9.0229    72.9202     0.0103     2.4241     0.0772
 1347.0000     9.0724    73.0993     0.0158     2.4325     0.0690
 1347.5000     9.1097    73.1817     0.0210     2.4542     0.0583
 1348.0000     9.0893    73.6023     0.0376     2.4744     0.0477
 1348.5000     9.0619    74.1836     0.0529     2.4742     0.0450
 1349.0000     9.0508    74.7724     0.0619     2.4852     0.0439
 1349.5000     9.0983    75.2972     0.0651     2.4870     0.0340
 1350.0000     9.1440    75.2137     0.0683     2.4835     0.0326
 1350.5000     9.1464    75.0334     0.0670     2.4769     0.0447
 1351.0000     9.1372    74.8554     0.0595     2.4908     0.0393
 1351.5000     9.1281    74.6933     0.0566     2.4959     0.0278
 1352.0000     9.0756    74.8990     0.0533     2.4802     0.0359
 1352.5000     9.0491    75.2832     0.0490     2.4683     0.0455
 1353.0000     9.0653    75.2294     0.0425     2.4610     0.0500
 1353.5000     9.0838    74.9917     0.0370     2.4573     0.0552
 1354.0000     9.1021    74.7607     0.0308     2.4594     0.0596
 1354.5000     9.1210    74.1856     0.0288     2.4785     0.0441
 1355.0000     9.0833    73.5035     0.0454     2.4774     0.0407
 1355.5000     9.0023    72.8189     0.0495     2.4558     0.0483
 1356.0000     8.9802    72.1163     0.0393     2.4390     0.0617
 1356.5000     9.0544    72.2040     0.0291     2.4503     0.0681
 1357.0000     9.1263    72.5824     0.0374     2.4728     0.0523
 1357.5000     9.1172    72.8664     0.0532     2.4898     0.0415
 1358.0000     9.0454    71.9703     0.0689     2.5126     0.0262
 1358.5000     8.9762    71.5942     0.0843     2.5214     0.0132
 1359.0000     8.9456    72.1503     0.0825     2.4930     0.0220
 1359.5000     9.0497    72.8994     0.0470     2.4622     0.0428
