~VERSION INFORMATION
 VERS.                2.0:   CWLS LOG ASCII STANDARD - VERSION 2.0
 WRAP.                 NO:   ONE LINE PER DEPTH STEP
~WELL INFORMATION
#MNEM.UNIT      DATA TYPE    INFORMATION
#----------   ------------   ------------------------------
 STRT.F            0.0000:   START DEPTH
 STOP.F          633.0000:   STOP DEPTH
 STEP.F            0.5000:   STEP LENGTH
 NULL.          -999.2500:   NO VALUE
 COMP.       F D SERV INC:   COMPANY
 WELL.    82-1 SX-3 #82-3:   WELL
 FLD .          NPR NO. 3:   FIELD
 LOC .       S3 T38N R78W:   LOCATION
 CNTY.            NATRONA:   COUNTY
 STAT.            WYOMING:   STATE
 CTRY. UNITED STATES OF AMERICA:   COUNTRY
 SRVC.     Atlas Wireline:   SERVICE COMPANY
 DATE.        14-APR-1992:   LOGDATE
 API .       490252250600:   API NUMBER
~CURVE INFORMATION
#MNEM.UNIT       API CODE    CURVE DESCRIPTION
#----------   ------------   ------------------------------
 DEPT.F                  :   
 GRR .GAPI   07 310 01 00:   GAMMA RAY FROM RES
 RILD.OHMM   07 120 46 00:   INDUCTION LOG DEEP RESISTIVITY
 RILM.OHMM   07 120 44 00:   INDUCTION LOG MEDIUM RESISTIVITY
~PARAMETER INFORMATION
#MNEM.UNIT          VALUE    DESCRIPTION
#----------   ------------   ------------------------------
 PD  .                 GL:   PERMANENT DATUM
 EPD .F              5120:   ELEVATION PERMANENT DATUM
 LMF .                 KB:   LOG MEASURED FROM
 DAPD.F                 5:   FEET ABOVE PERMANENT DATUM
 DMF .                 KB:   DRILLING MEASURED FROM
 EKB .F              5125:   KELLING BUSHING
 EDF .F              5124:   DRILLING FLOOR
 EGL .F              5120:   GROUND LEVEL
 DATE.        14-APR-1992:   RUN DATE
 RUN .                  1:   RUN NUMBER
 DD  .F               640:   DEPTH DRILLER
 DL  .F               636:   DEPTH LOGGER
 BLI .F               633:   BOTTOM LOG INTERVAL
 CS  .IN            8.625:   CASING SIZE
 CBD .F                43:   CASING BOTTOM DRILLER
 CBL .F                42:   CASING BOTTOM LOGGER
 BS  .IN            7.875:   BIT SIZE
 BSD .F               640:   BIT SIZE AT DEPTH
 DFT .                AIR:   DRILLING FLUID TYPE
 LUN .           HL- 6321:   LOGGING UNIT NUMBER
 LUL .        RK. SPRINGS:   LOGGING UNIT LOCATION
 ENGI.            TRIBBLE:   RECORDING ENGINEER
 WITN.             STRONG:   WITNESSED BY
 CLNT.            A2DTECH:   CLIENT CODE
 ORIG.           5" PRINT:   ORIGIN OF DATA
 UWI .       490252250600:   UNIQUE WELL ID
 DICO. A2D Technologies, Inc.:   DIGITIZING COMPANY
~OTHER INFORMATION
~A    DEPT     GRR       RILD       RILM   
# ...
  455.0000    88.3617    17.0142    17.1339
  455.5000    89.5649    16.8944    17.1327
  456.0000    86.2168    16.7754    16.8932
  456.5000    81.0535    16.5411    16.6572
  457.0000    79.5265    16.3101    16.3100
  457.5000    79.5147    16.1952    16.0822
  458.0000    80.4119    15.9690    15.7470
  458.5000    84.4100    15.7460    15.5270
  459.0000    92.3273    15.5260    15.3102
  459.5000    94.6189    15.4165    15.2023
  460.0000    89.4526    15.3079    15.0953
  460.5000    88.5317    15.3069    15.0942
  461.0000    86.7017    15.1991    15.0930
  461.5000    83.3565    15.0920    15.3049
  462.0000    82.7386    14.9858    15.5194
  462.5000    83.9389    15.0900    15.6275
  463.0000    86.9574    15.3016    15.7362
  463.5000    89.6828    15.4080    15.7349
  464.0000    90.5701    15.4070    15.5151
  464.5000    89.6462    15.4057    15.4059
  465.0000    90.2405    15.2972    15.2974
  465.5000    89.9256    15.0835    15.1896
  466.0000    88.0956    15.0825    15.0824
  466.5000    84.1444    14.9763    14.9762
  467.0000    82.0113    14.9753    14.8707
  467.5000    81.0904    14.8698    14.8697
  468.0000    83.1998    14.5599    14.6620
  468.5000    86.8547    14.2564    14.4572
  469.0000    88.3277    14.1428    14.2553
  469.5000    85.5856    13.8607    14.0562
  470.0000    84.6676    13.7631    13.7632
  470.5000    86.7741    13.6661    13.6663
  471.0000    87.6743    13.4753    13.6651
  471.5000    85.8413    13.4743    13.5689
  472.0000    82.1932    13.3795    13.4733
  472.5000    80.0601    13.3785    13.3785
  473.0000    80.0283    13.2843    13.2843
  473.5000    83.0868    13.0957    13.0987
  474.0000    88.3677    12.9038    13.0065
  474.5000    92.1311    12.7352    12.9149
  475.0000    89.9980    12.6455    12.8239
  475.5000    85.7438    12.6447    12.6448
  476.0000    83.9138    12.5556    12.5556
  476.5000    84.5080    12.5548    12.5548
  477.0000    87.8295    12.5539    12.6423
  477.5000    95.0904    12.6412    12.7300
  478.0000    99.6240    12.6403    12.9086
  478.5000    97.1472    12.8206    13.1846
  479.0000    92.5495    12.9974    13.3789
  479.5000    88.9796    12.9963    13.6491
  480.0000    84.4223    13.0869    13.9375
  480.5000    73.8044    12.9946    14.1330
  481.0000    70.4592    12.9030    14.2316
  481.5000    69.8413    12.7228    13.8375
  482.0000    70.4356    12.6332    13.3607
  482.5000    71.9389    12.4568    12.9910
  483.0000    74.3513    12.2828    12.5434
  483.5000    78.6423    11.9429    12.1934
  484.0000    85.4385    11.7651    11.8588
  484.5000    90.3735    11.6114    11.6114
  485.0000    92.1798    11.4492    11.5296
  485.5000    92.4740    11.3686    11.4484
  486.0000    91.2471    11.2885    11.2885
  486.5000    90.0232    11.2878    11.2878
  487.0000    91.2235    11.3665    11.3663
  487.5000    95.1510    11.3655    11.4453
  488.0000    98.4725    11.4445    11.5249
  488.5000    98.7637    11.5241    11.5241
  489.0000    94.9535    11.5341    11.5233
  489.5000    91.4644    11.6035    11.6033
  490.0000    92.0586    11.6842    11.6842
  490.5000    93.2589    11.7654    11.8479
  491.0000    91.1259    11.9303    11.8470
  491.5000    90.2050    11.9294    11.9294
  492.0000    89.8901    11.9286    11.9286
  492.5000    88.9692    11.9278    11.9278
  493.0000    86.5331    11.8438    11.8438
  493.5000    85.9153    11.6784    11.6784
  494.0000    87.4990    11.5961    11.5152
  494.5000    90.1311    11.4340    11.3542
  495.0000    91.9374    11.2743    11.1957
  495.5000    93.1377    11.0393    11.0393
  496.0000    96.1562    10.9615    10.8851
  496.5000    98.2685    10.7331    10.6582
  497.0000    96.1325    10.5831    10.5831
  497.5000    93.9995    10.3625    10.5086
  498.0000    97.6240    10.3618    10.3618
  498.5000   101.8646    10.2889    10.3611
  499.0000   103.0549    10.2881    10.3508
  499.5000   101.2220    10.2873    10.2873
  500.0000    97.1115    10.2868    10.2868
  500.5000    94.8194    10.3606    10.3597
  501.0000    97.8464    10.5081    10.5802
  501.5000   102.1403    10.8838    10.8814
  502.0000   101.1009    11.5930    11.5261
  502.5000    97.7477    12.8780    12.9640
  503.0000    93.8666    14.5070    14.9128
  503.5000    90.4586    16.3615    16.7981
  504.0000    86.2644    18.6089    19.1884
  504.5000    78.6768    21.3277    22.5412
  505.0000    74.7256    24.8813    25.6418
  505.5000    72.5926    29.8510    29.4133
  506.0000    70.4596    31.5744    32.9007
  506.5000    66.8114    32.2487    34.3140
  507.0000    61.3451    32.4797    33.6034
  507.5000    60.7122    31.8092    32.2237
  508.0000    66.3111    30.2925    30.0476
  508.5000    74.0340    28.0322    27.0550
  509.0000    76.7495    25.9048    25.4051
  509.5000    76.1316    23.7216    23.9934
  510.0000    75.5138    22.2766    22.5588
  510.5000    76.7141    21.5135    21.7845
  511.0000    79.1265    20.7765    21.3333
  511.5000    82.1451    20.4898    21.0382
  512.0000    83.3455    20.3497    20.7469
  512.5000    83.6366    20.3531    20.6039
  513.0000    82.7128    20.3559    20.4616
  513.5000    81.4889    20.3587    20.6067
  514.0000    79.6589    20.3616    20.6082
  514.5000    75.4047    20.3649    20.7546
  515.0000    72.0595    20.3677    20.7560
  515.5000    72.9568    20.2278    20.6123
  516.0000    76.2784    20.0894    20.3272
  516.5000    78.6908    20.0928    20.1872
  517.0000    79.9131    19.9548    20.1885
  517.5000    81.3915    19.9582    20.0491
  518.0000    81.9887    19.8216    19.9106
  518.5000    82.2800    19.5488    19.7731
  519.0000    80.7501    19.3972    19.6365
  519.5000    77.4049    19.1485    19.2302
  520.0000    75.5750    18.8850    19.0970
  520.5000    74.6541    18.7552    18.8332
  521.0000    74.3393    18.6269    18.5727
  521.5000    74.9525    18.3705    18.3158
  522.0000    79.1229    18.1176    18.0624
  522.5000    84.3009    17.9942    17.9377
  523.0000    85.5012    17.9968    17.8138
  523.5000    84.8834    17.9993    17.8150
  524.0000    82.1443    18.0018    17.8165
  524.5000    79.4052    18.0048    17.9429
  525.0000    78.1813    18.1337    18.0701
  525.5000    77.5635    18.1362    18.0713
  526.0000    76.6263    18.1387    18.3273
  526.5000    75.7212    17.7642    18.3286
  527.0000    76.6160    17.5197    17.8238
  527.5000    81.4527    17.1579    17.2120
  528.0000    88.4106    16.8038    16.8368
  528.5000    91.4291    16.5686    16.5067
  529.0000    90.2052    16.3444    16.2784
  529.5000    86.5571    16.2332    16.1657
  530.0000    84.1210    16.1221    16.0543
  530.5000    83.2001    16.1243    16.0554
  531.0000    85.7517    16.0135    15.9443
  531.5000    89.2342    15.9046    15.8344
  532.0000    90.7375    15.6851    15.7250
  532.5000    91.3348    15.3618    15.6002
  533.0000    92.5321    15.0447    15.1866
  533.5000    94.0355    14.7341    14.7684
  534.0000    95.5388    14.5179    14.4623
  534.5000    95.5271    13.9361    14.0640
  535.0000    94.2928    13.4587    13.5815
  535.5000    91.6928    13.0889    13.2074
  536.0000    85.4887    12.8183    12.8437
  536.5000    83.6587    12.4666    12.5777
  537.0000    83.9500    12.2950    12.4037
  537.5000    84.2441    12.1256    12.2321
  538.0000    85.1414    11.9588    12.0629
  538.5000    88.4600    11.8743    11.8963
  539.0000    91.7816    11.7135    11.8971
  539.5000    94.5041    11.7155    11.8147
  540.0000    95.6974    11.6350    11.7331
  540.5000    95.0766    11.6370    11.6523
  541.0000    94.4587    11.6386    11.6531
  541.5000    92.3257    11.6402    11.5724
  542.0000    89.8896    11.6418    11.5734
  542.5000    88.0597    11.6434    11.5742
  543.0000    86.8357    11.6449    11.5854
  543.5000    86.2179    11.6467    11.6573
  544.0000    86.5091    11.6483    11.6581
  544.5000    87.1404    11.6498    11.6589
  545.0000    88.0007    11.6514    11.6597
  545.5000    85.8647    11.7349    11.6605
