~Version Information
 VERS.                1.20:   CWLS log ASCII Standard -VERSION 1.20
 WRAP.                  NO:   One line per frame
~Well Information Block
#MNEM.UNIT       Data Type    Information
#---------    -------------   -------------------------------
 STRT.F           611.0000:   Starting Depth
 STOP.F            -4.7500:   Ending Depth
 STEP.F            -0.5000:   Level Spacing
 NULL.           -999.2500:   Absent Value
 COMP.             COMPANY:   FLUOR DANIEL (NPOSR), INC.
 WELL.                WELL:   84-6 X 10
 FLD .               FIELD:   NPR #3
 LOC .            LOCATION:   10-38N-78W
 CNTY.              COUNTY:   NATRONA
 STAT.               STATE:   WYOMING
 SRVC.     SERVICE COMPANY:   WESTERN ATLAS LOGGING SERVICES
 LIC .      LICENSE NUMBER:   
 DATE.            LOG DATE:   29-NOV-1995 
 API .          API NUMBER:   4902522753 
~Curve Information Block
#MNEM.UNIT       API Codes    Curve Description
#---------    -------------   -------------------------------
 DEPT.F        0   1  0  1:   Depth
 CILD.MMHO     0 110 46  1:   Conductivity of Deep Induction
 GR  .API      0 310  1  1:   Gamma ray counts
 TEN .LBF      0 635 99  1:   Differential Tension
 RILM.OHMM     0 120 44  1:   Resistivity from CILM
 RILD.OHMM     0 120 46  1:   Resistivity from CILD
#  Curve Data
~A   DEPT        CILD        GR          TEN         RILM        RILD
# ...
   499.0000    146.7814    122.0799     57.0493      7.0081      6.8129
   498.5000    135.5697    122.3558     60.8585      7.4620      7.3763
   498.0000    127.6560    124.9268     74.1180      7.8402      7.8336
   497.5000    121.1731    125.8991     82.2679      8.1846      8.2527
   497.0000    115.5770    124.9786     79.1121      8.5143      8.6522
   496.5000    110.7697    125.8715     74.6085      8.8405      9.0277
   496.0000    106.9486    127.8825     77.2848      9.1566      9.3503
   495.5000    104.4799    126.3854     79.0547      9.4318      9.5712
   495.0000    103.4336    122.2824     71.4231      9.6375      9.6680
   494.5000    103.5280    119.3933     60.5626      9.7726      9.6592
   494.0000    104.4639    120.0981     54.8320      9.8572      9.5727
   493.5000    105.7608    122.1151     57.8402      9.9082      9.4553
   493.0000    106.8248    121.1593     65.3700      9.9280      9.3611
   492.5000    107.2135    118.1464     66.6907      9.9223      9.3272
   492.0000    106.9535    119.3795     62.9169      9.9070      9.3499
   491.5000    106.3508    124.2220     64.5106      9.8992      9.4028
   491.0000    105.6631    127.4996     67.6996      9.9101      9.4640
   490.5000    104.9535    128.2430     61.6478      9.9464      9.5280
   490.0000    104.3067    129.3549     53.5900     10.0082      9.5871
   489.5000    103.8780    131.3280     56.8578     10.0801      9.6267
   489.0000    103.7565    131.6260     65.6976     10.1370      9.6380
   488.5000    103.8788    131.5866     65.8943     10.1539      9.6266
   488.0000    104.1920    133.4057     57.4254     10.1315      9.5977
   487.5000    104.7500    133.5319     50.9963     10.0875      9.5465
   487.0000    105.5691    130.5870     51.2290     10.0242      9.4725
   486.5000    106.8505    129.4785     54.1485      9.9097      9.3589
   486.0000    109.3147    130.3203     55.0482      9.7137      9.1479
   485.5000    113.5359    129.6457     52.6811      9.4361      8.8078
   485.0000    119.5333    128.9303     51.4529      9.0829      8.3659
   484.5000    127.1663    130.0536     51.7289      8.6462      7.8637
   484.0000    135.4471    131.6686     50.8764      8.1648      7.3830
   483.5000    142.2179    131.0824     50.8688      7.7329      7.0315
   483.0000    146.1169    129.8168     53.7148      7.3929      6.8438
   482.5000    147.9023    130.7271     56.0532      7.0822      6.7612
   482.0000    149.0631    133.2003     55.1998      6.7666      6.7086
   481.5000    150.1357    132.3775     50.6837      6.5622      6.6606
   481.0000    150.0447    128.5066     44.0960      6.6240      6.6647
   480.5000    147.1740    125.9950     41.9677      6.9684      6.7947
   480.0000    141.6903    128.5262     46.1105      7.4411      7.0576
   479.5000    135.7054    131.8399     51.8247      7.8447      7.3689
   479.0000    130.9206    131.1965     55.9291      8.0961      7.6382
   478.5000    127.6753    128.8779     56.5049      8.2225      7.8324
   478.0000    125.7235    129.4820     52.6906      8.2841      7.9540
   477.5000    124.4554    132.5399     47.9890      8.3308      8.0350
   477.0000    123.1492    134.6234     47.0078      8.3845      8.1202
   476.5000    121.5787    134.7719     49.5058      8.4601      8.2251
   476.0000    119.8203    133.5374     50.5184      8.5672      8.3458
   475.5000    117.9178    133.0301     48.2052      8.6976      8.4805
   475.0000    115.9551    132.0981     43.1737      8.8351      8.6240
   474.5000    114.0607    128.8291     39.4825      8.9762      8.7673
   474.0000    112.3294    125.3417     41.4239      9.1247      8.9024
   473.5000    110.9003    124.5448     46.9801      9.2786      9.0171
   473.0000    109.7812    124.0194     46.1108      9.4255      9.1090
   472.5000    108.8940    124.0078     38.6188      9.5514      9.1832
   472.0000    108.3178    126.6448     35.0277      9.6483      9.2321
   471.5000    108.0121    128.4412     35.7676      9.7174      9.2582
   471.0000    107.7343    126.0936     35.4071      9.7564      9.2821
   470.5000    107.4368    123.6193     34.6428      9.7589      9.3078
   470.0000    107.1919    122.8029     34.8640      9.7336      9.3291
   469.5000    106.8326    122.5551     33.6260      9.7156      9.3604
   469.0000    106.2123    123.5202     29.2785      9.7308      9.4151
   468.5000    105.3752    125.6257     27.0468      9.7766      9.4899
   468.0000    104.5042    126.0353     32.4005      9.8496      9.5690
   467.5000    103.6035    122.7805     38.1308      9.9574      9.6522
   467.0000    102.4956    118.6302     35.1305     10.0965      9.7565
   466.5000    101.1843    118.9898     29.1790     10.2485      9.8830
   466.0000     99.8980    122.7827     29.9708     10.3901     10.0102
   465.5000     98.7353    124.0954     35.2885     10.5077     10.1281
   465.0000     97.5464    122.3954     39.8138     10.6157     10.2515
   464.5000     96.3340    120.8652     38.9552     10.7323     10.3805
   464.0000     94.9777    119.2531     35.1046     10.8617     10.5288
   463.5000     93.3934    118.1377     31.3259     11.0090     10.7074
   463.0000     91.7471    119.3394     28.4327     11.1892     10.8995
   462.5000     90.2439    120.7525     27.8200     11.4033     11.0811
   462.0000     88.8341    121.7419     27.9917     11.6321     11.2569
   461.5000     87.4264    122.3836     25.6944     11.8426     11.4382
   461.0000     86.0937    121.2617     23.4981     12.0283     11.6153
   460.5000     85.0426    119.4097     25.1201     12.2036     11.7588
   460.0000     84.3369    118.7916     27.7922     12.3488     11.8572
   459.5000     83.8700    118.0802     28.5684     12.4285     11.9232
   459.0000     83.5548    116.6492     26.9885     12.4602     11.9682
   458.5000     83.3654    115.3280     23.5850     12.4876     11.9954
   458.0000     83.1898    113.8718     23.2584     12.5086     12.0207
   457.5000     82.8841    113.2449     25.8960     12.5108     12.0650
   457.0000     82.5141    112.7818     24.9762     12.5072     12.1191
   456.5000     82.2167    111.9229     20.3060     12.5252     12.1630
   456.0000     82.0073    111.0815     18.0591     12.5866     12.1940
   455.5000     81.8409    110.8839     19.0573     12.6862     12.2188
   455.0000     81.5802    111.6227     24.3783     12.7907     12.2579
   454.5000     81.2481    113.9011     29.5383     12.8667     12.3080
   454.0000     81.1290    115.9962     28.4669     12.8989     12.3261
   453.5000     81.3688    116.4542     25.1347     12.8719     12.2897
   453.0000     81.7821    113.9828     27.1810     12.7784     12.2276
   452.5000     82.2923    110.7962     28.4169     12.6438     12.1518
   452.0000     82.9751    110.4403     24.7288     12.5046     12.0518
   451.5000     83.7793    113.5117     21.1039     12.3909     11.9361
   451.0000     84.5297    117.1163     19.8329     12.3136     11.8302
   450.5000     85.1955    119.9518     20.7315     12.2589     11.7377
   450.0000     85.9819    120.6477     22.3507     12.1873     11.6304
   449.5000     87.0132    117.3336     21.2353     12.0740     11.4925
   449.0000     88.2262    112.7299     19.2370     11.9343     11.3345
   448.5000     89.5634    112.7914     22.4608     11.7919     11.1653
   448.0000     90.8885    116.7492     26.2227     11.6504     11.0025
   447.5000     92.0048    118.9662     24.4732     11.4934     10.8690
   447.0000     92.9515    117.8956     19.9058     11.2958     10.7583
   446.5000     94.0228    115.8795     16.2376     11.0672     10.6357
   446.0000     95.3947    115.6278     13.6030     10.8643     10.4828
   445.5000     97.0149    117.4987     13.6838     10.7137     10.3077
   445.0000     98.6687    120.0622     15.6334     10.5718     10.1349
   444.5000    100.1749    121.1060     17.1965     10.3961      9.9825
   444.0000    101.6022    120.6842     16.1327     10.2073      9.8423
   443.5000    102.9403    119.5186     13.3276     10.0647      9.7144
