~Version Information
 VERS.                1.20:   CWLS log ASCII Standard -VERSION 1.20
 WRAP.                  NO:   One line per frame
~Well Information Block
#MNEM.UNIT       Data Type    Information
#---------    -------------   -------------------------------
 STRT.F           611.0000:   Starting Depth
 STOP.F            -4.7500:   Ending Depth
 STEP.F            -0.5000:   Level Spacing
 NULL.           -999.2500:   Absent Value
 COMP.             COMPANY:   FLUOR DANIEL (NPOSR), INC.
 WELL.                WELL:   84-6 X 10
 FLD .               FIELD:   NPR #3
 LOC .            LOCATION:   10-38N-78W
 CNTY.              COUNTY:   NATRONA
 STAT.               STATE:   WYOMING
 SRVC.     SERVICE COMPANY:   WESTERN ATLAS LOGGING SERVICES
 LIC .      LICENSE NUMBER:   
 DATE.            LOG DATE:   29-NOV-1995 
 API .          API NUMBER:   4902522753 
~Curve Information Block
#MNEM.UNIT       API Codes    Curve Description
#---------    -------------   -------------------------------
 DEPT.F        0   1  0  1:   Depth
 CILD.MMHO     0 110 46  1:   Conductivity of Deep Induction
 GR  .API      0 310  1  1:   Gamma ray counts
 TEN .LBF      0 635 99  1:   Differential Tension
 RILM.OHMM     0 120 44  1:   Resistivity from CILM
 RILD.OHMM     0 120 46  1:   Resistivity from CILD
#  Curve Data
~A   DEPT        CILD        GR          TEN         RILM        RILD
# ...
   331.0000     50.4379    103.9186    -18.8533     20.3408     19.8263
   330.5000     49.6181    105.1776    -21.0984     20.5477     20.1539
   330.0000     49.0196    103.3149    -19.7146     20.7228     20.4000
   329.5000     48.5913    100.3796    -17.2209     20.9158     20.5798
   329.0000     48.0904     97.8601    -16.2290     21.1904     20.7942
   328.5000     47.4092     95.7046    -13.5557     21.5219     21.0929
   328.0000     46.7526     95.5833     -8.1691     21.7986     21.3892
   327.5000     46.3215     97.5610     -6.4477     21.9639     21.5882
   327.0000     46.0574    100.8791    -11.2316     22.0873     21.7120
   326.5000     45.7456    103.7190    -16.3602     22.2472     21.8600
   326.0000     45.2455    103.5016    -15.8859     22.4480     22.1017
   325.5000     44.6675    100.2730    -11.6913     22.6452     22.3877
   325.0000     44.2380     99.2349    -11.2987     22.8212     22.6050
   324.5000     44.0436    101.5069    -16.0964     22.9632     22.7048
   324.0000     44.0393    102.2169    -20.6882     23.0381     22.7070
   323.5000     44.2174     99.2502    -19.9476     23.0392     22.6155
   323.0000     44.5249     96.3412    -15.4132     22.9881     22.4593
   322.5000     44.8975     96.0247    -11.0642     22.8792     22.2729
   322.0000     45.2293     97.3173     -9.6520     22.7165     22.1095
   321.5000     45.4492     97.7332    -10.3416     22.5551     22.0026
   321.0000     45.5688     96.3112    -12.5593     22.4299     21.9448
   320.5000     45.6416     94.2553    -15.9366     22.2998     21.9099
   320.0000     45.6869     93.3162    -21.2204     22.1574     21.8881
   319.5000     45.7855     92.8802    -24.7206     22.0834     21.8410
   319.0000     45.9334     90.9086    -23.3136     22.1240     21.7707
   318.5000     45.8849     88.5117    -17.5073     22.2458     21.7936
   318.0000     45.5589     89.6672    -11.2780     22.3933     21.9496
   317.5000     45.1320     93.9605     -8.6711     22.5267     22.1572
   317.0000     44.6142     96.7353    -12.3662     22.6423     22.4144
   316.5000     43.8535     95.5504    -20.0858     22.8204     22.8032
   316.0000     42.8898     92.6967    -25.3693     23.1349     23.3156
   315.5000     41.8436     90.8113    -24.5125     23.6137     23.8985
   315.0000     40.7297     90.7021    -19.7753     24.2760     24.5521
   314.5000     39.5699     91.0983    -19.3910     25.1121     25.2717
   314.0000     38.4318     90.9391    -24.4034     26.0260     26.0201
   313.5000     37.3964     89.5557    -25.4855     26.8950     26.7406
   313.0000     36.6165     87.9476    -22.0088     27.6190     27.3101
   312.5000     36.1608     86.7820    -21.4601     28.0891     27.6543
   312.0000     36.0109     85.0918    -23.8955     28.2399     27.7694
   311.5000     35.9098     84.4808    -24.0258     28.2434     27.8476
   311.0000     35.4422     86.0535    -21.7276     28.4493     28.2149
   310.5000     34.4321     87.6501    -19.2614     29.0353     29.0426
   310.0000     33.1484     85.0422    -17.1889     29.7438     30.1674
   309.5000     32.1047     80.5576    -13.9175     30.1930     31.1481
   309.0000     31.6358     79.4079     -9.1442     30.4976     31.6098
   308.5000     31.5821     80.9294     -8.2076     31.2519     31.6635
   308.0000     31.3873     80.8704    -14.2527     32.8489     31.8600
   307.5000     30.8521     80.9574    -20.8443     34.8441     32.4127
   307.0000     30.3394     81.3300    -21.1603     35.8864     32.9605
   306.5000     30.2973     79.3941    -17.4622     35.1139     33.0063
   306.0000     30.8385     77.7066    -14.3201     33.4628     32.4270
   305.5000     31.7863     79.1888    -15.3610     32.2023     31.4601
   305.0000     32.8148     81.2428    -21.1746     31.4962     30.4740
   304.5000     33.6780     82.7220    -25.1329     30.9368     29.6930
   304.0000     34.2803     83.7694    -26.2086     30.4613     29.1713
   303.5000     34.3942     85.3960    -29.9321     30.2152     29.0746
   303.0000     33.9796     88.4638    -33.9904     30.0548     29.4294
   302.5000     33.4993     90.5039    -34.6971     29.7532     29.8514
   302.0000     33.4790     87.1659    -33.5494     29.4186     29.8694
   301.5000     33.9623     79.1409    -29.9586     29.3732     29.4444
   301.0000     34.6198     72.2789    -26.7519     29.8033     28.8852
   300.5000     35.0754     71.0919    -29.1080     30.5458     28.5100
   300.0000     35.2081     73.6429    -30.5955     31.0175     28.4026
   299.5000     35.3126     76.4668    -25.5736     30.5703     28.3185
   299.0000     35.7437     79.4729    -21.6806     29.2421     27.9770
   298.5000     36.4893     82.7840    -23.7485     27.7428     27.4053
   298.0000     37.2478     85.3818    -25.7646     26.6606     26.8472
   297.5000     37.7807     85.7450    -24.9883     26.0748     26.4686
   297.0000     38.1209     83.4391    -25.2729     25.7991     26.2323
   296.5000     38.3252     80.5262    -27.2252     25.7012     26.0925
   296.0000     38.2792     80.4654    -28.3729     25.8220     26.1238
   295.5000     37.8185     85.0687    -28.4510     26.3068     26.4421
   295.0000     36.9882     91.8884    -29.1357     27.1184     27.0356
   294.5000     36.0756     93.6015    -29.5752     27.7406     27.7196
   294.0000     35.9019     85.3034    -26.2452     27.6322     27.8537
   293.5000     37.3313     74.0262    -18.7426     26.9194     26.7872
   293.0000     40.3948     70.3669    -13.9498     25.9942     24.7557
   292.5000     44.6505     74.2043    -15.9393     24.8186     22.3962
   292.0000     49.5811     78.7782    -17.6537     23.1320     20.1690
   291.5000     55.0814     85.0434    -14.7913     20.9100     18.1549
   291.0000     61.0054     97.8160    -14.2813     18.4361     16.3920
   290.5000     67.4015    113.5096    -19.3169     16.0649     14.8365
   290.0000     74.2816    123.6873    -23.7592     14.0740     13.4623
   289.5000     81.2144    126.0889    -23.7754     12.5906     12.3131
   289.0000     87.3074    125.3759    -22.7774     11.6035     11.4538
   288.5000     91.6540    124.7753    -25.0618     11.0467     10.9106
   288.0000     93.9566    126.3161    -30.2743     10.8480     10.6432
   287.5000     94.4368    129.8064    -32.6268     10.9074     10.5891
   287.0000     93.7976    130.9995    -28.7069     11.0699     10.6613
   286.5000     93.6866    127.5051    -20.4728     11.1427     10.6739
   286.0000     96.4277    123.4849    -13.7900     10.9829     10.3705
   285.5000    104.0169    122.7536    -13.1702     10.5490      9.6138
   285.0000    117.3959    124.9841    -16.1757      9.8244      8.5182
   284.5000    134.6354    127.9349    -19.1232      8.8638      7.4275
   284.0000    150.3807    130.6650    -23.2553      7.9243      6.6498
   283.5000    159.6360    136.2778    -26.8940      7.1928      6.2643
   283.0000    162.7106    146.2637    -26.7186      6.5980      6.1459
   282.5000    163.3764    153.5003    -24.8633      6.0051      6.1208
   282.0000    164.2003    150.0768    -25.1851      5.5251      6.0901
   281.5000    164.0732    141.1466    -27.7888      5.4268      6.0948
   281.0000    158.9164    135.9695    -30.0605      5.8817      6.2926
   280.5000    146.8411    134.3872    -29.8680      6.8794      6.8101
   280.0000    131.5876    133.5524    -29.2467      8.1391      7.5995
   279.5000    119.0404    133.7094    -29.6933      9.1923      8.4005
   279.0000    111.7185    133.6305    -28.9878      9.7421      8.9511
   278.5000    109.2366    132.3766    -26.1931      9.8046      9.1544
   278.0000    110.0385    132.4903    -23.6024      9.5840      9.0877
   277.5000    112.0045    135.7464    -23.1443      9.2852      8.9282
   277.0000    113.7600    139.7940    -24.7184      9.0278      8.7904
   276.5000    115.1291    140.5360    -25.8914      8.8678      8.6859
   276.0000    116.0464    137.6764    -25.6109      8.8093      8.6172
   275.5000    116.2178    135.7116    -25.5468      8.8300      8.6045
