~Version Information
 VERS.                1.20:   CWLS log ASCII Standard -VERSION 1.20
 WRAP.                  NO:   One line per frame
~Well Information Block
#MNEM.UNIT       Data Type    Information
#---------    -------------   -------------------------------
 STRT.F           611.0000:   Starting Depth
 STOP.F            -4.7500:   Ending Depth
 STEP.F            -0.5000:   Level Spacing
 NULL.           -999.2500:   Absent Value
 COMP.             COMPANY:   FLUOR DANIEL (NPOSR), INC.
 WELL.                WELL:   84-6 X 10
 FLD .               FIELD:   NPR #3
 LOC .            LOCATION:   10-38N-78W
 CNTY.              COUNTY:   NATRONA
 STAT.               STATE:   WYOMING
 SRVC.     SERVICE COMPANY:   WESTERN ATLAS LOGGING SERVICES
 LIC .      LICENSE NUMBER:   
 DATE.            LOG DATE:   29-NOV-1995 
 API .          API NUMBER:   4902522753 
~Curve Information Block
#MNEM.UNIT       API Codes    Curve Description
#---------    -------------   -------------------------------
 DEPT.F        0   1  0  1:   Depth
 CILD.MMHO     0 110 46  1:   Conductivity of Deep Induction
 GR  .API      0 310  1  1:   Gamma ray counts
 TEN .LBF      0 635 99  1:   Differential Tension
 RILM.OHMM     0 120 44  1:   Resistivity from CILM
 RILD.OHMM     0 120 46  1:   Resistivity from CILD
#  Curve Data
~A   DEPT        CILD        GR          TEN         RILM        RILD
# ...
   219.0000    204.5856    141.7688    -23.2325      5.2438      4.8879
   218.5000    209.1509    149.4290    -20.1270      5.0366      4.7812
   218.0000    210.1377    152.6331    -17.4222      4.9080      4.7588
   217.5000    207.1404    153.3113    -19.3059      4.9165      4.8276
   217.0000    201.1654    151.8611    -25.2079      5.0096      4.9710
   216.5000    194.0782    146.6776    -29.2483      5.1186      5.1526
   216.0000    187.0099    140.8521    -31.0832      5.2807      5.3473
   215.5000    179.5270    138.9242    -34.6007      5.5601      5.5702
   215.0000    171.3459    139.9686    -38.3226      5.9261      5.8361
   214.5000    163.6145    140.7000    -35.3349      6.2593      6.1119
   214.0000    157.6665    140.5176    -30.8617      6.4632      6.3425
   213.5000    154.2666    140.5670    -33.2419      6.5241      6.4823
   213.0000    154.0555    141.0511    -39.6155      6.4806      6.4912
   212.5000    157.4564    140.0973    -41.1658      6.3866      6.3510
   212.0000    164.8564    138.9730    -37.3896      6.2646      6.0659
   211.5000    176.8148    138.4640    -33.8739      6.0706      5.6556
   211.0000    192.8173    136.5059    -34.7718      5.7678      5.1863
   210.5000    211.7629    132.7580    -37.8679      5.3829      4.7223
   210.0000    234.6290    131.5193    -37.7743      4.9249      4.2620
   209.5000    264.6492    132.3207    -32.4752      4.3609      3.7786
   209.0000    301.8091    129.3372    -25.0618      3.7737      3.3134
   208.5000    338.8481    119.0467    -19.6081      3.2991      2.9512
   208.0000    367.1650    108.8784    -19.4593      2.9936      2.7236
   207.5000    381.7263    107.8665    -24.0340      2.8185      2.6197
   207.0000    384.0205    114.8937    -29.9608      2.7154      2.6040
   206.5000    377.6470    121.4092    -34.8121      2.6663      2.6480
   206.0000    364.0039    124.5004    -38.0234      2.6966      2.7472
   205.5000    342.6787    124.9939    -38.6502      2.8474      2.9182
   205.0000    313.6577    124.0701    -34.0133      3.1495      3.1882
   204.5000    279.1345    124.4398    -24.8093      3.6050      3.5825
   204.0000    243.9764    126.6611    -16.9598      4.1783      4.0988
   203.5000    213.9831    129.8325    -15.7109      4.8097      4.6733
   203.0000    189.4306    133.3018    -21.3549      5.4181      5.2790
   202.5000    170.6185    135.6101    -28.1683      5.9611      5.8610
   202.0000    156.4216    134.4690    -32.2894      6.4261      6.3930
   201.5000    145.5963    131.8819    -32.9757      6.8195      6.8683
   201.0000    137.5249    129.0517    -33.2429      7.1665      7.2714
   200.5000    131.8935    126.9357    -30.4963      7.4824      7.5819
   200.0000    127.8215    125.4016    -24.8276      7.7576      7.8234
   199.5000    124.5479    122.9656    -21.7593      7.9825      8.0290
   199.0000    122.0708    121.5957    -23.0363      8.1564      8.1920
   198.5000    120.7436    125.1195    -24.8508      8.2782      8.2820
   198.0000    120.4432    130.8107    -23.8129      8.3562      8.3027
   197.5000    120.6144    134.1823    -21.5794      8.4186      8.2909
   197.0000    120.7729    135.7107    -21.0587      8.4910      8.2800
   196.5000    120.7334    136.7308    -25.8908      8.5738      8.2827
   196.0000    120.3578    137.0711    -36.2328      8.6579      8.3086
   195.5000    119.6378    135.7239    -44.5044      8.7389      8.3586
   195.0000    118.8330    130.3332    -42.4764      8.8144      8.4152
   194.5000    118.1629    125.0252    -33.7754      8.8781      8.4629
   194.0000    117.6021    125.1781    -27.7611      8.9174      8.5032
   193.5000    117.2428    127.1577    -24.3298      8.9207      8.5293
   193.0000    117.3206    125.8299    -20.9992      8.8991      8.5236
   192.5000    117.8255    124.7286    -19.1528      8.8716      8.4871
   192.0000    118.5994    126.4648    -17.9743      8.8385      8.4317
   191.5000    119.5123    128.1297    -16.3971      8.7859      8.3673
   191.0000    120.4437    127.6882    -17.9029      8.7084      8.3026
   190.5000    121.3659    126.7349    -22.8427      8.6247      8.2395
   190.0000    122.1810    126.4839    -28.7908      8.5517      8.1846
   189.5000    122.8416    126.0082    -35.5478      8.4813      8.1406
   189.0000    123.5935    124.3093    -39.7388      8.4041      8.0910
   188.5000    124.6661    124.1261    -37.4357      8.3220      8.0214
   188.0000    126.0991    126.6034    -32.4258      8.2346      7.9303
   187.5000    127.8505    129.6530    -31.0783      8.1424      7.8216
   187.0000    129.6320    131.0174    -33.1547      8.0428      7.7141
   186.5000    131.1657    130.8565    -34.0642      7.9307      7.6239
   186.0000    132.5735    129.4496    -31.7505      7.8163      7.5430
   185.5000    134.1509    126.1793    -28.1603      7.7210      7.4543
   185.0000    135.9203    122.4699    -26.1782      7.6457      7.3573
   184.5000    137.9237    122.0733    -24.5516      7.5693      7.2504
   184.0000    140.7910    123.2518    -23.4316      7.4641      7.1027
   183.5000    145.6733    123.8405    -26.2678      7.3051      6.8647
   183.0000    153.6653    126.8863    -31.3616      7.0572      6.5077
   182.5000    164.8114    132.3901    -31.3769      6.7008      6.0675
   182.0000    176.6203    133.8956    -26.6863      6.2993      5.6619
   181.5000    185.1696    130.6422    -26.0683      5.9551      5.4005
   181.0000    189.2374    127.2570    -29.9464      5.6848      5.2844
   180.5000    190.7805    126.0944    -31.0304      5.4207      5.2416
   180.0000    191.6911    126.6620    -26.6292      5.1632      5.2167
   179.5000    191.7138    126.5804    -21.2484      5.0356      5.2161
   179.0000    188.8748    126.0553    -21.0898      5.1548      5.2945
   178.5000    181.6183    125.8167    -26.9861      5.5212      5.5061
   178.0000    171.0596    125.9215    -33.4375      6.0165      5.8459
   177.5000    160.3551    127.1160    -33.4362      6.4849      6.2362
   177.0000    151.8071    127.9139    -29.8763      6.8393      6.5873
   176.5000    145.7093    126.1838    -28.7343      7.0803      6.8630
   176.0000    141.6825    124.1241    -30.3521      7.2462      7.0580
   175.5000    139.0140    124.1072    -33.1398      7.3657      7.1935
   175.0000    136.9724    123.3181    -36.8922      7.4567      7.3007
   174.5000    135.2233    123.7321    -37.8069      7.5399      7.3952
   174.0000    133.7113    128.2469    -33.0391      7.6295      7.4788
   173.5000    132.4017    133.7781    -28.0103      7.7169      7.5528
   173.0000    131.2556    135.5945    -28.0511      7.7817      7.6187
   172.5000    130.5162    133.5947    -32.5066      7.8188      7.6619
   172.0000    130.5756    130.3579    -36.8531      7.8397      7.6584
   171.5000    131.3207    126.3390    -40.3222      7.8511      7.6149
   171.0000    132.2859    121.0684    -43.4994      7.8452      7.5594
   170.5000    133.4686    116.9801    -43.8270      7.8109      7.4924
   170.0000    135.1357    116.8907    -41.1951      7.7437      7.4000
   169.5000    137.5658    117.6044    -40.4171      7.6399      7.2693
   169.0000    141.2000    116.4828    -43.5189      7.4858      7.0822
   168.5000    145.9992    117.4826    -45.5862      7.2892      6.8494
   168.0000    150.7230    122.8910    -44.4986      7.0993      6.6347
   167.5000    153.9809    127.5800    -40.3658      6.9455      6.4943
   167.0000    155.4442    126.4692    -33.9126      6.7972      6.4332
   166.5000    155.6590    123.5008    -27.0669      6.6219      6.4243
   166.0000    155.2630    123.7163    -24.4973      6.4690      6.4407
   165.5000    154.1996    125.2068    -27.8255      6.4375      6.4851
   165.0000    151.7092    125.2164    -34.9304      6.5752      6.5916
   164.5000    147.5596    124.2211    -41.6798      6.8498      6.7769
   164.0000    142.4716    124.0246    -43.8541      7.1943      7.0189
   163.5000    137.3083    125.0096    -38.9363      7.5389      7.2829
