~Version Information
 VERS.                1.20:   CWLS log ASCII Standard -VERSION 1.20
 WRAP.                  NO:   One line per frame
~Well Information Block
#MNEM.UNIT       Data Type    Information
#---------    -------------   -------------------------------
 STRT.F           611.0000:   Starting Depth
 STOP.F            -4.7500:   Ending Depth
 STEP.F            -0.5000:   Level Spacing
 NULL.           -999.2500:   Absent Value
 COMP.             COMPANY:   FLUOR DANIEL (NPOSR), INC.
 WELL.                WELL:   84-6 X 10
 FLD .               FIELD:   NPR #3
 LOC .            LOCATION:   10-38N-78W
 CNTY.              COUNTY:   NATRONA
 STAT.               STATE:   WYOMING
 SRVC.     SERVICE COMPANY:   WESTERN ATLAS LOGGING SERVICES
 LIC .      LICENSE NUMBER:   
 DATE.            LOG DATE:   29-NOV-1995 
 API .          API NUMBER:   4902522753 
~Curve Information Block
#MNEM.UNIT       API Codes    Curve Description
#---------    -------------   -------------------------------
 DEPT.F        0   1  0  1:   Depth
 CILD.MMHO     0 110 46  1:   Conductivity of Deep Induction
 GR  .API      0 310  1  1:   Gamma ray counts
 TEN .LBF      0 635 99  1:   Differential Tension
 RILM.OHMM     0 120 44  1:   Resistivity from CILM
 RILD.OHMM     0 120 46  1:   Resistivity from CILD
#  Curve Data
~A   DEPT        CILD        GR          TEN         RILM        RILD
# ...
   107.0000    108.1384    132.1629    -25.8448      9.6299      9.2474
   106.5000    111.0302    130.2726    -22.3824      9.4228      9.0066
   106.0000    113.6082    126.4363    -28.4336      9.2611      8.8022
   105.5000    115.8651    125.2429    -36.4420      9.1027      8.6307
   105.0000    118.2283    127.3787    -37.2289      8.9213      8.4582
   104.5000    120.7735    130.3639    -37.6312      8.7264      8.2800
   104.0000    123.1528    131.8165    -40.9224      8.5475      8.1200
   103.5000    125.2081    131.9828    -42.1489      8.3911      7.9867
   103.0000    127.0616    132.4753    -38.7551      8.2462      7.8702
   102.5000    128.7589    135.6474    -33.8956      8.1148      7.7665
   102.0000    130.1783    138.9447    -31.8075      8.0186      7.6818
   101.5000    131.1570    138.9120    -33.8144      7.9723      7.6244
   101.0000    131.5712    136.8805    -35.1485      7.9655      7.6004
   100.5000    131.6349    135.9535    -33.7909      7.9681      7.5968
   100.0000    131.7157    137.4967    -32.8949      7.9628      7.5921
    99.5000    131.7637    139.3154    -34.3528      7.9555      7.5893
    99.0000    131.5246    139.1762    -34.7831      7.9566      7.6031
    98.5000    131.1131    137.3564    -33.2920      7.9658      7.6270
    98.0000    130.7446    135.0511    -31.4107      7.9753      7.6485
    97.5000    130.3124    134.2589    -30.7224      7.9821      7.6739
    97.0000    129.6371    135.7820    -28.4599      8.0026      7.7138
    96.5000    128.7851    137.4795    -24.5992      8.0513      7.7649
    96.0000    128.5680    136.5246    -22.6466      8.1163      7.7780
    95.5000    131.6723    131.3228    -24.1228      8.1617      7.5946
    95.0000    137.3390    124.6912    -28.1543      8.1543      7.2813
    94.5000    139.1992    121.6981    -32.3986      8.0880      7.1839
    94.0000    135.4630    123.5389    -34.7874      7.9824      7.3821
    93.5000    130.3022    127.0290    -32.6182      7.8408      7.6745
    93.0000    125.7745    131.6902    -29.4108      7.6461      7.9507
    92.5000    130.4302    135.4456    -31.7084      7.4591      7.6669
    92.0000    151.7119    135.9166    -37.8901      7.6924      6.5914
    91.5000    173.6261    134.9334    -38.4019      8.5723      5.7595
    91.0000    177.4528    134.9078    -32.6115      9.1460      5.6353
    90.5000    168.1919    135.5968    -27.4942      8.9676      5.9456
    90.0000    159.2459    135.7810    -26.5746      9.3763      6.2796
    89.5000    154.8472    134.7420    -26.8000     11.0129      6.4580
    89.0000    136.0968    132.0817    -25.0807     13.1976      7.3477
    88.5000     80.4289    130.2834    -24.5464     12.2081     12.4333
    88.0000     43.4970    132.5393    -28.1442      8.1677     22.9901
    87.5000     86.9550    135.4301    -32.6838      5.7355     11.5002
    87.0000    186.8489    132.2162    -35.5209      4.7446      5.3519
    86.5000    322.3411    125.7650    -35.9531      3.5420      3.1023
    86.0000    449.1748    123.7682    -32.0384      2.6010      2.2263
    85.5000    349.4924    126.6754    -27.1371      3.0209      2.8613
    85.0000     52.5664    127.0473    -26.1135     20.2670     19.0236
    84.5000   -111.6309    119.5396    -29.1473  10000.0000  10000.0000
    84.0000    -81.4630    106.4488    -32.4974  10000.0000  10000.0000
    83.5000      6.7732     96.1490    -35.9137  10000.0000    147.6398
    83.0000     53.7828     91.5447    -38.3952  10000.0000     18.5933
    82.5000     38.4809     89.4134    -39.1852  10000.0000     25.9869
    82.0000     43.6982     88.5989    -37.3119  10000.0000     22.8842
    81.5000    125.1422     89.0303    -34.3268  10000.0000      7.9909
    81.0000    204.6884     88.3407    -33.8370  10000.0000      4.8855
    80.5000    206.9419     86.7088    -35.5066  10000.0000      4.8323
    80.0000    168.0124     85.7948    -36.1599  10000.0000      5.9519
    79.5000    126.5891     84.7450    -35.2598  10000.0000      7.8996
    79.0000    104.8643     82.7380    -33.8831  10000.0000      9.5361
    78.5000    107.4943     82.8119    -34.5589  10000.0000      9.3028
    78.0000    113.9672     85.7663    -34.6794  10000.0000      8.7745
    77.5000    106.1264     86.8544    -29.0659  10000.0000      9.4227
    77.0000     87.6632     84.5538    -22.0009  10000.0000     11.4073
    76.5000     68.8634     83.1562    -22.0195  10000.0000     14.5215
    76.0000     56.3941     86.0855    -24.5434  10000.0000     17.7323
    75.5000     49.2370     91.6621    -27.5610  10000.0000     20.3099
    75.0000     39.8455     95.8943    -33.0236  10000.0000     25.0969
    74.5000     29.3644     96.8679    -36.7677  10000.0000     34.0548
    74.0000     23.9074     95.2445    -36.2197  10000.0000     41.8280
    73.5000     23.1062     92.3551    -34.3500  10000.0000     43.2783
    73.0000     24.1835     90.2014    -30.2157  10000.0000     41.3504
    72.5000     26.0617     89.5949    -23.2675  10000.0000     38.3705
    72.0000     27.0699     89.1541    -20.4481  10000.0000     36.9414
    71.5000     27.7716     88.5492    -26.6887  10000.0000     36.0080
    71.0000     29.1486     88.0550    -35.4324  10000.0000     34.3070
    70.5000     30.1955     87.4988    -37.8679  10000.0000     33.1175
    70.0000     29.7518     85.9069    -34.5278  10000.0000     33.6114
    69.5000     28.4193     83.2263    -30.0242  10000.0000     35.1873
    69.0000     28.6586     81.8760    -28.1167  10000.0000     34.8936
    68.5000     31.5044     84.1124    -30.7272  10000.0000     31.7416
    68.0000     34.5329     86.8396    -35.5453  10000.0000     28.9579
    67.5000     34.8315     86.8936    -35.2876  10000.0000     28.7097
    67.0000     32.6861     85.9479    -30.3573  10000.0000     30.5941
    66.5000     30.2468     85.0203    -28.5056  10000.0000     33.0614
    66.0000     29.1544     83.1007    -31.1493  10000.0000     34.3001
    65.5000     29.8779     81.7846    -31.6236  10000.0000     33.4696
    65.0000     31.5900     81.9497    -30.1373  10000.0000     31.6555
    64.5000     33.2571     81.9394    -30.8468  10000.0000     30.0687
    64.0000     34.4610     81.8398    -31.4531  10000.0000     29.0183
    63.5000     35.1844     82.5352    -29.2669    313.4756     28.4217
    63.0000     35.2568     82.1640    -27.5336    310.4353     28.3633
    62.5000     33.7039     80.2747    -28.3092    309.5474     29.6702
    62.0000     26.8101     78.3948    -29.3148    308.8254     37.2994
    61.5000     14.9779     77.6117    -28.0298    307.3333     66.7652
    61.0000      5.4598     78.5650    -26.6097    305.1899    183.1558
    60.5000      2.2307     80.4378    -25.8905    304.2195    448.2813
    60.0000      2.0505     82.0586    -25.4623    304.9072    487.6929
    59.5000      2.0559     83.5155    -26.8559    305.3972    486.3994
    59.0000      2.0567     83.7353    -33.7803    304.6462    486.2251
    58.5000      2.0461     81.7424    -42.8931    303.1096    488.7314
    58.0000      2.0483     79.3361    -45.7280    302.0486    488.2136
    57.5000      2.0707     77.3261    -42.0964    302.5007    482.9204
    57.0000      2.0768     74.9310    -36.4155    303.6094    481.5198
    56.5000      2.0595     73.0630    -29.7128    303.6731    485.5559
    56.0000      2.0673     72.6601    -23.5975    303.5920    483.7312
    55.5000      2.1788     73.2327    -24.0691    304.0142    458.9646
    55.0000      2.3982     73.7405    -27.9273    304.5786    416.9731
    54.5000      2.6064     72.1671    -28.9530    304.6953    383.6697
    54.0000      2.7196     69.0032    -27.7696    304.0410    367.7063
    53.5000      2.7860     69.5220    -26.8507    303.0879    358.9336
    53.0000      2.8221     75.8360    -27.2807    303.1033    354.3459
    52.5000      2.7760     81.1297    -31.3137    303.8215    360.2327
    52.0000      2.7082     81.2654    -34.7535    304.0405    369.2427
    51.5000      2.6966     79.5013    -30.7373    303.7339    370.8315
