~Version Information
 VERS.                1.20:   CWLS log ASCII Standard -VERSION 1.20
 WRAP.                  NO:   One line per frame
~Well Information Block
#MNEM.UNIT       Data Type    Information
#---------    -------------   -------------------------------
 STRT.F           611.0000:   Starting Depth
 STOP.F            -4.7500:   Ending Depth
 STEP.F            -0.5000:   Level Spacing
 NULL.           -999.2500:   Absent Value
 COMP.             COMPANY:   FLUOR DANIEL (NPOSR), INC.
 WELL.                WELL:   84-6 X 10
 FLD .               FIELD:   NPR #3
 LOC .            LOCATION:   10-38N-78W
 CNTY.              COUNTY:   NATRONA
 STAT.               STATE:   WYOMING
 SRVC.     SERVICE COMPANY:   WESTERN ATLAS LOGGING SERVICES
 LIC .      LICENSE NUMBER:   
 DATE.            LOG DATE:   29-NOV-1995 
 API .          API NUMBER:   4902522753 
~Curve Information Block
#MNEM.UNIT       API Codes    Curve Description
#---------    -------------   -------------------------------
 DEPT.F        0   1  0  1:   Depth
 CILD.MMHO     0 110 46  1:   Conductivity of Deep Induction
 GR  .API      0 310  1  1:   Gamma ray counts
 TEN .LBF      0 635 99  1:   Differential Tension
 RILM.OHMM     0 120 44  1:   Resistivity from CILM
 RILD.OHMM     0 120 46  1:   Resistivity from CILD
#  Curve Data
~A   DEPT        CILD        GR          TEN         RILM        RILD
# ...
    51.0000      2.7282     78.1634    -22.8295    303.6382    366.5388
    50.5000      2.7408     76.1820    -20.5857    303.9631    364.8545
    50.0000      2.7208     73.0806    -22.2958    303.8418    367.5415
    49.5000      2.6933     69.1424    -24.9136    303.2097    371.2937
    49.0000      2.6648     65.4063    -30.0986    302.4971    375.2681
    48.5000      2.6541     60.0317    -35.4300    301.6628    376.7769
    48.0000      2.6806     48.4445    -37.8731    301.2131    373.0496
    47.5000      2.7094     36.8651    -38.9631    301.3958    369.0825
    47.0000      2.6936     34.2507    -38.2967    301.6570    371.2556
    46.5000      2.6620     37.0198    -34.9893    301.7859    375.6558
    46.0000      2.6566     38.8839    -33.8123    301.7554    376.4187
    45.5000      2.6791     40.3081    -33.7336    301.6511    373.2571
    45.0000      2.7040     40.4540    -30.3298    302.3455    369.8188
    44.5000      2.7108     38.3780    -26.5942    304.9814    368.9006
    44.0000      2.7139     37.3338    -26.7034    309.8770    368.4685
    43.5000      2.7375     39.2535    -28.2436    315.3125    365.2986
    43.0000      2.7521     42.9275    -26.9623    320.4456    363.3582
    42.5000      2.7354     46.7440    -23.9315    325.6963    365.5801
    42.0000      2.6995     49.3614    -24.4955    327.6194    370.4377
    41.5000      2.6677     50.9052    -31.1015    322.2249    374.8569
    41.0000      2.6478     52.1937    -34.4171    315.0635    377.6689
    40.5000      2.6773     53.0433    -29.5270    313.5283    373.5134
    40.0000      2.7449     53.5774    -27.7596    318.7571    364.3171
    39.5000      2.7809     54.7196    -33.3658    327.0618    359.5991
    39.0000      2.7505     56.6092    -38.0783    332.5154    363.5759
    38.5000      2.7090     57.6659    -39.0293    330.0557    369.1436
    38.0000      2.6972     56.4507    -37.7865    322.1543    370.7544
    37.5000      2.6923     53.0015    -32.6054    316.2166    371.4294
    37.0000      2.6859     48.6120    -28.5712    316.1274    372.3149
    36.5000      2.6956     45.6758    -30.8983    321.8345    370.9736
    36.0000      2.7039     44.6447    -33.2685    331.4080    369.8325
    35.5000      2.6927     43.5215    -28.6971    338.8557    371.3706
    35.0000      2.6912     40.7472    -22.3827    338.1421    371.5835
    34.5000      2.7090     37.9993    -24.2075    331.5076    369.1453
    34.0000      2.7179     38.0399    -31.1847    324.2778    367.9297
    33.5000      2.7359     40.9791    -32.9589    317.4343    365.5137
    33.0000      2.7700     42.9773    -27.8907    312.7214    361.0129
    32.5000      2.7942     42.2929    -20.8849    313.3054    357.8867
    32.0000      2.7972     41.4931    -17.6662    319.8806    357.5000
    31.5000      2.7798     41.5241    -20.8251    328.4976    359.7349
    31.0000      2.7489     41.1208    -26.6131    333.6777    363.7861
    30.5000      2.7392     40.3833    -29.6701    333.9097    365.0735
    30.0000      2.7493     40.1242    -29.1931    333.8938    363.7280
    29.5000      2.7609     40.9655    -26.1092    337.4919    362.2007
    29.0000      2.7980     42.6903    -20.7409    343.7607    357.3950
    28.5000      2.8496     43.7301    -17.1425    348.7419    350.9253
    28.0000      2.8711     44.4234    -19.1705    349.0439    348.2939
    27.5000      2.8651     44.6583    -24.5314    343.4880    349.0305
    27.0000      2.8403     43.2480    -26.8839    333.9448    352.0784
    26.5000      2.8021     41.4607    -26.9230    325.9951    356.8813
    26.0000      2.7781     41.3647    -26.3090    324.1802    359.9521
    25.5000      2.7771     42.7461    -22.4880    323.9231    360.0825
    25.0000      2.7647     44.4566   -250.0000    324.0598    361.7056
    24.5000      2.7302     45.7343   -250.0000    332.4863    366.2729
    24.0000      2.6944     45.8931   -250.0000    345.7134    371.1387
    23.5000      2.6712     45.7806   -250.0000    345.7617    374.3674
    23.0000      2.6602     46.7370   -250.0000    332.4426    375.9126
    22.5000      0.0000     49.2275   -250.0000    320.5676      0.2000
    22.0000      0.0000     51.9314   -250.0000    320.5356      0.2000
    21.5000      0.0000     51.8706   -250.0000    330.3948      0.2000
    21.0000      0.0000     48.7861   -250.0000    331.7671      0.2000
    20.5000      0.0000     46.6692   -250.0000    317.4949      0.2000
    20.0000      0.0000     47.1473   -250.0000    307.2388      0.2000
    19.5000      0.0000     48.6408   -250.0000    311.9856      0.2000
    19.0000      0.0000     48.5904   -250.0000      0.2000      0.2000
    18.5000      0.0000     47.0172   -250.0000      0.2000      0.2000
    18.0000      0.0000     46.3131   -250.0000      0.2000      0.2000
    17.5000      0.0000     48.5621   -250.0000      0.2000      0.2000
    17.0000      0.0000     51.8817   -250.0000      0.2000      0.2000
    16.5000      0.0000     53.5666   -250.0000      0.2000      0.2000
    16.0000      0.0000     53.5524   -250.0000      0.2000      0.2000
    15.5000      0.0000     52.8998   -250.0000      0.2000      0.2000
    15.0000      0.0000     52.7524   -250.0000      0.2000      0.2000
    14.5000      0.0000     53.6448   -250.0000      0.2000      0.2000
    14.0000      0.0000     56.1152   -250.0000      0.2000      0.2000
    13.5000      0.0000     59.8279   -250.0000      0.2000      0.2000
    13.0000      0.0000     61.3387   -250.0000      0.2000      0.2000
    12.5000      0.0000     57.0189   -250.0000      0.2000      0.2000
    12.0000      0.0000     47.7908   -250.0000      0.2000      0.2000
    11.5000      0.0000     36.8718   -250.0000      0.2000      0.2000
    11.0000      0.0000     26.0274   -250.0000      0.2000      0.2000
    10.5000      0.0000     17.3768   -250.0000      0.2000      0.2000
    10.0000      0.0000     12.9464   -250.0000      0.2000      0.2000
     9.5000      0.0000     11.4215   -250.0000      0.2000      0.2000
     9.0000      0.0000     10.4534   -250.0000      0.2000      0.2000
     8.5000      0.0000      9.3337   -250.0000      0.2000      0.2000
     8.0000      0.0000      8.8730   -250.0000      0.2000      0.2000
     7.5000      0.0000      9.7577   -250.0000      0.2000      0.2000
     7.0000      0.0000     10.9786   -250.0000      0.2000      0.2000
     6.5000      0.0000     11.0452   -250.0000      0.2000      0.2000
     6.0000      0.0000      9.9188   -250.0000      0.2000      0.2000
     5.5000      0.0000      8.5391   -250.0000      0.2000      0.2000
     5.0000      0.0000      7.5456   -250.0000      0.2000      0.2000
     4.5000      0.0000      7.8973   -250.0000      0.2000      0.2000
     4.0000      0.0000     10.8202   -250.0000      0.2000      0.2000
     3.5000      0.0000     16.5341   -250.0000      0.2000      0.2000
     3.0000      0.0000     22.4477   -250.0000      0.2000      0.2000
     2.5000      0.0000     23.9506   -250.0000      0.2000      0.2000
     2.0000      0.0000     19.7964   -250.0000      0.2000      0.2000
     1.5000      0.0000     19.7964   -250.0000      0.2000      0.2000
     1.0000      0.0000     19.7964   -250.0000      0.2000      0.2000
     0.5000      0.0000     19.7964   -250.0000      0.2000      0.2000
     0.0000      0.0000     19.7964   -250.0000      0.2000      0.2000
    -0.5000      0.0000     19.7964   -250.0000      0.2000      0.2000
    -1.0000      0.0000     19.7964   -250.0000      0.2000      0.2000
    -1.5000      0.0000     19.7964   -250.0000      0.2000      0.2000
    -2.0000      0.0000     19.7964   -250.0000      0.2000      0.2000
    -2.5000      0.0000     19.7964   -250.0000      0.2000      0.2000
    -3.0000      0.0000     19.7964   -250.0000      0.2000      0.2000
    -3.5000      0.0000     19.7964   -250.0000      0.2000      0.2000
    -4.0000      0.0000     19.7964   -250.0000      0.2000      0.2000
    -4.5000      0.0000     19.7964   -250.0000      0.2000      0.2000
