~Version Information
 VERS.                1.20:   CWLS log ASCII Standard -VERSION 1.20
 WRAP.                  NO:   One line per frame
~Well Information Block
#MNEM.UNIT       Data Type    Information
#---------    -------------   -------------------------------
 STRT.F           611.0000:   Starting Depth
 STOP.F            -4.7500:   Ending Depth
 STEP.F            -0.5000:   Level Spacing
 NULL.           -999.2500:   Absent Value
 COMP.             COMPANY:   FLUOR DANIEL (NPOSR), INC.
 WELL.                WELL:   84-6 X 10
 FLD .               FIELD:   NPR #3
 LOC .            LOCATION:   10-38N-78W
 CNTY.              COUNTY:   NATRONA
 STAT.               STATE:   WYOMING
 SRVC.     SERVICE COMPANY:   WESTERN ATLAS LOGGING SERVICES
 LIC .      LICENSE NUMBER:   
 DATE.            LOG DATE:   29-NOV-1995 
 API .          API NUMBER:   4902522753 
~Curve Information Block
#MNEM.UNIT       API Codes    Curve Description
#---------    -------------   -------------------------------
 DEPT.F        0   1  0  1:   Depth
 CILD.MMHO     0 110 46  1:   Conductivity of Deep Induction
 GR  .API      0 310  1  1:   Gamma ray counts
 TEN .LBF      0 635 99  1:   Differential Tension
 RILM.OHMM     0 120 44  1:   Resistivity from CILM
 RILD.OHMM     0 120 46  1:   Resistivity from CILD
#  Curve Data
~A   DEPT        CILD        GR          TEN         RILM        RILD
# ...
   555.0000    114.6571    130.6855    183.1912      9.2183      8.7217
   554.5000    115.3265    131.1753    182.6352      9.1276      8.6710
   554.0000    115.9546    131.7226    179.9646      9.0056      8.6241
   553.5000    116.6112    132.0997    177.5219      8.8959      8.5755
   553.0000    117.1213    130.9788    176.9966      8.8329      8.5382
   552.5000    117.2607    131.5282    178.0239      8.8211      8.5280
   552.0000    117.1562    134.9481    176.4748      8.8406      8.5356
   551.5000    117.0768    136.9361    172.2380      8.8688      8.5414
   551.0000    117.0020    135.1263    168.7242      8.8966      8.5469
   550.5000    116.8369    131.5702    168.6522      8.9227      8.5589
   550.0000    116.6831    128.6939    170.2812      8.9352      8.5702
   549.5000    116.6418    127.7854    170.2564      8.9211      8.5733
   549.0000    116.7455    128.8585    167.6597      8.8902      8.5656
   548.5000    116.9304    130.1077    162.6833      8.8722      8.5521
   548.0000    117.1061    133.0166    155.3447      8.8817      8.5393
   547.5000    117.4012    135.6842    149.6327      8.8979      8.5178
   547.0000    117.9827    134.1788    153.2612      8.8888      8.4758
   546.5000    118.7822    129.8575    163.8011      8.8486      8.4188
   546.0000    119.4890    128.4186    167.3824      8.8023      8.3690
   545.5000    119.8877    131.0190    163.8390      8.7670      8.3411
   545.0000    119.9999    135.3099    162.2773      8.7311      8.3333
   544.5000    120.0378    137.1444    159.9651      8.6809      8.3307
   544.0000    120.0078    134.5919    153.4281      8.6340      8.3328
   543.5000    119.7598    131.5392    151.4529      8.6244      8.3500
   543.0000    119.1962    131.4016    154.4325      8.6715      8.3895
   542.5000    118.3208    132.5723    153.2012      8.7691      8.4516
   542.0000    117.1305    132.6042    150.5864      8.8892      8.5375
   541.5000    115.6942    131.0533    151.5996      9.0045      8.6435
   541.0000    114.1423    128.8167    150.6096      9.1091      8.7610
   540.5000    112.6359    127.1812    145.6274      9.2083      8.8782
   540.0000    111.3707    126.1679    143.2353      9.2992      8.9790
   539.5000    110.5022    126.7440    143.2561      9.3800      9.0496
   539.0000    110.0000    127.5322    139.6232      9.4589      9.0909
   538.5000    109.6296    127.3454    137.2533      9.5361      9.1216
   538.0000    109.1646    128.0653    141.0247      9.5960      9.1605
   537.5000    108.6782    132.0032    139.8916      9.6189      9.2015
   537.0000    108.4214    136.7381    131.1387      9.6022      9.2233
   536.5000    108.3921    138.3790    132.4669      9.5616      9.2258
   536.0000    108.4820    137.7479    144.3625      9.5159      9.2181
   535.5000    108.7235    137.8754    147.0371      9.4833      9.1976
   535.0000    109.0853    139.4828    136.9148      9.4718      9.1671
   534.5000    109.5602    139.5011    127.3546      9.4634      9.1274
   534.0000    110.3923    137.7433    125.5426      9.4282      9.0586
   533.5000    111.7439    134.4562    127.3476      9.3568      8.9490
   533.0000    113.5197    131.4970    128.4950      9.2634      8.8090
   532.5000    115.5530    132.8962    128.6295      9.1553      8.6540
   532.0000    117.8591    138.2623    127.9929      9.0127      8.4847
   531.5000    120.8906    141.2761    125.4706      8.8054      8.2719
   531.0000    125.2637    139.3729    125.6639      8.5329      7.9832
   530.5000    131.1143    135.4338    128.4330      8.2145      7.6269
   530.0000    138.0674    132.7018    128.0805      7.8669      7.2428
   529.5000    145.0999    132.7939    125.9147      7.5157      6.8918
   529.0000    150.6308    136.8456    127.0959      7.2077      6.6387
   528.5000    153.7926    144.6115    131.3345      6.9665      6.5023
   528.0000    155.0732    150.6497    131.3571      6.7556      6.4486
   527.5000    155.3373    150.8669    122.0771      6.5496      6.4376
   527.0000    154.9693    147.2115    110.7153      6.4207      6.4529
   526.5000    153.6208    143.8943    110.1800      6.4796      6.5095
   526.0000    150.4760    140.8359    115.5172      6.7518      6.6456
   525.5000    145.3848    139.1599    116.2452      7.1419      6.8783
   525.0000    139.7076    139.3455    114.5314      7.5096      7.1578
   524.5000    135.0813    139.4887    115.2549      7.7763      7.4030
   524.0000    131.8664    138.5432    115.5877      7.9392      7.5834
   523.5000    129.6123    135.9113    114.0392      8.0282      7.7153
   523.0000    128.1326    132.8989    115.3555      8.0810      7.8044
   522.5000    127.3099    131.2577    118.3775      8.1241      7.8548
   522.0000    126.8756    131.5018    114.6397      8.1680      7.8817
   521.5000    126.7345    131.3089    106.3873      8.2165      7.8905
   521.0000    126.9711    131.7194    104.3765      8.2589      7.8758
   520.5000    127.5973    134.3426    104.6668      8.2653      7.8372
   520.0000    128.4801    137.8881    103.1400      8.2181      7.7833
   519.5000    129.5177    139.5120    105.3808      8.1352      7.7210
   519.0000    130.6266    138.3267    109.2180      8.0401      7.6554
   518.5000    131.6041    135.0122    105.0008      7.9365      7.5985
   518.0000    132.2878    129.9593     96.0936      7.8395      7.5593
   517.5000    132.7788    127.3620     93.3895      7.7934      7.5313
   517.0000    132.9700    130.3158     99.5035      7.8255      7.5205
   516.5000    132.4950    133.5483    104.8178      7.9116      7.5475
   516.0000    131.4978    130.6859    101.1734      8.0040      7.6047
   515.5000    130.6493    126.2992     95.9585      8.0752      7.6541
   515.0000    130.2444    126.4875     96.6813      8.1168      7.6779
   514.5000    129.9131    129.7701    100.9495      8.1320      7.6975
   514.0000    129.1381    132.6493    100.0482      8.1349      7.7436
   513.5000    127.7892    134.4846     91.7827      8.1415      7.8254
   513.0000    126.1192    135.0136     82.9112      8.1528      7.9290
   512.5000    124.3879    135.1750     80.6551      8.1720      8.0394
   512.0000    122.6804    135.5786     81.0604      8.2105      8.1513
   511.5000    121.3750    133.7095     79.7932      8.2563      8.2389
   511.0000    121.0141    128.9760     80.2013      8.2751      8.2635
   510.5000    121.8859    126.8351     83.7307      8.2500      8.2044
   510.0000    123.9916    129.2733     86.5825      8.1933      8.0651
   509.5000    127.0575    130.9827     86.4519      8.1133      7.8705
   509.0000    130.6285    128.0726     84.5823      7.9960      7.6553
   508.5000    135.1149    124.4396     82.3365      7.8185      7.4011
   508.0000    142.0065    124.3182     79.1548      7.5565      7.0419
   507.5000    153.6656    125.9658     77.9418      7.1618      6.5076
   507.0000    173.5815    125.3314     81.8592      6.5779      5.7610
   506.5000    203.1237    122.3778     85.2304      5.8492      4.9231
   506.0000    239.0057    119.3757     81.4649      5.1130      4.1840
   505.5000    278.8804    116.7005     72.3066      4.4289      3.5858
   505.0000    317.4807    114.6741     65.4771      3.8194      3.1498
   504.5000    348.7275    116.1420     66.6059      3.3090      2.8676
   504.0000    369.1255    122.2209     75.6284      2.9410      2.7091
   503.5000    378.5435    128.7040     85.0660      2.7244      2.6417
   503.0000    376.2429    131.1275     85.1002      2.6358      2.6579
   502.5000    361.9084    129.4788     79.1838      2.6672      2.7631
   502.0000    337.1624    126.4643     76.4839      2.8542      2.9659
   501.5000    303.1211    124.5788     75.4808      3.2524      3.2990
   501.0000    262.1809    124.2515     74.6835      3.8879      3.8142
   500.5000    222.8170    123.3777     78.8602      4.7187      4.4880
   500.0000    189.6050    122.7196     79.8740      5.6070      5.2741
   499.5000    164.1287    122.5717     68.2730      6.4002      6.0928
