~Version Information
 VERS.                1.20:   CWLS log ASCII Standard -VERSION 1.20
 WRAP.                  NO:   One line per frame
~Well Information Block
#MNEM.UNIT       Data Type    Information
#---------    -------------   -------------------------------
 STRT.F           611.0000:   Starting Depth
 STOP.F            -4.7500:   Ending Depth
 STEP.F            -0.5000:   Level Spacing
 NULL.           -999.2500:   Absent Value
 COMP.             COMPANY:   FLUOR DANIEL (NPOSR), INC.
 WELL.                WELL:   84-6 X 10
 FLD .               FIELD:   NPR #3
 LOC .            LOCATION:   10-38N-78W
 CNTY.              COUNTY:   NATRONA
 STAT.               STATE:   WYOMING
 SRVC.     SERVICE COMPANY:   WESTERN ATLAS LOGGING SERVICES
 LIC .      LICENSE NUMBER:   
 DATE.            LOG DATE:   29-NOV-1995 
 API .          API NUMBER:   4902522753 
~Curve Information Block
#MNEM.UNIT       API Codes    Curve Description
#---------    -------------   -------------------------------
 DEPT.F        0   1  0  1:   Depth
 CILD.MMHO     0 110 46  1:   Conductivity of Deep Induction
 GR  .API      0 310  1  1:   Gamma ray counts
 TEN .LBF      0 635 99  1:   Differential Tension
 RILM.OHMM     0 120 44  1:   Resistivity from CILM
 RILD.OHMM     0 120 46  1:   Resistivity from CILD
#  Curve Data
~A   DEPT        CILD        GR          TEN         RILM        RILD
# ...
   163.0000    132.7521    127.3377    -31.7422      7.8183      7.5328
   162.5000    129.3510    128.7072    -29.5393      8.0025      7.7309
   162.0000    127.1331    127.2973    -28.4806      8.1101      7.8658
   161.5000    125.6128    124.9740    -23.8824      8.1783      7.9610
   161.0000    124.3496    125.0082    -21.1810      8.2402      8.0418
   160.5000    123.1993    125.4502    -24.5244      8.3074      8.1169
   160.0000    122.0644    124.1176    -29.2187      8.3726      8.1924
   159.5000    120.9178    119.6468    -30.4790      8.4332      8.2701
   159.0000    119.9231    114.4646    -25.9067      8.5011      8.3387
   158.5000    119.2152    114.2000    -20.8812      8.5829      8.3882
   158.0000    118.6681    120.3971    -23.7214      8.6686      8.4269
   157.5000    118.1330    126.2171    -27.5891      8.7439      8.4650
   157.0000    117.5808    127.1619    -24.5360      8.7985      8.5048
   156.5000    117.1373    125.5038    -21.2856      8.8321      8.5370
   156.0000    116.8971    126.1676    -23.4902      8.8485      8.5545
   155.5000    116.7801    127.7670    -24.3991      8.8525      8.5631
   155.0000    116.7956    125.4477    -22.4141      8.8566      8.5620
   154.5000    116.9713    121.3779    -21.6208      8.8699      8.5491
   154.0000    117.0214    120.0217    -21.4784      8.8893      8.5454
   153.5000    116.6935    121.6301    -20.5686      8.9043      8.5695
   153.0000    116.1458    125.2062    -20.4505      8.9134      8.6099
   152.5000    115.5830    130.2599    -19.5953      8.9213      8.6518
   152.0000    114.9060    132.1249    -14.0578      8.9436      8.7028
   151.5000    113.9626    129.2095     -8.5958      9.0006      8.7748
   151.0000    112.7660    125.7587     -9.9744      9.1039      8.8679
   150.5000    111.4627    125.1816    -15.6718      9.2454      8.9716
   150.0000    110.2796    125.0603    -17.5332      9.3951      9.0679
   149.5000    109.4523    123.5460    -17.7678      9.5182      9.1364
   149.0000    109.1414    121.3129    -20.4817      9.5942      9.1624
   148.5000    109.3864    120.2039    -23.3255      9.6149      9.1419
   148.0000    110.0642    120.8570    -23.4578      9.5802      9.0856
   147.5000    110.8866    122.0053    -23.4615      9.5027      9.0182
   147.0000    111.8608    122.8580    -25.2671      9.3977      8.9397
   146.5000    113.2812    125.4213    -27.5354      9.2687      8.8276
   146.0000    115.1391    128.9868    -29.5664      9.1313      8.6851
   145.5000    116.9708    129.9218    -31.8109      9.0077      8.5491
   145.0000    118.5475    127.5597    -34.4580      8.8968      8.4354
   144.5000    120.1237    124.4758    -36.1153      8.7724      8.3248
   144.0000    122.0993    121.5037    -36.8202      8.6162      8.1901
   143.5000    124.5492    120.0641    -37.1353      8.4378      8.0290
   143.0000    126.9903    121.3987    -34.8087      8.2755      7.8746
   142.5000    128.6059    122.8104    -28.9558      8.1655      7.7757
   142.0000    129.0002    123.6341    -23.8318      8.1016      7.7519
   141.5000    128.4624    125.7121    -23.7656      8.0551      7.7844
   141.0000    127.4310    127.9199    -25.4794      8.0245      7.8474
   140.5000    126.0021    127.2865    -24.8907      8.0487      7.9364
   140.0000    124.0740    125.8248    -24.5543      8.1697      8.0597
   139.5000    121.6020    125.7627    -29.0458      8.3901      8.2235
   139.0000    118.7379    124.0748    -34.0813      8.6697      8.4219
   138.5000    115.8131    119.4144    -31.0106      8.9549      8.6346
   138.0000    113.2330    117.0498    -23.1230      9.2005      8.8313
   137.5000    111.2035    119.0334    -21.2457      9.3761      8.9925
   137.0000    109.7756    119.6615    -26.2395      9.4737      9.1095
   136.5000    109.0794    117.5790    -30.5287      9.5070      9.1676
   136.0000    109.0964    115.1117    -32.2458      9.4997      9.1662
   135.5000    109.4363    112.7253    -32.9861      9.4770      9.1377
   135.0000    109.6527    111.7438    -30.9011      9.4631      9.1197
   134.5000    109.4587    114.0152    -26.6634      9.4697      9.1359
   134.0000    109.0013    117.8980    -21.5516      9.4810      9.1742
   133.5000    108.7624    121.3839    -16.0534      9.4746      9.1944
   133.0000    108.9335    121.6416    -11.1599      9.4548      9.1799
   132.5000    109.1826    117.1565    -10.1355      9.4436      9.1590
   132.0000    109.2894    112.3608    -12.1668      9.4561      9.1500
   131.5000    109.2450    111.5970    -14.1801      9.4939      9.1537
   131.0000    108.9353    113.6694    -16.5966      9.5523      9.1798
   130.5000    108.2971    117.2226    -22.2638      9.6224      9.2339
   130.0000    107.2928    120.5408    -28.4879      9.6962      9.3203
   129.5000    105.8903    120.2698    -29.1540      9.7804      9.4437
   129.0000    104.1630    116.0237    -23.8638      9.8865      9.6003
   128.5000    102.6754    113.1210    -20.4966     10.0021      9.7394
   128.0000    101.9981    111.4712    -23.6863     10.0995      9.8041
   127.5000    101.9653    109.2347    -25.4696     10.2036      9.8073
   127.0000    101.7487    110.2353    -21.2118     10.3630      9.8281
   126.5000    100.8454    115.5720    -17.2038     10.5669      9.9162
   126.0000     99.6435    119.3742    -17.6488     10.6955     10.0358
   125.5000     98.8397    119.1289    -20.9590     10.6381     10.1174
   125.0000     98.5835    117.9899    -26.3136     10.4687     10.1437
   124.5000     98.4937    117.2759    -28.2256     10.3699     10.1529
   124.0000     98.1742    116.9087    -25.6847     10.4209     10.1860
   123.5000     97.4352    116.1745    -27.3192     10.5563     10.2632
   123.0000     96.4241    115.4535    -32.3992     10.6958     10.3708
   122.5000     95.4512    114.2495    -34.2826     10.8292     10.4766
   122.0000     94.6567    112.2218    -35.4151     10.9515     10.5645
   121.5000     94.0770    111.7898    -37.4324     11.0194     10.6296
   121.0000     93.8385    114.1995    -37.0746     11.0118     10.6566
   120.5000     94.0123    115.6484    -35.7698     10.9719     10.6369
   120.0000     94.3265    115.3150    -37.0636     10.9476     10.6015
   119.5000     94.3972    116.6733    -40.7925     10.9506     10.5935
   119.0000     94.1954    119.9222    -43.0605     10.9622     10.6162
   118.5000     93.9073    122.3891    -39.0412     10.9664     10.6488
   118.0000     93.5577    122.5278    -30.6632     10.9811     10.6886
   117.5000     93.0570    121.1961    -27.7303     11.0293     10.7461
   117.0000     92.4129    119.8505    -32.7347     11.1101     10.8210
   116.5000     91.7283    117.8927    -34.6285     11.2160     10.9018
   116.0000     91.0921    114.5231    -27.9282     11.3419     10.9779
   115.5000     90.3808    111.5852    -20.8464     11.4552     11.0643
   115.0000     89.4856    111.0739    -20.9816     11.5386     11.1750
   114.5000     88.5943    111.6513    -26.0165     11.6051     11.2874
   114.0000     87.9523    111.7356    -30.0327     11.6738     11.3698
   113.5000     87.6853    113.4433    -30.0584     11.7432     11.4044
   113.0000     87.8479    116.3060    -29.7951     11.7989     11.3833
   112.5000     88.3173    119.0797    -31.7923     11.8259     11.3228
   112.0000     88.8257    123.1974    -33.1547     11.8229     11.2580
   111.5000     89.3328    127.2322    -34.6410     11.7756     11.1941
   111.0000     90.1493    126.8365    -36.0934     11.6498     11.0927
   110.5000     91.6012    124.1182    -35.2980     11.4320     10.9169
   110.0000     93.7171    123.0613    -34.8661     11.1624     10.6704
   109.5000     96.1342    124.6208    -37.4403     10.9070     10.4021
   109.0000     98.4438    126.7493    -36.5963     10.6877     10.1581
   108.5000    100.5776    126.7625    -30.5555     10.4660      9.9426
   108.0000    102.8200    126.9453    -27.6510     10.1999      9.7257
   107.5000    105.3205    129.7707    -29.0134      9.9023      9.4948
