~Version Information
 VERS.                1.20:   CWLS log ASCII Standard -VERSION 1.20
 WRAP.                  NO:   One line per frame
~Well Information Block
#MNEM.UNIT       Data Type    Information
#---------    -------------   -------------------------------
 STRT.F           611.0000:   Starting Depth
 STOP.F            -4.7500:   Ending Depth
 STEP.F            -0.5000:   Level Spacing
 NULL.           -999.2500:   Absent Value
 COMP.             COMPANY:   FLUOR DANIEL (NPOSR), INC.
 WELL.                WELL:   84-6 X 10
 FLD .               FIELD:   NPR #3
 LOC .            LOCATION:   10-38N-78W
 CNTY.              COUNTY:   NATRONA
 STAT.               STATE:   WYOMING
 SRVC.     SERVICE COMPANY:   WESTERN ATLAS LOGGING SERVICES
 LIC .      LICENSE NUMBER:   
 DATE.            LOG DATE:   29-NOV-1995 
 API .          API NUMBER:   4902522753 
~Curve Information Block
#MNEM.UNIT       API Codes    Curve Description
#---------    -------------   -------------------------------
 DEPT.F        0   1  0  1:   Depth
 CILD.MMHO     0 110 46  1:   Conductivity of Deep Induction
 GR  .API      0 310  1  1:   Gamma ray counts
 TEN .LBF      0 635 99  1:   Differential Tension
 RILM.OHMM     0 120 44  1:   Resistivity from CILM
 RILD.OHMM     0 120 46  1:   Resistivity from CILD
#  Curve Data
~A   DEPT        CILD        GR          TEN         RILM        RILD
   611.0000      0.0000      0.0000   -250.0000      0.2000      0.2000
   610.5000      0.0000      0.0000   -250.0000      0.2000      0.2000
   610.0000      0.0000      0.0000   -250.0000      0.2000      0.2000
   609.5000      0.0000      0.0000   -250.0000      0.2000      0.2000
   609.0000      0.0000      0.0000   -250.0000      0.2000      0.2000
   608.5000      0.0000      0.0000   -250.0000      0.2000      0.2000
   608.0000      0.0000      0.0000   -250.0000      0.2000      0.2000
   607.5000      0.0000      0.0000   -250.0000      0.2000      0.2000
   607.0000      0.0000      0.0000   -250.0000      0.2000      0.2000
   606.5000      0.0000      0.0000   -250.0000      0.2000      0.2000
   606.0000      0.0000      0.0000   -250.0000      0.2000      0.2000
   605.5000      0.0000      0.0000   -250.0000      0.2000      0.2000
   605.0000      0.0000      0.0000   -250.0000      0.2000      0.2000
   604.5000      0.0000      0.0000   -250.0000      0.2000      0.2000
   604.0000      0.0000      0.0000   -250.0000      0.2000      0.2000
   603.5000      0.0000      0.0000   -250.0000      0.2000      0.2000
   603.0000      0.0000      0.0000   -250.0000      0.2000      0.2000
   602.5000      0.0000      0.0000   -250.0000      0.2000      0.2000
   602.0000      0.0000      0.0000   -250.0000      0.2000      0.2000
   601.5000      0.0000      0.0000   -250.0000      0.2000      0.2000
   601.0000      0.0000      0.0000   -216.8678      0.2000      0.2000
   600.5000      0.0000      0.0000   -208.6587      0.2000      0.2000
   600.0000      0.0000      0.0000   -198.1847      0.2000      0.2000
   599.5000      0.0000      0.0000   -190.1184      0.2000      0.2000
   599.0000      0.0000      0.0000   -182.7062      0.2000      0.2000
   598.5000      0.0000      0.0000   -176.4303      0.2000      0.2000
   598.0000      0.0000      0.0000   -171.0589      0.2000      0.2000
   597.5000      0.0000      0.0000   -164.9784      0.2000      0.2000
   597.0000      0.0000      0.0000   -159.0461      0.2000      0.2000
   596.5000      0.0000      0.0000   -157.1027      0.2000      0.2000
   596.0000      0.0000      0.0000   -156.8350      0.2000      0.2000
   595.5000      0.0000      0.0000   -151.2187      0.2000      0.2000
   595.0000      0.0000      0.0000   -133.2240     11.7588      0.2000
   594.5000      0.0000      0.0000    -81.5286     11.7666      0.2000
   594.0000      0.0000      0.0000     36.4948     11.7624      0.2000
   593.5000      0.0000      0.0000    189.9707     11.7543      0.2000
   593.0000      0.0000      0.0000    297.1426     11.7462      0.2000
   592.5000      0.0000      0.0000    333.6384     11.7406      0.2000
   592.0000      0.0000      0.0000    341.7959     11.7417      0.2000
   591.5000      0.0000      0.0000    345.0486     11.7467      0.2000
   591.0000      0.0000      0.0000    338.3457     11.7496      0.2000
   590.5000      0.0000      0.0000    325.9607     11.7533      0.2000
   590.0000      0.0000      0.0000    316.6118     11.7569      0.2000
   589.5000      0.0000      0.0000    312.1052     11.7539      0.2000
   589.0000      0.0000      0.0000    310.4104     11.7429      0.2000
   588.5000      0.0000      0.0000    310.1416     11.7278      0.2000
   588.0000      0.0000      0.0000    310.1887     11.6989      0.2000
   587.5000      0.0000      0.0000    309.9802     11.6326      0.2000
   587.0000      0.0000      0.0000    307.7478     11.5266      0.2000
   586.5000      0.0000      0.0000    304.4438     11.4204      0.2000
   586.0000      0.0000      0.0000    302.9873     11.3480      0.2000
   585.5000      0.0000      0.0000    302.8826     11.2874      0.2000
   585.0000     94.0260      0.0000    301.1597     11.2023     10.6354
   584.5000     94.3526      0.0000    299.2959     11.1074     10.5985
   584.0000     95.0024      0.0000    299.2556     11.0366     10.5260
   583.5000     95.8277      0.0000    301.0654     10.9822     10.4354
   583.0000     96.4857      0.0000    300.9336     10.9147     10.3642
   582.5000     96.8299      0.0000    298.3169     10.8234     10.3274
   582.0000     97.0116      0.0000    294.3958     10.7130     10.3080
   581.5000     97.2817      0.0000    287.4290     10.6057     10.2794
   581.0000     97.6646      0.0000    279.6086     10.5433     10.2391
   580.5000     97.8815      0.0000    273.6892     10.5465     10.2164
   580.0000     97.7777      0.0000    269.8579     10.5943     10.2273
   579.5000     97.4589      0.0000    268.9207     10.6554     10.2607
   579.0000     97.0678      0.0000    273.2007     10.7167     10.3021
   578.5000     96.6800      0.0000    276.8589     10.7635     10.3434
   578.0000     96.4449      0.0000    274.6174     10.7787     10.3686
   577.5000     96.5222    131.5358    271.9348     10.7613     10.3603
   577.0000     96.8715    131.4724    275.0200     10.7362     10.3230
   576.5000     97.2332    130.8003    274.2004     10.7217     10.2846
   576.0000     97.5401    127.9609    262.9158     10.7063     10.2522
   575.5000     97.9670    122.5857    251.1922     10.6675     10.2075
   575.0000     98.6407    118.8512    248.9202     10.5976     10.1378
   574.5000     99.4922    119.3977    251.0193     10.5131     10.0510
   574.0000    100.3301    121.7021    250.2510     10.4298      9.9671
   573.5000    101.1517    123.9160    248.0595     10.3510      9.8861
   573.0000    102.0568    125.9012    249.0090     10.2706      9.7985
   572.5000    102.9206    125.5091    249.4598     10.1816      9.7162
   572.0000    103.6169    124.2471    244.6346     10.0826      9.6509
   571.5000    104.2902    123.6551    239.6092      9.9857      9.5886
   571.0000    104.9944    121.9006    237.2912      9.9088      9.5243
   570.5000    105.5277    118.2462    233.3347      9.8696      9.4762
   570.0000    105.7166    116.3745    230.1304      9.8700      9.4593
   569.5000    105.6207    118.8096    231.9891      9.8848      9.4678
   569.0000    105.5229    121.3150    235.3743      9.8841      9.4766
   568.5000    105.6217    120.7114    236.6732      9.8695      9.4678
   568.0000    105.8418    119.0689    236.2612      9.8596      9.4481
   567.5000    106.1596    120.8132    230.6736      9.8553      9.4198
   567.0000    106.7297    125.1926    224.2554      9.8377      9.3695
   566.5000    107.4910    127.3599    227.2097      9.7896      9.3031
   566.0000    108.2204    125.5428    233.0590      9.7078      9.2404
   565.5000    108.9064    124.2910    230.2878      9.6126      9.1822
   565.0000    109.5591    126.8612    222.7015      9.5319      9.1275
   564.5000    109.9664    130.2834    217.9365      9.4720      9.0937
   564.0000    110.0824    132.1710    217.3369      9.4239      9.0841
   563.5000    110.1107    132.8018    218.8271      9.3941      9.0818
   563.0000    110.2037    132.1663    215.5847      9.3894      9.0741
   562.5000    110.4291    131.7783    209.8964      9.3996      9.0556
   562.0000    110.7724    130.8645    211.2314      9.4143      9.0275
   561.5000    111.0962    127.7900    216.0927      9.4316      9.0012
   561.0000    111.2939    125.4508    214.6800      9.4358      8.9852
   560.5000    111.3782    128.1595    207.8629      9.4057      8.9784
   560.0000    111.4681    132.8264    203.9361      9.3422      8.9712
   559.5000    111.6542    134.6740    206.0061      9.2760      8.9562
   559.0000    111.9414    133.8879    206.3447      9.2414      8.9332
   558.5000    112.1502    131.0743    199.6301      9.2521      8.9166
   558.0000    112.1508    127.0201    192.6343      9.2889      8.9166
   557.5000    111.9991    124.1185    192.4339      9.3239      8.9286
   557.0000    111.9846    124.5154    194.1380      9.3368      8.9298
   556.5000    112.3241    126.9463    190.6499      9.3222      8.9028
   556.0000    113.0278    128.6831    184.8101      9.2941      8.8474
   555.5000    113.8708    129.9590    182.5177      9.2651      8.7819
