~Version Information
 VERS.                1.20:   CWLS log ASCII Standard -VERSION 1.20
 WRAP.                  NO:   One line per frame
~Well Information Block
#MNEM.UNIT       Data Type    Information
#---------    -------------   -------------------------------
 STRT.F           611.0000:   Starting Depth
 STOP.F            -4.7500:   Ending Depth
 STEP.F            -0.5000:   Level Spacing
 NULL.           -999.2500:   Absent Value
 COMP.             COMPANY:   FLUOR DANIEL (NPOSR), INC.
 WELL.                WELL:   84-6 X 10
 FLD .               FIELD:   NPR #3
 LOC .            LOCATION:   10-38N-78W
 CNTY.              COUNTY:   NATRONA
 STAT.               STATE:   WYOMING
 SRVC.     SERVICE COMPANY:   WESTERN ATLAS LOGGING SERVICES
 LIC .      LICENSE NUMBER:   
 DATE.            LOG DATE:   29-NOV-1995 
 API .          API NUMBER:   4902522753 
~Curve Information Block
#MNEM.UNIT       API Codes    Curve Description
#---------    -------------   -------------------------------
 DEPT.F        0   1  0  1:   Depth
 CILD.MMHO     0 110 46  1:   Conductivity of Deep Induction
 GR  .API      0 310  1  1:   Gamma ray counts
 TEN .LBF      0 635 99  1:   Differential Tension
 RILM.OHMM     0 120 44  1:   Resistivity from CILM
 RILD.OHMM     0 120 46  1:   Resistivity from CILD
#  Curve Data
~A   DEPT        CILD        GR          TEN         RILM        RILD
# ...
   387.0000     41.2223     89.0907     -2.6928     25.1268     24.2587
   386.5000     41.1347     89.4334     -0.7662     24.8028     24.3104
   386.0000     41.3056     90.9777     -0.3837     24.3174     24.2098
   385.5000     41.6266     92.9488     -1.0507     24.0417     24.0231
   385.0000     41.8646     94.1341     -5.2189     24.0753     23.8865
   384.5000     41.7264     93.0289    -11.8801     24.2711     23.9657
   384.0000     41.2498     90.1369    -14.4216     24.4837     24.2425
   383.5000     40.6488     88.3760    -10.2712     24.7265     24.6010
   383.0000     40.0557     89.8271     -6.6212     25.0292     24.9652
   382.5000     39.4418     92.4164     -5.6123     25.3842     25.3538
   382.0000     38.5903     92.8612     -3.9260     25.8479     25.9132
   381.5000     37.3371     89.7499     -2.7761     26.5454     26.7831
   381.0000     35.8938     83.9430     -4.9843     27.5360     27.8600
   380.5000     34.5798     77.6963     -8.8343     28.7152     28.9186
   380.0000     33.5257     73.1926    -12.7496     29.9170     29.8279
   379.5000     32.7025     72.2249    -15.3659     31.2667     30.5787
   379.0000     32.0003     75.4863    -11.7376     33.0165     31.2497
   378.5000     31.3335     80.8198     -2.7291     34.7445     31.9148
   378.0000     30.9157     84.3888      2.1182     35.3277     32.3460
   377.5000     30.9620     85.0503     -1.7422     34.4934     32.2976
   377.0000     31.3202     84.0758     -8.4131     33.1861     31.9283
   376.5000     31.6408     83.8242    -10.7702     32.1391     31.6048
   376.0000     31.6581     85.7696     -9.0808     31.5021     31.5875
   375.5000     31.3205     87.0502     -9.5907     31.2255     31.9279
   375.0000     30.7733     84.4144    -14.5570     31.2156     32.4957
   374.5000     30.1918     79.9845    -16.7073     31.5117     33.1216
   374.0000     29.5953     77.3550    -13.1190     32.4073     33.7892
   373.5000     28.9409     77.4863     -8.5888     34.1013     34.5532
   373.0000     28.4876     80.2633     -6.9671     36.0309     35.1029
   372.5000     28.9904     84.7656     -9.0414     36.7140     34.4942
   372.0000     31.2791     87.5206    -14.0190     35.0980     31.9702
   371.5000     35.4487     86.5552    -16.1345     31.8731     28.2098
   371.0000     40.9344     84.7009    -14.8947     28.2770     24.4293
   370.5000     47.1894     87.0094    -15.0298     24.8258     21.1912
   370.0000     53.4712     95.3250    -14.1855     21.5466     18.7016
   369.5000     59.7093    103.7664     -9.9058     18.5268     16.7478
   369.0000     66.0712    106.1216     -8.4726     16.0120     15.1352
   368.5000     72.3666    103.9541    -13.8324     14.1898     13.8185
   368.0000     77.8801    103.3209    -19.8884     13.0537     12.8402
   367.5000     81.8965    105.4170    -22.0344     12.4428     12.2105
   367.0000     84.2063    107.6520    -18.5925     12.1560     11.8756
   366.5000     85.1193    108.2571     -9.9159     12.0478     11.7482
   366.0000     85.2348    108.8092     -1.2371     12.0392     11.7323
   365.5000     84.8915    108.5982     -2.2518     12.1007     11.7797
   365.0000     83.9885    105.9586    -10.9153     12.2278     11.9064
   364.5000     82.4597    103.3049    -12.8707     12.4138     12.1271
   364.0000     80.6341    103.7596     -7.8568     12.6433     12.4017
   363.5000     78.8600    104.9906     -5.7782     12.8974     12.6807
   363.0000     77.2352    105.0526     -3.5246     13.1441     12.9475
   362.5000     75.7157    103.4194      0.4703     13.3711     13.2073
   362.0000     74.3073     99.4148     -5.3726     13.6093     13.4576
   361.5000     73.0977     96.0476    -22.5785     13.8925     13.6803
   361.0000     72.1624     96.9327    -34.3000     14.2019     13.8576
   360.5000     71.4915     99.2126    -32.7902     14.4538     13.9877
   360.0000     71.2293     99.3049    -24.0309     14.5499     14.0392
   359.5000     71.5997     99.6052    -15.5901     14.4763     13.9665
   359.0000     72.5783    100.5477    -10.8312     14.2933     13.7782
   358.5000     73.8489     99.8806    -12.1530     14.0653     13.5412
   358.0000     75.0414     97.5357    -16.6076     13.8313     13.3260
   357.5000     75.8769     96.9735    -18.6157     13.6178     13.1792
   357.0000     76.3454    100.4002    -18.3400     13.4459     13.0984
   356.5000     76.5674    105.4390    -16.5170     13.3360     13.0604
   356.0000     76.4658    108.3632    -13.7463     13.2991     13.0777
   355.5000     76.0083    108.2439    -11.5003     13.3389     13.1565
   355.0000     75.4917    105.1805    -10.3483     13.4531     13.2465
   354.5000     75.1512     99.3203     -9.6798     13.6186     13.3065
   354.0000     74.7580     94.4563    -11.1676     13.8079     13.3765
   353.5000     74.0313     93.5571    -13.5691     14.0099     13.5078
   353.0000     73.0894     94.3365    -14.0404     14.1927     13.6819
   352.5000     72.2280     95.7149    -13.0394     14.3013     13.8451
   352.0000     71.4363     98.4473    -11.1224     14.3309     13.9985
   351.5000     70.6642    100.6754     -8.1706     14.3564     14.1514
   351.0000     69.9719     99.8086     -8.4360     14.4634     14.2914
   350.5000     69.2806     95.9282    -13.8476     14.6831     14.4341
   350.0000     68.4215     92.2122    -20.0797     14.9712     14.6153
   349.5000     67.4382     92.7590    -23.1160     15.2609     14.8284
   349.0000     66.5146     97.4460    -21.3814     15.5135     15.0343
   348.5000     65.8054    100.9663    -14.3716     15.7086     15.1963
   348.0000     65.3540    100.5422     -7.6674     15.8328     15.3013
   347.5000     65.1735     98.5697     -5.7740     15.8983     15.3437
   347.0000     65.2953     97.3997     -8.5214     15.9145     15.3150
   346.5000     65.5230     96.5278    -13.3157     15.8957     15.2618
   346.0000     65.5606     95.0943    -13.3999     15.8698     15.2531
   345.5000     65.4120     93.1129     -8.0062     15.8549     15.2877
   345.0000     65.1173     92.0440     -5.7126     15.8631     15.3569
   344.5000     64.5020     92.6734    -11.4006     15.9312     15.5034
   344.0000     63.3358     93.3192    -19.3718     16.1169     15.7889
   343.5000     61.4501     91.5125    -22.3416     16.4817     16.2734
   343.0000     58.8103     88.6245    -20.0181     17.0747     17.0038
   342.5000     55.7312     86.2656    -18.3494     17.9066     17.9433
   342.0000     52.7894     83.8158    -19.5383     18.9710     18.9432
   341.5000     50.5773     80.4844    -18.1396     20.3092     19.7717
   341.0000     49.3412     76.3505    -12.4907     21.9374     20.2670
   340.5000     48.7271     73.3530     -7.8730     23.5953     20.5225
   340.0000     48.2741     74.9609     -7.4685     24.7235     20.7150
   339.5000     48.0197     81.8138     -9.3525     24.8337     20.8248
   339.0000     48.3270     89.5258    -11.2164     23.8810     20.6924
   338.5000     49.3376     95.6593    -13.2349     22.3418     20.2685
   338.0000     50.8100     99.6245    -15.9487     20.8974     19.6812
   337.5000     52.1315     99.8294    -18.4013     19.9708     19.1823
   337.0000     52.8333     97.7562    -17.6077     19.6091     18.9275
   336.5000     52.9739     97.0271    -15.9271     19.6286     18.8772
   336.0000     52.8393     97.9578    -15.8325     19.8092     18.9253
   335.5000     52.5974     97.4146    -15.0151     20.0135     19.0123
   335.0000     52.3174     95.5692    -15.0508     20.1707     19.1141
   334.5000     52.0662     95.8451    -19.3828     20.2150     19.2063
   334.0000     51.9091     99.4691    -23.7659     20.1037     19.2645
   333.5000     51.9158    102.6167    -22.0808     19.8836     19.2619
   333.0000     52.0276    101.7560    -15.7471     19.6952     19.2206
   332.5000     52.0484     98.5309    -10.4688     19.6710     19.2129
   332.0000     51.8144     97.3273    -10.9397     19.8323     19.2996
   331.5000     51.2459     99.8749    -14.9920     20.0901     19.5137
