~Version Information
 VERS.                1.20:   CWLS log ASCII Standard -VERSION 1.20
 WRAP.                  NO:   One line per frame
~Well Information Block
#MNEM.UNIT       Data Type    Information
#---------    -------------   -------------------------------
 STRT.F           611.0000:   Starting Depth
 STOP.F            -4.7500:   Ending Depth
 STEP.F            -0.5000:   Level Spacing
 NULL.           -999.2500:   Absent Value
 COMP.             COMPANY:   FLUOR DANIEL (NPOSR), INC.
 WELL.                WELL:   84-6 X 10
 FLD .               FIELD:   NPR #3
 LOC .            LOCATION:   10-38N-78W
 CNTY.              COUNTY:   NATRONA
 STAT.               STATE:   WYOMING
 SRVC.     SERVICE COMPANY:   WESTERN ATLAS LOGGING SERVICES
 LIC .      LICENSE NUMBER:   
 DATE.            LOG DATE:   29-NOV-1995 
 API .          API NUMBER:   4902522753 
~Curve Information Block
#MNEM.UNIT       API Codes    Curve Description
#---------    -------------   -------------------------------
 DEPT.F        0   1  0  1:   Depth
 CILD.MMHO     0 110 46  1:   Conductivity of Deep Induction
 GR  .API      0 310  1  1:   Gamma ray counts
 TEN .LBF      0 635 99  1:   Differential Tension
 RILM.OHMM     0 120 44  1:   Resistivity from CILM
 RILD.OHMM     0 120 46  1:   Resistivity from CILD
#  Curve Data
~A   DEPT        CILD        GR          TEN         RILM        RILD
# ...
   275.0000    115.7427    136.0278    -25.2540      8.9044      8.6399
   274.5000    115.1273    136.9493    -24.8413      8.9932      8.6860
   274.0000    114.9086    139.9215    -27.1301      9.0474      8.7026
   273.5000    115.2355    141.9143    -28.9768      9.0519      8.6779
   273.0000    115.7486    139.5699    -25.6389      9.0252      8.6394
   272.5000    116.1253    135.5744    -22.4160      8.9851      8.6114
   272.0000    116.4890    134.3877    -25.4709      8.9477      8.5845
   271.5000    117.0979    134.3152    -29.3291      8.9268      8.5399
   271.0000    117.8547    134.1456    -29.1302      8.9180      8.4850
   270.5000    118.6799    135.0495    -27.8248      8.8946      8.4260
   270.0000    119.7159    136.1249    -28.1369      8.8319      8.3531
   269.5000    121.2218    137.4931    -27.2819      8.7310      8.2493
   269.0000    123.4007    139.3304    -24.1353      8.6100      8.1037
   268.5000    126.5278    139.7182    -21.7877      8.4601      7.9034
   268.0000    131.0664    137.1686    -23.0211      8.2372      7.6297
   267.5000    137.2752    134.4254    -26.6759      7.9314      7.2846
   267.0000    145.2097    134.9444    -29.7470      7.5733      6.8866
   266.5000    155.4354    139.5523    -29.7174      7.1595      6.4335
   266.0000    168.0775    144.6159    -25.7563      6.6724      5.9496
   265.5000    180.0180    147.3603    -21.5510      6.1962      5.5550
   265.0000    187.0455    149.0440    -20.6982      5.8575      5.3463
   264.5000    188.3275    150.3761    -20.7327      5.6597      5.3099
   264.0000    186.3874    149.4030    -19.1680      5.4857      5.3652
   263.5000    184.1494    146.1777    -16.8692      5.3065      5.4304
   263.0000    182.3333    142.2296    -16.6408      5.2743      5.4845
   262.5000    178.4042    138.5397    -20.7263      5.5401      5.6052
   262.0000    169.9007    137.9937    -28.1878      6.0920      5.8858
   261.5000    158.5462    142.0804    -33.4609      6.7474      6.3073
   261.0000    148.3657    146.5285    -34.0685      7.2809      6.7401
   260.5000    141.3545    148.0698    -30.6708      7.5741      7.0744
   260.0000    138.2480    147.2767    -25.3019      7.6334      7.2334
   259.5000    139.3822    144.5324    -19.4825      7.5411      7.1745
   259.0000    144.4467    141.1941    -13.8388      7.3693      6.9230
   258.5000    152.8570    141.7676    -11.7544      7.1277      6.5421
   258.0000    163.6670    144.4767    -14.7763      6.8081      6.1100
   257.5000    174.0822    143.9700    -20.9712      6.4612      5.7444
   257.0000    180.6352    140.5690    -28.3683      6.1671      5.5360
   256.5000    182.8703    138.9994    -32.4999      5.9213      5.4684
   256.0000    183.1552    142.0524    -28.8866      5.6427      5.4598
   255.5000    183.8052    145.9079    -25.3397      5.3522      5.4405
   255.0000    185.0374    147.4157    -28.2921      5.2202      5.4043
   254.5000    184.3404    148.8920    -28.7923      5.3865      5.4247
   254.0000    179.4106    151.4159    -24.1411      5.8268      5.5738
   253.5000    171.5450    151.4335    -22.8363      6.3479      5.8294
   253.0000    163.5064    150.5459    -25.4440      6.7339      6.1160
   252.5000    156.4866    154.5204    -26.6241      6.9257      6.3903
   252.0000    151.1740    160.7510    -27.9493      6.9807      6.6149
   251.5000    148.0899    161.4223    -33.6699      6.9572      6.7527
   251.0000    146.4517    156.3772    -38.3989      6.9212      6.8282
   250.5000    144.8351    151.3428    -35.5621      6.9739      6.9044
   250.0000    142.2395    148.6730    -28.3571      7.1878      7.0304
   249.5000    138.3585    148.3832    -27.2862      7.5121      7.2276
   249.0000    134.0608    147.8919    -32.1107      7.8116      7.4593
   248.5000    130.7529    145.6532    -32.6317      8.0063      7.6480
   248.0000    129.0320    144.4010    -28.2137      8.1081      7.7500
   247.5000    128.6044    145.6906    -24.1502      8.1502      7.7758
   247.0000    128.9254    145.0235    -22.7140      8.1609      7.7564
   246.5000    129.4717    142.0855    -23.2062      8.1570      7.7237
   246.0000    129.8583    142.4639    -25.8408      8.1429      7.7007
   245.5000    130.0288    145.7030    -28.5745      8.1212      7.6906
   245.0000    130.1232    146.0827    -30.2716      8.0973      7.6850
   244.5000    130.1893    144.4873    -30.0522      8.0819      7.6811
   244.0000    130.1009    145.0711    -28.6224      8.0853      7.6863
   243.5000    129.8419    147.1631    -25.5358      8.1028      7.7017
   243.0000    129.4865    148.5596    -23.6698      8.1233      7.7228
   242.5000    128.9052    148.2685    -25.2278      8.1446      7.7576
   242.0000    128.0164    145.2585    -26.5823      8.1693      7.8115
   241.5000    127.1184    142.4177    -25.7984      8.1928      7.8667
   241.0000    126.5905    142.3310    -24.9496      8.2170      7.8995
   240.5000    126.5918    145.4788    -24.7736      8.2406      7.8994
   240.0000    127.1833    147.6400    -23.5484      8.2389      7.8627
   239.5000    128.2135    146.8628    -21.5312      8.1872      7.7995
   239.0000    129.3611    146.2073    -16.1049      8.1053      7.7303
   238.5000    130.5156    147.6322    -13.5725      8.0377      7.6619
   238.0000    131.6274    147.7243    -21.2207      7.9905      7.5972
   237.5000    132.8825    145.8652    -33.3054      7.9172      7.5254
   237.0000    135.4286    144.2077    -39.3969      7.7759      7.3840
   236.5000    140.9154    142.8216    -36.0358      7.5683      7.0965
   236.0000    150.2174    140.3595    -27.7736      7.2913      6.6570
   235.5000    163.2282    137.3577    -23.2050      6.9113      6.1264
   235.0000    178.0507    135.0738    -25.8591      6.4461      5.6164
   234.5000    190.6862    134.1096    -29.1098      5.9881      5.2442
   234.0000    198.8280    135.2596    -28.1786      5.5912      5.0295
   233.5000    203.4326    139.3279    -27.0337      5.2214      4.9156
   233.0000    206.4332    145.0239    -27.3957      4.8645      4.8442
   232.5000    208.4882    148.1310    -28.8731      4.6214      4.7964
   232.0000    207.9612    146.9325    -30.0242      4.6274      4.8086
   231.5000    201.9272    143.9543    -32.1284      4.9229      4.9523
   231.0000    190.1320    143.2878    -35.2577      5.4147      5.2595
   230.5000    176.1722    143.7648    -34.9810      5.9526      5.6763
   230.0000    163.6977    141.4868    -27.5601      6.4129      6.1088
   229.5000    154.2537    139.0112    -18.7386      6.7511      6.4828
   229.0000    147.8688    140.5625    -18.6090      6.9860      6.7628
   228.5000    143.6361    143.5660    -27.1066      7.1615      6.9620
   228.0000    140.2619    143.6569    -34.4644      7.3076      7.1295
   227.5000    136.9726    140.6151    -34.1164      7.4413      7.3007
   227.0000    133.7146    136.8994    -27.4360      7.5763      7.4786
   226.5000    130.7852    136.2171    -21.2994      7.7174      7.6461
   226.0000    128.4915    139.1351    -20.1925      7.8567      7.7826
   225.5000    126.8956    142.0816    -21.2317      7.9773      7.8805
   225.0000    126.2968    143.8041    -20.6970      8.0559      7.9179
   224.5000    127.3387    144.7836    -24.5464      8.0733      7.8531
   224.0000    130.1657    145.3484    -32.8479      8.0200      7.6825
   223.5000    134.3045    144.7967    -33.9471      7.8861      7.4458
   223.0000    139.4431    143.2152    -24.8749      7.6651      7.1714
   222.5000    145.4947    142.0610    -19.9842      7.3842      6.8731
   222.0000    152.3084    143.0634    -25.9027      7.0850      6.5656
   221.5000    160.1247    144.3850    -34.3116      6.7662      6.2451
   221.0000    169.5685    143.6561    -34.1307      6.3960      5.8973
   220.5000    179.8855    139.8741    -27.4357      6.0080      5.5591
   220.0000    189.5422    135.1089    -23.0845      5.6879      5.2759
   219.5000    197.7793    135.0256    -23.2925      5.4546      5.0561
