~Version Information
 VERS.                1.20:   CWLS log ASCII Standard -VERSION 1.20
 WRAP.                  NO:   One line per frame
~Well Information Block
#MNEM.UNIT       Data Type    Information
#---------    -------------   -------------------------------
 STRT.F           611.0000:   Starting Depth
 STOP.F            -4.7500:   Ending Depth
 STEP.F            -0.5000:   Level Spacing
 NULL.           -999.2500:   Absent Value
 COMP.             COMPANY:   FLUOR DANIEL (NPOSR), INC.
 WELL.                WELL:   84-6 X 10
 FLD .               FIELD:   NPR #3
 LOC .            LOCATION:   10-38N-78W
 CNTY.              COUNTY:   NATRONA
 STAT.               STATE:   WYOMING
 SRVC.     SERVICE COMPANY:   WESTERN ATLAS LOGGING SERVICES
 LIC .      LICENSE NUMBER:   
 DATE.            LOG DATE:   29-NOV-1995 
 API .          API NUMBER:   4902522753 
~Curve Information Block
#MNEM.UNIT       API Codes    Curve Description
#---------    -------------   -------------------------------
 DEPT.F        0   1  0  1:   Depth
 CILD.MMHO     0 110 46  1:   Conductivity of Deep Induction
 GR  .API      0 310  1  1:   Gamma ray counts
 TEN .LBF      0 635 99  1:   Differential Tension
 RILM.OHMM     0 120 44  1:   Resistivity from CILM
 RILD.OHMM     0 120 46  1:   Resistivity from CILD
#  Curve Data
~A   DEPT        CILD        GR          TEN         RILM        RILD
# ...
   443.0000    103.9539    118.8743     11.5137     10.0041      9.6196
   442.5000    104.4887    119.1180     10.2986      9.9966      9.5704
   442.0000    105.2755    118.4260      8.7730      9.9704      9.4989
   441.5000    107.9522    115.5699      7.3587      9.8477      9.2634
   441.0000    114.2379    113.0087      6.7134      9.5538      8.7537
   440.5000    125.1745    114.1931      4.4033      9.0367      7.9888
   440.0000    139.7047    119.1969     -0.5075      8.3476      7.1580
   439.5000    153.8862    127.4783      0.4008      7.6522      6.4983
   439.0000    163.6982    139.7822     14.5393      7.0650      6.1088
   438.5000    168.5104    151.3907     28.7487      6.5402      5.9344
   438.0000    170.6292    152.9401     28.8469      6.0113      5.8607
   437.5000    172.0163    143.7760     21.1045      5.5823      5.8134
   437.0000    171.8266    133.4499     16.5999      5.4482      5.8198
   436.5000    167.0972    127.3957     15.6108      5.7184      5.9845
   436.0000    156.5596    122.8449     15.4842      6.3660      6.3873
   435.5000    142.7669    120.2882     15.2210      7.2332      7.0044
   435.0000    129.2359    120.0594     14.4436      8.0947      7.7378
   434.5000    118.2683    120.4526     12.2708      8.7756      8.4553
   434.0000    110.6968    120.7259     10.8391      9.2228      9.0337
   433.5000    106.1372    120.4251     13.3541      9.5023      9.4218
   433.0000    103.3327    116.2854     16.7341      9.7181      9.6775
   432.5000    101.1766    110.6651     15.0429      9.9304      9.8837
   432.0000     99.1690    110.1837     11.9072     10.1416     10.0838
   431.5000     97.0632    113.8836     10.4639     10.3453     10.3026
   431.0000     94.8090    115.2641      6.4453     10.5450     10.5475
   430.5000     92.7197    113.0138      0.9568     10.7469     10.7852
   430.0000     91.0948    109.5183      1.9105     10.9434     10.9776
   429.5000     89.9155    106.8592     10.7552     11.1236     11.1215
   429.0000     89.0750    106.3081     18.6111     11.2967     11.2265
   428.5000     88.4966    108.3090     16.9431     11.4829     11.2999
   428.0000     88.0110    112.0239      9.5197     11.6824     11.3622
   427.5000     87.4113    115.3743      7.4792     11.8811     11.4402
   427.0000     86.6460    114.5846     12.0868     12.0504     11.5412
   426.5000     85.8112    111.3948     15.1161     12.1785     11.6535
   426.0000     85.0096    109.1871     14.3783     12.2831     11.7634
   425.5000     84.3587    107.9072     13.2227     12.3752     11.8541
   425.0000     84.0414    108.4114     10.2026     12.4484     11.8989
   424.5000     84.0039    110.8846      4.7919     12.5057     11.9042
   424.0000     83.9487    112.3584      3.4099     12.5469     11.9120
   423.5000     83.7626    111.2169      9.1771     12.5684     11.9385
   423.0000     83.5397    109.7813     11.8828     12.5761     11.9704
   422.5000     83.3490    108.7858      7.4377     12.5725     11.9978
   422.0000     83.3004    109.4825      4.4356     12.5624     12.0048
   421.5000     83.4379    111.8509      4.2978     12.5610     11.9850
   421.0000     83.5796    112.4903      0.8973     12.5714     11.9646
   420.5000     83.5861    110.3747     -7.1053     12.5756     11.9637
   420.0000     83.5160    108.4254    -12.6670     12.5649     11.9738
   419.5000     83.3823    107.0320     -7.7970     12.5518     11.9929
   419.0000     83.0967    105.3118      4.1928     12.5440     12.0342
   418.5000     82.7077    104.3696      8.7700     12.5456     12.0908
   418.0000     82.3577    103.0480      2.4470     12.5651     12.1422
   417.5000     81.9633    101.2394     -4.4853     12.6047     12.2006
   417.0000     81.3975     99.4606     -4.3502     12.6601     12.2854
   416.5000     80.7841     98.3876     -0.5499     12.7329     12.3787
   416.0000     80.3128     97.7766      0.7128     12.8165     12.4513
   415.5000     79.9209     98.0733     -0.0351     12.8962     12.5124
   415.0000     79.4763     97.9364      2.9835     12.9691     12.5824
   414.5000     79.0522     97.4166      8.3045     13.0386     12.6499
   414.0000     78.8210     97.9957      8.1972     13.0914     12.6870
   413.5000     78.6674    100.0103      1.3325     13.1209     12.7118
   413.0000     78.4510    101.9888     -4.8132     13.1538     12.7468
   412.5000     78.2718    101.4623     -2.8536     13.2089     12.7760
   412.0000     78.1596     98.3813      5.3549     13.2714     12.7943
   411.5000     77.9142     95.4955      9.9128     13.3214     12.8346
   411.0000     77.4821     95.6752      6.8659     13.3540     12.9062
   410.5000     76.9745     99.3226      1.9139     13.3873     12.9913
   410.0000     76.4526    102.2143     -0.7149     13.4567     13.0800
   409.5000     75.9423    100.3384     -2.0045     13.5719     13.1679
   409.0000     75.4050     95.7860     -1.4945     13.7041     13.2617
   408.5000     74.6734     93.4884      2.1097     13.8493     13.3917
   408.0000     73.7060     93.4154      7.9687     14.0443     13.5674
   407.5000     72.7096     93.9073     10.1001     14.2919     13.7533
   407.0000     71.7756     94.5698      4.9727     14.5465     13.9323
   406.5000     70.7738     95.5111     -3.8644     14.7811     14.1295
   406.0000     69.7073     95.8869     -7.5674     15.0020     14.3457
   405.5000     68.7908     95.0505     -3.0689     15.2202     14.5368
   405.0000     68.0311     93.3365      3.1458     15.4366     14.6992
   404.5000     67.2310     92.5625      4.5228     15.6371     14.8741
   404.0000     66.3134     93.0664      1.4183     15.8254     15.0799
   403.5000     65.3089     94.2254     -2.1258     16.0398     15.3119
   403.0000     64.0166     95.4116     -3.9464     16.3321     15.6209
   402.5000     62.1069     96.7580     -3.2080     16.7622     16.1013
   402.0000     59.5509     96.8950     -3.4087     17.3833     16.7924
   401.5000     56.6709     93.5494     -7.5131     18.2152     17.6457
   401.0000     53.8367     86.5487     -9.5730     19.2552     18.5747
   400.5000     51.4104     78.8210     -7.5073     20.5096     19.4513
   400.0000     49.7609     72.9498     -8.5735     21.9403     20.0961
   399.5000     48.9759     70.2903    -13.9745     23.3370     20.4182
   399.0000     48.7979     72.4016    -15.8039     24.3055     20.4927
   398.5000     49.0196     78.9706    -13.1635     24.5193     20.4000
   398.0000     49.6691     87.0501    -10.4264     23.8616     20.1333
   397.5000     50.9232     92.1236     -9.9305     22.4533     19.6374
   397.0000     52.7590     93.4382    -10.7784     20.7779     18.9541
   396.5000     54.6764     95.1883     -8.1465     19.4333     18.2894
   396.0000     55.9526     99.5325     -2.4861     18.6985     17.8723
   395.5000     56.1704    102.0761     -1.3691     18.4858     17.8030
   395.0000     55.4207     99.1970     -3.8366     18.5881     18.0438
   394.5000     54.0921     93.6815     -0.7579     18.8889     18.4870
   394.0000     52.5300     90.9351      4.8742     19.3584     19.0368
   393.5000     50.9926     90.7002      3.4395     19.9389     19.6107
   393.0000     49.6568     90.5867     -1.2484     20.5561     20.1382
   392.5000     48.5314     90.4309     -0.2946     21.1740     20.6052
   392.0000     47.4836     90.0592      3.4221     21.7598     21.0599
   391.5000     46.4611     89.4182      4.2188     22.2750     21.5234
   391.0000     45.4104     89.8663      3.4758     22.7184     22.0214
   390.5000     44.2206     90.6355      4.0297     23.0780     22.6139
   390.0000     42.9937     89.5680      3.9016     23.3143     23.2592
   389.5000     42.1549     87.7099     -0.1754     23.4655     23.7220
   389.0000     41.8953     86.4848     -5.9810     23.6684     23.8690
   388.5000     41.9194     86.7368    -10.4883     24.0222     23.8553
   388.0000     41.8264     88.3613    -10.4453     24.5222     23.9083
   387.5000     41.5223     89.1167     -6.9165     24.9968     24.0834
