~VERSION INFORMATION
 VERS.                2.0:   CWLS LOG ASCII STANDARD - VERSION 2.0
 WRAP.                 NO:   ONE LINE PER DEPTH STEP
~WELL INFORMATION
#MNEM.UNIT      DATA TYPE    INFORMATION
#----------   ------------   ------------------------------
 STRT.F            0.0000:   START DEPTH
 STOP.F         3040.0000:   STOP DEPTH
 STEP.F            0.5000:   STEP LENGTH
 NULL.          -999.2500:   NO VALUE
 COMP.    FENIX & SCISSON:   COMPANY
 WELL.  FENIX "AX" #43-28:   WELL
 FLD .             TEAPOT:   FIELD
 LOC .      S28 T39N R78W:   LOCATION
 CNTY.            NATRONA:   COUNTY
 STAT.            WYOMING:   STATE
 CTRY. UNITED STATES OF AMERICA:   COUNTRY
 SRVC.              WELEX:   SERVICE COMPANY
 DATE.        20-JUL-1980:   LOGDATE
 API .     49025108450000:   API NUMBER
~CURVE INFORMATION
#MNEM.UNIT       API CODE    CURVE DESCRIPTION
#----------   ------------   ------------------------------
 DEPT.F                  :   
 GRD .GAPI   45 310 01 00:   GAMMA RAY FROM DENSITY LOG
 CALD.IN     45 280 60 00:   CALIPER FROM DENSITY LOG
 RHOB.G/C3   45 350 01 00:   BULK DENSITY
 CORR.G/C3   45 356 01 00:   DENSITY CORRECTION
 SPR .MV     07 010 01 00:   SPONTANEOUS POTENTIAL
 ILD .OHMM   07 120 46 00:   DEEP INDUCTION RESISTIVITY
 ILM .OHMM   07 120 44 00:   INDUCTION LOG MEDIUM RESISTIVITY
 SGRD.OHMM   07 220 05 00:   SHALLOW SHORT GUARD RESISTIVITY
 NEUT.CPS    35 330 30 00:   NEUTRON
~PARAMETER INFORMATION
#MNEM.UNIT          VALUE    DESCRIPTION
#----------   ------------   ------------------------------
 EKB .F         5042.0000:   Kelly bushing
 EGL .F         5032.0000:   Ground level
 EDF .F            0.0000:   Drilling floor
 TD  .F         3038.0000:   Total depth
 DATE.        20-JUL-1980:   Date logged
 CLNT.            A2DTECH:   Client Code
 SL  . 1500' FNL & 2500' FWL:   Surface Location
 PD  .                 GL:   Permanent Datum
 EPD .F              5032:   Elevation Permanent Datum
 LMF .                 KB:   Log Measured From
 DMF .                 KB:   Drilling Measured From
 DD  .F              3000:   Depth driller
 DL  .F              3038:   Depth logger
 BLI .F              3036:   Bottom log interval
 TLI .F               432:   Top log interval
 CS1 .IN            8.625:   Casing size
 CBD1.      8.625" @ 443':   Casing driller 1
 CBL1.F               432:   Casing logger 1
 BS1 .IN            7.875:   Bit size
 BSD1.F              3000:   Depth drilled with bit1
 DFT .     WATER BASE MUD:   Type fluid in hole
 DFD .                9.3:   Density
 DFV .                 45:   Viscosity
 DFPH.                  9:   pH
 DFL .                  8:   Fluid loss
 MSS .                PIT:   Source of sample
 RMS .OHMM           0.85:   Rm
 MST .F                75:   Rm Meas. temp.
 RMF .OHMM           0.68:   Rmf
 MFST.F                75:   Rmf Meas. temp.
 RMC .OHMM           1.02:   Rmc
 MCST.F                75:   Rmc Meas. temp.
 MFSS.               MEAS:   Source Rmf.
 MCSS.               MEAS:   Source Rmc.
 RMB .OHMM           0.57:   Rm. at BHT
 BHT .F               112:   BHT.
 TCS .HRS               3:   Time Circ. stopped
 MRT .F               112:   Maximum recorded temp.
 LUN .               9865:   Logging unit number
 LUL .             CASPER:   Logging unit location
 ENGI.            TOTHILL:   Recorded By
 WITN.           DINSMORE:   Witnessed by
 ORIG.     2.5", 5" PRINT:   Origin of data
 UWI .     49025108450000:   Unique Well ID
 DICO. A2D TECHNOLOGIES, INC.:   Digitizing Company
~OTHER INFORMATION
~A    DEPT     GRD       CALD       RHOB       CORR        SPR        ILD        ILM       SGRD        NEUT  
# ...
 1642.5000    89.3240     8.9680     2.5880     0.0330   -19.5930     6.3250     6.6630     7.3900   233.8920
 1643.0000    89.3220     8.9570     2.5900     0.0380   -19.5690     6.3150     6.6420     7.3480   243.9990
 1643.5000    89.3210     8.9460     2.5880     0.0380   -20.1990     6.3020     6.6200     7.3060   287.3070
 1644.0000    89.3200     8.9390     2.5840     0.0370   -21.0750     6.2900     6.5990     7.2640   279.6170
 1644.5000    89.3250     8.9330     2.5800     0.0350   -21.9690     6.2780     6.5780     7.2220   266.5270
 1645.0000    89.4160     8.9270     2.5760     0.0340   -22.4370     6.2660     6.5570     7.1800   246.2300
 1645.5000    89.5030     8.9210     2.5700     0.0260   -22.5650     6.2540     6.5360     7.1380   251.8700
 1646.0000    89.5900     8.9150     2.5650     0.0270   -22.7210     6.2410     6.5150     7.0960   276.2320
 1646.5000    89.6770     8.9100     2.5600     0.0280   -22.8730     6.2290     6.4940     7.0540   249.3800
 1647.0000    89.7640     8.9040     2.5540     0.0270   -23.0380     6.2170     6.4730     7.0120   265.3650
 1647.5000    89.8510     8.8980     2.5490     0.0230   -23.1000     6.2090     6.4520     6.9700   262.5200
 1648.0000    89.9270     8.8920     2.5430     0.0180   -23.0050     6.2160     6.4420     6.9350   253.3770
 1648.5000    89.9800     8.8860     2.5380     0.0140   -22.9250     6.2300     6.5260     7.0160   244.3160
 1649.0000    90.0330     8.8800     2.5360     0.0100   -22.8420     6.2440     6.5980     7.0870   235.6120
 1649.5000    90.0840     8.8740     2.5360     0.0060   -22.7680     6.2580     6.6710     7.1570   248.3790
 1650.0000    90.1370     8.8690     2.5430     0.0090   -22.6150     6.2710     6.7430     7.2280   264.2770
 1650.5000    90.2020     8.8630     2.5510     0.0200   -22.4280     6.2850     6.8160     7.2990   257.8120
 1651.0000    89.7190     8.8570     2.5510     0.0230   -22.1040     6.2990     6.8880     7.4400   244.9240
 1651.5000    89.0240     8.8510     2.5490     0.0200   -21.6690     6.3120     6.9350     7.6340   233.8410
 1652.0000    88.3270     8.8450     2.5460     0.0140   -21.2560     6.3240     6.8840     7.8270   248.9590
 1652.5000    87.6310     8.8470     2.5440     0.0090   -21.0690     6.3080     6.7900     8.0360   247.3010
 1653.0000    87.0850     8.8500     2.5480     0.0070   -20.9720     6.2850     6.6960     7.9420   241.7980
 1653.5000    86.7160     8.8530     2.5530     0.0070   -20.8960     6.2620     6.6020     7.7580   236.4840
 1654.0000    86.3530     8.8560     2.5500     0.0070   -20.7370     6.2390     6.5080     7.5740   207.9630
 1654.5000    86.1490     8.8590     2.5470     0.0060   -21.1740     6.2160     6.4150     7.3900   173.4450
 1655.0000    86.5310     8.8620     2.5430     0.0050   -21.9250     6.1930     6.3250     7.2060   188.2460
 1655.5000    86.8980     8.8640     2.5400     0.0030   -22.5880     6.1700     6.3180     7.0640   221.3840
 1656.0000    87.2630     8.8720     2.5390     0.0020   -23.2900     6.1470     6.3070     7.0640   228.5690
 1656.5000    87.6270     8.8790     2.5370     0.0020   -23.4600     6.1240     6.2970     7.0640   241.1950
 1657.0000    87.9210     8.8860     2.5360     0.0030   -23.2910     6.1000     6.2860     7.0640   253.6470
 1657.5000    88.1120     8.8930     2.5350     0.0000   -23.1640     6.0770     6.2760     7.0640   262.8760
 1658.0000    88.3020     8.9000     2.5330    -0.0020   -23.0320     6.0540     6.2650     7.0640   272.9020
 1658.5000    88.4920     8.9070     2.5310     0.0010   -22.8960     6.0310     6.2550     7.0310   262.7340
 1659.0000    88.6820     8.9150     2.5280     0.0020   -22.7690     6.0080     6.2440     6.9700   240.1850
 1659.5000    88.8690     8.9220     2.5210    -0.0010   -22.6200     5.9850     6.2340     6.9090   244.5670
 1660.0000    89.0230     8.9300     2.5140    -0.0040   -22.5220     5.9620     6.2230     6.8470   252.2640
 1660.5000    88.9730     8.9380     2.5090    -0.0060   -22.3520     5.9390     6.2140     6.7860   259.9980
 1661.0000    88.9280     8.9460     2.5090    -0.0050   -22.6460     5.9160     6.1980     6.7250   228.9420
 1661.5000    88.8840     8.9540     2.5080    -0.0050   -21.9700     5.8920     6.1800     6.6640   241.1230
 1662.0000    88.8400     8.9630     2.5060    -0.0030   -21.1350     5.8740     6.1630     6.6030   237.8790
 1662.5000    88.7940     8.9800     2.5040     0.0010   -20.7090     5.8250     6.1430     6.5420   218.8080
 1663.0000    88.7490     8.9980     2.5010     0.0030   -20.7650     5.7650     6.1280     6.4800   206.8340
 1663.5000    88.5290     9.0180     2.4970     0.0030   -20.7510     5.7070     6.1110     6.4420   218.1010
 1664.0000    88.1640     9.0110     2.4930     0.0020   -20.7480     5.6470     6.0960     6.5570   229.5370
 1664.5000    87.7980     8.9970     2.4860     0.0010   -20.7560     5.5880     5.8150     6.6840   241.4710
 1665.0000    87.4310     8.9830     2.4780     0.0000   -20.7500     5.3850     5.5710     6.6840   280.3330
 1665.5000    87.0640     8.9830     2.4720    -0.0010   -20.7460     5.0550     5.3280     6.5920   273.8620
 1666.0000    86.6980     8.9870     2.4650    -0.0010   -20.8880     4.7250     5.0840     6.3250   248.9000
 1666.5000    86.3350     8.9910     2.4580    -0.0020   -21.5100     4.3940     4.8410     5.6390   234.2300
 1667.0000    86.0510     8.9950     2.4500     0.0010   -22.0920     4.2170     4.7100     4.3890   247.8340
 1667.5000    85.7170     8.9990     2.4490     0.0050   -22.6820     4.3200     4.7100     3.6880   238.8610
 1668.0000    85.4980     9.0070     2.4520     0.0090   -22.5450     4.3760     4.8740     4.6880   264.9660
 1668.5000    85.9750     9.0270     2.4630     0.0110   -22.3830     4.5430     5.0700     5.1650   250.9580
 1669.0000    86.4380     9.0470     2.4750     0.0120   -22.1960     4.6830     5.2660     5.4580   221.4940
 1669.5000    86.8970     9.0660     2.4880     0.0130   -22.0130     4.7980     5.4620     6.6840   235.9750
 1670.0000    87.3550     9.0910     2.5030     0.0160   -21.9330     4.8870     5.6580     6.7560   256.7270
 1670.5000    87.8130     9.1300     2.5180     0.0190   -21.9370     5.0210     5.8540     6.8080   251.2280
 1671.0000    88.2770     9.1590     2.5270     0.0220   -21.9280     5.2640     6.0960     6.8340   235.7530
 1671.5000    88.4320     9.1510     2.5330     0.0270   -21.9740     5.5080     6.0480     6.9120   260.8460
 1672.0000    88.4340     9.1450     2.5290     0.0280   -21.4980     5.8750     5.9850     6.9350   252.0270
 1672.5000    88.4360     9.1440     2.5240     0.0260   -20.6400     5.8300     5.9850     6.9350   241.4740
 1673.0000    88.4450     9.1620     2.5230     0.0230   -20.2590     5.7360     5.8750     7.0340   264.8300
 1673.5000    88.1510     9.1810     2.5230     0.0210   -19.9650     5.6430     5.5980     7.1710   233.7970
 1674.0000    87.8120     9.1980     2.5230     0.0230   -19.9650     5.5500     5.4570     6.9960   246.8320
 1674.5000    87.4690     9.1780     2.5270     0.0300   -19.9560     5.4580     5.3160     6.1540   261.3710
 1675.0000    87.1270     9.1560     2.5260     0.0330   -19.9730     5.3480     5.2610     5.3110   235.8980
 1675.5000    86.7830     9.1350     2.5260     0.0360   -19.9430     5.1650     5.3580     4.7980   216.0530
 1676.0000    86.4300     9.1140     2.5300     0.0380   -19.9750     5.1010     5.6910     5.2250   235.9770
 1676.5000    86.5750     9.1000     2.5340     0.0410   -20.0780     5.1650     6.0940     5.6590   248.8530
 1677.0000    86.8300     9.1000     2.5320     0.0390   -21.7430     5.2610     6.4420     6.0930   256.3340
 1677.5000    87.0890     9.1000     2.5280     0.0300   -22.4560     5.3580     6.3770     6.3250   263.9290
 1678.0000    87.2850     9.1000     2.5310     0.0200   -22.6340     5.5350     6.3200     6.7610   261.1590
 1678.5000    87.3650     9.1030     2.5350     0.0160   -22.8220     5.7280     6.2620     7.1950   255.7910
