~VERSION INFORMATION
 VERS.                2.0:   CWLS LOG ASCII STANDARD - VERSION 2.0
 WRAP.                 NO:   ONE LINE PER DEPTH STEP
~WELL INFORMATION
#MNEM.UNIT      DATA TYPE    INFORMATION
#----------   ------------   ------------------------------
 STRT.F          200.0000:   START DEPTH
 STOP.F         3080.0000:   STOP DEPTH
 STEP.F            0.5000:   STEP LENGTH
 NULL.          -999.2500:   NO VALUE
 COMP.    FENIX & SCISSON:   COMPANY
 WELL. FENIX NPR 3 "AX" #55-33:   WELL
 FLD .        TEAPOT DOME:   FIELD
 LOC .      S33 T38N R78W:   LOCATION
 CNTY.            NATRONA:   COUNTY
 STAT.            WYOMING:   STATE
 CTRY. UNITED STATES OF AMERICA:   COUNTRY
 SRVC.           BIRDWELL:   SERVICE COMPANY
 DATE.        08-FEB-1978:   LOGDATE
 API .     49025105740000:   API NUMBER
~CURVE INFORMATION
#MNEM.UNIT       API CODE    CURVE DESCRIPTION
#----------   ------------   ------------------------------
 DEPT.F                  :   
 CALD.IN     45 280 60 00:   CALIPER FROM DENSITY LOG
 GRD .GAPI   45 310 01 00:   GAMMA RAY FROM DENSITY LOG
 RHOB.G/C3   45 350 01 00:   BULK DENSITY
 CORR.G/C3   45 356 01 00:   DENSITY CORRECTION
 NPOR.DEC    42 890 03 00:   ALPHA PROCESSED NEUTRON POROSITY
 SPR .MV     05 010 01 00:   SPONTANEOUS POTENTIAL
 SN  .OHMM   05 040 16 00:   SHORT NORMAL 16"
 ILD .OHMM   05 120 46 00:   DEEP INDUCTION RESISTIVITY
~PARAMETER INFORMATION
#MNEM.UNIT          VALUE    DESCRIPTION
#----------   ------------   ------------------------------
 EKB .F         5197.0000:   Kelly bushing
 EGL .F         5187.0000:   Ground level
 EDF .F            0.0000:   Drilling floor
 TD  .F         3084.0000:   Total depth
 DATE.        08-FEB-1978:   Date logged
 CLNT.            A2DTECH:   Client Code
 SL  . 2000' FSL & 2310' FEL:   Surface Location
 PD  .                 GL:   Permanent Datum
 EPD .F              5187:   Elevation Permanent Datum
 LMF .                 KB:   Log Measured From
 DMF .                 KB:   Drilling Measured From
 DAPD.F                10:   Feet Above Permanent Datum
 DD  .F              3084:   Depth driller
 DL  .F              3080:   Depth logger
 BLI .F              3074:   Bottom log interval
 TLI .F               200:   Top log interval
 CS1 .IN            8.625:   Casing size
 CBD1.      8.625" @ 229':   Casing driller 1
 CBL1.F               230:   Casing logger 1
 BS1 .IN            7.875:   Bit size
 BSD1.F              3084:   Depth drilled with bit1
 DFT .     LIGNOSULFONATE:   Type fluid in hole
 DFD .                9.2:   Density
 DFV .                 30:   Viscosity
 DFPH.                  9:   pH
 DFL .                  5:   Fluid loss
 MSS .           FLOWLINE:   Source of sample
 RMS .OHMM            1.5:   Rm
 MST .F                62:   Rm Meas. temp.
 RMF .OHMM            1.2:   Rmf
 MFST.F                66:   Rmf Meas. temp.
 RMC .OHMM            2.8:   Rmc
 MCST.F                65:   Rmc Meas. temp.
 MFSS.               MEAS:   Source Rmf.
 RMB .OHMM            .82:   Rm. at BHT
 BHT .F               114:   BHT.
 TCS .HRS               3:   Time Circ. stopped
 MRT .F               114:   Maximum recorded temp.
 LUN .               2958:   Logging unit number
 LUL .               CASP:   Logging unit location
 ENGI.            POINTER:   Recorded By
 WITN.         HARRINGTON:   Witnessed by
 ORIG.           5" PRINT:   Origin of data
 UWI .     49025105740000:   Unique Well ID
 DICO. A2D TECHNOLOGIES, INC.:   Digitizing Company
~OTHER INFORMATION
~A   DEPT       CALD      GRD       RHOB        CORR      NPOR        SPR         SN        ILD   
# ...
 1536.5000     9.6073    84.1262     2.5825     0.1118  -999.2500   -49.8436     7.3594     6.1883
 1537.0000     9.6469    81.3513     2.5725     0.1118  -999.2500   -49.6426     7.3597     6.2460
 1537.5000     9.6272    78.1797     2.5675     0.0779  -999.2500   -49.6409     7.3600     6.3042
 1538.0000     9.6273    78.1804     2.5635     0.0799  -999.2500   -49.8376     7.2928     6.3045
 1538.5000     9.6471    82.1464     2.5705     0.0839  -999.2500   -49.6367     7.3607     6.3633
 1539.0000     9.6471    82.5435     2.5695     0.0839  -999.2500   -49.6346     7.3610     6.4695
 1539.5000     9.6472    82.3459     2.5715     0.0799  -999.2500   -49.6324     7.3613     6.4698
 1540.0000     9.6473    81.9500     2.5725     0.0659  -999.2500   -49.2332     7.3617     6.4701
 1540.5000     9.6671    82.1490     2.5705     0.0759  -999.2500   -50.0257     7.4302     6.4704
 1541.0000     9.5879    81.7531     2.5545     0.0739  -999.2500   -50.4211     7.4306     6.4707
 1541.5000     9.5681    80.7626     2.5475     0.0739  -999.2500   -50.4190     7.4309     6.4710
 1542.0000     9.5483    80.9615     2.5475     0.0739  -999.2500   -50.4168     7.3631     6.4713
 1542.5000     9.5088    80.7640     2.5505     0.0759  -999.2500   -50.6134     7.4316     6.5315
 1543.0000     9.5088    80.5664     2.5515     0.0779  -999.2500   -50.4125     7.4320     6.4719
 1543.5000     9.5089    80.5671     2.5585     0.0779  -999.2500   -50.6091     7.4323     6.5927
 1544.0000     9.5486    81.1625     2.5625     0.0779  -999.2500   -50.6070     7.6412     6.6540
 1544.5000     9.5883    81.7580     2.5665     0.0759  -999.2500   -50.2078     7.7838     6.7782
 1545.0000     9.6081    82.7500     2.5635     0.0759  -999.2500   -50.4044     7.7841     6.8413
 1545.5000     9.6333    82.7504     2.5605     0.0739  -999.2500   -50.4023     7.8565     6.8416
 1546.0000     9.6677    80.7689     2.5635     0.0760  -999.2500   -50.5988     7.9297     6.8420
 1546.5000     9.6873    80.5713     2.5695     0.0760  -999.2500   -50.3980     7.9301     6.9057
 1547.0000     9.7070    80.5720     2.5725     0.0760  -999.2500   -50.3958     8.0039     6.9060
 1547.5000     9.7266    80.5727     2.5745     0.0760  -999.2500   -50.3937     8.0784     7.0348
 1548.0000     9.7473    79.5823     2.5765     0.0740  -999.2500   -50.3916     8.2293     7.0351
 1548.5000     9.7671    77.9972     2.5615     0.0720  -999.2500   -50.3894     8.1540     7.0355
 1549.0000     9.8068    77.9978     2.5625     0.0720  -999.2500   -50.3873     8.3062     7.0358
 1549.5000     9.8267    78.9899     2.5655     0.0680  -999.2500   -50.3851     8.3066     7.0361
 1550.0000    10.0250    83.5493     2.5695     0.0640  -999.2500   -50.1843     8.2307     7.0365
 1550.5000     9.9259    89.0999     2.5525     0.0360  -999.2500   -50.1822     8.1556     6.9722
 1551.0000     9.8863    84.9382     2.5525     0.0360  -999.2500   -49.9818     8.1559     6.9725
 1551.5000     9.8863    84.1460     2.5565     0.0440  -999.2500   -50.1783     8.0815     7.0374
 1552.0000     9.8864    85.9305     2.5575     0.0520  -999.2500   -50.1762     8.0076     6.9732
 1552.5000     9.8865    87.5168     2.5605     0.0540  -999.2500   -49.9754     7.9345     6.9095
 1553.0000     9.9459    87.3191     2.5635     0.0580  -999.2500   -49.9732     7.9349     6.9738
 1553.5000     9.9460    87.7162     2.5655     0.0620  -999.2500   -50.1698     7.9352     6.9101
 1554.0000     9.9461    88.3114     2.5655     0.0640  -999.2500   -50.5649     8.1582     6.9104
 1554.5000     9.9461    88.1138     2.5685     0.0661  -999.2500   -50.5628     8.2341     7.0394
 1555.0000     9.9660    86.7271     2.5725     0.0701  -999.2500   -50.9579     8.3878     7.0397
 1555.5000     9.9661    83.7548     2.5745     0.0721  -999.2500   -51.1544     8.3882     7.1864
 1556.0000     9.9859    80.9807     2.5785     0.0721  -999.2500   -51.1522     8.4663     7.1866
 1556.5000    10.0058    79.5940     2.5785     0.0721  -999.2500   -51.1501     8.5451     7.2536
 1557.0000     9.9860    79.3966     2.5825     0.0701  -999.2500   -51.1479     8.4671     7.3212
 1557.5000    10.0059    80.1900     2.5835     0.0681  -999.2500   -51.1458     8.5459     7.3059
 1558.0000    10.0059    80.7853     2.5475     0.0581  -999.2500   -50.7464     8.6255     7.4585
 1558.5000    10.0060    81.3805     2.5475     0.0461  -999.2500   -50.5461     8.5467     7.3902
 1559.0000    10.0259    82.3721     2.5465     0.0841  -999.2500   -50.1467     8.4687     7.1886
 1559.5000    10.0655    82.7692     2.5405     0.0961  -999.2500   -50.1446     8.4691     7.1228
 1560.0000    10.0854    83.5623     2.5385     0.0981  -999.2500   -50.1424     8.4694     7.1232
 1560.5000    10.0656    79.7979     2.5315     0.1021  -999.2500   -50.1403     8.4698     7.1235
 1561.0000    10.0855    77.8168     2.5245     0.1021  -999.2500   -50.3368     8.3924     7.1238
 1561.5000    10.0657    77.0249     2.5205     0.1041  -999.2500   -50.3346     8.3158     7.1242
 1562.0000    10.1451    76.4311     2.5195     0.1121  -999.2500   -50.3325     8.1642     7.1906
 1562.5000    10.2243    75.6391     2.5155     0.1282  -999.2500   -50.3303     8.0896     7.1909
 1563.0000    10.3037    75.6399     2.5105     0.1382  -999.2500   -50.3282     8.1649     7.2579
 1563.5000    10.3632    78.8113     2.5045     0.1482  -999.2500   -50.3273     8.1653     7.3256
 1564.0000    10.3632    81.9825     2.4855     0.1582  -999.2500   -50.5225     8.1657     7.3939
 1564.5000    10.3633    84.3611     2.5125     0.1842  -999.2500   -50.3218     8.3181     7.4628
 1565.0000    10.4029    81.3894     2.4915     0.1962  -999.2500   -50.3201     8.3185     7.5324
 1565.5000    10.4624    80.2011     2.4575     0.1922  -999.2500   -50.5165     8.3189     7.5328
 1566.0000    10.2247    78.8147     2.4415     0.1662  -999.2500   -50.3158     8.3963     7.5331
 1566.5000    10.2893    75.6450     2.3124     0.1622  -999.2500   -50.3137     8.3967     7.5335
 1567.0000    10.4625    75.6457     2.2984     0.1662  -999.2500   -50.3115     8.0930     7.4644
 1567.5000    10.5419    78.4206     2.1994     0.1742  -999.2500   -50.5079     8.0191     7.4649
 1568.0000    10.6410    80.6009     2.2094     0.2323  -999.2500   -51.1013     7.8006     7.4653
 1568.5000    11.0571    84.3665     2.3945     0.3223  -999.2500   -51.4962     7.8010     7.3970
 1569.0000    10.4033    84.3669     2.4275     0.2603  -999.2500   -51.4941     7.8736     7.3974
 1569.5000    10.3637    83.1787     2.5365     0.2443  -999.2500   -51.4919     7.9470     7.3297
 1570.0000    10.3637    82.9813     2.5455     0.2423  -999.2500   -51.0927     7.9473     7.2627
 1570.5000    10.3836    82.9819     2.5295     0.1683  -999.2500   -51.0906     7.9476     7.1962
 1571.0000    10.4431    82.9826     2.5315     0.1323  -999.2500   -51.0884     7.8750     7.1304
 1571.5000    10.4629    84.3702     2.5625     0.1443  -999.2500   -50.6888     7.8754     7.0652
 1572.0000    10.4630    87.5410     2.5885     0.1563  -999.2500   -50.2906     7.8758     7.0655
 1572.5000    10.5423    87.7397     2.5275     0.1143  -999.2500   -50.2884     7.8761     7.0008
 1573.0000    10.5423    87.1460     2.4925     0.1003  -999.2500   -50.2863     7.8042     7.0012
 1573.5000    10.5424    85.7597     2.4465     0.1003  -999.2500   -50.2842     7.8046     7.0517
 1574.0000    10.6217    83.1848     2.4465     0.1103  -999.2500   -50.2820     7.8049     7.0520
 1574.5000    10.5029    79.8174     2.4805     0.1523  -999.2500   -50.2799     7.8053     6.9876
 1575.0000    10.5029    77.8369     2.5165     0.1863  -999.2500   -50.2777     7.8057     6.9880
 1575.5000    10.6417    77.2432     2.5615     0.2184  -999.2500   -50.4741     7.8060     7.0530
 1576.0000    10.8002    78.2346     2.5605     0.1984  -999.2500   -51.0673     7.8787     7.0534
 1576.5000    10.8398    79.8202     2.5065     0.1724  -999.2500   -51.6605     7.8791     7.0537
