~VERSION INFORMATION
 VERS.                2.0:   CWLS LOG ASCII STANDARD - VERSION 2.0
 WRAP.                 NO:   ONE LINE PER DEPTH STEP
~WELL INFORMATION
#MNEM.UNIT      DATA TYPE    INFORMATION
#----------   ------------   ------------------------------
 STRT.F         2185.0000:   START DEPTH
 STOP.F         5688.0000:   STOP DEPTH
 STEP.F            0.5000:   STEP LENGTH
 NULL.          -999.2500:   NO VALUE
 COMP.       FLUOR DANIEL:   COMPANY
 WELL.   FLUOR "X" #53-10:   WELL
 FLD .           N.P.R #3:   FIELD
 LOC .      S10 T38N R78W:   LOCATION
 CNTY.            NATRONA:   COUNTY
 STAT.            WYOMING:   STATE
 CTRY. UNITED STATES OF AMERICA:   COUNTRY
 SRVC.      WESTERN ATLAS:   SERVICE COMPANY
 DATE.        23-MAR-1997:   LOGDATE
 API .     49025228470000:   API NUMBER
~CURVE INFORMATION
#MNEM.UNIT       API CODE    CURVE DESCRIPTION
#----------   ------------   ------------------------------
 DEPT.F                  :   
 CNC .DEC    42 890 03 00:   NEUTRON POROSITY SANDSTONE
 TEND.LBS    45 635 01 00:   TENSION FORM DENSITY LOG
 GRD .GAPI   45 310 01 00:   GAMMA RAY FROM DENSITY LOG
 CALD.IN     45 280 60 00:   CALIPER FROM DENSITY LOG
 ZDEN.G/C3   45 350 01 00:   BULK DENSITY
 ZCOR.G/C3   45 356 01 00:   DENSITY CORRECTION
 PE  .B/E    45 358 01 00:   PHOTOELECTRIC FACTOR
 R4SL.OHMM   07 000 00 00:   RESISTIVITY DEL 4
 R2SL.OHMM   07 000 00 00:   RESISTIVITY DEL 2
~PARAMETER INFORMATION
#MNEM.UNIT          VALUE    DESCRIPTION
#----------   ------------   ------------------------------
 EKB .F         5182.0000:   Kelly bushing
 EGL .F         5172.0000:   Ground level
 EDF .F         5181.0000:   Drilling floor
 EPD .F         5172.0000:   Permanent datum
 TD  .F         5690.0000:   Total depth
 CLNT.            A2DTECH:   Client Code
 SL  . 1183' FNL & 2118' FEL:   Surface Location
 PD  .                 GL:   Permanent Datum
 LMF .                 KB:   Log Measured From
 DMF .                 KB:   Drilling Measured From
 DAPD.F                10:   Feet Above Permanent Datum
 DATE.        23-MAR-1997:   Date Logged [DD-MMM-YYYY]
 DD  .F              5690:   Depth driller
 DL  .F              5688:   Depth logger
 BLI .F              5648:   Bottom log interval
 TLI .F              2200:   Top log interval
 CS1 .IN            9.625:   Casing size
 CBD1.      9.625" @ 446':   Casing driller 1
 CBL1.F               452:   Casing logger 1
 BS1 .IN             8.75:   Bit size
 BSD1.F              5690:   Depth drilled with bit1
 DFT .           GEL CHEM:   Type fluid in hole
 DFD .                9.8:   Density
 DFV .                 66:   Viscosity
 DFPH.                8.5:   pH
 DFL .                8.4:   Fluid loss
 MSS .              CIRC.:   Source of sample
 RMS .OHMM            1.1:   Rm
 MST .F                73:   Rm Meas. temp.
 RMF .OHMM           0.87:   Rmf
 MFST.F                73:   Rmf Meas. temp.
 MFSS.               CALC:   Source Rmf.
 RMC .OHMM           1.35:   Rmc
 MCST.F                73:   Rmc Meas. temp.
 MCSS.               CALC:   Source Rmc.
 RMB .OHMM           0.46:   Rm. at BHT
 BHT .F               174:   BHT.
 TCS .HRS               5:   Time Circ. stopped
 MRT .F               174:   Maximum recorded temp.
 LUN .            HL 6530:   Logging unit number
 LUL .          CASPER WY:   Logging unit location
 ENGI.           BROWNLOW:   Recorded By
 WITN.              HARDY:   Witnessed by
 ORIG.     2.5", 5" PRINT:   Origin of data
 UWI .     49025228470000:   Unique Well ID
 DICO. A2D TECHNOLOGIES, INC.:   Digitizing Company
~OTHER INFORMATION
~A  DEPTH      CNC       TEND        GRD       CALD       ZDEN       ZCOR         PE       R4SL       R2SL
# ...
 3791.0000     0.2250    17.1681   100.0311     9.0441     2.5796     0.0750     3.0099  -999.2500  -999.2500
 3791.5000     0.2241    17.3163    98.5362     9.0442     2.5983     0.0555     3.0253  -999.2500  -999.2500
 3792.0000     0.2313     9.1786   103.3739     9.0443     2.6006     0.0449     3.0108  -999.2500  -999.2500
 3792.5000     0.2457     2.6169   108.5092     9.0294     2.5856     0.0464     2.9962  -999.2500  -999.2500
 3793.0000     0.2699    -4.7322   114.5841     9.0145     2.5653     0.0628     2.9967  -999.2500  -999.2500
 3793.5000     0.2764   -12.0814   122.7508     9.0146     2.5578     0.0795     2.9971  -999.2500  -999.2500
 3794.0000     0.2560   -26.9268   121.5804     9.0169     2.5721     0.0987     2.9976  -999.2500  -999.2500
 3794.5000     0.2304   -41.7721   107.0661     9.0451     2.5893     0.0477     2.9981  -999.2500  -999.2500
 3795.0000     0.2193   -41.5882   102.2616     9.0604     2.5923     0.0357     3.0286  -999.2500  -999.2500
 3795.5000     0.2145   -41.4412   100.1680     9.0605     2.5803     0.0236     3.0290  -999.2500  -999.2500
 3796.0000     0.2128   -41.2940   100.4840     9.0607     2.5720     0.0443     3.0595  -999.2500  -999.2500
 3796.5000     0.2134   -41.1470   102.3060     9.0608     2.5660     0.0504     3.1050  -999.2500  -999.2500
 3797.0000     0.2161   -33.5036   102.9232     9.0610     2.5615     0.0533     3.1055  -999.2500  -999.2500
 3797.5000     0.2208   -18.3640   103.2393     9.0611     2.5623     0.0473     3.0759  -999.2500  -999.2500
 3798.0000     0.2356   -10.7196   107.7721     9.0612     2.5591     0.0368     3.0313  -999.2500  -999.2500
 3798.5000     0.2474     4.4228   108.0881     9.0614     2.5516     0.0278     2.9867  -999.2500  -999.2500
 3799.0000     0.2537     4.5727   110.5126     9.0615     2.5540     0.0323     3.0622  -999.2500  -999.2500
 3799.5000     0.2525     4.7499   113.5394     9.0617     2.5750     0.0397     3.2578  -999.2500  -999.2500
 3800.0000     0.2339   -10.0955   115.9621     9.0573     2.5921     0.0442     3.4234  -999.2500  -999.2500
 3800.5000     0.2351    -9.9489   111.4699     9.0579     2.5943     0.0382     3.4689  -999.2500  -999.2500
 3801.0000     0.2375     5.1903   106.9725     9.0585     2.5920     0.0322     3.2228  -999.2500  -999.2500
 3801.5000     0.2378     5.3369   103.0776     9.0591     2.5913     0.0262     3.0645  -999.2500  -999.2500
 3802.0000     0.2312    -9.5090   102.7919     9.0597     2.6055     0.0231     2.9898  -999.2500  -999.2500
 3802.5000     0.2243    -9.3623   102.8177     9.0603     2.6189     0.0202     3.2005  -999.2500  -999.2500
 3803.0000     0.2200   -16.7166   100.7300     9.0609     2.6249     0.0201     3.4694  -999.2500  -999.2500
 3803.5000     0.2173   -24.0630    94.7266     9.0614     2.6167     0.0336     3.6634  -999.2500  -999.2500
 3804.0000     0.2146   -31.4093    89.3256     9.0620     2.5927     0.0396     3.2736  -999.2500  -999.2500
 3804.5000     0.2097   -31.2594    86.0313     9.0627     2.5717     0.0396     3.1084  -999.2500  -999.2500
 3805.0000     0.2042   -31.0813    87.2620     9.0634     2.5560     0.0411     3.0479  -999.2500  -999.2500
 3805.5000     0.1888   -30.9347    88.4875     9.0639     2.5462     0.0426     3.0464  -999.2500  -999.2500
 3806.0000     0.1789   -30.7881    86.3997     9.0645     2.5417     0.0381     2.9846  -999.2500  -999.2500
 3806.5000     0.1764   -30.6415    77.3843     9.0651     2.5500     0.0320     2.9113  -999.2500  -999.2500
 3807.0000     0.1797   -30.4949    71.6821     9.0657     2.5614     0.0245     2.8358  -999.2500  -999.2500
 3807.5000     0.1882   -30.3482    69.5943     9.0663     2.5737     0.0200     2.8951  -999.2500  -999.2500
 3808.0000     0.1978   -37.6978    70.5186     9.0669     2.5851     0.0200     2.9394  -999.2500  -999.2500
 3808.5000     0.2038   -45.0525    81.6839     9.0675     2.5918     0.0215     2.9838  -999.2500  -999.2500
 3809.0000     0.2068   -52.3988    90.1800     9.0681     2.5903     0.0260     3.0131  -999.2500  -999.2500
 3809.5000     0.2245   -21.9347    92.6435     9.0687     2.5873     0.0334     3.0275  -999.2500  -999.2500
 3810.0000     0.2362     1.3773    96.5102     9.0694     2.5850     0.0409     3.0269  -999.2500  -999.2500
 3810.5000     0.2358     8.0495    99.5429     9.0700     2.5865     0.0469     3.0413  -999.2500  -999.2500
 3811.0000     0.2283    -6.8331   100.7684     9.0706     2.5880     0.0514     3.0707  -999.2500  -999.2500
 3811.5000     0.2266   -14.1461    97.1746     9.0712     2.5880     0.0484     3.1000  -999.2500  -999.2500
 3812.0000     0.2272   -21.5324    94.7857     9.0717     2.5910     0.0394     3.1153  -999.2500  -999.2500
 3812.5000     0.2326   -28.8453    92.6979     9.0874     2.5999     0.0289     3.1586  -999.2500  -999.2500
 3813.0000     0.2392   -21.2024    94.8271     9.1030     2.6089     0.0228     3.1879  -999.2500  -999.2500
 3813.5000     0.2455   -21.0558    98.1610     9.1187     2.6188     0.0213     3.2173  -999.2500  -999.2500
 3814.0000     0.2572   -20.9092   101.7961     9.1343     2.6263     0.0078     3.2318  -999.2500  -999.2500
 3814.5000     0.2669   -20.7625   103.6241     9.1349     2.6328     0.0003     3.2501  -999.2500  -999.2500
 3815.0000     0.2747   -35.6084   103.9460     9.1355     2.6118     0.0018     3.2755  -999.2500  -999.2500
 3815.5000     0.2892   -42.9580   103.9801     9.1363     2.6006     0.0108     3.2898  -999.2500  -999.2500
 3816.0000     0.3002   -35.2785   104.9996     9.1368     2.5931     0.0183     3.2892  -999.2500  -999.2500
 3816.5000     0.3037   -12.6431   110.3385     9.1374     2.5856     0.0212     3.2886  -999.2500  -999.2500
 3817.0000     0.3212     2.4960   113.9736     9.1380     2.5788     0.0302     3.3030  -999.2500  -999.2500
 3817.5000     0.3417    -4.8903   117.9100     9.1537     2.5736     0.0497     3.3024  -999.2500  -999.2500
 3818.0000     0.3501   -12.2399   119.4367     9.1543     2.5713     0.0662     3.3318  -999.2500  -999.2500
 3818.5000     0.3561   -34.5454   119.4574     9.1549     2.5706     0.0587     3.3461  -999.2500  -999.2500
 3819.0000     0.3573   -34.3987   119.7793     9.1404     2.5518     0.0527     3.3605  -999.2500  -999.2500
 3819.5000     0.3639   -34.2521   120.4024     9.1410     2.4934     0.0645     3.3598  -999.2500  -999.2500
 3820.0000     0.3801   -34.1055   121.0203     9.1265     2.4487     0.1036     3.3592  -999.2500  -999.2500
 3820.5000     0.4054   -26.4627   118.9377     9.1271     2.4122     0.1875     3.3586  -999.2500  -999.2500
 3821.0000     0.4186   -49.6535   116.5488     9.1278     2.3796     0.2430     3.3731  -999.2500  -999.2500
 3821.5000     0.4093   -63.6506   113.5574     9.1284     2.4043     0.2565     3.4025  -999.2500  -999.2500
 3822.0000     0.4017   -33.4823   111.4459     9.1290     2.4267     0.2265     3.4317  -999.2500  -999.2500
 3822.5000     0.4071   -18.3432   110.2855     9.2199     2.4177     0.1800     3.4311  -999.2500  -999.2500
 3823.0000     0.4188   -10.7003   111.8174     9.3711     2.3975     0.1935     3.3856  -999.2500  -999.2500
 3823.5000     0.4234   -10.5537   115.1514     9.5073     2.3938     0.2084     3.3700  -999.2500  -999.2500
 3824.0000     0.4252   -10.4071   118.1841     9.5681     2.4259     0.2100     3.3382  -999.2500  -999.2500
 3824.5000     0.4288   -10.2604   116.0964     9.5687     2.4566     0.1870     3.2940  -999.2500  -999.2500
 3825.0000     0.4390   -10.1138   112.5026     9.5542     2.4678     0.1647     3.2634  -999.2500  -999.2500
 3825.5000     0.4531    -2.4709   109.5112     9.4918     2.4483     0.1589     3.2478  -999.2500  -999.2500
 3826.0000     0.4636    20.1649   108.6231     9.4049     2.4266     0.2159     3.2322  -999.2500  -999.2500
 3826.5000     0.4693    12.8148   107.4442     9.3453     2.4000     0.2443     3.2167  -999.2500  -999.2500
 3827.0000     0.4714   -10.2399   105.6576     9.3007     2.3635     0.2353     3.3209  -999.2500  -999.2500
