~VERSION INFORMATION
 VERS.                2.0:   CWLS LOG ASCII STANDARD - VERSION 2.0
 WRAP.                 NO:   ONE LINE PER DEPTH STEP
~WELL INFORMATION
#MNEM.UNIT      DATA TYPE    INFORMATION
#----------   ------------   ------------------------------
 STRT.F            1.0000:   START DEPTH
 STOP.F         2854.0000:   STOP DEPTH
 STEP.F            0.5000:   STEP LENGTH
 NULL.          -999.2500:   NO VALUE
 COMP.          INTEX OIL:   COMPANY
 WELL. INTEX N.P.R. "AX" #42-29:   WELL
 FLD .             TEAPOT:   FIELD
 LOC .      S29 T39N R78W:   LOCATION
 CNTY.            NATRONA:   COUNTY
 STAT.            WYOMING:   STATE
 CTRY. UNITED STATES OF AMERICA:   COUNTRY
 SRVC.       SCHLUMBERGER:   SERVICE COMPANY
 DATE.        30-MAY-1986:   LOGDATE
 API .     49025095240000:   API NUMBER
~CURVE INFORMATION
#MNEM.UNIT       API CODE    CURVE DESCRIPTION
#----------   ------------   ------------------------------
 DEPT.F                  :   
 SPR .MV     05 010 01 00:   SPONTANEOUS POTENTIAL FROM RES.
 ASN .OHMM   05 041 16 00:   AMPLIFIED SHORT NORMAL 16"
 ILD .OHMM   05 120 46 00:   INDUCTION LOG DEEP
 GRD .GAPI   45 310 01 00:   GAMMA RAY FROM DENSITY LOG
 CALD.IN     45 280 60 00:   CALIPER FROM DENSITY LOG
 CORR.G/C3   45 356 01 00:   DENSITY CORRECTION
 RHOB.G/C3   45 350 01 00:   BULK DENSITY
 CALI.IN     30 280 01 00:   CALIPER FROM GAMMA RAY LOG
 GR  .GAPI   30 310 01 00:   GAMMA RAY
~PARAMETER INFORMATION
#MNEM.UNIT          VALUE    DESCRIPTION
#----------   ------------   ------------------------------
 EKB .F         5020.3000:   Kelly bushing
 EGL .F         5010.0000:   Ground level
 EDF .F            0.0000:   Drilling floor
 TD  .F         2860.0000:   Total depth
 CLNT.            A2DTECH:   Client Code
 DATE.        30-MAY-1986:   Date Logged [DD-MMM-YYYY]
 DD  .F              2860:   Depth driller
 DL  .F              2855:   Depth logger
 BLI .F              2854:   Bottom log interval
 TLI .F               164:   Top log interval
 CS1 .              8.625:   Casing size
 CBD1.      8.625" @ 167':   Casing driller 1
 CBL1.IN              164:   Casing logger 1
 BS1 .IN            7.875:   Bit size
 BSD1.F              2860:   Depth drilled with bit1
 DFT .  LIGND-SULFATE LCM:   Type fluid in hole
 DFD .                8.9:   Density
 DFV .                 33:   Viscosity
 DFPH.               11.0:   pH
 DFL .                9.2:   Fluid loss
 MSS .           FLOWLINE:   Source of sample
 RMS .OHMM           1.47:   Rm
 MST .F                55:   Rm Meas. temp.
 RMF .OHMM           1.13:   Rmf
 MFST.F                75:   Rmf Meas. temp.
 RMB .OHMM           0.78:   Rm. at BHT
 BHT .F               108:   BHT.
 TCS .HRS               3:   Time Circ. stopped
 MRT .F               108:   Maximum recorded temp.
 LUN .               3527:   Logging unit number
 LUL .               CSPR:   Logging unit location
 ENGI.            MANGOLO:   Recorded By
 WITN.             TUTTLE:   Witnessed by
 ORIG.      1" 2.5" PRINT:   Origin of data
 UWI .     49025095240000:   Unique Well ID
 DICO. A2D TECHNOLOGIES, INC.:   Digitizing Company
 PD  .                 GL:   Permanent Datum
 EPD .               5010:   Elevation Permanent Datum
 LMF .                 KB:   Log Measured From
 DMF .                 KB:   Drilling Measured From
 DAPD.              10.32:   Feet Above Permanent Datum
 MFSS.         MEAS PRESS:   Source Rmf.
~OTHER INFORMATION
~A    DEPT     SPR        ASN        ILD        GRD       CALD       CORR       RHOB        CALI        GR   
# ...
 2227.5000   -40.2439    10.0070     6.4955   103.2314     8.9861     0.0330     2.5629  -999.2500  -999.2500
 2228.0000   -39.9390     9.5631     6.4955   102.9851     8.9852     0.0237     2.5580  -999.2500  -999.2500
 2228.5000   -39.3293     9.0122     6.6465   103.6254     8.9843     0.0177     2.5507  -999.2500  -999.2500
 2229.0000   -39.3293     9.0139     6.6465   106.6128     8.9833     0.0162     2.5459  -999.2500  -999.2500
 2229.5000   -39.3359     9.1619     6.6465   109.4373     8.9824     0.0215     2.5434  -999.2500  -999.2500
 2230.0000   -39.9492     9.1633     6.6465   110.1493     8.9815     0.0237     2.5482  -999.2500  -999.2500
 2230.5000   -40.8537     9.1646     6.6465   109.7015     8.9806     0.0162     2.5495  -999.2500  -999.2500
 2231.0000   -40.2092     9.0194     6.6465   111.2149     8.9797     0.0146     2.5479  -999.2500  -999.2500
 2231.5000   -39.0244     9.0207     6.7976   112.5537     9.0094     0.0138     2.5512  -999.2500  -999.2500
 2232.0000   -39.6584     9.0221     6.7976   113.2836     9.0085     0.0107     2.5540  -999.2500  -999.2500
 2232.5000   -40.2439     9.0234     6.7976   113.7313     9.0076     0.0159     2.5560  -999.2500  -999.2500
 2233.0000   -40.2756     8.9551     6.7976   114.1791     9.0066     0.0265     2.5621  -999.2500  -999.2500
 2233.5000   -40.5488     8.8795     6.7976   107.0149     9.0057     0.0358     2.5679  -999.2500  -999.2500
 2234.0000   -40.5488     8.9532     6.7976   102.5373     9.0048     0.0359     2.5574  -999.2500  -999.2500
 2234.5000   -40.2439     9.1026     6.6465   100.7463     9.0039     0.0341     2.5434  -999.2500  -999.2500
 2235.0000   -40.2439     9.3236     6.7976   102.9851     9.0030     0.0378     2.5529  -999.2500  -999.2500
 2235.5000   -39.8896     9.4716     6.7976   105.6716     9.0020     0.0383     2.5618  -999.2500  -999.2500
 2236.0000   -39.3293     9.4729     6.7976   105.2239     9.0011     0.0340     2.5662  -999.2500  -999.2500
 2236.5000   -39.3293     9.3277     6.7976   106.5672     9.0002     0.0386     2.5662  -999.2500  -999.2500
 2237.0000   -39.6942     9.1022     6.7976   108.8060     8.9686     0.0395     2.5677  -999.2500  -999.2500
 2237.5000   -40.3074     8.9557     6.7976   111.0448     8.9677     0.0263     2.5693  -999.2500  -999.2500
 2238.0000   -40.8537     8.8919     6.7976   109.2537     8.9668     0.0166     2.5555  -999.2500  -999.2500
 2238.5000   -39.7977     9.1240     6.6465   103.8806     8.9658     0.0237     2.5495  -999.2500  -999.2500
 2239.0000   -39.0244     9.3345     6.6465   103.4328     8.9649     0.0272     2.5479  -999.2500  -999.2500
 2239.5000   -39.0244     9.4825     6.6465   103.8806     8.9640     0.0205     2.5434  -999.2500  -999.2500
 2240.0000   -39.0244     9.6308     6.6465   104.8357     8.9631     0.0058     2.5434  -999.2500  -999.2500
 2240.5000   -39.0244     9.4855     6.4955   105.2239     8.9621     0.0113     2.5586  -999.2500  -999.2500
 2241.0000   -39.1130     9.4869     6.4955   108.8060     8.9920     0.0259     2.5769  -999.2500  -999.2500
 2241.5000   -39.8180     9.4882     6.4955   111.0448     8.9910     0.0346     2.5830  -999.2500  -999.2500
 2242.0000   -40.3394     9.4896     6.4955   113.2836     8.9901     0.0412     2.5830  -999.2500  -999.2500
 2242.5000   -40.5488     9.3443     6.3444   114.6269     8.9891     0.0374     2.5738  -999.2500  -999.2500
 2243.0000   -40.2439     9.0522     6.3444   117.3134     8.9882     0.0235     2.5464  -999.2500  -999.2500
 2243.5000   -40.2439     9.4038     6.3444   120.0000     8.9873     0.0274     2.5463  -999.2500  -999.2500
 2244.0000   -40.2439     9.8463     6.0423   120.8955     9.0171     0.0208     2.5540  -999.2500  -999.2500
 2244.5000   -39.9390     9.5844     6.0423   120.9955     9.0161     0.0113     2.5495  -999.2500  -999.2500
 2245.0000   -39.9390     9.4684     5.8912   119.5522     9.0459     0.0143     2.5449  -999.2500  -999.2500
 2245.5000   -39.5137     9.4112     5.8912   114.6269     9.0450     0.0230     2.5358  -999.2500  -999.2500
 2246.0000   -39.3293     9.3830     5.7402   109.2537     9.0749     0.0142     2.5236  -999.2500  -999.2500
 2246.5000   -40.0666     9.3550     5.7402   106.1194     9.0738     0.0040     2.5327  -999.2500  -999.2500
 2247.0000   -40.8537     9.3859     5.7402   103.8806     9.1035     0.0171     2.5373  -999.2500  -999.2500
 2247.5000   -40.1093     9.4459     5.7402   102.5373     9.1333     0.0222     2.5358  -999.2500  -999.2500
 2248.0000   -39.8006     9.5059     5.5891   102.0896     9.1324     0.0188     2.5282  -999.2500  -999.2500
 2248.5000   -39.6341     9.5073     5.5891   102.5373     9.1621     0.0152     2.5190  -999.2500  -999.2500
 2249.0000   -39.9390     9.4793     5.5891   103.4328     9.1612     0.0183     2.5221  -999.2500  -999.2500
 2249.5000   -39.9390     9.3048     5.4381   105.2239     9.1910     0.0336     2.5434  -999.2500  -999.2500
 2250.0000   -39.9390     8.9542     5.2870   107.4627     9.1900     0.0404     2.5586  -999.2500  -999.2500
 2250.5000   -39.9390     8.6623     5.2860   110.1493     9.1891     0.0394     2.5647  -999.2500  -999.2500
 2251.0000   -39.9390     8.2238     5.1360   111.4925     9.1882     0.0273     2.5510  -999.2500  -999.2500
 2251.5000   -39.7759     8.0785     4.9818   111.9403     9.2181     0.0173     2.5312  -999.2500  -999.2500
 2252.0000   -39.6341     7.9626     4.6788   112.8358     9.2170     0.0144     2.5358  -999.2500  -999.2500
 2252.5000   -40.1093     7.7880     4.5267   113.2836     9.2468     0.0124     2.5479  -999.2500  -999.2500
 2253.0000   -40.2439     7.6721     4.2237   114.6269     9.2458     0.0062     2.5419  -999.2500  -999.2500
 2253.5000   -40.2439     7.4681     3.9275   116.0567     9.2756     0.0052     2.5251  -999.2500  -999.2500
 2254.0000   -39.7581     7.1176     3.7764   116.4179     9.2747     0.0210     2.5160  -999.2500  -999.2500
 2254.5000   -39.3293     6.7377     3.6254   116.1597     9.3046     0.0313     2.5084  -999.2500  -999.2500
 2255.0000   -39.0244     6.5338     3.4743   114.5672     9.3035     0.0390     2.5190  -999.2500  -999.2500
 2255.5000   -39.0244     6.3299     3.4743   108.8007     9.3334     0.0488     2.5286  -999.2500  -999.2500
 2256.0000   -38.7195     6.1260     3.4743   105.4687     9.3937     0.0980     2.5145  -999.2500  -999.2500
 2256.5000   -39.0244     6.0100     3.4743   108.1833     9.4234     0.1392     2.5068  -999.2500  -999.2500
 2257.0000   -39.6341     5.9234     3.4884   109.9613     9.4225     0.1437     2.4855  -999.2500  -999.2500
 2257.5000   -39.0244     6.0128     3.6254   111.2760     9.4525     0.0919     2.4581  -999.2500  -999.2500
 2258.0000   -38.7195     6.1314     3.6254   111.9403     9.4822     0.1117     2.4810  -999.2500  -999.2500
 2258.5000   -38.4146     6.2208     3.7764   112.6104     9.4811     0.0552     2.5008  -999.2500  -999.2500
 2259.0000   -38.7195     6.2515     3.7764   113.0538     9.3882     0.0481     2.5129  -999.2500  -999.2500
 2259.5000   -39.0244     6.3115     3.9275   114.3926     9.3259     0.0842     2.5251  -999.2500  -999.2500
 2260.0000   -39.3293     6.4888     3.9275   114.6269     9.3435     0.1162     2.5586  -999.2500  -999.2500
 2260.5000   -39.0244     6.6661     4.0785   113.2836     9.3856     0.1146     2.5632  -999.2500  -999.2500
 2261.0000   -39.0244     6.8727     4.2296   113.6839     9.3971     0.0658     2.5434  -999.2500  -999.2500
 2261.5000   -39.0244     7.0207     4.3807   116.1085     9.2862     0.0292     2.5008  -999.2500  -999.2500
 2262.0000   -39.0244     7.1101     4.5317   115.8448     9.1935     0.0155     2.5236  -999.2500  -999.2500
 2262.5000   -39.0244     7.1994     4.5317   114.6269     9.1672     0.0215     2.5342  -999.2500  -999.2500
 2263.0000   -38.7195     7.2891     4.5579   114.4447     9.1663     0.0261     2.5464  -999.2500  -999.2500
 2263.5000   -38.7195     7.3194     4.7100   113.5538     9.1653     0.0367     2.5723  -999.2500  -999.2500
