~VERSION INFORMATION
 VERS.                2.0:   CWLS LOG ASCII STANDARD - VERSION 2.0
 WRAP.                 NO:   ONE LINE PER DEPTH STEP
~WELL INFORMATION
#MNEM.UNIT      DATA TYPE    INFORMATION
#----------   ------------   ------------------------------
 STRT.F            0.5000:   START DEPTH
 STOP.F         4149.0000:   STOP DEPTH
 STEP.F            0.5000:   STEP LENGTH
 NULL.          -999.2500:   NO VALUE
 COMP. LAWRENCE ALLISON & ASSOSCIATES:   COMPANY
 WELL. LAWRENCE "X" #34-3:   WELL
 FLD .             NPR #3:   FIELD
 LOC .       S3 T38N R78W:   LOCATION
 CNTY.            NATRONA:   COUNTY
 STAT.            WYOMING:   STATE
 CTRY. UNITED STATES OF AMERICA:   COUNTRY
 SRVC.      DRESSER ATLAS:   SERVICE COMPANY
 DATE.        19-NOV-1983:   LOGDATE
 API .     49025109500000:   API NUMBER
~CURVE INFORMATION
#MNEM.UNIT       API CODE    CURVE DESCRIPTION
#----------   ------------   ------------------------------
 DEPT.F                  :   
 CALD.IN     45 280 60 00:   CALIPER FROM DENSITY LOG
 TEND.LBS    45 635 01 00:   TENSION FORM DENSITY LOG
 DEN .G/C3   45 350 01 00:   BULK DENSITY
 CNC .DEC    42 890 01 00:   NEUTRON POROSITY LIMESTONE
 CORR.G/C3   45 356 01 00:   DENSITY CORRECTION
 TENR.LBS    06 635 01 00:   TENSION FROM RESISTIVITY
 GRR .GAPI   07 310 01 00:   GAMMA RAY FROM RESISTIVITY
 RFOC.OHMM   07 220 04 00:   RESISTIVITY FOCUSED LOG RES.
 RILD.OHMM   07 120 46 00:   DEEP INDUCTION RESISTIVITY
 RILM.OHMM   07 120 44 00:   INDUCTION LOG MEDIUM RESISTIVITY
 SPR .MV     07 010 01 00:   SPONTANEOUS POTENTIAL
 TENS.LBS    60 635 01 00:   TENSION FROM SONIC
 DT  .US/F   60 520 00 00:   DELTA TIME
~PARAMETER INFORMATION
#MNEM.UNIT          VALUE    DESCRIPTION
#----------   ------------   ------------------------------
 EKB .F         5187.0000:   Kelly bushing
 EGL .F         5174.0000:   Ground level
 TD  .F         4140.0000:   Total depth
 CLNT.            A2DTECH:   Client Code
 SL  . 1621' FWL & 1958' FNL:   Surface Location
 PD  .                 GL:   Permanent Datum
 EPD .F              5174:   Elevation Permanent Datum
 LMF .                 KB:   Log Measured From
 DMF .                 KB:   Drilling Measured From
 DAPD.F                13:   Feet Above Permanent Datum
 DATE.        19-NOV-1983:   Date Logged [DD-MMM-YYYY]
 DD  .F              4136:   Depth driller
 DL  .F              4140:   Depth logger
 BLI .F              4138:   Bottom log interval
 TLI .F                 0:   Top log interval
 CS1 .IN            8.625:   Casing size
 CBD1.      8.625" @ 615':   Casing driller 1
 CBL1.F               615:   Casing logger 1
 BS1 .IN            7.875:   Bit size
 BSD1.F              4136:   Depth drilled with bit1
 DFT .            GEL-KCL:   Type fluid in hole
 DFD .                  9:   Density
 DFV .                 45:   Viscosity
 DFPH.                8.5:   pH
 DFL .                 12:   Fluid loss
 MSS .           FLOWLINE:   Source of sample
 RMS .OHMM          0.768:   Rm
 MST .F                74:   Rm Meas. temp.
 RMF .OHMM          0.576:   Rmf
 MFST.F                74:   Rmf Meas. temp.
 MFSS.               CALC:   Source Rmf.
 RMC .OHMM           0.96:   Rmc
 MCST.F                74:   Rmc Meas. temp.
 MCSS.               CALC:   Source Rmc.
 RMB .OHMM          0.418:   Rm. at BHT
 BHT .F               136:   BHT.
 TCS .HRS               4:   Time Circ. stopped
 MRT .F               136:   Maximum recorded temp.
 LUN .               6307:   Logging unit number
 LUL .               GLTE:   Logging unit location
 ENGI.           FAHLSING:   Recorded By
 WITN.           JENNINGS:   Witnessed by
 ORIG.      2.5" 5" PRINT:   Origin of data
 UWI .     49025109500000:   Unique Well ID
 DICO. A2D TECHNOLOGIES, INC.:   Digitizing Company
~OTHER INFORMATION
~A    DEPT    CALD       TEND        DEN        CNC       CORR       TENR         GRR      RFOC       RILD       RILM        SPR       TENS         DT   
# ...
 2262.5000     9.2341     0.0000     2.5573     0.2516     0.1118   -27.8106   117.9897     9.2235     8.7717     8.8152   -88.1078  -999.2500  -999.2500
 2263.0000     9.2343     0.0000     2.5542     0.2422     0.1075   -30.7920   115.9496     8.9760     8.6576     8.6957   -88.2364  -999.2500  -999.2500
 2263.5000     9.2339     0.0000     2.5512     0.2405     0.1015   -33.1779   116.6535     8.9892     8.5426     8.5778   -88.2125  -999.2500  -999.2500
 2264.0000     9.2342     0.0000     2.5483     0.2448     0.1016   -43.2560   120.1013     9.1965     8.4756     8.4615   -87.8922  -999.2500  -999.2500
 2264.5000     9.2356     0.0000     2.5518     0.2459     0.1016   -45.6419   124.9210     9.5460     8.3217     8.3468   -87.4024  -999.2500  -999.2500
 2265.0000     9.2549     0.0000     2.5590     0.2453     0.0957   -55.7689   125.8537     9.9901     8.2157     8.2336   -87.2052  -999.2500  -999.2500
 2265.5000     9.2726     0.0000     2.5618     0.2441     0.0897   -58.7015   125.8720     9.7547     8.1065     8.1220   -86.7393  -999.2500  -999.2500
 2266.0000     9.2737     0.0000     2.5601     0.2411     0.0868   -61.0873   125.2078     8.9273     8.0030     7.9562   -86.4106  -999.2500  -999.2500
 2266.5000     9.2740     0.0000     2.5589     0.2387     0.0838   -63.4732   124.0824     8.8101     7.8431     7.7912   -86.0819  -999.2500  -999.2500
 2267.0000     9.2737     0.0000     2.5622     0.2390     0.0928   -58.0764   121.8137     9.0810     7.5778     7.6321   -85.9116  -999.2500  -999.2500
 2267.5000     9.2738     0.0000     2.5634     0.2459     0.0899   -60.5526   119.5450     9.4915     7.3669     7.4739   -86.0402  -999.2500  -999.2500
 2268.0000     9.2738     0.0000     2.5619     0.2502     0.0869   -55.2449   117.7336     9.9205     7.0757     7.2175   -85.8579  -999.2500  -999.2500
 2268.5000     9.2738     0.0000     2.5619     0.2495     0.0900   -50.5352   115.9222    10.2220     6.7879     6.9192   -85.6817  -999.2500  -999.2500
 2269.0000     9.2736     0.0000     2.5634     0.2459     0.1050   -52.9211   112.9676     9.8074     6.5118     6.5860   -85.6578  -999.2500  -999.2500
 2269.5000     9.2771     0.0000     2.5730     0.2462     0.1230   -55.3069   104.0678     8.6376     6.2469     6.2243   -85.6340  -999.2500  -999.2500
 2270.0000     9.2870     0.0000     2.5844     0.2479     0.1500   -57.6928   100.8844     7.9400     5.9928     5.8824   -85.6098  -999.2500  -999.2500
 2270.5000     9.2967     0.0000     2.5229     0.2472     0.1920   -43.0108    99.5304     6.9432     5.6278     5.6327   -85.8912  -999.2500  -999.2500
 2271.0000     9.3068     0.0000     2.4946     0.2452     0.2190   -28.3933   100.5154     5.8172     5.2104     5.2417   -86.4771  -999.2500  -999.2500
 2271.5000     9.3119     0.0000     2.4961     0.2467     0.2021   -21.6600   102.3145     5.8258     4.9279     4.8958   -86.7582  -999.2500  -999.2500
 2272.0000     9.3059     0.0000     2.5240     0.2497     0.1308   -22.4272   104.3904     6.2724     4.8636     4.7602   -86.7343  -999.2500  -999.2500
 2272.5000     9.3004     0.0000     2.5631     0.2496     0.1077   -23.1939   105.5515     6.8496     4.9389     4.8671   -87.0154  -999.2500  -999.2500
 2273.0000     9.2945     0.0000     2.5973     0.2477     0.0994   -16.0773   100.0816     7.7846     5.1607     5.0833   -87.2964  -999.2500  -999.2500
 2273.5000     9.2888     0.0000     2.5989     0.2427     0.1059   -17.0359    95.0690     8.9910     5.5536     5.3156   -87.8764  -999.2500  -999.2500
 2274.0000     9.2831     0.0000     2.6025     0.2324     0.1126   -17.8031    92.3430     9.7387     5.9762     5.6651   -88.3099  -999.2500  -999.2500
 2274.5000     9.2769     0.0000     2.6085     0.2244     0.1218   -18.5703    91.8991     9.2114     6.3187     5.8747   -88.7433  -999.2500  -999.2500
 2275.0000     9.2736     0.0000     2.6040     0.2229     0.1347   -19.3374    93.9794     7.6081     6.6013     6.1357   -89.3293  -999.2500  -999.2500
 2275.5000     9.2738     0.0000     2.5876     0.2232     0.1475   -20.1046    98.7991     7.4018     6.6087     6.3627   -89.2905  -999.2500  -999.2500
 2276.0000     9.2737     0.0000     2.5592     0.2276     0.1418   -20.8713   100.6463     8.1937     6.7098     6.5511   -88.9708  -999.2500  -999.2500
 2276.5000     9.2743     0.0000     2.5547     0.2295     0.1036   -21.6385    96.8637     8.8119     6.8144     6.6575   -88.4896  -999.2500  -999.2500
 2277.0000     9.2680     0.0000     2.5637     0.2275     0.0777   -22.4056    91.5402     9.7512     6.8706     6.7496   -88.1609  -999.2500  -999.2500
 2277.5000     9.2518     0.0000     2.5757     0.2198     0.0728   -23.1728    89.5002    10.3384     7.0265     6.8519   -87.9846  -999.2500  -999.2500
 2278.0000     9.2353     0.0000     2.5832     0.2203     0.0729   -31.6322    87.4601     9.9191     7.1351     6.9548   -87.9608  -999.2500  -999.2500
 2278.5000     9.2343     0.0000     2.5862     0.2229     0.0816   -32.3994    85.1914     9.1180     7.3490     7.1608   -87.9390  -999.2500  -999.2500
 2279.0000     9.2339     0.0000     2.5832     0.2251     0.1012   -33.1666    86.1239     8.6243     7.5693     7.2939   -87.9131  -999.2500  -999.2500
 2279.5000     9.2342     0.0000     2.5787     0.2274     0.1165   -33.9337    88.8857     8.3934     7.7964     7.5373   -87.7368  -999.2500  -999.2500
 2280.0000     9.2341     0.0000     2.5638     0.2286     0.1255   -34.7005    92.3335     8.7759     8.0303     7.8161   -87.8659  -999.2500  -999.2500
 2280.5000     9.2341     0.0000     2.5443     0.2290     0.1287   -35.4676    96.0099     9.3043     8.2731     8.0476   -87.8415  -999.2500  -999.2500
 2281.0000     9.2341     0.0000     2.5428     0.2184     0.1283   -28.3506    96.7138    10.2229     8.3414     8.1685   -87.6464  -999.2500  -999.2500
 2281.5000     9.2341     0.0000     2.5429     0.2025     0.1211   -29.3096    92.6131    11.7233     8.3507     8.1834   -87.4831  -999.2500  -999.2500
 2282.0000     9.2341     0.0000     2.5460     0.2051     0.1152   -22.1926    89.8473    12.4293     8.2996     8.1788   -87.4593  -999.2500  -999.2500
 2282.5000     9.2341     0.0000     2.5549     0.2163     0.1122   -15.2674    88.9931    11.5897     8.3101     8.0679   -87.4354  -999.2500  -999.2500
 2283.0000     9.2341     0.0000     2.5497     0.2227     0.1093   -16.2265    88.3295     9.5725     8.2417     7.9585   -87.4116  -999.2500  -999.2500
 2283.5000     9.2341     0.0000     2.5330     0.2245     0.1085   -16.9932    87.4327    10.0768     8.1529     7.9069   -87.3878  -999.2500  -999.2500
 2284.0000     9.2341     0.0000     2.5138     0.2260     0.1123   -17.7604    87.2175    11.1509     7.9899     7.7454   -87.6748  -999.2500  -999.2500
 2284.5000     9.2342     0.0000     2.5083     0.2357     0.1064   -18.5275    88.1545    10.9301     7.6649     7.5321   -87.9558  -999.2500  -999.2500
 2285.0000     9.2342     0.0000     2.5055     0.2405     0.0975   -19.2947    90.9163     9.4900     7.3531     7.0678   -88.5366  -999.2500  -999.2500
 2285.5000     9.2422     0.0000     2.5114     0.2384     0.0915   -20.0619    95.5073     9.8484     7.0533     6.8242   -88.2071  -999.2500  -999.2500
 2286.0000     9.2533     0.0000     2.5206     0.2381     0.0975   -20.8290   100.0984    10.2204     6.9085     6.6838   -88.7930  -999.2500  -999.2500
 2286.5000     9.2642     0.0000     2.5293     0.2381     0.0856   -21.5962   107.2047     7.1986     6.7667     6.3619   -89.1177  -999.2500  -999.2500
 2287.0000     9.2734     0.0000     2.5370     0.2381     0.0737   -22.3629   106.5366     7.1231     6.5472     6.0990   -89.6600  -999.2500  -999.2500
 2287.5000     9.2737     0.0000     2.5385     0.2390     0.0767   -23.1301   104.2300     7.7734     6.3708     5.9310   -89.6302  -999.2500  -999.2500
 2288.0000     9.2739     0.0000     2.5340     0.2408     0.0828   -16.0130   103.3712     8.4801     6.1553     5.7677   -89.6063  -999.2500  -999.2500
