~VERSION INFORMATION
 VERS.                2.0:   CWLS LOG ASCII STANDARD - VERSION 2.0
 WRAP.                 NO:   ONE LINE PER DEPTH STEP
~WELL INFORMATION
#MNEM.UNIT      DATA TYPE    INFORMATION
#----------   ------------   ------------------------------
 STRT.F          210.0000:   START DEPTH
 STOP.F         3128.0000:   STOP DEPTH
 STEP.F            0.5000:   STEP LENGTH
 NULL.          -999.2500:   NO VALUE
 COMP.    PENIX & SCISSON:   COMPANY
 WELL. FENIX NPR 3 "A" #14-27:   WELL
 FLD .                NPR:   FIELD
 LOC .      S27 T39N R78W:   LOCATION
 CNTY.            NATRONA:   COUNTY
 STAT.            WYOMING:   STATE
 CTRY. UNITED STATES OF AMERICA:   COUNTRY
 SRVC.      DRESSER ATLAS:   SERVICE COMPANY
 DATE.        31-AUG-1977:   LOGDATE
 API .     49025104280000:   API NUMBER
~CURVE INFORMATION
#MNEM.UNIT       API CODE    CURVE DESCRIPTION
#----------   ------------   ------------------------------
 DEPT.F                  :   
 GRD .GAPI   45 310 01 00:   GAMMA RAY FROM DENSITY LOG
 CALD.IN     45 280 60 00:   CALIPER FROM DENSITY LOG
 RHOB.G/C3   45 350 01 00:   BULK DENSITY
 CORR.G/C3   45 356 01 00:   DENSITY CORRECTION
 NPHI.DEC    42 890 03 00:   NEUTRON POROSITY SANDSTONE
 SPR .MV     11 010 01 00:   SPONTANEOUS POTENTIAL
 RXO .OHMM   11 220 01 00:   FLUSHED ZONE RESISTIVITY
 LLD .OHMM   11 220 10 00:   LATEROLOG LOG DEEP
 LLS .OHMM   11 220 09 00:   LATEROLOG LOG SHALLOW
 TENR.LBS    11 635 01 00:   TENSION FROM RESISTIVITY
 TEND.LBS    45 635 01 00:   TENSION FROM DENSITY LOG
~PARAMETER INFORMATION
#MNEM.UNIT          VALUE    DESCRIPTION
#----------   ------------   ------------------------------
 EKB .F         5046.0000:   Kelly bushing
 EGL .F         5036.0000:   Ground level
 TD  .F         3111.0000:   Total depth
 DATE.        31-AUG-1977:   Date logged
 CLNT.            A2DTECH:   Client Code
 SL  . 2310' FNL & 330' FWL:   Surface Location
 PD  .                 GL:   Permanent Datum
 EPD .F              5036:   Elevation Permanent Datum
 LMF .                 KB:   Log Measured From
 DMF .                 KB:   Drilling Measured From
 DAPD.F                10:   Feet Above Permanent Datum
 DD  .F              3109:   Depth driller
 DL  .F              3111:   Depth logger
 BLI .F              3109:   Bottom log interval
 TLI .F               217:   Top log interval
 CS1 .IN             8.75:   Casing size
 CBD1.       8.75" @ 215':   Casing driller 1
 CBL1.F               217:   Casing logger 1
 BS1 .IN            7.875:   Bit size
 BSD1.F              3109:   Depth drilled with bit1
 DFT .                GEL:   Type fluid in hole
 DFD .                8.8:   Density
 DFV .                 35:   Viscosity
 DFPH.                 10:   pH
 DFL .                8.8:   Fluid loss
 MSS .                PIT:   Source of sample
 RMS .OHMM            .36:   Rm
 MST .F                67:   Rm Meas. temp.
 RMF .OHMM            .24:   Rmf
 MFST.F                67:   Rmf Meas. temp.
 RMC .OHMM            .51:   Rmc
 MCST.F                67:   Rmc Meas. temp.
 MFSS.               MEAS:   Source Rmf.
 MCSS.               CALC:   Source Rmc.
 RMB .OHMM            .20:   Rm. at BHT
 BHT .F               121:   BHT.
 TCS .HRS               5:   Time Circ. stopped
 MRT .F               121:   Maximum recorded temp.
 LUN .               6080:   Logging unit number
 LUL .              WLSTN:   Logging unit location
 ENGI.               BALL:   Recorded By
 WITN.         PETTINGILL:   Witnessed by
 ORIG.      2.5" 5" PRINT:   Origin of data
 UWI .     49025104280000:   Unique Well ID
 DICO. A2D TECHNOLOGIES, INC.:   Digitizing Company
~OTHER INFORMATION
~A   DEPT      GRD         CALD     RHOB       CORR       NPHI        SPR        RXO        LLD        LLS        TENR      TEND   
# ...
  393.0000    55.2432    12.7701     2.2758    -0.0123     0.2646    -2.7888     4.0306    13.1655     8.8350    75.5386    78.5641
  393.5000    55.6341    12.6904     2.2758    -0.0123     0.2638    -3.1873     4.0307    13.1660     8.8352    75.3312    74.5865
  394.0000    56.4217    12.6504     2.2844    -0.0114     0.2610    -3.9841     4.0308    12.9283     8.8358    75.1239    74.5872
  394.5000    56.8125    12.6303     2.2933    -0.0092     0.2531    -5.1793     4.0309    12.6948     8.5192    74.9165    74.5889
  395.0000    56.8066    12.6300     2.3043    -0.0071     0.2511    -5.5777     4.0310    12.6952     8.3655    74.7091    78.5691
  395.5000    57.1974    12.5503     2.3132    -0.0050     0.2542    -7.1713     4.0311    12.4820     8.3657    74.5017    74.5912
  396.0000    57.5883    12.4905     2.3202    -0.0029     0.2605    -7.9681     4.0313    12.6965     8.3661    74.2943    74.5924
  396.5000    57.5823    12.4902     2.3251    -0.0008     0.2653    -8.3665     4.0314    12.6969     8.3663    74.0869    74.5936
  397.0000    57.5764    12.4701     2.3301     0.0014     0.2728    -9.1633     4.0315    12.6975     8.5208    73.8795    74.5941
  397.5000    57.9672    12.4698     2.3341     0.0025     0.2736    -9.5618     3.9587    12.6979     8.5211    73.6721    74.5960
  398.0000    57.9613    12.4695     2.3410     0.0025     0.2731    -9.5618     3.9588    12.9326     8.8383    73.4647    74.5970
  398.5000    57.9553    12.4097     2.3400     0.0005     0.2727    -9.5618     4.0319    13.1712     8.8386    73.2573    74.5984
  399.0000    57.5526    12.3895     2.3390    -0.0015     0.2692    -9.5618     4.0319    13.4148     9.3365    73.0499    74.5991
  399.5000    57.9434    12.3892     2.3480    -0.0015     0.2668    -9.5618     4.0788    13.4153     9.1679    79.4112    74.6008
  400.0000    54.3651    12.3691     2.3519     0.0005     0.2664    -9.5618     4.2308    13.4159     9.5098    79.3084    74.6020
  400.5000    53.9617    12.3522     2.3582     0.0056     0.2644    -9.5618     4.3795    13.6613     9.6843    79.2057    71.0988
  401.0000    53.1614    12.3486     2.3602     0.0104     0.2608   -10.1511     4.6349    13.9129     9.8613    79.3116    74.6703
  401.5000    53.1548    12.3681     2.3641     0.0104     0.2580   -10.5465     4.7200    14.9650     9.8605    79.4174    70.7722
  402.0000    53.1495    12.3876     2.3631     0.0103     0.2541   -10.9405     4.8065    15.5215     9.8598    79.5233    74.7830
  402.5000    53.1428    12.3873     2.3601     0.0103     0.2529   -10.9375     4.9851    15.8070    10.8010    79.6292    90.7755
  403.0000    54.3266    12.4069     2.3481     0.0063     0.2565   -11.3315     5.1701    16.6949    11.2014    79.7350    90.8064
  403.5000    54.3200    12.3866     2.3322     0.0023     0.2612   -11.3285     5.2650    17.0007    12.0486    79.8409    74.9471
  404.0000    54.7101    12.3665     2.3242     0.0022     0.2644   -11.7225     5.3616    17.6313    12.0477    79.9468    59.0669
  404.5000    55.1003    12.3860     2.3232     0.0022     0.2655   -12.5165     5.4600    16.3879    11.8285    80.0527    86.9907
  405.0000    55.4904    12.4848     2.3272     0.0022     0.2659   -12.9105     5.2635    15.7989    10.7958    80.1585    91.0019
  405.5000    55.8806    12.5639     2.3321     0.0041     0.2647   -13.3061     4.9823    15.2306    10.5994    80.2644    91.0740
  406.0000    57.8579    12.5635     2.3341     0.0031     0.2612   -14.0987     4.7160    15.2294    10.9305    80.3703    91.1048
  406.5000    59.4385    12.5830     2.3251     0.0010     0.2608   -13.6972     4.6303    15.5096    11.3366    80.4761    99.1380
  407.0000    59.4319    12.5629     2.3161     0.0010     0.2592   -13.6928     4.8021    16.6827    11.9746    80.5820    99.1586
  407.5000    59.4252    12.6022     2.3131    -0.0010     0.2576   -13.2914     5.2610    16.9884    12.4190    80.6879    83.3185
  408.0000    60.2122    12.6019     2.3171     0.0020     0.2576   -12.8884     5.3577    16.3778    12.4181    80.7938    67.4368
  408.5000    60.6023    12.6016     2.3260     0.0079     0.2584   -12.8855     5.4559    16.0808    10.9258    80.8996    75.4597
  409.0000    59.0085    12.6012     2.3538     0.0159     0.2608   -12.8810     5.2597    14.1487    10.3422    81.0055    75.4905
  409.5000    56.6211    12.6009     2.3687     0.0218     0.2623   -12.2795     4.9785    13.3970     9.6121    81.1114    75.5623
  410.0000    56.6145    12.6006     2.3747     0.0218     0.2651   -12.6751     4.2515    12.9115     9.4373    81.2173    75.6033
  410.5000    55.8142    12.6002     2.3747     0.0217     0.2683   -13.3406     4.0987    13.1485     9.4363    81.3231    87.6077
  411.0000    56.9980    12.5801     2.3737     0.0217     0.2683   -14.0060     4.0242    13.8876     9.9674    81.4290    91.6196
  411.5000    57.7849    12.5797     2.3767     0.0217     0.2639   -14.6562     4.0238    14.1431    10.7221    81.5349    87.7106
  412.0000    59.7623    12.5794     2.3786     0.0157     0.2591   -14.6533     4.0235    15.4932    10.9190    81.6407    87.7414
  412.5000    60.5493    12.5394     2.3716     0.0117     0.2556   -13.8517     4.5714    15.7771    11.3242    81.7466    91.7946
  413.0000    61.7330    12.5391     2.3597     0.0096     0.2548   -13.8487     5.0080    15.7760    11.5323    81.8525    91.8152
  413.5000    62.1232    12.5189     2.3587     0.0096     0.2603   -13.4457     5.3868    16.0650    11.8091    81.9584    87.9163
  414.0000    61.7197    12.4987     2.3606     0.0116     0.2635   -13.4428     5.3862    15.7731    11.8083    82.0642    91.9285
  414.5000    60.1259    12.4389     2.3666     0.0135     0.2647   -13.4383     5.2883    16.3587    12.2460    82.1701    91.9903
  415.0000    59.3257    12.3989     2.3735     0.0135     0.2710   -13.4354     5.4846    16.9649    12.7004    82.2760    92.0314
  415.5000    60.9062    12.2993     2.3775     0.0155     0.2781   -13.4310     6.0081    17.2776    12.9330    82.3818    92.0932
  416.0000    61.6945    12.2395     2.3824     0.0154     0.2785   -13.8267     6.4628    17.5935    12.9321    82.4877    92.1344
  416.5000    61.6879    12.2391     2.3854     0.0114     0.2765   -14.2209     6.3452    17.5916    13.1689    82.5936    92.1962
  417.0000    60.0927    12.2388     2.3804     0.0094     0.2749   -14.6167     6.3447    17.5903    13.1679    82.6995    96.2190
  417.5000    58.8957    12.2385     2.3754     0.0094     0.2789   -15.0110     6.7011    17.2701    12.9283    82.8053    96.2809
  418.0000    59.2859    12.2381     2.3744     0.0093     0.2785   -15.4067     6.9498    16.9563    13.1655    82.9112    92.3404
  418.5000    60.4709    12.2973     2.3764     0.0053     0.2773   -15.8011     6.9490    16.9544    12.6921    83.0171    92.4022
  419.0000    62.0515    12.2970     2.3783     0.0041     0.2706   -15.7982     6.6994    16.9538    12.4616    83.1229    92.4434
  419.5000    63.2353    12.3165     2.3694     0.0033     0.2622   -15.7938     6.3417    16.6445    12.4603    83.2288    88.5234
  420.0000    64.0222    12.3162     2.3693     0.0032     0.2583   -15.7909     6.1139    16.3421    12.9227    83.3347    88.5748
  420.5000    64.4124    12.3159     2.3693     0.0032     0.2559   -15.7865     6.6975    16.6415    12.4580    83.4406    88.6263
  421.0000    64.0090    12.2957     2.3693     0.0032     0.2519   -15.7822     6.4569    16.6403    12.4571    83.5464    88.6571
  421.5000    63.2087    12.2755     2.3713     0.0056     0.2488   -16.3767     7.6090    16.3373    12.4557    83.6523    88.7292
  422.0000    63.2021    12.2553     2.3623     0.0091     0.2480   -16.3724     7.0727    16.3361    12.4548    83.7582    88.7600
  422.5000    63.5922    12.2352     2.3643     0.0091     0.2531   -16.3695     7.3349    16.3344    12.2282    83.8641    88.8321
  423.0000    64.3792    12.2150     2.3672     0.0090     0.2606   -16.7639     7.3343    16.3332    12.2273    83.9699    88.8630
