~VERSION INFORMATION
 VERS.                2.0:   CWLS LOG ASCII STANDARD - VERSION 2.0
 WRAP.                 NO:   ONE LINE PER DEPTH STEP
~WELL INFORMATION
#MNEM.UNIT      DATA TYPE    INFORMATION
#----------   ------------   ------------------------------
 STRT.F           16.0000:   START DEPTH
 STOP.F         2834.0000:   STOP DEPTH
 STEP.F            0.5000:   STEP LENGTH
 NULL.          -999.2500:   NO VALUE
 COMP.    FENIX & SCISSON:   COMPANY
 WELL. FENIX NPR 3 "AX" #14-21:   WELL
 FLD .              N P R:   FIELD
 LOC .      S21 T39N R78W:   LOCATION
 CNTY.            NATRONA:   COUNTY
 STAT.            WYOMING:   STATE
 CTRY. UNITED STATES OF AMERICA:   COUNTRY
 SRVC.           BIRDWELL:   SERVICE COMPANY
 DATE.        26-JUL-1978:   LOGDATE
 API .     49025106740000:   API NUMBER
~CURVE INFORMATION
#MNEM.UNIT       API CODE    CURVE DESCRIPTION
#----------   ------------   ------------------------------
 DEPT.F                  :   
 GRD .GAPI   45 310 01 00:   GAMMA RAY FROM DENSITY LOG
 CALD.IN     45 280 60 00:   CALIPER FROM DENSITY LOG
 RHOB.G/C3   45 350 01 00:   BULK DENSITY
 CORR.G/C3   45 356 01 00:   DENSITY CORRECTION
 SPR .MV     05 010 01 00:   SPONTANEOUS POTENTIAL
 ILD .OHMM   05 120 46 00:   DEEP INDUCTION RESISTIVITY
 SN  .OHMM   05 040 00 00:   SHORT NORMAL
~PARAMETER INFORMATION
#MNEM.UNIT          VALUE    DESCRIPTION
#----------   ------------   ------------------------------
 EKB .F         4998.0000:   Kelly bushing
 EGL .F         4988.0000:   Ground level
 EDF .F            0.0000:   Drilling floor
 EPD .F            0.0000:   Permanent datum
 TD  .F         2850.0000:   Total depth
 DATE.        26-JUL-1978:   Date logged
 CLNT.            A2DTECH:   Client Code
 SL  . 2640' FNL & 500' FWL:   Surface Location
 PD  .                 GL:   Permanent Datum
 DD  .F              2850:   Depth driller
 DL  .F              2838:   Depth logger
 BLI .F              2832:   Bottom log interval
 CS1 .IN            8.625:   Casing size
 CBD1.      8.625" @ 208':   Casing driller 1
 BS1 .IN            7.875:   Bit size
 DFT .            MUD/GEL:   Type fluid in hole
 DFD .                9.4:   Density
 DFV .                 37:   Viscosity
 DFPH.                 11:   pH
 TCS .HRS               4:   Time Circ. stopped
 LUN .               2958:   Logging unit number
 LUL .               CASP:   Logging unit location
 ENGI.             MILLER:   Recorded By
 WITN.           MCGINLEY:   Witnessed by
 ORIG.           5" PRINT:   Origin of data
 UWI .     49025106740000:   Unique Well ID
 DICO. A2D TECHNOLOGIES, INC.:   Digitizing Company
 DAPD.                 12:   Feet Above Permanent Datum
 BSD1.               3950:   Depth drilled with bit1
 MCSS.               CALC:   Source Rmc.
 TLI .F               230:   Top log interval
~OTHER INFORMATION
~A   DEPT       GRD      CALD       RHOB       CORR        SPR        ILD         SN   
# ...
 2291.0000   111.8340    10.3520     2.4480     0.3020   -39.3510     7.4020     7.8130
 2291.5000   107.9810    10.3460     2.4520     0.3020   -39.3010     7.3220     7.8130
 2292.0000   106.5320    10.3400     2.4510     0.3020   -39.2770     7.2250     7.7790
 2292.5000   109.4090    10.3340     2.4510     0.3010   -39.2890     7.1270     7.5810
 2293.0000   114.0080    10.3340     2.4570     0.2960   -39.3010     7.0670     7.3830
 2293.5000   118.0840    10.3340     2.4630     0.2900   -39.3130     6.9920     7.2630
 2294.0000   119.7370    10.3340     2.4670     0.2880   -39.3240     6.8970     7.1710
 2294.5000   115.8710    10.3340     2.4610     0.2880   -39.3360     6.8020     7.0560
 2295.0000   111.7910    10.3340     2.4550     0.2870   -39.3480     6.7070     6.9420
 2295.5000   109.7490    10.3330     2.4530     0.2870   -39.3600     6.6230     6.8130
 2296.0000   114.5290    10.3320     2.4680     0.2860   -39.3720     6.3260     6.8130
 2296.5000   119.4090    10.3310     2.4780     0.2860   -39.3840     6.2120     6.8130
 2297.0000   123.5900    10.3290     2.4760     0.2850   -39.3960     6.2020     6.7060
 2297.5000   125.0010    10.3280     2.4730     0.2850   -39.4080     6.1920     6.4500
 2298.0000   126.4940    10.3260     2.4780     0.2840   -39.4200     6.1820     6.4570
 2298.5000   127.8470    10.3250     2.4880     0.2840   -39.4320     6.1720     6.4720
 2299.0000   127.6290    10.3240     2.4930     0.2830   -39.4440     6.1620     6.4870
 2299.5000   126.8240    10.3220     2.4840     0.2830   -39.4550     6.1830     6.5090
 2300.0000   122.0670    10.3210     2.4830     0.2830   -39.4670     6.2070     6.4500
 2300.5000   119.0260    10.3190     2.4940     0.2830   -39.4790     6.2190     6.6400
 2301.0000   119.0470    10.3180     2.4910     0.2830   -39.4910     6.3970     6.8500
 2301.5000   119.0780    10.3160     2.4890     0.2830   -39.5030     6.6350     7.0600
 2302.0000   117.2430    10.3150     2.4930     0.2820   -39.5150     6.8740     7.2710
 2302.5000   114.7510    10.3140     2.4970     0.2810   -39.5270     7.1130     7.4810
 2303.0000   111.9740    10.3140     2.5010     0.2820   -39.5390     7.3510     7.6920
 2303.5000   111.9360    10.3140     2.5000     0.2830   -39.5510     7.6020     7.9020
 2304.0000   111.3710    10.3140     2.4880     0.2830   -39.5630     7.7420     8.1130
 2304.5000   110.2860    10.3140     2.4760     0.2820   -39.5740     7.6290     8.3290
 2305.0000   110.9550    10.3230     2.4690     0.2770   -39.5860     7.5280     8.3290
 2305.5000   114.4760    10.3310     2.4700     0.2760   -39.5980     7.4280     8.2100
 2306.0000   117.8910    10.3400     2.4540     0.2810   -39.6100     7.3280     8.1220
 2306.5000   117.9420    10.3490     2.4370     0.2850   -39.6220     7.2630     8.0300
 2307.0000   116.7260    10.3580     2.4300     0.2870   -39.6340     7.3000     8.0300
 2307.5000   116.7580    10.3670     2.4260     0.2880   -39.6460     7.3270     8.0300
 2308.0000   116.9510    10.3760     2.4110     0.2910   -39.6580     7.3540     8.0300
 2308.5000   117.1910    10.3850     2.4030     0.2940   -39.6760     7.3820     8.0300
 2309.0000   114.6540    10.3930     2.3830     0.3010   -39.7060     7.4090     8.0300
 2309.5000   111.8300    10.3950     2.3620     0.3080   -39.7360     7.4360     8.0370
 2310.0000   108.8900    10.3980     2.3450     0.3170   -39.7660     7.4640     8.0570
 2310.5000   109.9870    10.4000     2.3360     0.3230   -39.7960     7.6140     8.0760
 2311.0000   112.1260    10.4030     2.3250     0.3260   -39.8260     7.6820     8.0960
 2311.5000   114.2440    10.4060     2.3130     0.3290   -39.8620     7.7490     8.1150
 2312.0000   114.4600    10.4100     2.3000     0.3340   -39.6660     7.8170     8.1350
 2312.5000   114.6110    10.4120     2.2820     0.3390   -39.4630     7.8850     8.1540
 2313.0000   114.7710    10.4370     2.2620     0.3420   -39.4690     7.8370     8.1780
 2313.5000   114.9410    10.4520     2.2430     0.3450   -39.4690     7.7190     8.1190
 2314.0000   114.0200    10.4690     2.2310     0.3500   -39.4680     7.6020     8.0450
 2314.5000   112.8510    10.4870     2.2060     0.3550   -39.4690     7.4840     7.9710
 2315.0000   113.3380    10.4870     2.1970     0.3580   -39.4680     7.3660     7.8980
 2315.5000   115.4860    10.4810     2.1970     0.3600   -39.4660     7.2480     7.7610
 2316.0000   116.8870    10.4750     2.1890     0.3620   -39.4800     7.1300     7.6100
 2316.5000   115.7690    10.4690     2.1770     0.3630   -39.8290     7.0130     7.4640
 2317.0000   113.8710    10.4640     2.1710     0.3640   -40.1820     6.8950     7.3260
 2317.5000   111.9590    10.4580     2.1660     0.3660   -40.4610     6.8130     7.1970
 2318.0000   110.0110    10.4520     2.1570     0.3670   -40.4530     6.7870     7.1700
 2318.5000   109.3350    10.4460     2.1510     0.3680   -40.4520     6.7620     7.1270
 2319.0000   112.0670    10.4400     2.1620     0.3690   -40.4530     6.7370     7.0850
 2319.5000   115.9800    10.4350     2.1720     0.3690   -40.4530     6.7120     7.0420
 2320.0000   118.5560    10.4320     2.1710     0.3690   -40.4530     6.6870     7.0000
 2320.5000   117.0170    10.4320     2.1770     0.3690   -40.4530     6.6620     6.9570
 2321.0000   114.9460    10.4320     2.1810     0.3690   -40.4530     6.6290     6.9150
 2321.5000   114.2190    10.4320     2.1820     0.3690   -40.4530     6.6900     6.8760
 2322.0000   113.8500    10.4320     2.1820     0.3690   -40.4530     6.7510     6.8760
 2322.5000   112.3030    10.4320     2.1880     0.3680   -40.4530     6.6700     6.8760
 2323.0000   112.0260    10.4320     2.1950     0.3650   -40.4530     6.4990     6.8180
 2323.5000   112.0810    10.4320     2.2110     0.3620   -40.4520     6.3290     6.7000
 2324.0000   112.1720    10.4320     2.2280     0.3600   -40.4770     6.2760     6.5810
 2324.5000   111.1560    10.4360     2.2400     0.3600   -40.5120     6.2420     6.4520
 2325.0000   109.1300    10.4410     2.2470     0.3590   -40.5480     6.2120     6.4600
 2325.5000   107.1030    10.4450     2.2520     0.3590   -40.5830     6.1810     6.4720
 2326.0000   106.2710    10.4490     2.2530     0.3590   -40.6200     6.1510     6.4840
 2326.5000   110.2230    10.4540     2.2600     0.3580   -40.6460     6.1200     6.4960
 2327.0000   113.3330    10.4580     2.2610     0.3540   -40.3780     6.0900     6.5070
 2327.5000   115.8270    10.4620     2.2620     0.3490   -40.0700     6.0590     6.5190
 2328.0000   118.2720    10.4660     2.2780     0.3480   -39.9050     6.0330     6.5310
 2328.5000   120.3140    10.4710     2.2930     0.3460   -39.7420     6.0090     6.5420
 2329.0000   119.1840    10.4750     2.3010     0.3410   -39.5800     5.9850     6.5540
 2329.5000   117.2320    10.4790     2.3020     0.3360   -39.4930     5.9610     6.5660
 2330.0000   114.2580    10.4840     2.3030     0.3360   -39.5890     5.9370     6.6120
 2330.5000   111.3270    10.4880     2.2840     0.3360   -39.6780     5.9130     6.7400
 2331.0000   109.3650    10.4910     2.2780     0.3350   -39.7680     5.8870     6.8680
 2331.5000   110.6920    10.4750     2.2780     0.3340   -39.8690     6.0180     7.0020
 2332.0000   113.9400    10.4490     2.2760     0.3310   -39.6480     6.3700     7.0670
 2332.5000   111.8460    10.4240     2.2870     0.3280   -39.3650     7.1120     7.2310
 2333.0000   102.9490    10.3980     2.2880     0.3250   -39.0480     7.8550     7.8570
 2333.5000    94.3290    10.3740     2.2880     0.3210   -38.7320     9.0530     8.4840
 2334.0000    81.2880    10.3730     2.2890     0.3180   -38.4240    10.7320     9.8070
 2334.5000    67.8600    10.3730     2.2900     0.3150   -38.0500    13.3550    12.3130
 2335.0000    67.3490    10.3730     2.2940     0.3120   -35.9650    17.5560    14.8190
 2335.5000    67.2200    10.3730     2.2960     0.3110   -33.8150    21.7570    17.1820
 2336.0000    66.7390    10.3730     2.2940     0.3110   -33.2480    25.9580    19.3150
