~VERSION INFORMATION
 VERS.                2.0:   CWLS LOG ASCII STANDARD - VERSION 2.0
 WRAP.                 NO:   ONE LINE PER DEPTH STEP
~WELL INFORMATION
#MNEM.UNIT      DATA TYPE    INFORMATION
#----------   ------------   ------------------------------
 STRT.F         1999.5000:   START DEPTH
 STOP.F         2762.5000:   STOP DEPTH
 STEP.F            0.5000:   STEP LENGTH
 NULL.          -999.2500:   NO VALUE
 COMP.          U.S. NAVY:   COMPANY
 WELL. LAWRENCE US NAVY 3 "A" #404-20:   WELL
 FLD .        TEAPOT DOME:   FIELD
 LOC .      S20 T39N R78W:   LOCATION
 CNTY.            NATRONA:   COUNTY
 STAT.            WYOMING:   STATE
 CTRY. UNITED STATES OF AMERICA:   COUNTRY
 SRVC.         MCCULLOUGH:   SERVICE COMPANY
 DATE.        09-JUL-1966:   LOGDATE
 API .     49025095910000:   API NUMBER
~CURVE INFORMATION
#MNEM.UNIT       API CODE    CURVE DESCRIPTION
#----------   ------------   ------------------------------
 DEPT.F                  :   
 TEMP.DEG    99 000 00 00:   TEMPERATURE AT TOOL
 GR  .GAPI   30 310 01 00:   GAMMA RAY
~PARAMETER INFORMATION
#MNEM.UNIT          VALUE    DESCRIPTION
#----------   ------------   ------------------------------
 EGL .F         5004.0000:   Ground level
 EDF .F         5008.0000:   Drilling floor
 TD  .F         2765.0000:   Total depth
 DATE.        09-JUL-1966:   Date logged
 CLNT.            A2DTECH:   Client Code
 PD  .                 GL:   Permanent Datum
 EPD .F              5004:   Elevation Permanent Datum
 LMF .                 GL:   Log Measured From
 DMF .                 GL:   Drilling Measured From
 DL  .F              2765:   Depth logger
 BLI .F              2763:   Bottom log interval
 TLI .F              2000:   Top log interval
 CS1 .IN           5.1875:   Casing size
 CBD1.    5.1875" @ 2790':   Casing driller 1
 DFT .              WATER:   Type fluid in hole
 ENGI.        FITZSIMMONS:   Recorded By
 WITN.             HUDSON:   Witnessed by
 ORIG.           5" PRINT:   Origin of data
 UWI .     49025095910000:   Unique Well ID
 DICO. A2D TECHNOLOGIES, INC.:   Digitizing Company
~OTHER INFORMATION
~A  DEPT      TEMP          GR  
 1999.5000  -999.2500   153.4271
 2000.0000  -999.2500   153.3349
 2000.5000  -999.2500   153.6960
 2001.0000  -999.2500   154.8891
 2001.5000  -999.2500   154.1414
 2002.0000  -999.2500   154.9970
 2002.5000  -999.2500   152.7884
 2003.0000  -999.2500   158.6900
 2003.5000  -999.2500   155.6308
 2004.0000  -999.2500   148.9757
 2004.5000  -999.2500   152.1458
 2005.0000  -999.2500   153.4154
 2005.5000  -999.2500   153.1534
 2006.0000  -999.2500   148.3998
 2006.5000  -999.2500   146.0225
 2007.0000  -999.2500   145.4004
 2007.5000  -999.2500   144.7852
 2008.0000  -999.2500   140.1896
 2008.5000  -999.2500   142.0488
 2009.0000  -999.2500   144.4762
 2009.5000  -999.2500   144.2711
 2010.0000  -999.2500   144.6037
 2010.5000  -999.2500   145.0570
 2011.0000  -999.2500   139.8727
 2011.5000  -999.2500   134.6560
 2012.0000  -999.2500   127.9999
 2012.5000  -999.2500   130.3635
 2013.0000  -999.2500   134.6079
 2013.5000  -999.2500   136.8674
 2014.0000  -999.2500   138.1253
 2014.5000  -999.2500   135.3045
 2015.0000  -999.2500   135.1436
 2015.5000  -999.2500   136.5918
 2016.0000  -999.2500   139.1280
 2016.5000  -999.2500   136.6163
 2017.0000  -999.2500   133.0861
 2017.5000  -999.2500   128.4434
 2018.0000  -999.2500   129.7718
 2018.5000  -999.2500   131.0316
 2019.0000  -999.2500   133.3030
 2019.5000  -999.2500   140.2573
 2020.0000  -999.2500   137.6406
 2020.5000  -999.2500   135.2476
 2021.0000  -999.2500   138.7993
 2021.5000  -999.2500   137.5709
 2022.0000  -999.2500   139.9188
 2022.5000  -999.2500   141.4906
 2023.0000  -999.2500   136.7497
 2023.5000  -999.2500   133.5698
 2024.0000  -999.2500   136.7664
 2024.5000  -999.2500   138.9023
 2025.0000  -999.2500   138.4736
 2025.5000  -999.2500   134.7531
 2026.0000  -999.2500   129.9190
 2026.5000  -999.2500   127.6457
 2027.0000  -999.2500   130.4420
 2027.5000  -999.2500   141.5956
 2028.0000  -999.2500   151.9486
 2028.5000  -999.2500   149.9951
 2029.0000  -999.2500   147.6629
 2029.5000  -999.2500   146.5493
 2030.0000  -999.2500   144.6920
 2030.5000  -999.2500   141.8310
 2031.0000  -999.2500   137.8486
 2031.5000  -999.2500   133.7955
 2032.0000  -999.2500   130.2683
 2032.5000  -999.2500   135.8235
 2033.0000  -999.2500   141.2845
 2033.5000  -999.2500   139.4891
 2034.0000  -999.2500   133.6974
 2034.5000  -999.2500   129.0527
 2035.0000  -999.2500   132.4523
 2035.5000  -999.2500   135.3359
 2036.0000  -999.2500   140.7626
 2036.5000  -999.2500   144.3290
 2037.0000  -999.2500   135.4821
 2037.5000  -999.2500   128.7573
 2038.0000  -999.2500   126.5655
 2038.5000  -999.2500   124.2392
 2039.0000  -999.2500   127.3700
 2039.5000  -999.2500   130.3075
 2040.0000  -999.2500   131.3250
 2040.5000  -999.2500   135.2662
 2041.0000  -999.2500   140.8087
 2041.5000  -999.2500   138.9808
 2042.0000  -999.2500   136.7193
 2042.5000  -999.2500   137.0480
 2043.0000  -999.2500   132.4602
 2043.5000  -999.2500   128.4659
 2044.0000  -999.2500   132.1030
 2044.5000  -999.2500   135.7264
 2045.0000  -999.2500   138.4029
 2045.5000  -999.2500   140.6900
 2046.0000  -999.2500   137.8035
 2046.5000  -999.2500   135.2711
 2047.0000  -999.2500   136.6428
 2047.5000  -999.2500   139.2133
 2048.0000  -999.2500   139.5734
 2048.5000  -999.2500   140.7704
 2049.0000  -999.2500   140.8980
 2049.5000  -999.2500   139.9914
 2050.0000  -999.2500   140.8646
 2050.5000  -999.2500   141.8536
 2051.0000  -999.2500   138.6433
 2051.5000  -999.2500   133.8269
 2052.0000  -999.2500   138.4657
 2052.5000  -999.2500   143.1261
 2053.0000  -999.2500   146.0941
 2053.5000  -999.2500   148.7265
 2054.0000  -999.2500   150.1031
 2054.5000  -999.2500   146.4728
 2055.0000  -999.2500   143.6393
 2055.5000  -999.2500   147.5962
 2056.0000  -999.2500   150.4072
 2056.5000  -999.2500   150.1609
 2057.0000  -999.2500   146.7632
 2057.5000  -999.2500   143.8473
 2058.0000  -999.2500   142.6228
 2058.5000  -999.2500   139.0083
 2059.0000  -999.2500   139.9041
 2059.5000  -999.2500   140.9931
 2060.0000  -999.2500   142.5345
 2060.5000  -999.2500   136.1277
 2061.0000  -999.2500   137.2933
 2061.5000  -999.2500   126.3496
 2062.0000  -999.2500   128.7416
 2062.5000  -999.2500   134.7884
 2063.0000  -999.2500   139.1368
 2063.5000  -999.2500   145.0708
 2064.0000  -999.2500   145.5584
 2064.5000  -999.2500   140.3142
 2065.0000  -999.2500   141.4847
 2065.5000  -999.2500   139.8148
 2066.0000  -999.2500   137.5268
 2066.5000  -999.2500   137.3364
 2067.0000  -999.2500   139.0583
 2067.5000  -999.2500   135.9952
 2068.0000  -999.2500   133.8867
 2068.5000  -999.2500   135.1318
 2069.0000  -999.2500   133.1725
 2069.5000  -999.2500   129.8052
 2070.0000  -999.2500   129.7699
 2070.5000  -999.2500   133.3805
 2071.0000  -999.2500   136.5378
 2071.5000  -999.2500   137.1196
 2072.0000  -999.2500   133.5904
 2072.5000  -999.2500   129.6404
 2073.0000  -999.2500   131.0189
 2073.5000  -999.2500   134.1301
 2074.0000  -999.2500   127.5819
 2074.5000  -999.2500   122.1935
 2075.0000  -999.2500   123.4405
 2075.5000  -999.2500   125.2870
 2076.0000  -999.2500   122.7567
 2076.5000  -999.2500   127.8135
 2077.0000  -999.2500   133.6474
 2077.5000  -999.2500   139.2094
 2078.0000  -999.2500   143.5265
 2078.5000  -999.2500   145.6143
 2079.0000  -999.2500   143.6089
 2079.5000  -999.2500   141.1776
 2080.0000  -999.2500   141.4798
 2080.5000  -999.2500   145.9116
 2081.0000  -999.2500   147.0409
 2081.5000  -999.2500   148.0211
 2082.0000  -999.2500   149.0130
 2082.5000  -999.2500   148.2291
 2083.0000  -999.2500   143.6658
 2083.5000  -999.2500   145.7193
 2084.0000  -999.2500   150.2473
 2084.5000  -999.2500   156.8690
 2085.0000  -999.2500   164.5886
 2085.5000  -999.2500   161.5903
 2086.0000  -999.2500   158.3888
 2086.5000  -999.2500   157.8295
 2087.0000  -999.2500   157.6098
 2087.5000  -999.2500   163.5359
 2088.0000  -999.2500   165.7160
 2088.5000  -999.2500   152.1684
 2089.0000  -999.2500   142.6709
 2089.5000  -999.2500   134.2399
 2090.0000  -999.2500   130.5950
 2090.5000  -999.2500   135.4428
 2091.0000  -999.2500   138.6217
 2091.5000  -999.2500   135.3791
 2092.0000  -999.2500   136.9852
 2092.5000  -999.2500   140.2279
 2093.0000  -999.2500   139.4577
 2093.5000  -999.2500   137.9702
 2094.0000  -999.2500   136.0443
 2094.5000  -999.2500   134.1654
 2095.0000  -999.2500   133.0420
 2095.5000  -999.2500   139.9679
 2096.0000  -999.2500   137.7662
 2096.5000  -999.2500   135.0023
 2097.0000  -999.2500   131.9578
 2097.5000  -999.2500   133.8789
 2098.0000  -999.2500   127.8478
 2098.5000  -999.2500   129.6296
 2099.0000  -999.2500   132.2276
 2099.5000  -999.2500   132.5190
 2100.0000  -999.2500   134.2625
 2100.5000  -999.2500   135.4527
 2101.0000  -999.2500   133.4825
 2101.5000  -999.2500   131.5909
 2102.0000  -999.2500   129.5462
 2102.5000  -999.2500   131.4378
 2103.0000  -999.2500   131.9441
 2103.5000  -999.2500   134.6079
 2104.0000  -999.2500   137.2668
 2104.5000  -999.2500   134.5098
 2105.0000  -999.2500   128.4895
 2105.5000  -999.2500   130.0259
 2106.0000  -999.2500   126.7097
 2106.5000  -999.2500   123.5514
 2107.0000  -999.2500   122.8312
 2107.5000  -999.2500   125.0182
 2108.0000  -999.2500   128.3659
 2108.5000  -999.2500   127.7929
 2109.0000  -999.2500   127.0923
 2109.5000  -999.2500   127.6457
 2110.0000  -999.2500   128.9016
 2110.5000  -999.2500   126.3172
 2111.0000  -999.2500   128.1539
 2111.5000  -999.2500   130.7373
 2112.0000  -999.2500   127.5505
 2112.5000  -999.2500   131.3799
 2113.0000  -999.2500   128.6160
 2113.5000  -999.2500   129.4176
 2114.0000  -999.2500   124.2657
 2114.5000  -999.2500   126.4801
 2115.0000  -999.2500   128.5336
 2115.5000  -999.2500   133.7013
 2116.0000  -999.2500   130.9051
 2116.5000  -999.2500   131.8617
 2117.0000  -999.2500   130.8688
 2117.5000  -999.2500   131.7459
 2118.0000  -999.2500   140.9843
 2118.5000  -999.2500   142.0704
 2119.0000  -999.2500   138.7993
 2119.5000  -999.2500   128.4434
 2120.0000  -999.2500   125.0084
 2120.5000  -999.2500   128.1382
