~VERSION INFORMATION
 VERS.                2.0:   CWLS LOG ASCII STANDARD - VERSION 2.0
 WRAP.                 NO:   ONE LINE PER DEPTH STEP
~WELL INFORMATION
#MNEM.UNIT      DATA TYPE    INFORMATION
#----------   ------------   ------------------------------
 STRT.F          404.0000:   START DEPTH
 STOP.F         2919.0000:   STOP DEPTH
 STEP.F            0.5000:   STEP LENGTH
 NULL.          -999.2500:   NO VALUE
 COMP.    FENIX & SCISSON:   COMPANY
 WELL. FENIX & SCISSON "AX" #27-21:   WELL
 FLD .             NPR #3:   FIELD
 LOC .      S21 T39N R78W:   LOCATION
 CNTY.            NATRONA:   COUNTY
 STAT.            WYOMING:   STATE
 CTRY. UNITED STATES OF AMERICA:   COUNTRY
 SRVC.       SCHLUMBERGER:   SERVICE COMPANY
 DATE.        21-APR-1977:   LOGDATE
 API .     49025103730000:   API NUMBER
~CURVE INFORMATION
#MNEM.UNIT       API CODE    CURVE DESCRIPTION
#----------   ------------   ------------------------------
 DEPT.F                  :   
 SPR .MV     07 010 01 00:   SPONTANEOUS POTENTIAL
 ILM .OHMM   07 120 44 00:   INDUCTION LOG MEDIUM RESISTIVITY
 ILD .OHMM   07 120 46 00:   DEEP INDUCTION RESISTIVITY
 LL8 .OHMM   07 220 08 00:   LATEROLOG-8 RES.
 GRN .GAPI   35 310 01 00:   GAMMA RAY
 CALD.IN     45 280 60 00:   CALIPER FROM DENSITY LOG
 GRD .GAPI   45 310 01 00:   GAMMA RAY FROM DENSITY LOG
 CORR.G/C3   45 356 01 00:   DENSITY CORRECTION
 RHOB.G/C3   45 350 01 00:   BULK DENSITY
~PARAMETER INFORMATION
#MNEM.UNIT          VALUE    DESCRIPTION
#----------   ------------   ------------------------------
 EKB .F         5004.0000:   Kelly bushing
 EGL .F         4994.0000:   Ground level
 TD  .F         2920.0000:   Total depth
 CLNT.            A2DTECH:   Client Code
 SL  . 991' FWL & 1090' FSL:   Surface Location
 DATE.        21-APR-1977:   Date Logged [DD-MMM-YYYY]
 DD  .F              2920:   Depth driller
 DL  .F              2920:   Depth logger
 BLI .F              2914:   Bottom log interval
 TLI .F               419:   Top log interval
 CS1 .              8.625:   Casing size
 CBD1.      8.625" @ 425':   Casing driller 1
 CBL1.IN              419:   Casing logger 1
 BS1 .IN            7.875:   Bit size
 BSD1.F              2920:   Depth drilled with bit1
 DFT .                FGM:   Type fluid in hole
 DFD .                9.0:   Density
 DFV .                 34:   Viscosity
 DFPH.                8.0:   pH
 DFL .                8.0:   Fluid loss
 MSS .                PIT:   Source of sample
 RMS .OHMM          0.158:   Rm
 MST .F                72:   Rm Meas. temp.
 RMF .OHMM          0.158:   Rmf
 MFST.F                72:   Rmf Meas. temp.
 MFSS.               MEAS:   Source Rmf.
 RMB .OHMM          0.102:   Rm. at BHT
 BHT .F               112:   BHT.
 TCS .HRS            0500:   Time Circ. stopped
 TLAB.HRS            0700:   Time logger at bottom
 MRT .F               112:   Maximum recorded temp.
 LUN .               5642:   Logging unit number
 LUL .               CSPR:   Logging unit location
 ENGI.             TAYLOR:   Recorded By
 WITN.          PETTINGIL:   Witnessed by
 ORIG.      2.5" 5" PRINT:   Origin of data
 UWI .     49025103730000:   Unique Well ID
 DICO. A2D TECHNOLOGIES, INC.:   Digitizing Company
 PD  .                 GL:   Permanent Datum
 EPD .F              4994:   Elevation Permanent Datum
 LMF .                 KB:   Log Measured From
 DMF .                 KB:   Drilling Measured From
 DAPD.F                10:   Feet Above Permanent Datum
~OTHER INFORMATION
~A   DEPT      SPR        ILM        ILD        LL8        GRN       CALD         GRD      CORR       RHOB   
# ...
  732.5000   -68.3555     9.9344     8.8481    10.5593  -999.2500     8.7390    66.3622     0.0152     2.4854
  733.0000   -68.3540     9.9338     8.8475    10.5586  -999.2500     8.7692    69.3428     0.0169     2.4858
  733.5000   -68.3525     9.9331     8.8469    10.5578  -999.2500     8.7698    71.4305     0.0183     2.4947
  734.0000   -68.3510     9.9452     8.8463    10.7037  -999.2500     8.7704    70.8397     0.0134     2.5032
  734.5000   -68.9448    10.0694     8.8457    10.7029  -999.2500     8.7710    66.3799     0.0093     2.4980
  735.0000   -68.9433    10.2083     8.9676    10.7022  -999.2500     8.7716    66.3843     0.0111     2.4920
  735.5000   -69.2396    10.2076     8.9669    10.8500  -999.2500     8.7722    66.0911     0.0123     2.4914
  736.0000   -69.8331    10.2069     9.0905    10.9999  -999.2500     8.8024    64.0121     0.0070     2.4977
  736.5000   -70.1294    10.2025     9.0897    10.9991  -999.2500     8.8030    66.0999     0.0014     2.5056
  737.0000   -70.1277    10.0659     9.0891    10.9984  -999.2500     8.8036    67.5924     0.0004     2.4951
  737.5000   -70.1262    10.0652     9.0885    10.8470  -999.2500     8.8042    69.0849     0.0004     2.4787
  738.0000   -70.1247     9.9269     9.0879    10.8463  -999.2500     8.8344    70.8751     0.0009     2.4757
  738.5000   -70.1232     9.7905     8.9632    10.6970  -999.2500     8.8350    70.2816     0.0031     2.4772
  739.0000   -70.1217     9.7898     8.8402    10.6963  -999.2500     8.8356    67.6033     0.0070     2.4907
  739.5000   -70.1202     9.6553     8.8143    10.5491  -999.2500     8.8362    67.6416     0.0108     2.5084
  740.0000   -70.1191     9.6546     8.6946    10.4039  -999.2500     8.8368    68.8294     0.0162     2.5222
  740.5000   -69.8199     9.5220     8.4813    10.2607  -999.2500     8.8374    69.1116     0.0230     2.5267
  741.0000   -69.8184     9.5213     8.3649    10.1195  -999.2500     8.8379    69.0506     0.0199     2.5269
  741.5000   -69.5193     9.3905     8.3449    10.1188  -999.2500     8.8385    65.9482     0.0070     2.5237
  742.0000   -69.5179     9.2614     8.1192    10.1181  -999.2500     8.8392    63.1270     0.0082     2.5192
  742.5000   -69.5164     9.1342     8.0089     9.9789  -999.2500     8.8333    64.2783     0.0231     2.5147
  743.0000   -69.5149     9.0087     7.9153     9.9782  -999.2500     8.8106    66.6892     0.0216     2.5133
  743.5000   -69.5134     8.7634     7.9147     9.8409  -999.2500     8.8113    68.7382     0.0216     2.5133
  744.0000   -69.5119     8.7628     7.9273     9.8402  -999.2500     8.8119    70.8453     0.0246     2.5148
  744.5000   -69.8080     8.7622     8.1465     9.7048  -999.2500     8.8125    72.7330     0.0276     2.5179
  745.0000   -70.1042     8.8830     8.3604     9.7041  -999.2500     8.8130    74.8059     0.0306     2.5194
  745.5000   -70.1027     9.0056     8.4860     9.7034  -999.2500     8.7839    73.4645     0.0367     2.5224
  746.0000   -70.3988     9.1298     8.7112     9.8375  -999.2500     8.7845    70.8553     0.0472     2.5253
  746.5000   -70.3973     9.1291     8.8311     9.8368  -999.2500     8.7555    69.3591     0.0457     2.5160
  747.0000   -70.3958     9.2551     8.8305     9.9727  -999.2500     8.7560    70.5029     0.0247     2.5081
  747.5000   -70.3943     9.3827     8.8299    10.1104  -999.2500     8.7567    73.3284     0.0142     2.4996
  748.0000   -70.0952     9.3820     8.7088    10.1097  -999.2500     8.7573    76.3411     0.0112     2.4969
  748.5000   -70.0937     9.3814     8.7046    10.1090  -999.2500     8.7579    78.7975     0.0127     2.5000
  749.0000   -69.9851     9.3807     8.4714    10.1083  -999.2500     8.7586    78.0059     0.0112     2.5202
  749.5000   -69.6900     9.3801     8.4708     9.9692  -999.2500     8.7592    77.0853     0.0097     2.5182
  750.0000   -69.4941     9.3794     8.4702     9.9685  -999.2500     8.7597    76.6369     0.0023     2.5065
  750.5000   -69.3973     9.5089     8.4697     9.8313  -999.2500     8.7603    76.3437    -0.0022     2.5025
  751.0000   -69.1935     9.5081     8.4691     9.6960  -999.2500     8.7312    76.1865     0.0085     2.5009
  751.5000   -69.1920     9.5075     8.3529     9.6953  -999.2500     8.7318    74.2824     0.0113     2.5000
  752.0000   -69.1905     9.5068     8.3523     9.6947  -999.2500     8.7324    70.7737     0.0051     2.4994
  752.5000   -69.2683     9.5063     8.3517     9.6940  -999.2500     8.7032    69.5172     0.0008     2.5008
  753.0000   -69.4853     9.5056     8.3511     9.6933  -999.2500     8.7039    68.0335     0.0033     2.5053
  753.5000   -69.7814     9.5050     8.3506     9.6928  -999.2500     8.7045    67.6359     0.0122     2.5152
  754.0000   -70.0776     9.5043     8.3500     9.7710  -999.2500     8.7051    69.2329     0.0229     2.5180
  754.5000   -70.1394     9.5036     8.3494     9.8260  -999.2500     8.7057    68.6421     0.0264     2.5089
  755.0000   -70.4316     9.6347     8.3488     9.9617  -999.2500     8.7359    67.1583     0.0252     2.5046
  755.5000   -70.6683     9.7036     8.3483    10.0993  -999.2500     8.7365    66.5670     0.0200     2.5062
  756.0000   -70.9644     9.8356     8.3477    10.3166  -999.2500     8.7371    66.5000     0.0189     2.5196
  756.5000   -70.9152    10.1076     8.3471    10.6028  -999.2500     8.7377    71.3383     0.0246     2.5316
  757.0000   -70.6200    10.2451     8.3465    10.7478  -999.2500     8.7383    74.6165     0.0280     2.5335
  757.5000   -70.3248    10.5285     8.4615    11.1196  -999.2500     8.7388    76.1090     0.0205     2.5062
  758.0000   -69.9940    10.7521     8.6967    11.3525  -999.2500     8.7438    73.4349     0.0241     2.5167
  758.5000   -69.4369    10.9669     8.9385    11.6675  -999.2500     8.7698    70.4631     0.0272     2.5212
  759.0000   -68.8720    11.2702     9.3142    11.9108  -999.2500     8.7704    68.3842     0.0236     2.5152
  759.5000   -68.5492    11.4235     9.8400    12.2430  -999.2500     8.7709    66.9005     0.0176     2.5078
  760.0000   -68.2540    11.6747    10.2536    12.4925  -999.2500     8.7715    65.4168     0.0123     2.5018
  760.5000   -67.6771    11.8360    10.2529    12.5835  -999.2500     8.7721    64.5284     0.0109     2.5078
  761.0000   -67.6756    11.8962    10.2522    12.5827  -999.2500     8.7727    65.7233     0.0157     2.5243
  761.5000   -67.6741    11.9984    10.2515    12.7565  -999.2500     8.7839    67.8110     0.0296     2.5275
  762.0000   -67.6685    11.9974    10.2508    12.7556  -999.2500     8.8035    69.3035     0.0341     2.5123
  762.5000   -67.3735    11.9419    10.2501    12.7547  -999.2500     8.8041    68.1051     0.0176     2.5034
  763.0000   -67.3720    11.8317    10.2494    12.7538  -999.2500     8.8047    67.5080     0.0117     2.4974
  763.5000   -67.6681    11.7813    10.2487    12.6837  -999.2500     8.8053    66.9107     0.0027     2.4944
  764.0000   -67.6666    11.6215    10.1081    12.5774  -999.2500     8.8060    66.3450     0.0132     2.5070
  764.5000   -67.9628    11.4639     9.8333    12.4043  -999.2500     8.8066    66.0140     0.0282     2.5139
  765.0000   -68.2589    11.3085     9.5659    12.1722  -999.2500     8.8368    65.7143     0.0222     2.5032
  765.5000   -68.8526    11.0026     9.3059    11.9001  -999.2500     8.8375    64.2663     0.0132     2.5042
  766.0000   -68.8511    10.7403     9.0529    11.7364  -999.2500     8.8381    60.0649     0.0253     2.5154
  766.5000   -68.8496    10.5927     8.9287    11.5215  -999.2500     8.8683    58.0337     0.0403     2.5229
  767.0000   -68.8481    10.4167     8.8062    11.2593  -999.2500     8.8689    60.4740     0.0448     2.5126
  767.5000   -68.8466    10.1627     8.6853    11.1043  -999.2500     8.8695    63.4103     0.0283     2.5035
  768.0000   -68.5475    10.1361     8.6847    10.9055  -999.2500     8.8701    65.8214     0.0178     2.5050
  768.5000   -68.2484     9.9986     8.6841    10.6529  -999.2500     8.8707    67.8451     0.0088     2.5046
