~VERSION INFORMATION
 VERS.                2.0:   CWLS LOG ASCII STANDARD - VERSION 2.0
 WRAP.                 NO:   ONE LINE PER DEPTH STEP
~WELL INFORMATION
#MNEM.UNIT      DATA TYPE    INFORMATION
#----------   ------------   ------------------------------
 STRT.F           31.5000:   START DEPTH
 STOP.F         4204.0000:   STOP DEPTH
 STEP.F            0.5000:   STEP LENGTH
 NULL.          -999.2500:   NO VALUE
 COMP.   LAWRENCE ALLISON:   COMPANY
 WELL. LAWRENCE 3 "X" #32-10:   WELL
 FLD .                NPR:   FIELD
 LOC .      S10 T38N R78W:   LOCATION
 CNTY.            NATRONA:   COUNTY
 STAT.            WYOMING:   STATE
 CTRY. UNITED STATES OF AMERICA:   COUNTRY
 SRVC.      DRESSER ATLAS:   SERVICE COMPANY
 DATE.        05-NOV-1983:   LOGDATE
 API .     49025109460000:   API NUMBER
~CURVE INFORMATION
#MNEM.UNIT       API CODE    CURVE DESCRIPTION
#----------   ------------   ------------------------------
 DEPT.F                  :   
 CALD.IN     45 280 60 00:   CALIPER FROM DENSITY LOG
 CNC .DEC    42 890 01 00:   NEUTRON POROSITY LIMESTONE
 CORR.G/C3   45 356 01 00:   DENSITY CORRECTION
 TEND.LBS    45 635 01 00:   TENSION FORM DENSITY LOG
 RHOB.G/C3   45 350 01 00:   BULK DENSITY
 DT  .US/F   60 520 00 00:   DELTA TIME
 TENS.LBS    60 635 01 00:   TENSION FROM SONIC
 GRR .GAPI   07 310 01 00:   GAMMA RAY FROM RESISTIVITY
 TENR.LBS    06 635 01 00:   TENSION FROM RESISTIVITY
 RFOC.OHMM   07 220 04 00:   RESISTIVITY FOCUSED LOG RES.
 RILM.OHMM   07 120 44 00:   INDUCTION LOG MEDIUM RESISTIVITY
 RILD.OHMM   07 120 46 00:   DEEP INDUCTION RESISTIVITY
 SPR .MV     07 010 01 00:   SPONTANEOUS POTENTIAL
~PARAMETER INFORMATION
#MNEM.UNIT          VALUE    DESCRIPTION
#----------   ------------   ------------------------------
 EKB .F         5237.0000:   Kelly bushing
 EGL .F         5227.0000:   Ground level
 TD  .F         4202.0000:   Total depth
 CLNT.            A2DTECH:   Client Code
 SL  . 1871' FWL & 1152' FNL:   Surface Location
 PD  .                 GL:   Permanent Datum
 EPD .F              5227:   Elevation Permanent Datum
 LMF .                 KB:   Log Measured From
 DMF .                 KB:   Drilling Measured From
 DAPD.F                10:   Feet Above Permanent Datum
 DATE.        05-NOV-1983:   Date Logged [DD-MMM-YYYY]
 DD  .F              4200:   Depth driller
 DL  .F              4202:   Depth logger
 BLI .F              4200:   Bottom log interval
 TLI .F                30:   Top log interval
 CS1 .IN            8.625:   Casing size
 CBD1.      8.625" @ 545':   Casing driller 1
 CBL1.F               545:   Casing logger 1
 BS1 .IN            7.875:   Bit size
 BSD1.F              4200:   Depth drilled with bit1
 DFT .            GEL KCL:   Type fluid in hole
 DFD .                8.9:   Density
 DFV .                 42:   Viscosity
 DFPH.                8.5:   pH
 DFL .               12.4:   Fluid loss
 MSS .           FLOWLINE:   Source of sample
 RMS .OHMM           0.43:   Rm
 MST .F                97:   Rm Meas. temp.
 RMF .OHMM           0.42:   Rmf
 MFST.F                74:   Rmf Meas. temp.
 MFSS.               MEAS:   Source Rmf.
 RMC .OHMM           0.53:   Rmc
 MCST.F                97:   Rmc Meas. temp.
 MCSS.               CALC:   Source Rmc.
 RMB .OHMM           0.32:   Rm. at BHT
 BHT .F               131:   BHT.
 TCS .HRS               3:   Time Circ. stopped
 MRT .F               131:   Maximum recorded temp.
 LUN .               6307:   Logging unit number
 LUL .               GLTE:   Logging unit location
 ENGI.            DEYOUNG:   Recorded By
 WITN.             STRONG:   Witnessed by
 ORIG.        2" 5" PRINT:   Origin of data
 UWI .     49025109460000:   Unique Well ID
 DICO. A2D TECHNOLOGIES, INC.:   Digitizing Company
~OTHER INFORMATION
~A   DEPT     CALD        CNC       CORR       TEND       RHOB         DT       TENS         GRR      TENR       RFOC       RILM       RILD        SPR   
# ...
 2969.5000     8.5810     0.2440     0.0271    -7.9254     2.5293    84.0873   -34.2015   132.9396   -38.0403     5.5649     5.7428     5.6919   -28.8971
 2970.0000     8.5810     0.2471     0.0380    -4.2631     2.5501    83.4952   -30.5314   130.3916   -38.3283     5.5680     5.9100     5.9834   -28.8853
 2970.5000     8.5810     0.2487     0.0458    -2.2362     2.5595    82.3131   -28.5630   130.5555   -38.6164     5.7699     6.1251     6.2013   -28.8702
 2971.0000     8.5810     0.2437     0.0536    -2.5326     2.5672    81.2785   -28.6804   128.5359   -38.9044     6.0636     6.3480     6.4273   -28.3925
 2971.5000     8.5810     0.2364     0.0583    -2.7696     2.5696    80.3914   -28.7977   126.0672   -39.1925     6.4623     6.5387     6.6145   -28.0940
 2972.0000     8.5810     0.2300     0.0584    -3.7153     2.5681    79.7993   -28.9150   127.8878   -39.4805     6.8391     6.7785     6.7592   -27.9317
 2972.5000     8.5810     0.2350     0.0539    -6.3254     2.5636    79.3547   -29.0323   128.5034   -39.7685     7.0376     7.0180     6.9560   -27.7693
 2973.0000     8.5810     0.2402     0.0479    -6.5640     2.5582    79.3525   -29.1496   126.8601   -40.0566     6.9434     7.1213     7.1300   -27.7575
 2973.5000     8.5810     0.2342     0.0434    -6.8587     2.5544    79.4979   -29.2669   125.2167   -40.3417     6.8986     7.2772     7.2636   -27.7457
 2974.0000     8.5810     0.2298     0.0404    -7.0957     2.5507    79.6433   -29.3842   126.2842   -40.2307     7.0007     7.3324     7.4257   -27.7339
 2974.5000     8.5810     0.2279     0.0391    -7.3327     2.5477    79.6409   -29.5245   127.0505   -38.4621     7.1529     7.3528     7.5850   -27.5715
 2975.0000     8.5810     0.2269     0.0361    -7.5699     2.5477    79.5895   -29.6188   125.2566   -36.7096     7.2665     7.4836     7.7516   -26.9573
 2975.5000     8.5810     0.2270     0.0346    -7.8069     2.5455    79.3414   -29.7361   123.1614   -34.9567     7.4695     7.5537     7.7548   -26.3431
 2976.0000     8.5810     0.2352     0.0312    -8.0440     2.5394    79.1229   -29.8534   123.7771   -33.2037     7.5792     7.5576     7.7025   -25.8774
 2976.5000     8.5810     0.2342     0.0242    -8.2897     2.5348    78.8159   -29.9707   127.9187   -31.4508     7.5304     7.5616     7.5975   -25.7169
 2977.0000     8.5810     0.2293     0.0166   -11.6179     2.5302    78.4494   -30.0902   130.5063   -29.6979     7.4808     7.4297     7.5141   -25.7024
 2977.5000     8.5810     0.2251     0.0260   -11.8762     2.5258    78.1523   -30.2053   132.1023   -28.2787     7.4326     7.3082     7.3916   -25.5401
 2978.0000     8.5810     0.2241     0.0476   -12.1109     2.5243    78.1502   -30.3226   132.8652   -29.0995     7.5959     7.1590     7.2916   -25.6818
 2978.5000     8.5810     0.2257     0.0621    -9.3082     2.5328    78.1480   -30.4399   131.2252   -29.9286     7.7617     7.0903     7.1921   -25.8177
 2979.0000     8.5810     0.2299     0.0740    -9.5223     2.5406    78.4409   -30.5572   130.3349   -30.7576     8.0432     6.9663     7.1106   -25.9595
 2979.5000     8.5810     0.2286     0.0725    -9.7823     2.5460    78.8812   -30.6745   128.0889   -31.5867     7.9914     6.7771     6.9972   -26.2459
 2980.0000     8.5810     0.2248     0.0650    -6.9338     2.5484    79.6165   -30.7918   130.6649   -32.4158     7.3503     6.7321     6.8539   -27.2884
 2980.5000     8.5810     0.2226     0.0605    -5.9153     2.5493    80.3617   -30.9091   134.9562   -33.2449     6.9525     6.5954     6.8077   -28.0296
 2981.0000     8.5810     0.2220     0.0652    -4.3451     2.5516    80.8313   -31.0264   136.8897   -34.0740     6.7171     6.5066     6.6212   -28.1687
 2981.5000     8.5810     0.2210     0.0794    -4.6067     2.5548    81.0850   -31.1437   135.2239   -34.9031     6.6738     6.3737     6.5309   -28.4578
 2982.0000     8.5810     0.2201     0.0916    -1.7566     2.5518    81.0040   -31.2783   132.3757   -35.7322     7.0639     6.3828     6.4411   -28.5967
 2982.5000     8.5810     0.2192     0.0810     1.0786     2.5480    80.4412   -31.3915   131.0302   -36.5613     7.3716     6.4717     6.4445   -28.7325
 2983.0000     8.5810     0.2182     0.0657     0.7863     2.5448    80.0752   -31.5047   134.0589   -37.3903     6.5007     6.7547     6.4646   -29.0220
 2983.5000     8.5810     0.2128     0.0551     0.5491     2.5412    79.8960   -31.6178   136.3312   -38.2194     6.5962     7.0006     6.5881   -29.1637
 2984.0000     8.5809     0.2081     0.0537     0.3121     2.5351    79.8938   -31.7309   137.0975   -39.0485     7.0299     7.2554     6.7800   -29.3025
 2984.5000     8.5765     0.2055     0.0523     0.0925     2.5266    79.7437   -31.8475   135.3035   -39.8776     7.0833     7.6262     6.9803   -29.5890
 2985.0000     8.5716     0.2097     0.0432    -0.1541     2.4914    79.5940   -31.9648   132.7566   -36.4754     7.1371     7.9596     7.2987   -29.5772
 2985.5000     8.5667     0.2075     0.0218    -0.4006     2.4607    79.1494   -32.0821   131.1132   -32.2654     7.6064     8.3664     7.8765   -29.4148
 2986.0000     8.5619     0.2012     0.0281    -0.6954     2.4350    78.5573   -32.1994   129.7733   -31.5602     8.5146     8.9819     8.5779   -29.4031
 2986.5000     8.5570     0.1955     0.0405    -0.8937     2.3977    78.1127   -32.3167   105.8397   -30.8550     9.7339     9.7134     9.4748   -29.3913
 2987.0000     8.5521     0.1917     0.0160    -1.1695     2.3800    77.8156   -32.4340    99.6783   -30.1498    11.2882    10.9186    10.7659   -29.2289
 2987.5000     8.5472     0.1904    -0.0008    -1.4065     2.3763    77.5184   -32.5513    94.2699   -29.4446    12.9875    12.7074    12.0610   -29.2169
 2988.0000     8.5423     0.1917    -0.0037    -1.6435     2.3732    77.2213   -32.6686    88.1084   -28.7394    15.2748    13.8359    13.3222   -29.3559
 2988.5000     8.5437     0.1955     0.0225     1.2019     2.3725    77.5533   -32.8059    84.3191   -28.0342    14.5529    14.9588    15.5720   -29.4948
 2989.0000     8.5488     0.1987     0.0303     0.9553     2.3718    78.1609   -32.9191    82.4877   -27.3290    14.2557    15.9465    15.5784   -29.4800
 2989.5000     8.5539     0.1910     0.0151     0.2364     2.4150    78.7288   -33.0322    78.9648   -26.6238    14.7748    16.9994    15.9205   -29.4682
 2990.0000     8.5590     0.1765    -0.0032    -2.6194     2.4374    79.0315   -33.1454    72.2010   -25.9186    15.7463    17.9945    17.3616   -29.6100
 2990.5000     8.5641     0.1670    -0.0139    -2.8880     2.4483    78.9212   -33.2585    67.2444   -25.2134    16.8998    18.9142    19.4244   -30.1977
 2991.0000     8.5693     0.1607    -0.0183    -3.1252     2.4514    77.8962   -33.3724    66.9532   -24.5082    18.9175    19.6026    21.3042   -30.7883
 2991.5000     8.5744     0.1601    -0.0028    -3.3622     2.4369    75.5933   -33.4897    67.8734   -24.1803    21.0281    21.1935    23.2013   -31.3819
 2992.0000     8.5797     0.1607    -0.0043    -3.6055     2.3733    69.5335   -33.6071    67.7360   -24.1803    23.0485    23.6161    24.3892   -31.9699
 2992.5000     8.5810     0.1613    -0.0057    -3.8955     2.3261    66.2865   -33.7243    66.6951   -24.1803    25.2631    26.5852    24.6221   -32.5602
 2993.0000     8.5810     0.1614    -0.0040    -4.1325     2.3208    65.3994   -33.8416    66.4066   -24.1803    27.1138    26.2267    25.1100   -32.7099
 2993.5000     8.5810     0.1604     0.0084    -4.3697     2.3301    65.9872   -33.9590    66.7217   -24.1803    29.5124    25.1539    25.4783   -32.9884
 2994.0000     8.5810     0.1598     0.0208    -4.6067     2.3356    67.6075   -39.9413    66.5843   -24.1803    32.3834    24.6404    25.8521   -33.1273
 2994.5000     8.5810     0.1592     0.0332    -4.8438     2.3387    70.5552   -40.0586    65.0792   -24.1803    30.8978    24.8275    26.4175   -33.1125
 2995.0000     8.5810     0.1592     0.0425    -5.0848     2.3388    71.5855   -34.3335    65.1306   -24.1803    27.3686    25.1928    26.8052   -33.1007
