~VERSION INFORMATION
 VERS.                2.0:   CWLS LOG ASCII STANDARD - VERSION 2.0
 WRAP.                 NO:   ONE LINE PER DEPTH STEP
~WELL INFORMATION
#MNEM.UNIT      DATA TYPE    INFORMATION
#----------   ------------   ------------------------------
 STRT.F           63.5000:   START DEPTH
 STOP.F         4112.0000:   STOP DEPTH
 STEP.F            0.5000:   STEP LENGTH
 NULL.          -999.2500:   NO VALUE
 COMP. LAWRENCE-ALLISON & ASSOC:   COMPANY
 WELL. LAWRENCE "X" #34-34:   WELL
 FLD .           N.P.R.#3:   FIELD
 LOC .      S34 T39N R78W:   LOCATION
 CNTY.            NATRONA:   COUNTY
 STAT.            WYOMING:   STATE
 CTRY. UNITED STATES OF AMERICA:   COUNTRY
 SRVC.      DRESSER ATLAS:   SERVICE COMPANY
 DATE.        19-OCT-1983:   LOGDATE
 API .     49025109440000:   API NUMBER
~CURVE INFORMATION
#MNEM.UNIT       API CODE    CURVE DESCRIPTION
#----------   ------------   ------------------------------
 DEPT.F                  :   
 AC  .US/F   60 250 00 00:   ACCOUSTIC
 TENS.LBS    60 635 01 00:   TENSION FROM SONIC
 ILD .OHMM   07 120 46 00:   DEEP INDUCTION RESISTIVITY
 ILM .OHMM   07 120 44 00:   INDUCTION LOG MEDIUM RESISTIVITY
 RFOC.OHMM   07 220 04 00:   RESISTIVITY FOCUSED LOG RES.
 TENR.LBS    07 635 01 00:   TENSION FROM RESISTIVITY
 SPR .MV     07 010 01 00:   SPONTANEOUS POTENTIAL
 GRR .GAPI   07 310 01 00:   GAMMA RAY FROM RESISTIVITY
 CALD.IN     45 280 60 00:   CALIPER FROM DENSITY LOG
 RHOB.G/C3   45 350 01 00:   BULK DENSITY
 CORR.G/C3   45 356 01 00:   DENSITY CORRECTION
 TEND.LBS    45 635 01 00:   TENSION FROM DENSITY LOG
 NPHI.DEC    42 890 03 00:   NEUTRON POROSITY SANDSTONE
~PARAMETER INFORMATION
#MNEM.UNIT          VALUE    DESCRIPTION
#----------   ------------   ------------------------------
 EKB .F         5100.0000:   Kelly bushing
 EGL .F         5090.0000:   Ground level
 TD  .F         4107.0000:   Total depth
 DATE.        19-OCT-1983:   Date logged
 CLNT.            A2DTECH:   Client Code
 SL  . 1997' FNL & 1661' FWL:   Surface Location
 PD  .                 GL:   Permanent Datum
 EPD .F              5090:   Elevation Permanent Datum
 LMF .                 KB:   Log Measured From
 DMF .                 KB:   Drilling Measured From
 DAPD.F                10:   Feet Above Permanent Datum
 DD  .F              4107:   Depth driller
 DL  .F              4102:   Depth logger
 BLI .F              4100:   Bottom log interval
 CS1 .IN            9.625:   Casing size
 CBD1.      9.625" @ 695':   Casing driller 1
 CBL1.F               696:   Casing logger 1
 BS1 .IN            7.875:   Bit size
 BSD1.F              4107:   Depth drilled with bit1
 DFT .            GEL-KCL:   Type fluid in hole
 DFD .                  9:   Density
 DFV .                 43:   Viscosity
 DFPH.                  9:   pH
 DFL .                 11:   Fluid loss
 MSS .           FLOWLINE:   Source of sample
 RMS .OHMM          0.313:   Rm
 MST .F                72:   Rm Meas. temp.
 RMF .OHMM          0.265:   Rmf
 MFST.F                68:   Rmf Meas. temp.
 RMC .OHMM          0.598:   Rmc
 MCST.F                68:   Rmc Meas. temp.
 MFSS.               MEAS:   Source Rmf.
 MCSS.               MEAS:   Source Rmc.
 RMB .OHMM          0.173:   Rm. at BHT
 BHT .F               130:   BHT.
 TCS .HRS               4:   Time Circ. stopped
 MRT .F               130:   Maximum recorded temp.
 LUN .               6774:   Logging unit number
 LUL .               GLTE:   Logging unit location
 ENGI.           FAHLEING:   Recorded By
 WITN.           JENNINGS:   Witnessed by
 ORIG.           5" PRINT:   Origin of data
 UWI .     49025109440000:   Unique Well ID
 DICO. A2D TECHNOLOGIES, INC.:   Digitizing Company
~OTHER INFORMATION
~A   DEPT       AC       TENS        ILD        ILM       RFOC       TENR        SPR         GRR      CALD       RHOB       CORR       TEND       NPHI   
# ...
 2715.5000    76.1150   -81.6830     7.1930     7.3240     8.3190   -42.3000   -65.4680   114.4570     7.9940     2.5300     0.0660   -30.5470     0.1930
 2716.0000    75.7430   -81.6830     7.2990     7.3670     8.2980   -42.3000   -65.4500   118.4050     7.9930     2.5410     0.0620   -43.3640     0.1900
 2716.5000    75.9370   -81.6830     7.4050     7.4110     8.2590   -42.3000   -65.4310   117.3600     7.9910     2.5470     0.0570   -52.3890     0.1890
 2717.0000    76.1390   -81.6830     7.5120     7.4380     8.2200   -42.3000   -65.4130   113.1310     7.9940     2.5510     0.0560   -52.2450     0.1910
 2717.5000    76.0270   -81.6830     7.5780     7.3520     8.1650   -42.3000   -65.3940   108.2210     8.0010     2.5500     0.0580   -52.1010     0.1910
 2718.0000    75.8070   -81.6830     7.5450     7.2800     8.2730   -42.3000   -65.3750   106.2420     8.0070     2.5480     0.0590   -51.9560     0.1880
 2718.5000    75.3470   -81.6830     7.5160     7.2070     8.4590   -42.3000   -65.3570   105.9980     8.0090     2.5460     0.0610   -51.8120     0.1850
 2719.0000    75.6510   -81.6830     7.4880     7.1340     8.6900   -42.3000   -65.3380   105.7560     8.0070     2.5500     0.0720   -51.6670     0.1840
 2719.5000    76.0190   -81.6830     7.4600     7.0330     8.5320   -41.0900   -65.3150   105.5100     8.0040     2.5580     0.0920   -51.5230     0.1850
 2720.0000    76.3860   -81.6830     7.4380     7.1390     8.3070   -39.5880   -65.4450   105.2630     8.0020     2.5650     0.0910   -51.3790     0.1830
 2720.5000    76.7330   -81.6830     7.6200     7.3950     8.0990   -38.0860   -65.6010   104.2710     8.0000     2.5730     0.0840   -51.2340     0.1810
 2721.0000    76.7720   -81.6830     7.7690     7.6500     7.9400   -36.5840   -65.7590   102.1940     7.9980     2.5790     0.0780   -51.0900     0.1780
 2721.5000    76.2480   -81.6830     7.9190     7.8550     7.8660   -35.0830   -65.9170    99.4250     7.9950     2.5840     0.0850   -50.9450     0.1790
 2722.0000    75.0760   -81.6830     8.0680     7.9940     8.4820   -33.5810   -66.0740    94.1090     7.9930     2.5850     0.0990   -50.8010     0.1840
 2722.5000    73.7350   -81.6830     8.2180     8.1340     9.6340   -32.1680   -66.2320    92.5930     7.9910     2.5850     0.0950   -50.6570     0.1880
 2723.0000    72.3940   -81.6830     8.3670     8.2730    10.5890   -35.0160   -66.3910    92.5520     7.9900     2.5750     0.0890   -50.5120     0.1920
 2723.5000    71.7920   -81.6830     8.4760     8.3190    10.9040   -37.7030   -66.5330    94.6630     7.9900     2.5640     0.0860   -50.3680     0.1960
 2724.0000    72.3170   -81.6830     8.3310     8.0160    10.5800   -40.3910   -66.2600    97.8240     7.9900     2.5550     0.0870   -50.2230     0.2010
 2724.5000    72.7720   -81.6830     8.1960     7.7340    10.1010   -42.3000   -65.9440    98.6140     7.9900     2.5520     0.0890   -50.0790     0.1980
 2725.0000    74.5540   -81.6830     8.0600     7.3690     9.6230   -42.3000   -65.6290    99.0660     7.9900     2.5510     0.0780   -49.9350     0.1900
 2725.5000    76.1290   -81.6830     7.9260     7.4150     8.8780   -42.3000   -65.3140    99.9510     7.9900     2.5520     0.0540   -49.7900     0.1820
 2726.0000    77.5250   -81.6830     7.7950     7.4810     8.0200   -42.3000   -64.9980   101.7790     7.9900     2.5540     0.0590   -49.6460     0.1740
 2726.5000    77.0870   -81.6830     7.6640     7.5780     7.4380   -42.3000   -64.6830    99.7240     7.9900     2.5560     0.0660   -49.5010     0.1700
 2727.0000    76.1160   -81.6830     7.5330     7.4580     7.9400   -42.3000   -64.3680    97.3280     7.9900     2.5590     0.0740   -49.3570     0.1730
 2727.5000    74.7670   -81.6830     7.4020     7.2310     8.8060   -42.3000   -64.0530    94.9530     7.9900     2.5600     0.0870   -49.2130     0.1780
 2728.0000    73.3660   -81.6830     7.3280     7.0050     9.3120   -42.3000   -63.7390    93.0640     7.9900     2.5530     0.0970   -49.0680     0.1930
 2728.5000    73.9550   -81.6830     7.2740     6.7460     9.8410   -42.3000   -63.4230    94.1780     7.9900     2.5430     0.0520   -48.9240     0.2100
 2729.0000    74.5680   -81.6830     7.2190     6.4620     9.3170   -42.3000   -63.2880    97.8980     7.9900     2.5340     0.0510   -48.7790     0.2260
 2729.5000    76.6570   -81.6830     7.1650     6.1780     8.4070   -42.3000   -63.1990   101.8410     7.9900     2.5340     0.0590   -48.6350     0.2330
 2730.0000    79.9010   -81.6830     7.1110     5.9360     7.0990   -42.3000   -63.0880   104.4440     7.9900     2.5360     0.0670   -48.4910     0.2330
 2730.5000    81.0720   -81.6830     6.8200     5.7440     6.8160   -42.3000   -62.9770   104.3080     7.9980     2.5410     0.0740   -48.3460     0.2370
 2731.0000    82.3640   -81.6830     6.4550     5.5570     6.5270   -42.3000   -62.8650   103.3550     8.0070     2.5450     0.0820   -48.2020     0.2460
 2731.5000    83.3090   -81.6830     6.0900     5.3700     6.4660   -42.3000   -62.7540   103.2080     8.0160     2.5450     0.1010   -48.0570     0.2500
 2732.0000    83.7740   -81.6830     5.7250     5.1820     6.4060   -42.3000   -62.6430   105.8530     8.0240     2.5400     0.1200   -47.9130     0.2410
 2732.5000    83.5640   -81.6830     5.3600     4.8130     6.1450   -42.3000   -62.5310   110.3430     8.0330     2.5350     0.1170   -47.7690     0.2400
 2733.0000    83.3540   -81.6830     4.9950     4.5030     5.8280   -42.3000   -62.4200   117.1890     8.0420     2.5230     0.0930   -47.6240     0.2670
 2733.5000    83.1450   -81.6830     4.3740     4.2720     5.3080   -42.3000   -62.3090   123.9900     8.0500     2.5000     0.0790   -47.4800     0.2950
 2734.0000    83.8770   -81.6830     3.7290     3.6820     5.0170   -42.3000   -62.1980   130.7830     8.0540     2.4730     0.0750   -47.3350     0.3230
 2734.5000    85.1370   -81.6830     3.0920     3.1230     4.8530   -42.3000   -62.0860   137.5150     8.0590     2.4450     0.0800   -47.1910     0.3340
 2735.0000    87.8780   -81.6830     2.5490     2.6990     4.4910   -39.1410   -61.9750   145.0180     8.0640     2.4180     0.0860   -47.0470     0.3330
 2735.5000    91.1020   -81.6830     2.1970     2.2950     4.0550   -36.1370   -61.8640   159.7170     8.0690     2.3900     0.0770   -46.9020     0.3240
 2736.0000    93.9600   -81.6830     1.8450     1.8920     3.4210   -33.1340   -61.7520   177.1950     8.0740     2.3600     0.0680   -46.7580     0.3180
 2736.5000    99.5100   -81.6830     1.5220     1.5220     2.8270   -30.1300   -61.6410   208.0590     8.0790     2.3660     0.0590   -46.6130     0.3240
 2737.0000   104.4950   -81.6830     1.4000     1.3740     2.2330   -27.1260   -61.5310   223.4580     8.0850     2.3760     0.0510   -46.4690     0.3400
 2737.5000   109.0100   -81.6830     1.2890     1.2510     1.9490   -24.1220   -61.4210   232.9480     8.0900     2.3820     0.0570   -46.3250     0.3590
 2738.0000   108.8120   -81.6830     1.1880     1.2050     1.9040   -22.5750   -61.3000   209.2990     8.0700     2.3470     0.0630   -46.1800     0.3610
 2738.5000   106.8760   -81.6830     1.1160     1.1510     2.1340   -24.3350   -61.0250   210.8730     8.0440     2.2690     0.1570   -46.0360     0.2990
 2739.0000   104.4130   -81.6830     1.1100     1.2050     2.5460   -26.0960   -60.4510   206.1420     8.0170     2.2670     0.1950   -45.8910     0.2760
 2739.5000   104.8510   -81.6830     1.1760     1.3080     2.7660   -27.8570   -59.9180   203.4360     7.9900     2.3220     0.1190   -45.7470     0.2530
 2740.0000   108.6140   -81.6830     1.2400     1.4120     2.4410   -29.6180   -59.3870   200.8380     7.9940     2.4050     0.0850   -45.6030     0.2280
 2740.5000   108.8280   -81.6830     1.4650     1.5590     2.0700   -31.3790   -58.8480   192.0810     8.0000     2.4820     0.0690   -45.4580     0.2310
 2741.0000   104.0590   -81.6830     1.7040     1.7880     1.9770   -33.1390   -58.4870   170.0250     8.0050     2.5300     0.0630   -45.3140     0.2390
