~VERSION INFORMATION
 VERS.                2.0:   CWLS LOG ASCII STANDARD - VERSION 2.0
 WRAP.                 NO:   ONE LINE PER DEPTH STEP
~WELL INFORMATION
#MNEM.UNIT      DATA TYPE    INFORMATION
#----------   ------------   ------------------------------
 STRT.F          200.0000:   START DEPTH
 STOP.F         3248.0000:   STOP DEPTH
 STEP.F            0.5000:   STEP LENGTH
 NULL.          -999.2500:   NO VALUE
 COMP.    FENIX & SCISSON:   COMPANY
 WELL.   FENIX "AX" #28-3:   WELL
 FLD .              NPR-3:   FIELD
 LOC .       S3 T38N R78W:   LOCATION
 CNTY.            NATRONA:   COUNTY
 STAT.            WYOMING:   STATE
 CTRY. UNITED STATES OF AMERICA:   COUNTRY
 SRVC.              WELEX:   SERVICE COMPANY
 DATE.        30-JUN-1977:   LOGDATE
 API .     49025104200000:   API NUMBER
~CURVE INFORMATION
#MNEM.UNIT       API CODE    CURVE DESCRIPTION
#----------   ------------   ------------------------------
 DEPT.F                  :   
 CALD.IN     45 280 60 00:   CALIPER FROM DENSITY LOG
 GRD .GAPI   45 310 01 00:   GAMMA RAY FROM DENSITY LOG
 RHOB.G/C3   45 350 01 00:   BULK DENSITY
 CORR.G/C3   45 356 01 00:   DENSITY CORRECTION
 SPR .MV     07 010 01 00:   SPONTANEOUS POTENTIAL
 ILD .OHMM   07 120 46 00:   DEEP INDUCTION RESISTIVITY
 ILM .OHMM   07 120 44 00:   INDUCTION LOG MEDIUM RESISTIVITY
 SGRD.OHMM   07 220 05 00:   SHALLOW SHORT GUARD RESISTIVITY
~PARAMETER INFORMATION
#MNEM.UNIT          VALUE    DESCRIPTION
#----------   ------------   ------------------------------
 EKB .F         4969.0000:   Kelly bushing
 EGL .F         4959.0000:   Ground level
 TD  .F         3250.0000:   Total depth
 CLNT.            A2DTECH:   Client Code
 SL  . 500' FSL & 800' FWL:   Surface Location
 PD  .                 GL:   Permanent Datum
 EPD .F              4959:   Elevation Permanent Datum
 LMF .                 KB:   Log Measured From
 DMF .                 KB:   Drilling Measured From
 DAPD.F                10:   Feet Above Permanent Datum
 DATE.        30-JUN-1977:   Date Logged [DD-MMM-YYYY]
 DD  .F              3250:   Depth driller
 DL  .F              3250:   Depth logger
 BLI .F              3248:   Bottom log interval
 TLI .F               200:   Top log interval
 CS1 .IN            8.625:   Casing size
 CBD1.      8.625" @ 217':   Casing driller 1
 CBL1.F               225:   Casing logger 1
 BS1 .IN            7.875:   Bit size
 BSD1.F              3250:   Depth drilled with bit1
 DFT .                KCL:   Type fluid in hole
 DFD .                8.9:   Density
 RMS .OHMM           1.76:   Rm
 MST .F                63:   Rm Meas. temp.
 TCS .HRS             2.5:   Time Circ. stopped
 MRT .F                68:   Maximum recorded temp.
 LUN .               8611:   Logging unit number
 ENGI.         G. BENTSEN:   Recorded By
 WITN.         PETTINGILL:   Witnessed by
 ORIG.         2.5" PRINT:   Origin of data
 UWI .     49025104200000:   Unique Well ID
 DICO. A2D TECHNOLOGIES, INC.:   Digitizing Company
 DFV .                 30:   Viscosity
 DFPH.                  7:   pH
 DFL .                 10:   Fluid loss
 MSS .                PIT:   Source of sample
 RMF .OHMM           1.09:   Rmf
 MFST.F                68:   Rmf Meas. temp.
 MFSS.               MEAS:   Source Rmf.
 RMC .OHMM           2.01:   Rmc
 MCST.F                68:   Rmc Meas. temp.
 MCSS.               MEAS:   Source Rmc.
 RMB .OHMM           1.01:   Rm. at BHT
 BHT .F               118:   BHT.
 LUL .             CASPER:   Logging unit location
~OTHER INFORMATION
~A   DEPT       CALD       GRD        RHOB      CORR       SPR        ILD        ILM       SGRD   
# ...
 2994.5000     8.2319   129.3524     2.4091     0.0016   -57.5465     6.3430     7.0797     9.2624
 2995.0000     8.2310   130.9041     2.4244     0.0016   -57.7065     6.3442     7.1685     9.2642
 2995.5000     8.2301   131.4337     2.4443     0.0031   -58.4266     6.4332     7.1709     9.5236
 2996.0000     8.2291   132.0220     2.4642     0.0046   -58.7194     6.5234     7.0498     9.7902
 2996.5000     8.2282   132.6145     2.4504     0.0046   -59.3072     6.5247     6.9812     9.7922
 2997.0000     8.2274   132.6008     2.4380     0.0030   -59.6003     6.5261     6.9839     9.6609
 2997.5000     8.2265   132.5890     2.4331     0.0015   -59.0079     6.5274     6.9308     9.7962
 2998.0000     8.2256   131.9749     2.4221     0.0014   -58.7107     6.4397     6.9887     9.7983
 2998.5000     8.2248   130.7582     2.4139     0.0011   -58.4136     6.3383     6.9911     9.7744
 2999.0000     8.2239   129.5416     2.4005    -0.0002   -58.1164     6.2486     6.9935     9.5061
 2999.5000     8.2231   129.5298     2.4166    -0.0002   -57.2293     6.1836     6.9964     9.4091
 3000.0000     8.1930   130.1205     2.4316    -0.0002   -56.9322     6.0734     6.9356     9.5408
 3000.5000     8.1915   133.9151     2.4395    -0.0002   -56.3267     5.9064     6.7452     9.2380
 3001.0000     8.1901   135.7126     2.4441    -0.0003   -56.0428     5.8562     6.4460     8.9830
 3001.5000     8.1886   136.9039     2.4475     0.0004   -55.7456     5.8570     6.2719     8.9129
 3002.0000     8.1871   137.4909     2.4516     0.0012   -55.7434     5.8168     6.1868     8.7321
 3002.5000     8.1857   136.8623     2.4251     0.0021   -56.0364     5.7348     6.2727     8.6093
 3003.0000     8.1839   135.6294     2.4075     0.0027   -56.0339     5.7008     6.3598     8.6757
 3003.5000     8.1825   135.6086     2.4056     0.0042   -56.3270     5.6238     6.3603     8.6768
 3004.0000     8.1811   136.8000     2.4217     0.0057   -56.4308     5.7024     6.6305     8.5599
 3004.5000     8.1797   137.9913     2.4274     0.0057   -56.7368     5.7032     6.8130     8.4443
 3005.0000     8.1782   137.9697     2.4310     0.0056   -56.9100     5.7040     6.4291     8.2173
 3005.5000     8.1768   138.5558     2.4336     0.0058   -56.9078     5.7047     6.2752     8.2184
 3006.0000     8.1754   138.5333     2.4367     0.0056   -57.2006     5.7844     6.2757     8.9240
 3006.5000     8.1447   137.9061     2.4391     0.0055   -57.1984     5.8651     6.2761     8.9252
 3007.0000     8.1433   137.7332     2.4420     0.0040   -57.1958     5.9470     6.3023     8.9264
 3007.5000     8.1418   137.2606     2.4459     0.0038   -57.4886     6.0300     6.4517     8.9276
 3008.0000     8.1404   137.8459     2.4482     0.0024   -57.4864     6.0352     6.5763     9.0554
 3008.5000     8.1389   138.4312     2.4512     0.0024   -57.4843     6.1150     6.6322     9.1782
 3009.0000     8.1374   139.2647     2.4512     0.0023   -57.4821     6.1280     6.5422     9.1794
 3009.5000     8.1360   139.5970     2.4481     0.0039   -57.1849     6.2012     6.4535     9.2005
 3010.0000     8.1248   138.6667     2.4465     0.0036   -57.1828     6.2220     6.4539     9.4371
 3010.5000     8.1038   136.1460     2.4481     0.0023   -56.8856     6.3755     6.4544     9.5687
 3011.0000     8.1023   133.6244     2.4526     0.0022   -56.5885     6.4935     6.6345     9.5700
 3011.5000     8.0868   131.6294     2.4572     0.0022   -56.2913     6.5548     6.8196     9.4408
 3012.0000     8.0702   129.1844     2.4587     0.0023   -55.9941     6.5557     6.9144     9.5726
 3012.5000     8.0980   127.9515     2.4617     0.0036   -56.0287     6.6472     6.8205     9.5739
 3013.0000     8.0670   127.9307     2.4632     0.0036   -56.2848     6.6481     6.9153     9.5153
 3013.5000     8.0656   127.9100     2.4662     0.0038   -56.2824     6.6490     7.0113     9.3824
 3014.0000     8.0936   127.8892     2.4677     0.0065   -56.2802     6.6501     6.9162     9.5187
 3014.5000     8.0920   129.0805     2.4585     0.0031   -56.5733     6.6510     6.9167     9.7114
 3015.0000     8.0905   129.6658     2.4416     0.0003   -56.2758     6.5612     7.0128     9.9829
 3015.5000     8.0891   130.2515     2.4324     0.0003   -56.2736     6.5621     7.0132    10.1220
 3016.0000     8.0877   130.2303     2.4263     0.0003   -56.4012     6.3853     6.9934     9.9855
 3016.5000     8.0862   130.2091     2.4232     0.0008   -56.5642     6.2991     6.7173     9.1985
 3017.0000     8.0848   130.2381     2.4277     0.0017   -56.5619     6.2140     6.6399     9.1997
 3017.5000     8.0834   130.7740     2.4354     0.0017   -56.8547     6.2149     6.5498     8.8303
 3018.0000     8.1112   131.3593     2.4338     0.0016   -57.1471     6.3016     6.6408     8.5927
 3018.5000     8.1096   131.3364     2.4322     0.0016   -57.4399     6.3025     6.6113     8.4768
 3019.0000     8.1082   130.7091     2.4368     0.0015   -57.7330     6.3033     6.4618     8.7136
 3019.5000     8.1067   130.5110     2.4414     0.0015   -58.3205     6.3118     6.4623     8.7148
 3020.0000     8.1053   129.2523     2.4444     0.0038   -58.3184     6.3922     6.5044     8.7160
 3020.5000     8.1038   127.9940     2.4522     0.0062   -58.3162     6.4089     6.6901     8.7172
 3021.0000     8.1023   127.5939     2.4582     0.0075   -58.3140     6.5719     6.8810     8.7184
 3021.5000     8.1009   127.2948     2.4596     0.0028   -58.3119     6.5728     7.0191     9.0108
 3022.0000     8.0994   126.6424     2.4544     0.0059   -57.7197     6.6022     7.0196     9.4015
 3022.5000     8.0980   125.3837     2.4504     0.0089   -57.4152     6.7576     7.0200     9.7707
 3023.0000     8.1255   125.0849     2.4571     0.0104   -57.1254     6.8519     7.1175    10.0045
 3023.5000     8.1240   125.0597     2.4618     0.0118   -57.1232     6.9476     7.3161    10.0059
 3024.0000     8.1226   126.2511     2.4695     0.0121   -57.1209     6.9959     7.5203    10.0073
 3024.5000     8.1212   127.4424     2.4737     0.0087   -56.8237     7.0980     7.7301     9.8724
 3025.0000     8.1198   127.4216     2.4783     0.0056   -56.8954     7.1439     7.8375     9.7393
 3025.5000     8.1183   127.4009     2.4736     0.0056   -57.1146     7.1451     7.6257     9.9492
 3026.0000     8.1169   126.1680     2.4667     0.0070   -57.2124     7.1460     7.5223    10.0938
 3026.5000     8.1155   124.3290     2.4617     0.0085   -57.7003     7.0496     7.6268    10.2927
 3027.0000     8.1140   123.0961     2.4631     0.0100   -58.1195     6.8596     7.6273    10.2941
 3027.5000     8.1126   122.4693     2.4685     0.0115   -58.7205     6.5837     7.6278     9.8807
 3028.0000     8.1404   123.6606     2.4738     0.0099   -59.3215     6.2328     7.5052     9.4840
 3028.5000     8.1389   125.5083     2.4776     0.0098   -59.4609     5.7271     7.2752     9.3560
 3029.0000     8.1374   127.3561     2.4745     0.0068   -59.4583     5.2481     6.7350     9.1043
 3029.5000     8.1360   129.6589     2.4729     0.0069   -58.8661     4.7015     5.8823     8.2726
 3030.0000     8.1345   130.4442     2.4683     0.0098   -58.5690     4.1674     5.4076     7.8323
 3030.5000     8.1330   132.8980     2.4637     0.0097   -58.2718     4.1086     4.8102     6.7371
 3031.0000     8.1316   135.9570     2.4590     0.0097   -57.9747     4.0761     4.6559     5.7830
 3031.5000     8.1301   138.5882     2.4560     0.0096   -57.8614     4.0766     4.8190     4.7753
 3032.0000     8.1579   142.4816     2.4544     0.0096   -57.7351     4.1080     4.9942     4.2231
 3032.5000     8.1564   146.1967     2.4513     0.0096   -57.6088     4.1913     5.1974     4.1723
 3033.0000     8.1550   150.2668     2.4497     0.0110   -57.4825     4.3086     5.3425     4.1840
 3033.5000     8.1533   154.8410     2.4497     0.0110   -57.3739     4.5524     5.6444     4.9221
 3034.0000     8.1519   158.2548     2.4527     0.0110   -57.3717     4.8764     5.9633     9.1170
 3034.5000     8.1504   158.8140     2.4573     0.0109   -57.3695     5.3689     6.4757     8.9939
