~VERSION INFORMATION
 VERS.                2.0:   CWLS LOG ASCII STANDARD - VERSION 2.0
 WRAP.                 NO:   ONE LINE PER DEPTH STEP
~WELL INFORMATION
#MNEM.UNIT      DATA TYPE    INFORMATION
#----------   ------------   ------------------------------
 STRT.F          212.0000:   START DEPTH
 STOP.F         3042.0000:   STOP DEPTH
 STEP.F            0.5000:   STEP LENGTH
 NULL.          -999.2500:   NO VALUE
 COMP.    FENIX & SCISSON:   COMPANY
 WELL.   FENIX "A" #74-28:   WELL
 FLD .             NPR #3:   FIELD
 LOC .      S28 T39N R78W:   LOCATION
 CNTY.            NATRONA:   COUNTY
 STAT.            WYOMING:   STATE
 CTRY. UNITED STATES OF AMERICA:   COUNTRY
 SRVC.              WELEX:   SERVICE COMPANY
 DATE.        03-AUG-1977:   LOGDATE
 API .     49025104080000:   API NUMBER
~CURVE INFORMATION
#MNEM.UNIT       API CODE    CURVE DESCRIPTION
#----------   ------------   ------------------------------
 DEPT.F                  :   
 SPR .MV     07 010 01 00:   SPONTANEOUS POTENTIAL
 ILD .OHMM   07 120 46 00:   INDUCTION LOG DEEP RESISTIVITY
 ILM .OHMM   07 120 44 00:   INDUCTION LOG MEDIUM RESISTIVITY
 SFLU.OHMM   07 220 01 00:   SPHERICALLY FOCUSED LOG UNAVERAGED RESISTIVITY
 CALD.IN     45 280 60 00:   CALIPER FROM DENSITY LOG
 GRD .GAPI   45 310 01 00:   GAMMA RAY FROM DENSITY LOG
 CORR.G/C3   45 356 01 00:   DENSITY CORRECTION
 RHOB.G/C3   45 350 01 00:   BULK DENSITY
~PARAMETER INFORMATION
#MNEM.UNIT          VALUE    DESCRIPTION
#----------   ------------   ------------------------------
 EKB .F         5050.0000:   Kelly bushing
 EGL .F         5040.0000:   Ground level
 EDF .F            0.0000:   Drilling floor
 TD  .F         3044.0000:   Total depth
 DATE.        03-AUG-1977:   Date logged
 CLNT.            A2DTECH:   Client Code
 SL  . 2310' FNL & 930' FEL:   Surface Location
 PD  .                 GL:   Permanent Datum
 EPD .F              5040:   Elevation Permanent Datum
 LMF .                 KB:   Log Measured From
 DMF .                 KB:   Drilling Measured From
 DAPD.F                10:   Feet Above Permanent Datum
 DD  .F              3044:   Depth driller
 DL  .F              3044:   Depth logger
 BLI .F              3042:   Bottom log interval
 TLI .F               238:   Top log interval
 CS1 .IN            8.625:   Casing size
 CBD1.      8.625" @ 220':   Casing driller 1
 CBL1.F               238:   Casing logger 1
 BS1 .IN            7.875:   Bit size
 BSD1.F              3044:   Depth drilled with bit1
 DFT .            KCL MUD:   Type fluid in hole
 DFV .                 35:   Viscosity
 DFPH.               10.5:   pH
 DFL .                7.2:   Fluid loss
 MSS .           FLOWLINE:   Source of sample
 RMS .OHMM           1.13:   Rm
 MST .F                84:   Rm Meas. temp.
 RMF .OHMM           0.77:   Rmf
 MFST.F                70:   Rmf Meas. temp.
 MFSS.           FANN KIT:   Source Rmf.
 MCSS.           FANN KIT:   Source Rmc.
 RMB .OHMM            .82:   Rm. at BHT
 BHT .F               118:   BHT.
 TCS .HRS               7:   Time Circ. stopped
 MRT .F               116:   Maximum recorded temp.
 LUN .               8611:   Logging unit number
 LUL .             CASPER:   Logging unit location
 ENGI.            C. DOAK:   Recorded By
 WITN.      W. PETTINGILL:   Witnessed by
 ORIG.         2.5" PRINT:   Origin of data
 UWI .     49025104080000:   Unique Well ID
 DICO. A2D TECHNOLOGIES, INC.:   Digitizing Company
~OTHER INFORMATION
~A   DEPT      SPR        ILD        ILM       SFLU         CALD       GRD       CORR        RHOB 
# ...
 1710.5000   -53.7490     5.6820     7.3760     9.9400     8.7910   147.5390     0.0180     2.5340
 1711.0000   -53.7600     5.6340     7.2470     9.8920     8.7910   151.1030     0.0180     2.5240
 1711.5000   -53.7700     5.5550     7.1170     9.8130     8.7910   152.9910     0.0180     2.5150
 1712.0000   -53.7810     5.4760     6.9880     9.7330     8.7910   151.9660     0.0180     2.5060
 1712.5000   -53.7920     5.3970     6.8580     9.6540     8.7910   151.2910     0.0180     2.4970
 1713.0000   -53.8000     5.3180     6.7290     9.5740     8.7910   148.3910     0.0180     2.5040
 1713.5000   -53.8000     5.2390     6.5990     9.4950     8.7910   145.3280     0.0180     2.5060
 1714.0000   -53.8000     5.1760     6.4700     9.3990     8.7910   144.3070     0.0180     2.4990
 1714.5000   -53.8000     5.1940     6.3400     9.0620     8.7910   146.6080     0.0170     2.4790
 1715.0000   -53.8000     5.2380     6.2370     8.7240     8.7910   148.7840     0.0160     2.4580
 1715.5000   -53.8000     5.2830     6.4650     6.4740     8.7910   148.7530     0.0150     2.4570
 1716.0000   -53.8000     5.3280     6.6550     6.7200     8.7910   148.1410     0.0140     2.4720
 1716.5000   -53.8000     5.3730     6.8440     8.9910     8.7910   147.4730     0.0130     2.4970
 1717.0000   -53.8000     5.5040     7.0340    10.1270     8.7910   146.8730     0.0110     2.5050
 1717.5000   -53.8000     5.6350     7.2240    10.1270     8.7810   146.2230     0.0100     2.5070
 1718.0000   -53.8000     5.7660     7.3760    10.1270     8.7690   145.6460     0.0120     2.5100
 1718.5000   -53.8000     5.8970     7.3760    10.1270     8.7560   144.9190     0.0140     2.5110
 1719.0000   -53.8000     5.8340     7.3760    10.1270     8.7440   146.0710     0.0160     2.5090
 1719.5000   -53.8000     5.7280     7.3760    10.1270     8.7310   148.1970     0.0180     2.5080
 1720.0000   -53.8000     5.6220     7.3760    10.1270     8.7170   150.2450     0.0210     2.5070
 1720.5000   -53.8000     5.5160     7.3760    10.1270     8.7130   152.1270     0.0230     2.5100
 1721.0000   -53.8000     5.4740     7.0630    10.1270     8.7220   154.4750     0.0250     2.5170
 1721.5000   -53.8000     5.3990     6.7490     9.8800     8.7300   154.0520     0.0260     2.5230
 1722.0000   -53.7990     5.3370     6.4350     8.8130     8.7380   152.6250     0.0220     2.5270
 1722.5000   -53.8010     5.2750     6.1220     7.2400     8.7460   151.1750     0.0180     2.5230
 1723.0000   -53.7990     5.1760     6.0080     6.9210     8.7540   150.1510     0.0150     2.5200
 1723.5000   -53.7940     5.1950     6.2140     6.4740     8.7620   149.4030     0.0110     2.5150
 1724.0000   -53.6990     5.2440     6.4700     9.3990     8.7700   148.6600     0.0070     2.5180
 1724.5000   -53.6000     5.2730     6.7270     9.3990     8.7780   147.9680     0.0060     2.5230
 1725.0000   -53.5000     5.4500     6.9830     9.3990     8.7870   149.9700     0.0100     2.5190
 1725.5000   -53.4040     5.6270     7.2400    10.1550     8.7910   153.1840     0.0150     2.5240
 1726.0000   -53.3710     5.8030     7.2400    10.9110     8.7870   156.7380     0.0200     2.5340
 1726.5000   -53.3400     5.9800     7.2950    10.5980     8.7830   156.9470     0.0250     2.5390
 1727.0000   -53.3120     6.1220     7.3410    10.1270     8.7800   157.1440     0.0300     2.5300
 1727.5000   -53.2820     6.1070     7.3870    10.1690     8.7760   156.9430     0.0250     2.5210
 1728.0000   -53.2530     6.0890     7.4320    10.2730     8.7720   156.7200     0.0160     2.5120
 1728.5000   -53.2240     6.0710     7.4780    10.3770     8.7680   152.8320     0.0070     2.5060
 1729.0000   -53.1940     6.0530     7.5150    10.4810     8.7640   149.3130     0.0020     2.5100
 1729.5000   -53.1650     6.0350     7.5150    10.5850     8.7600   147.2140     0.0090     2.5160
 1730.0000   -53.1350     6.0170     7.5150    10.7100     8.7560   147.3600     0.0150     2.5320
 1730.5000   -53.1060     5.9990     7.5150    10.6040     8.7520   148.6130     0.0210     2.5280
 1731.0000   -53.0770     5.9800     7.5150    10.4710     8.7510   152.1850     0.0280     2.5180
 1731.5000   -53.0480     5.9620     7.5150    10.3390     8.7510   155.3030     0.0300     2.5240
 1732.0000   -53.0150     5.9440     7.5150    10.2070     8.7510   158.8510     0.0300     2.5300
 1732.5000   -53.0080     5.9260     7.5150    10.0960     8.7510   157.3760     0.0290     2.5280
 1733.0000   -53.0370     5.9070     7.5150    10.0180     8.7510   154.2420     0.0280     2.5250
 1733.5000   -53.0610     5.8940     7.5150     9.9400     8.7510   151.1970     0.0260     2.5220
 1734.0000   -53.0870     5.9270     7.5160    10.0080     8.7510   147.7030     0.0280     2.5210
 1734.5000   -53.1130     5.9810     7.5120    10.1210     8.7510   147.3980     0.0350     2.5330
 1735.0000   -53.1380     6.0350     7.5450    10.2340     8.7510   147.1010     0.0400     2.5350
 1735.5000   -53.1640     6.0880     7.5960    10.3470     8.7510   146.9100     0.0460     2.5290
 1736.0000   -53.1900     6.1410     7.6560    10.4610     8.7510   146.6180     0.0520     2.5250
 1736.5000   -53.2150     6.1940     7.6560    10.5740     8.7510   146.7190     0.0580     2.5210
 1737.0000   -53.2410     6.2370     7.7370    10.7100     8.7510   148.5780     0.0640     2.5070
 1737.5000   -53.2670     6.2540     7.8180    10.9150     8.7510   150.6400     0.0690     2.4850
 1738.0000   -53.2920     6.2960     7.8990    11.1720     8.7510   152.5690     0.0680     2.4650
 1738.5000   -53.3180     6.3380     7.9470    11.3260     8.7510   154.3390     0.0430     2.4160
 1739.0000   -53.3440     6.3810     7.9000    11.3260     8.7510   151.9410     0.0210     2.3960
 1739.5000   -53.3690     6.4230     7.8200    11.3260     8.7510   149.1890    -0.0040     2.4180
 1740.0000   -53.3980     6.4740     7.7410    11.3260     8.7510   149.1290    -0.0040     2.4610
 1740.5000   -53.4290     6.4470     7.6620    11.0340     8.7510   151.2920    -0.0020     2.5100
 1741.0000   -53.4670     6.4140     7.5820    10.3050     8.7450   150.2180     0.0010     2.5060
 1741.5000   -53.5040     6.3810     7.5030     9.5760     8.7390   149.1340     0.0030     2.5040
 1742.0000   -53.5410     6.3540     7.4240     9.6010     8.7320   148.2520     0.0060     2.4990
 1742.5000   -53.5780     6.0050     7.3310     9.6260     8.7260   149.7770     0.0080     2.5020
 1743.0000   -53.6150     5.7150     7.2190     9.6510     8.7200   151.8130     0.0100     2.5120
 1743.5000   -53.6520     5.4240     7.1060     9.6760     8.7130   153.8360     0.0160     2.5220
 1744.0000   -53.6890     5.1340     6.9160     9.7010     8.7070   155.3060     0.0210     2.5320
 1744.5000   -53.7260     4.8430     6.6000     9.7260     8.7010   154.3660     0.0260     2.5420
 1745.0000   -53.7640     4.5520     6.0900     9.7560     8.6950   153.6130     0.0300     2.5510
 1745.5000   -53.7960     4.2620     5.4490     8.8600     8.6880   152.7480     0.0300     2.5550
 1746.0000   -53.7950     3.9130     4.8090     7.5150     8.6820   151.8250     0.0300     2.5550
 1746.5000   -53.6020     3.9130     4.1690     5.7840     8.6750   151.8370     0.0300     2.5550
 1747.0000   -53.3540     3.7700     3.9130     3.1880     8.6710   153.1870     0.0300     2.5550
 1747.5000   -53.0920     3.8670     4.5760     4.9220     8.6600   154.4430     0.0300     2.5480
 1748.0000   -53.0140     3.9890     5.1290     7.0910     8.6470   155.3740     0.0290     2.5390
 1748.5000   -53.0660     4.0620     5.6820     9.2600     8.6340   155.4280     0.0260     2.5390
 1749.0000   -53.1040     4.4160     6.0710    10.3620     8.6210   155.5670     0.0230     2.5340
 1749.5000   -53.1430     4.7700     6.4600    10.9110     8.6080   157.2670     0.0210     2.5250
 1750.0000   -53.1850     5.1240     6.8490    10.8910     8.5950   158.1720     0.0180     2.5210
 1750.5000   -53.2220     5.4770     7.2400    10.8580     8.5820   158.7970     0.0180     2.5360
