~VERSION INFORMATION
 VERS.                2.0:   CWLS LOG ASCII STANDARD - VERSION 2.0
 WRAP.                 NO:   ONE LINE PER DEPTH STEP
~WELL INFORMATION
#MNEM.UNIT      DATA TYPE    INFORMATION
#----------   ------------   ------------------------------
 STRT.F            0.0000:   START DEPTH
 STOP.F         5576.0000:   STOP DEPTH
 STEP.F            0.5000:   STEP LENGTH
 NULL.          -999.2500:   NO VALUE
 COMP.      FLUCOR DANIEL:   COMPANY
 WELL.  FLUCOR "X" #76-10:   WELL
 FLD .          N.P.R. #3:   FIELD
 LOC .      S10 T38N R78W:   LOCATION
 CNTY.            NATRONA:   COUNTY
 STAT.            WYOMING:   STATE
 CTRY. UNITED STATES OF AMERICA:   COUNTRY
 SRVC. ATLAS WIRELINE SERVICES:   SERVICE COMPANY
 DATE.        16-MAR-1995:   LOGDATE
 API .     49025226860000:   API NUMBER
~CURVE INFORMATION
#MNEM.UNIT       API CODE    CURVE DESCRIPTION
#----------   ------------   ------------------------------
 DEPT.F                  :   
 CNC .DEC    42 890 01 00:   NEUTRON POROSITY LIMESTONE
 CALD.IN     45 280 60 00:   CALIPER FROM DENSITY LOG
 ZDEN.G/C3   45 350 01 00:   BULK DENSITY
 ZCOR.G/C3   45 356 01 00:   DENSITY CORRECTION
 RILD.OHMM   07 120 46 00:   INDUCTION LOG DEEP RESISTIVITY
 RILM.OHMM   07 120 44 00:   INDUCTION LOG MEDIUM RESISTIVITY
 RS  .OHMM   11 220 10 00:   RESISTIVITY SHALLOW
 RD  .OHMM   11 220 09 00:   RESISTIVITY DEEP
 GRR .GAPI   07 310 01 00:   GAMMA RAY
 TENR.LBS    07 635 01 00:   TENSION FROM RESISTIVITY
~PARAMETER INFORMATION
#MNEM.UNIT          VALUE    DESCRIPTION
#----------   ------------   ------------------------------
 EKB .F         5191.0000:   Kelly bushing
 EGL .F         5101.0000:   Ground level
 EDF .F         5190.0000:   Drilling floor
 TD  .F         5582.0000:   Total depth
 CLNT.            A2DTECH:   Client Code
 SL  . 1896' FSL & 832' FEL:   Surface Location
 PD  .                 GL:   Permanent Datum
 EPD .F              5181:   Elevation Permanent Datum
 LMF .                 KB:   Log Measured From
 DMF .                 KB:   Drilling Measured From
 DAPD.F                10:   Feet Above Permanent Datum
 DATE.        16-MAR-1995:   Date Logged [DD-MMM-YYYY]
 DD  .F              5582:   Depth driller
 DL  .F              5578:   Depth logger
 BLI .F              5566:   Bottom log interval
 TLI .F               518:   Top log interval
 CS1 .IN            8.625:   Casing size
 CBD1.      8.625" @ 519':   Casing driller 1
 CBL1.F               518:   Casing logger 1
 BS1 .IN             8.75:   Bit size
 BSD1.F              5582:   Depth drilled with bit1
 DFT .               LSND:   Type fluid in hole
 DFD .               10.1:   Density
 DFV .                 52:   Viscosity
 DFPH.                9.5:   pH
 DFL .                7.2:   Fluid loss
 MSS .           FLOWLINE:   Source of sample
 RMS .OHMM          0.536:   Rm
 MST .F                70:   Rm Meas. temp.
 RMF .OHMM          0.415:   Rmf
 MFST.F                70:   Rmf Meas. temp.
 MFSS.               MEAS:   Source Rmf.
 RMC .OHMM          0.646:   Rmc
 MCST.F                70:   Rmc Meas. temp.
 MCSS.               MEAS:   Source Rmc.
 RMB .OHMM          0.228:   Rm. at BHT
 BHT .F               165:   BHT.
 TCS .HRS             6.5:   Time Circ. stopped
 MRT .F               165:   Maximum recorded temp.
 LUN .            HL-6530:   Logging unit number
 LUL .             CASPER:   Logging unit location
 ENGI.      PAT RASMUSSEN:   Recorded By
 WITN.        GARY STRONG:   Witnessed by
 ORIG.           5" PRINT:   Origin of data
 UWI .     49025226860000:   Unique Well ID
 DICO. A2D TECHNOLOGIES, INC.:   Digitizing Company
~OTHER INFORMATION
~A  DEPTH      CNC       CALD       ZDEN       ZCOR       RILD       RILM         RS         RD        GRR       TENR
# ...
 5494.0000     0.0974     9.0301     2.4352    -0.0050  -999.2500  -999.2500    29.2630    62.8493    24.9577   124.0653
 5494.5000     0.0995     9.0143     2.4314    -0.0157  -999.2500  -999.2500    28.8473    61.5311    24.6460   124.3535
 5495.0000     0.1029     8.9985     2.4351    -0.0189  -999.2500  -999.2500    28.8360    59.8181    25.8473   139.7474
 5495.5000     0.1077     8.9977     2.4494    -0.0130  -999.2500  -999.2500    28.8245    60.2208    27.6568   155.1413
 5496.0000     0.1090     9.0121     2.4547    -0.0071  -999.2500  -999.2500    29.0117    60.6214    29.1632   155.4380
 5496.5000     0.1058     9.0264     2.4561     0.0018  -999.2500  -999.2500    29.2056    60.5965    30.0636   140.6118
 5497.0000     0.1050     9.0407     2.4538     0.0077  -999.2500  -999.2500    29.6031    61.4254    30.3580   133.3471
 5497.5000     0.1080     9.0551     2.4495     0.0136  -999.2500  -999.2500    29.5883    61.4002    30.6523   141.2601
 5498.0000     0.1120     9.0695     2.4317     0.0165  -999.2500  -999.2500    29.5741    61.8086    31.8536   141.5486
 5498.5000     0.1147     9.0686     2.4196     0.0133  -999.2500  -999.2500    30.3966    62.2200    33.0571   157.5987
 5499.0000     0.1165     9.0679     2.4195     0.0101  -999.2500  -999.2500    32.1235    63.0707    33.9576   179.9612
 5499.5000     0.1132     9.0370     2.4225     0.0069  -999.2500  -999.2500    33.9878    63.9334    32.7364   187.8023
 5500.0000     0.1098     9.0348     2.4224     0.0053  -999.2500  -999.2500    35.8446    66.2216    31.3730   195.5954
 5500.5000     0.1077     9.0344     2.4262     0.0067  -999.2500  -999.2500    39.2222    68.5432    29.4051   188.3291
 5501.0000     0.1065     9.0340     2.4276     0.0006  -999.2500  -999.2500    40.0422    69.4911    29.1092   181.0628
 5501.5000     0.1074     9.0335     2.4299    -0.0040  -999.2500  -999.2500    40.0323    69.4740    29.1312   181.4212
 5502.0000     0.1095     9.0330     2.4330    -0.0101  -999.2500  -999.2500    40.3034    69.4603    30.3452   181.7793
 5502.5000     0.1117     9.0326     2.4366    -0.0163  -999.2500  -999.2500    40.6181    70.4898    31.8699   182.0659
 5503.0000     0.1132     9.0474     2.4404    -0.0224  -999.2500  -999.2500    41.4205    71.3876    33.3946   197.4582
 5503.5000     0.1107     9.0621     2.4449    -0.0240  -999.2500  -999.2500    41.4124    71.3701    35.2223   220.4034
 5504.0000     0.1065     9.0768     2.4494    -0.0225  -999.2500  -999.2500    40.2697    70.3723    35.5349   243.8798
 5504.5000     0.1038     9.0763     2.4448    -0.0166  -999.2500  -999.2500    39.1206    66.9892    33.4256   273.9185
 5505.0000     0.1044     9.0606     2.4388    -0.0136  -999.2500  -999.2500    37.5509    63.3862    31.9200   281.7579
 5505.5000     0.1062     9.0450     2.4327    -0.0137  -999.2500  -999.2500    35.2683    61.2121    31.0204   274.4200
 5506.0000     0.1083     9.0143     2.4251    -0.0107  -999.2500  -999.2500    34.2952    58.2978    32.0217   267.2206
 5506.5000     0.1095     9.0138     2.4220    -0.0063  -999.2500  -999.2500    34.2884    59.5126    34.0722   267.5227
 5507.0000     0.1101     8.9981     2.4235    -0.0018  -999.2500  -999.2500    34.7595    59.9153    34.6878   267.8703
 5507.5000     0.1074     9.0129     2.4387     0.0026  -999.2500  -999.2500    38.0368    64.6530    34.6974   268.1569
 5508.0000     0.0974     9.0124     2.4870     0.0086  -999.2500  -999.2500    44.9279    80.7163    34.7071   268.4434
 5508.5000     0.0847     9.0271     2.5385     0.0161  -999.2500  -999.2500    60.1350   108.0133    34.1128   268.7312
 5509.0000     0.0762     9.0267     2.5778     0.0206  -999.2500  -999.2500    80.0451   144.2875    31.0920   269.0881
 5509.5000     0.0731     9.0263     2.5861     0.0175  -999.2500  -999.2500   116.2817   225.3214    25.9501   261.7502
 5510.0000     0.0668     9.0257     2.5846     0.0068  -999.2500  -999.2500   114.6549   213.1093    21.4141   239.4498
 5510.5000     0.0659     9.0253     2.5550    -0.0039  -999.2500  -999.2500    99.7643   207.2334    15.9715   194.4109
 5511.0000     0.0713     9.0400     2.5284    -0.0118  -999.2500  -999.2500    96.3397   207.1919    12.6477   202.2659
 5511.5000     0.0719     9.0396     2.5065    -0.0146  -999.2500  -999.2500   101.8198   208.5843    11.4428   210.1699
 5512.0000     0.0695     9.0391     2.4989    -0.0116  -999.2500  -999.2500   122.7990   242.9467    11.1515   233.1150
 5512.5000     0.0686     9.0386     2.4973    -0.0178  -999.2500  -999.2500   144.0425   301.2100    11.7697   240.9545
 5513.0000     0.0689     9.0534     2.4925    -0.0239  -999.2500  -999.2500   144.0141   311.7855    12.6883   241.4873
 5513.5000     0.0713     9.0529     2.4564    -0.0270  -999.2500  -999.2500   129.7327   267.5677    13.3039   226.4219
 5514.0000     0.0780     9.0677     2.4125    -0.0180  -999.2500  -999.2500   107.5266   218.7424    13.0101   249.4389
 5514.5000     0.0871     9.0216     2.3958    -0.0089  -999.2500  -999.2500    90.9980   189.0370    12.0811   264.8312
 5515.0000     0.1002     9.0060     2.3791     0.0015  -999.2500  -999.2500    87.2664   158.8924    11.2113   265.1178
 5515.5000     0.1126     9.0208     2.3548     0.0030  -999.2500  -999.2500    81.8887   148.8463    11.2233   257.8515
 5516.0000     0.1211     9.0507     2.3291     0.0014  -999.2500  -999.2500    80.8112   138.2370    11.2328   280.8682
 5516.5000     0.1262     9.0654     2.3275    -0.0004  -999.2500  -999.2500    83.0716   136.3045    11.2424   288.7076
 5517.0000     0.1271     9.0345     2.3320    -0.0033  -999.2500  -999.2500    84.2212   136.2777    10.9512   288.9942
 5517.5000     0.1247     9.0037     2.3434    -0.0004  -999.2500  -999.2500    84.2003   135.3081    10.6554   289.2808
 5518.0000     0.1199     9.0033     2.3623    -0.0005  -999.2500  -999.2500    84.1797   136.2240    10.3619   289.5771
 5518.5000     0.1132     9.0181     2.3858     0.0025  -999.2500  -999.2500    85.9353   140.0245    10.6768   312.5844
 5519.0000     0.1023     9.0328     2.4266     0.0039  -999.2500  -999.2500    92.0984   141.9539    11.9009   320.4238
 5519.5000     0.0926     9.0171     2.4500     0.0054  -999.2500  -999.2500    95.9990   152.1265    12.8195   350.9219
 5520.0000     0.0841     9.0015     2.4636     0.0053  -999.2500  -999.2500    94.6512   160.7807    14.0412   320.9969
 5520.5000     0.0787     9.0010     2.4742     0.0052  -999.2500  -999.2500    92.0395   159.6294    14.3538   313.7307
 5521.0000     0.0763     9.0006     2.4681     0.0021  -999.2500  -999.2500    89.4998   148.8964    14.0603   314.0891
 5521.5000     0.0751     9.0154     2.4590     0.0005  -999.2500  -999.2500    84.6455   143.7894    13.7668   314.3756
 5522.0000     0.0733     9.0300     2.4574     0.0004  -999.2500  -999.2500    83.4608   141.7784    13.1703   314.6622
 5522.5000     0.0693     9.0296     2.4619    -0.0011  -999.2500  -999.2500    85.1977   144.7268    12.8768   314.9547
 5523.0000     0.0660     9.0443     2.4649    -0.0042  -999.2500  -999.2500    91.3079   150.8514    12.5857   315.3069
 5523.5000     0.0636     9.0439     2.4649    -0.0089  -999.2500  -999.2500    96.5062   154.0026  -999.2500   307.9690
 5524.0000     0.0624     9.0433     2.4650    -0.0150  -999.2500  -999.2500   102.7409   172.1473  -999.2500   308.3272
 5524.5000     0.0648     9.0429     2.4709    -0.0166  -999.2500  -999.2500   110.0723   200.3819  -999.2500   308.6137
 5525.0000     0.0660     9.0578     2.4769    -0.0136  -999.2500  -999.2500   125.5763   216.2372  -999.2500   308.9722
 5525.5000     0.0666     9.0420     2.4814    -0.0103  -999.2500  -999.2500   139.3384   248.3883  -999.2500   316.8116
 5526.0000     0.0666     9.0415     2.4905    -0.0017  -999.2500  -999.2500   155.6865   303.7113  -999.2500   317.0982
 5526.5000     0.0648     9.0411     2.5026    -0.0002  -999.2500  -999.2500   186.4555   356.1913  -999.2500   324.9376
 5527.0000     0.0630     9.0406     2.5162     0.0012  -999.2500  -999.2500   224.8732   395.1961  -999.2500   340.3323
