~VERSION INFORMATION
 VERS.                2.0:   CWLS LOG ASCII STANDARD - VERSION 2.0
 WRAP.                 NO:   ONE LINE PER DEPTH STEP
~WELL INFORMATION
#MNEM.UNIT      DATA TYPE    INFORMATION
#----------   ------------   ------------------------------
 STRT.F          210.0000:   START DEPTH
 STOP.F         3128.0000:   STOP DEPTH
 STEP.F            0.5000:   STEP LENGTH
 NULL.          -999.2500:   NO VALUE
 COMP.    PENIX & SCISSON:   COMPANY
 WELL. FENIX NPR 3 "A" #14-27:   WELL
 FLD .                NPR:   FIELD
 LOC .      S27 T39N R78W:   LOCATION
 CNTY.            NATRONA:   COUNTY
 STAT.            WYOMING:   STATE
 CTRY. UNITED STATES OF AMERICA:   COUNTRY
 SRVC.      DRESSER ATLAS:   SERVICE COMPANY
 DATE.        31-AUG-1977:   LOGDATE
 API .     49025104280000:   API NUMBER
~CURVE INFORMATION
#MNEM.UNIT       API CODE    CURVE DESCRIPTION
#----------   ------------   ------------------------------
 DEPT.F                  :   
 GRD .GAPI   45 310 01 00:   GAMMA RAY FROM DENSITY LOG
 CALD.IN     45 280 60 00:   CALIPER FROM DENSITY LOG
 RHOB.G/C3   45 350 01 00:   BULK DENSITY
 CORR.G/C3   45 356 01 00:   DENSITY CORRECTION
 NPHI.DEC    42 890 03 00:   NEUTRON POROSITY SANDSTONE
 SPR .MV     11 010 01 00:   SPONTANEOUS POTENTIAL
 RXO .OHMM   11 220 01 00:   FLUSHED ZONE RESISTIVITY
 LLD .OHMM   11 220 10 00:   LATEROLOG LOG DEEP
 LLS .OHMM   11 220 09 00:   LATEROLOG LOG SHALLOW
 TENR.LBS    11 635 01 00:   TENSION FROM RESISTIVITY
 TEND.LBS    45 635 01 00:   TENSION FROM DENSITY LOG
~PARAMETER INFORMATION
#MNEM.UNIT          VALUE    DESCRIPTION
#----------   ------------   ------------------------------
 EKB .F         5046.0000:   Kelly bushing
 EGL .F         5036.0000:   Ground level
 TD  .F         3111.0000:   Total depth
 DATE.        31-AUG-1977:   Date logged
 CLNT.            A2DTECH:   Client Code
 SL  . 2310' FNL & 330' FWL:   Surface Location
 PD  .                 GL:   Permanent Datum
 EPD .F              5036:   Elevation Permanent Datum
 LMF .                 KB:   Log Measured From
 DMF .                 KB:   Drilling Measured From
 DAPD.F                10:   Feet Above Permanent Datum
 DD  .F              3109:   Depth driller
 DL  .F              3111:   Depth logger
 BLI .F              3109:   Bottom log interval
 TLI .F               217:   Top log interval
 CS1 .IN             8.75:   Casing size
 CBD1.       8.75" @ 215':   Casing driller 1
 CBL1.F               217:   Casing logger 1
 BS1 .IN            7.875:   Bit size
 BSD1.F              3109:   Depth drilled with bit1
 DFT .                GEL:   Type fluid in hole
 DFD .                8.8:   Density
 DFV .                 35:   Viscosity
 DFPH.                 10:   pH
 DFL .                8.8:   Fluid loss
 MSS .                PIT:   Source of sample
 RMS .OHMM            .36:   Rm
 MST .F                67:   Rm Meas. temp.
 RMF .OHMM            .24:   Rmf
 MFST.F                67:   Rmf Meas. temp.
 RMC .OHMM            .51:   Rmc
 MCST.F                67:   Rmc Meas. temp.
 MFSS.               MEAS:   Source Rmf.
 MCSS.               CALC:   Source Rmc.
 RMB .OHMM            .20:   Rm. at BHT
 BHT .F               121:   BHT.
 TCS .HRS               5:   Time Circ. stopped
 MRT .F               121:   Maximum recorded temp.
 LUN .               6080:   Logging unit number
 LUL .              WLSTN:   Logging unit location
 ENGI.               BALL:   Recorded By
 WITN.         PETTINGILL:   Witnessed by
 ORIG.      2.5" 5" PRINT:   Origin of data
 UWI .     49025104280000:   Unique Well ID
 DICO. A2D TECHNOLOGIES, INC.:   Digitizing Company
~OTHER INFORMATION
~A   DEPT      GRD         CALD     RHOB       CORR       NPHI        SPR        RXO        LLD        LLS        TENR      TEND   
# ...
 2680.5000    82.1990     8.9550     2.4879    -0.0037     0.1929   -28.8226    10.9877    12.9137    13.1871    88.8148    96.9460
 2681.0000    80.2085     8.9350     2.4790    -0.0057     0.1850   -28.8219    11.1906    12.9144    13.1875    88.7760   100.9635
 2681.5000    79.8110     8.9350     2.4919    -0.0037     0.1815   -29.2218    11.1910    12.9150    13.4310    88.7372    97.0198
 2682.0000    80.2101     8.9350     2.5039     0.0062     0.1874   -29.2211    10.9891    13.1534    13.6788    88.6984    93.0690
 2682.5000    80.6093     8.9151     2.4751     0.0042     0.1874   -29.2206    11.1920    13.8947    14.1880    88.6597    97.0936
 2683.0000    82.6019     8.9349     2.4741     0.0022     0.1846   -28.8197    11.8222    14.4119    14.4498    88.6209   113.0435
 2683.5000    83.0013     8.9548     2.4662     0.0081     0.1807   -28.8192    12.4881    14.9487    14.1892    80.6608   101.1474
 2684.0000    83.0023     8.9548     2.4602     0.0081     0.1831   -28.8185    12.4885    14.6787    14.4510    80.6146   125.0559
 2684.5000    82.6049     8.9946     2.4514     0.0061     0.1878   -28.4178    10.5976    14.1531    13.6818    80.5837   101.2209
 2685.0000    83.4028     8.9946     2.4623     0.0021     0.1910   -28.4171    10.4061    13.6460    13.1919    80.5683   121.1484
 2685.5000    83.8024     8.9946     2.4643     0.0051     0.1958   -28.4167     9.1586    13.6465    13.1925    80.5220   113.2329
 2686.0000    84.6005     8.9547     2.4613     0.0091     0.1997   -28.4160     8.8306    13.6469    12.9544    80.4757   109.2899
 2686.5000    85.0001     8.9496     2.4673     0.0151     0.2005   -28.4155     8.6713    13.1584    12.9550    80.7957   109.3265
 2687.0000    84.6027     8.9444     2.4823     0.0210     0.2009   -28.4146     8.6716    13.1588    12.9554    81.1156   105.3765
 2687.5000    83.0093     8.9392     2.4843     0.0210     0.2017   -28.4144     8.5149    12.9214    12.7217    81.4355   109.3922
 2688.0000    83.0102     8.9341     2.4933     0.0190     0.2045   -28.4137     8.5152    12.9218    12.7222    81.7555   117.3865
 2688.5000    83.0112     8.9289     2.5003     0.0170     0.2053   -27.9801     8.5156    12.9224    12.4927    82.0754   105.4865
 2689.0000    83.4108     8.9237     2.4993     0.0111     0.2029   -27.5465     8.5160    12.9226    12.9578    82.3953    97.5658
 2689.5000    79.0262     8.9186     2.4924     0.0071     0.1879   -27.1129     8.6731    13.4042    13.4399    82.7153   105.5597
 2690.0000    78.2295     8.9134     2.4974     0.0071     0.1835   -26.6793    10.4103    14.9571    14.1970    83.0352   105.5964
 2690.5000    77.4327     8.9082     2.4855     0.0071     0.1796   -26.2456    12.2692    15.7999    15.2730    83.3551   109.6113
 2691.0000    79.4272     8.9031     2.4706     0.0090     0.1788   -25.8120    14.1987    15.8007    15.2733    83.6751   105.6696
 2691.5000    81.0232     8.8979     2.4716     0.0110     0.1792   -25.2084    14.9984    15.8010    15.5551    83.9950   105.7063
 2692.0000    85.4111     8.8946     2.4647     0.0130     0.1800   -25.2082     9.8571    15.5161    13.9426    84.3149   109.7208
 2692.5000    86.2099     8.8946     2.4665     0.0110     0.1824   -25.2076     8.9975    14.9599    13.2001    84.6349   101.8017
 2693.0000    85.4132     8.9145     2.4725     0.0090     0.1867   -26.0074     8.6755    13.1658    12.4974    84.9548   105.8161
 2693.5000    85.4144     8.9344     2.4765     0.0090     0.1887   -26.4069     8.6758    12.5396    12.4978    85.2747   105.8527
 2694.0000    85.8144     8.8945     2.4907     0.0090     0.1883   -26.4065     8.9988    12.2391    12.2723    85.5947   109.8668
 2694.5000    89.4061     8.9145     2.4817     0.0110     0.1876   -26.0057     8.9990    12.0180    12.0507    85.9146    97.9713
 2695.0000    91.4020     8.9453     2.4775     0.0170     0.1990   -26.0053     8.6768    11.8011    11.8333    86.2345   109.9398
 2695.5000    90.2068     8.9762     2.4686     0.0189     0.2050   -25.2046     8.5201    11.8014    11.4095    86.5545    98.0450
 2696.0000    86.2181     9.0070     2.4490     0.0110     0.2066   -25.2042     8.6775    12.0195    11.8343    86.8744   110.0128
 2696.5000    84.2241     9.0379     2.4390     0.0050     0.2078   -25.2035     8.6777    12.0199    12.7311    87.1943   110.0492
 2697.0000    82.2299     9.0688     2.4361     0.0038     0.2098   -25.2031     8.5211    12.9315    12.9660    87.5323   110.0784
 2697.5000    79.4373     9.0996     2.4351     0.0059     0.2046   -25.6026     8.5214    12.6979    13.2055    87.5015   114.0988
 2698.0000    79.0390     9.1305     2.4351     0.0059     0.2026   -25.6022     8.5218    12.6985    13.2062    87.4707   118.1045
 2698.5000    79.4389     9.1614     2.4561     0.0079     0.1987   -26.8016     8.5220    12.4691    12.7330    87.4245    98.2660
 2699.0000    80.2380     9.1922     2.4750     0.0079     0.1979   -26.8012     8.5224    12.0224    11.8371    95.3248   106.2480
 2699.5000    81.0372     9.2231     2.4790     0.0080     0.2082   -27.0006     8.0686    12.0228    11.8375    95.2859   102.3158
 2700.0000    82.2355     9.2535     2.4671     0.0050     0.2102   -27.0001     8.5230    11.8058    11.4135    95.2471   102.3525
 2700.5000    82.6358     9.2136     2.4632     0.0050     0.2088   -26.3834     8.6760    12.2465    12.0476    95.2082   102.3921
 2701.0000    79.8426     9.2137     2.4439     0.0030     0.2074   -26.1975    11.2114    12.9391    12.9738    95.1285   114.2536
 2701.5000    76.2511     9.2137     2.4203    -0.0029     0.2047   -25.7957    11.8442    12.9410    13.2147    95.0487   102.2965
 2702.0000    73.8572     9.2032     2.4163    -0.0109     0.1999   -25.7946    12.5137    13.1824    13.3894    94.9690   114.2127
 2702.5000    74.2576     9.1926     2.4164     0.0011     0.2067   -24.9927     8.8474    12.9466    12.9107    94.8893    86.3512
 2703.0000    74.6581     9.1820     2.4134    -0.0009     0.2067   -24.9915     8.2262    12.2581    12.6788    94.8095    74.4107
 2703.5000    77.0544     9.1715     2.4124    -0.0089     0.2015   -24.1891     7.9324    11.8210    12.0050    94.7298    98.2387
 2704.0000    80.6482     9.1609     2.4134    -0.0108     0.1988   -23.8016     7.3755    11.8227    11.7893    94.6501    90.2744
 2704.5000    82.2460     9.1503     2.4164    -0.0108     0.1980   -23.7878     7.2436    11.4011    11.5784    94.5703    94.2260
 2705.0000    82.2472     9.1397     2.4144    -0.0068     0.1988   -23.7854     7.2447    11.4027    11.5800    94.4906    86.2617
 2705.5000    83.0467     9.1292     2.4233     0.0091     0.2000   -23.3835     7.2463    11.4044    11.5826    94.4109    78.2772
 2706.0000    80.2538     9.1146     2.4522     0.0170     0.2000   -23.3823     7.2473    11.4069    11.7979    94.3311    66.3411
 2706.5000    77.4609     9.1147     2.4721     0.0230     0.1996   -22.9803     7.1178    11.6197    11.8005    94.2514    78.2366
 2707.0000    77.0630     9.1147     2.4761     0.0191     0.2004   -22.9785     7.3835    11.6213    11.8022    94.1717    90.1563
 2707.5000    79.8582     9.1384     2.4619     0.0111     0.2024   -22.5772     7.8008    11.6239    11.8047    94.0919    74.2201
 2708.0000    81.8551     9.1620     2.4738     0.0111     0.2048   -21.7751     8.0921    11.6256    11.3827    94.0122    86.1357
 2708.5000    83.4529     9.1856     2.4878     0.0171     0.2044   -21.3737     7.6625    10.4211    10.5827    93.9325    78.1554
 2709.0000    84.2523     9.2093     2.4848     0.0171     0.2024   -21.3718     7.6636    10.0488    10.2044    93.8527    78.1473
 2709.5000    85.8500     9.2329     2.4632     0.0151     0.2004   -20.9704     7.6653    10.0510    10.2066    93.7730   101.9699
 2710.0000    81.8599     9.2565     2.4483     0.0132     0.1981   -20.9686     7.6664    10.4264    10.3963    93.6933    90.0301
 2710.5000    77.4707     9.2802     2.4443     0.0072     0.1957   -20.9673     7.5294    11.0161    10.7857    93.6135    90.0016
