~VERSION INFORMATION
 VERS.                2.0:   CWLS LOG ASCII STANDARD - VERSION 2.0
 WRAP.                 NO:   ONE LINE PER DEPTH STEP
~WELL INFORMATION
#MNEM.UNIT      DATA TYPE    INFORMATION
#----------   ------------   ------------------------------
 STRT.F            8.0000:   START DEPTH
 STOP.F         3021.0000:   STOP DEPTH
 STEP.F            0.5000:   STEP LENGTH
 NULL.          -999.2500:   NO VALUE
 COMP. LAWRENCE ALLISON & ASSOCIATES W:   COMPANY
 WELL. LAWRENCE ALLISON #68-28:   WELL
 FLD .              NPR 3:   FIELD
 LOC .      S28 T39N R78W:   LOCATION
 CNTY.            NATRONA:   COUNTY
 STAT.            WYOMING:   STATE
 CTRY. UNITED STATES OF AMERICA:   COUNTRY
 SRVC.      DRESSER ATLAS:   SERVICE COMPANY
 DATE.        19-DEC-1986:   LOGDATE
 API .     49025111580000:   API NUMBER
~CURVE INFORMATION
#MNEM.UNIT       API CODE    CURVE DESCRIPTION
#----------   ------------   ------------------------------
 DEPT.F                  :   
 SPR .MV     07 010 01 00:   SPONTANEOUS POTENTIAL
 TENR.LBS    07 635 01 00:   TENSION FROM RESISTIVITY
 RILD.OHMM   07 120 46 00:   DEEP INDUCTION RESISTIVITY
 RILM.OHMM   07 120 44 00:   INDUCTION LOG MEDIUM RESISTIVITY
 RFOC.OHMM   07 220 04 00:   RESISTIVITY FOCUSED LOG RES.
 CALD.IN     45 280 60 00:   CALIPER FROM DENSITY LOG
 CORR.G/C3   45 356 01 00:   DENSITY CORRECTION
 RHOB.G/C3   45 350 01 00:   BULK DENSITY
 CNC .DEC    42 890 03 00:   NEUTRON POROSITY SANDSTONE
 GRR .GAPI   07 310 01 00:   GAMMA RAY FROM RESISTIVITY
~PARAMETER INFORMATION
#MNEM.UNIT          VALUE    DESCRIPTION
#----------   ------------   ------------------------------
 EKB .F         5106.0000:   Kelly bushing
 EGL .F         5094.0000:   Ground level
 EDF .F            0.0000:   Drilling floor
 EPD .F         5094.0000:   Permanent datum
 TD  .F         3010.0000:   Total depth
 CLNT.            A2DTECH:   Client Code
 SL  . 1559'EL & 533' FSL:   Surface Location
 DATE.        19-DEC-1986:   Date Logged [DD-MMM-YYYY]
 DD  .F              3003:   Depth driller
 DL  .F              3010:   Depth logger
 BLI .F              3007:   Bottom log interval
 TLI .F                 0:   Top log interval
 CS1 .              8.625:   Casing size
 CBD1.      8.625" @ 389':   Casing driller 1
 CBL1.IN              405:   Casing logger 1
 BS1 .IN            7.875:   Bit size
 BSD1.F              3003:   Depth drilled with bit1
 DFT .        KCL POLYMER:   Type fluid in hole
 DFD .                9.0:   Density
 DFV .                 42:   Viscosity
 DFPH.                9.3:   pH
 DFL .                8.8:   Fluid loss
 MSS .           FLOWLINE:   Source of sample
 RMS .OHMM          0.484:   Rm
 MST .F                68:   Rm Meas. temp.
 RMF .OHMM          0.392:   Rmf
 MFST.F                68:   Rmf Meas. temp.
 MFSS.               MEAS:   Source Rmf.
 RMC .OHMM          0.605:   Rmc
 MCST.F                68:   Rmc Meas. temp.
 MCSS.               CALC:   Source Rmc.
 RMB .OHMM          0.269:   Rm. at BHT
 BHT .F               122:   BHT.
 TCS .HRS             3.5:   Time Circ. stopped
 MRT .F               122:   Maximum recorded temp.
 LUN .            HL-6274:   Logging unit number
 LUL .           GILLETTE:   Logging unit location
 ENGI.             RAUTIO:   Recorded By
 WITN.             STRONG:   Witnessed by
 ORIG.        2" 5" PRINT:   Origin of data
 UWI .     49025111580000:   Unique Well ID
 DICO. A2D TECHNOLOGIES, INC.:   Digitizing Company
~OTHER INFORMATION
~A    DEPT     SPR       TENR       RILD       RILM       RFOC       CALD       CORR       RHOB        CNC        GRR   
# ...
  745.0000   -32.6833   -65.6716     8.5763     8.5446     8.4159  -999.2500  -999.2500  -999.2500  -999.2500    99.7334
  745.5000   -32.6741   -65.4438     8.6969     8.6655     8.4754  -999.2500  -999.2500  -999.2500  -999.2500    99.4513
  746.0000   -32.6664   -65.2160     8.8201     8.7263     8.5348  -999.2500  -999.2500  -999.2500  -999.2500    99.7867
  746.5000   -32.6588   -64.9882     8.8846     8.9144     8.6563  -999.2500  -999.2500  -999.2500  -999.2500    99.5113
  747.0000   -32.8091   -64.7605     9.0065     9.0411     8.8435  -999.2500  -999.2500  -999.2500  -999.2500    98.6316
  747.5000   -32.9574   -72.3087     9.1332     9.2353     8.9699  -999.2500  -999.2500  -999.2500  -999.2500    97.1477
  748.0000   -33.1058   -72.0809     9.2634     9.2994     9.1638  -999.2500  -999.2500  -999.2500  -999.2500    96.5634
  748.5000   -33.0962   -71.8508     9.3937     9.4999     9.3004  -999.2500  -999.2500  -999.2500  -999.2500   100.5243
  749.0000   -32.9326   -71.6174     9.4583     9.5658     9.3600  -999.2500  -999.2500  -999.2500  -999.2500   102.0615
  749.5000   -32.7690   -71.3407     9.4550     9.6322     9.3575  -999.2500  -999.2500  -999.2500  -999.2500   102.3903
  750.0000   -32.4493   -71.1129     9.4517     9.6288     9.3556  -999.2500  -999.2500  -999.2500  -999.2500    99.6979
  750.5000   -32.4285   -78.7181     9.4483     9.6261     9.3536  -999.2500  -999.2500  -999.2500  -999.2500    97.9175
  751.0000   -32.2517   -78.4334     9.5190     9.6234     9.3516  -999.2500  -999.2500  -999.2500  -999.2500   103.0939
  751.5000   -32.1124   -85.5659     9.5182     9.3498     9.3496  -999.2500  -999.2500  -999.2500  -999.2500   105.2410
  752.0000   -32.2627   -85.0922     9.4492     9.2727     9.4181  -999.2500  -999.2500  -999.2500  -999.2500   103.7627
  752.5000   -32.4111   -84.7132     9.2464     9.0149     9.1491  -999.2500  -999.2500  -999.2500  -999.2500   102.8806
  753.0000   -32.7155   -92.2049     8.7909     8.7571     8.8243  -999.2500  -999.2500  -999.2500  -999.2500   104.1295
  753.5000   -33.0198   -91.7312     8.6645     8.6929     8.6345  -999.2500  -999.2500  -999.2500  -999.2500   105.0681
  754.0000   -32.9859   -99.1446     8.9816     8.9446     8.8856  -999.2500  -999.2500  -999.2500  -999.2500   105.1281
  754.5000   -33.1481   -98.7492     9.2437     9.1385     9.2101  -999.2500  -999.2500  -999.2500  -999.2500   104.2206
  755.0000   -33.5861   -98.3671     9.3101     9.2691     9.3424  -999.2500  -999.2500  -999.2500  -999.2500   102.3667
  755.5000   -33.5755   -97.9782     9.3092     9.2002     9.3411  -999.2500  -999.2500  -999.2500  -999.2500   100.6738
  756.0000   -33.5649   -97.5174     9.3086     9.0667     9.2724  -999.2500  -999.2500  -999.2500  -999.2500   102.5188
  756.5000   -33.3983   -97.1384     9.3079     9.1395     9.3385  -999.2500  -999.2500  -999.2500  -999.2500   105.8743
  757.0000   -33.3877   -96.7594     9.3746     9.2608     9.4047  -999.2500  -999.2500  -999.2500  -999.2500   107.1151
  757.5000   -33.2211   -88.6043     9.3739     9.3253     9.4030  -999.2500  -999.2500  -999.2500  -999.2500   107.1474
  758.0000   -32.8985   -80.4177     9.3733     9.3233     9.3342  -999.2500  -999.2500  -999.2500  -999.2500   104.4607
  758.5000   -32.7166   -80.0702     9.3725     9.3214     9.3329  -999.2500  -999.2500  -999.2500  -999.2500   100.8677
  759.0000   -32.2507   -79.6912     9.3045     9.3194     9.3316  -999.2500  -999.2500  -999.2500  -999.2500    98.7734
  759.5000   -32.0841   -79.3123     9.3039     9.2506     9.1969  -999.2500  -999.2500  -999.2500  -999.2500    96.9598
  760.0000   -32.0735   -78.9268     9.2364     8.9861     8.9988  -999.2500  -999.2500  -999.2500  -999.2500    93.7219
  760.5000   -32.2189   -78.5380     8.7814     8.1758     8.8052  -999.2500  -999.2500  -999.2500  -999.2500    92.8398
  761.0000   -32.5203   -78.0804     8.0533     7.8247     8.5540  -999.2500  -999.2500  -999.2500  -999.2500    95.9014
  761.5000   -32.8221   -77.7014     7.7119     7.8882     8.4305  -999.2500  -999.2500  -999.2500  -999.2500   100.4654
  762.0000   -33.1232   -77.3224     7.7702     8.0010     8.3088  -999.2500  -999.2500  -999.2500  -999.2500   101.4041
  762.5000   -33.4246   -76.9434     7.8889     8.1153     8.2481  -999.2500  -999.2500  -999.2500  -999.2500   101.2844
  763.0000   -33.7233   -76.5644     8.0510     8.1727     8.2469  -999.2500  -999.2500  -999.2500  -999.2500   105.0941
  763.5000   -33.8714   -76.1854     8.1674     8.2300     8.3054  -999.2500  -999.2500  -999.2500  -999.2500   108.1663
  764.0000   -33.7021   -75.8064     8.2852     8.2874     8.3039  -999.2500  -999.2500  -999.2500  -999.2500   109.9979
  764.5000   -33.6915   -75.4274     8.2846     8.2856     8.3630  -999.2500  -999.2500  -999.2500  -999.2500   107.0091
  765.0000   -33.6810   -75.0389     8.2840     8.2839     8.3616  -999.2500  -999.2500  -999.2500  -999.2500   101.9055
  765.5000   -33.5144   -74.5746     8.3434     8.3420     8.4211  -999.2500  -999.2500  -999.2500  -999.2500   101.1467
  766.0000   -33.5038   -74.1956     8.4031     8.4005     8.4197  -999.2500  -999.2500  -999.2500  -999.2500   104.9913
  766.5000   -33.6492   -73.8166     8.4633     8.5206     8.5406  -999.2500  -999.2500  -999.2500  -999.2500   108.0674
  767.0000   -33.6359   -73.4376     8.5239     8.5803     8.6011  -999.2500  -999.2500  -999.2500  -999.2500   106.2724
  767.5000   -33.6253   -73.0586     8.6471     8.6405     8.7247  -999.2500  -999.2500  -999.2500  -999.2500   101.1688
  768.0000   -33.4587   -72.6795     8.6463     8.6383     8.7232  -999.2500  -999.2500  -999.2500  -999.2500    99.9846
  768.5000   -33.2921   -72.3005     8.5836     8.5745     8.6594  -999.2500  -999.2500  -999.2500  -999.2500   103.0461
  769.0000   -33.2815   -79.7045     8.4602     8.3895     8.5960  -999.2500  -999.2500  -999.2500  -999.2500   107.3080
  769.5000   -33.2710   -79.3156     8.3989     8.2678     8.4719  -999.2500  -999.2500  -999.2500  -999.2500   111.8721
  770.0000   -33.4164   -78.9269     8.3983     8.2656     8.4708  -999.2500  -999.2500  -999.2500  -999.2500   114.3213
  770.5000   -33.5618   -86.3366     8.3977     8.3842     8.4696  -999.2500  -999.2500  -999.2500  -999.2500   111.3325
  771.0000   -33.8605   -85.8628     8.5248     8.5650     8.4684  -999.2500  -999.2500  -999.2500  -999.2500   106.9942
  771.5000   -34.0060   -85.4838     8.7675     8.7502     8.5900  -999.2500  -999.2500  -999.2500  -999.2500   102.3418
  772.0000   -33.8394   -85.1048     8.9585     8.8758     8.7761  -999.2500  -999.2500  -999.2500  -999.2500    99.6550
  772.5000   -33.8288   -84.7258     9.0227     9.0672     8.9665  -999.2500  -999.2500  -999.2500  -999.2500    99.0751
  773.0000   -33.6622   -84.3468     9.0219     9.0653     9.0953  -999.2500  -999.2500  -999.2500  -999.2500   100.3239
  773.5000   -33.4956   -83.9677     9.0213     8.9338     9.2263  -999.2500  -999.2500  -999.2500  -999.2500   104.2837
  774.0000   -33.3290   -83.5887     8.8916     8.7974     9.2247  -999.2500  -999.2500  -999.2500  -999.2500   107.9414
  774.5000   -33.1623   -90.9858     8.8909     8.6761     9.0263  -999.2500  -999.2500  -999.2500  -999.2500   109.2156
  775.0000   -33.1513   -90.5910     8.8265     8.6120     8.8321  -999.2500  -999.2500  -999.2500  -999.2500   106.7976
  775.5000   -33.1385   -90.1330     8.7553     8.6102     8.7046  -999.2500  -999.2500  -999.2500  -999.2500   105.9182
  776.0000   -33.1279   -89.7540     8.4516     8.6711     8.6407  -999.2500  -999.2500  -999.2500  -999.2500   109.5839
  776.5000   -33.2733   -97.2458     8.5123     8.6066     8.6394  -999.2500  -999.2500  -999.2500  -999.2500   113.5478
  777.0000   -33.5774   -96.7720     8.5733     8.6048     8.6382  -999.2500  -999.2500  -999.2500  -999.2500   115.0876
  777.5000   -34.0322   -96.3930     8.5110     8.5412     8.6370  -999.2500  -999.2500  -999.2500  -999.2500   110.2932
  778.0000   -34.4896   -96.0140     8.3886     8.4173     8.6358  -999.2500  -999.2500  -999.2500  -999.2500   102.7727
