~VERSION INFORMATION
 VERS.                2.0:   CWLS LOG ASCII STANDARD - VERSION 2.0
 WRAP.                 NO:   ONE LINE PER DEPTH STEP
~WELL INFORMATION
#MNEM.UNIT      DATA TYPE    INFORMATION
#----------   ------------   ------------------------------
 STRT.F           12.0000:   START DEPTH
 STOP.F          900.0000:   STOP DEPTH
 STEP.F            0.5000:   STEP LENGTH
 NULL.          -999.2500:   NO VALUE
 COMP. FLUOR DANIEL - NPSOR:   COMPANY
 WELL. FLUOR NPR "X" #82-34:   WELL
 FLD .              NPR 3:   FIELD
 LOC .      S34 T39N R78W:   LOCATION
 CNTY.            NATRONA:   COUNTY
 STAT.            WYOMING:   STATE
 CTRY. UNITED STATES OF AMERICA:   COUNTRY
 SRVC.      WESTERN ATLAS:   SERVICE COMPANY
 DATE.        06-SEP-1994:   LOGDATE
 API .     49025226350000:   API NUMBER
~CURVE INFORMATION
#MNEM.UNIT       API CODE    CURVE DESCRIPTION
#----------   ------------   ------------------------------
 DEPT.F                  :   
 RILD.OHMM   07 120 46 00:   INDUCTION LOG DEEP RESISTIVITY
 TENR.LBS    07 635 01 00:   TENSION
 RILM.OHMM   07 120 44 00:   INDUCTION LOG MEDIUM RESISTIVITY
 GRR .GAPI   07 310 01 00:   GAMMA RAY FROM RESISTIVITY
~PARAMETER INFORMATION
#MNEM.UNIT          VALUE    DESCRIPTION
#----------   ------------   ------------------------------
 EKB .F         5084.0000:   Kelly bushing
 EGL .F         5074.0000:   Ground level
 EDF .F         5083.0000:   Drilling floor
 EPD .F            0.0000:   Permanent datum
 TD  .F          918.0000:   Total depth
 DATE.        06-SEP-1994:   Date logged
 CLNT.            A2DTECH:   Client Code
 SL  . 990' FNL & 330' FEL:   Surface Location
 PD  .                 GL:   Permanent Datum
 DAPD.F                10:   Feet Above Permanent Datum
 DD  .F               918:   Depth driller
 DL  .F               807:   Depth logger
 BLI .F               889:   Bottom log interval
 CS1 .IN            9.625:   Casing size
 CBD1.       9.625" @ 54':   Casing driller 1
 CBL1.F                54:   Casing logger 1
 BS1 .IN             8.75:   Bit size
 BSD1.F               918:   Depth drilled with bit1
 DFT .                AIR:   Type fluid in hole
 LUN .            HL-6321:   Logging unit number
 LUL .       ROCK SPRINGS:   Logging unit location
 ENGI.           VERCIMAK:   Recorded By
 WITN.          G. STRONG:   Witnessed by
 ORIG.           5" PRINT:   Origin of data
 UWI .     49025226350000:   Unique Well ID
 DICO. A2D TECHNOLOGIES, INC.:   Digitizing Company
~OTHER INFORMATION
~A   DEPT     RILD       TENR       RILM         GRR  
# ...
  815.0000    15.6640    48.5300    15.8460    67.6530
  815.5000    15.5560    48.3900    15.9670    74.3000
  816.0000    15.4390    48.2500    16.0880    81.2770
  816.5000    15.1630    48.1100    16.2890    79.2210
  817.0000    14.8610    47.9700    16.1340    77.3630
  817.5000    14.5580    47.8300    15.6760    75.1770
  818.0000    14.2560    47.6900    15.2190    70.5900
  818.5000    13.9530    47.5510    14.7610    66.1400
  819.0000    13.6510    47.4110    14.3040    68.5870
  819.5000    13.3480    47.2710    13.8470    72.8560
  820.0000    13.0460    47.1310    13.3890    77.4320
  820.5000    12.7430    46.9910    12.6870    76.5490
  821.0000    12.4620    46.8510    12.8220    75.5110
  821.5000    12.9830    46.7110    13.1130    74.1390
  822.0000    13.4690    46.5710    13.4040    74.2790
  822.5000    13.9550    46.4310    13.6950    75.0000
  823.0000    14.3750    46.2910    13.9860    75.5550
  823.5000    14.0810    46.1510    14.2770    75.9680
  824.0000    13.8220    46.0110    14.5680    75.8190
  824.5000    13.5620    45.8710    14.3300    74.8120
  825.0000    13.3030    45.7310    13.9360    73.8280
  825.5000    13.0430    45.5910    13.5420    72.6950
  826.0000    12.7840    45.4510    13.1480    74.2160
  826.5000    12.5240    45.3110    12.7540    80.5020
  827.0000    12.2640    45.1710    12.2420    81.8780
  827.5000    12.0250    45.0310    12.2420    83.4330
  828.0000    12.0880    44.8910    12.2420    83.7370
  828.5000    12.1470    44.7510    12.3050    83.0010
  829.0000    12.2050    44.6110    12.3760    82.3660
  829.5000    12.2640    44.4710    12.4470    81.6890
  830.0000    12.3220    44.3310    12.5170    81.0630
  830.5000    12.3810    44.1910    12.5880    80.3730
  831.0000    12.4620    44.0510    12.6870    79.9200
  831.5000    12.3910    43.9110    12.6630    81.6970
  832.0000    12.2710    43.7710    12.5460    86.3170
  832.5000    12.1500    43.6310    12.4290    90.7620
  833.0000    12.0300    43.4910    12.3120    91.5710
  833.5000    11.9100    43.3510    12.1950    89.6300
  834.0000    11.7900    43.2110    12.0780    86.0520
  834.5000    11.6700    43.0710    11.9610    82.4690
  835.0000    11.5500    42.9310    11.8430    78.7330
  835.5000    11.4300    42.7910    11.7260    77.6750
  836.0000    11.3100    42.6510    11.6090    82.5910
  836.5000    11.1900    42.5110    11.4920    87.0430
  837.0000    11.0700    42.3710    11.3750    90.2180
  837.5000    10.9500    42.2310    11.2580    89.9660
  838.0000    10.8300    42.0910    11.1410    89.7370
  838.5000    10.7100    41.9510    11.0240    89.4650
  839.0000    10.5900    41.8110    10.9070    89.1830
  839.5000    10.4700    41.6710    10.7900    88.9250
  840.0000    10.3490    41.5310    10.6730    88.6670
  840.5000    10.2410    41.3910    10.6100    88.3360
  841.0000    10.2410    41.2510    10.6040    88.1500
  841.5000    10.2410    41.1110    10.5980    88.0560
  842.0000    10.2400    40.9710    10.5920    90.3000
  842.5000    10.2400    40.8310    10.5860    92.3510
  843.0000    10.2410    40.6910    10.5800    92.8300
  843.5000    10.2410    40.5520    10.5740    91.0320
  844.0000    10.2410    40.4120    10.5680    89.4500
  844.5000    10.2410    40.2720    10.5620    87.8940
  845.0000    10.2410    40.1320    10.5560    86.1790
  845.5000    10.2410    39.9920    10.5500    84.6900
  846.0000    10.2410    39.8520    10.5440    83.4070
  846.5000    10.2410    39.7120    10.5380    86.0510
  847.0000    10.2410    39.5720    10.5320    88.6720
  847.5000    10.2410    39.4320    10.5260    90.4120
  848.0000    10.2410    39.2920    10.5200    90.1530
  848.5000    10.2410    39.1520    10.5140    90.8840
  849.0000    10.2410    39.0120    10.5080    93.0380
  849.5000    10.2400    38.8720    10.5020    94.7920
  850.0000    10.2230    38.7320    10.4960    95.2820
  850.5000    10.2060    38.5920    10.4900    89.6310
  851.0000    10.1880    38.4520    10.4840    87.0690
  851.5000    10.1700    38.3120    10.4780    86.1940
  852.0000    10.1530    38.1720    10.4720    86.7810
  852.5000    10.1350    38.0320    10.4660    87.6160
  853.0000    10.1170    37.8920    10.4600    88.3870
  853.5000    10.1000    37.7520    10.4540    89.1800
  854.0000    10.0820    37.6120    10.4480    89.9720
  854.5000    10.0640    37.4720    10.4410    90.7350
  855.0000    10.0470    37.3320    10.4360    91.5450
  855.5000    10.0290    37.1920    10.4300    93.6580
  856.0000    10.0110    37.0520    10.4140    93.1200
  856.5000     9.9930    36.9120    10.3720    91.2400
  857.0000     9.9760    36.7720    10.3290    89.3840
  857.5000     9.9580    36.6320    10.2870    89.0330
  858.0000     9.9400    36.4920    10.2440    90.0120
  858.5000     9.9220    36.3520    10.2020    90.8830
  859.0000     9.9050    36.2120    10.1590    91.7420
  859.5000     9.8890    36.0720    10.1170    92.6440
  860.0000     9.8530    35.9320    10.0740    93.4900
  860.5000     9.8050    35.7920    10.0310    94.4050
  861.0000     9.7580    35.6520     9.9890    95.1250
  861.5000     9.7130    35.5120     9.9460    93.2400
  862.0000     9.6680    35.3720     9.9030    89.8700
  862.5000     9.6220    35.2320     9.8060    86.5360
  863.0000     9.5760    35.0920     9.6550    83.8030
  863.5000     9.5350    34.9520     9.5040    83.5500
  864.0000     9.3830    34.8120     9.3530    85.1670
  864.5000     9.2450    34.6720     9.2020    86.9550
  865.0000     9.1070    34.5320     9.0510    87.0780
  865.5000     8.9700    34.3920     8.9000    87.0860
  866.0000     8.8320    34.2520     8.7490    88.2400
  866.5000     8.6940    34.1120     8.5980    91.5860
  867.0000     8.5570    33.9720     8.4470    90.9110
  867.5000     8.4190    33.8320     8.2960    89.9710
  868.0000     8.2820    33.6920     8.1450    89.4830
  868.5000     8.1440    33.5520     7.9940    90.7660
  869.0000     8.0060    33.4130     7.8350    91.7450
  869.5000     7.8690    33.2730     7.3680    91.7660
  870.0000     7.3750    33.1330     6.8770    91.8000
  870.5000     6.7660    32.9930     6.3870    91.8100
  871.0000     6.1580    32.8530     5.8960    91.7500
  871.5000     5.5490    32.7130     5.4050    93.3120
  872.0000     4.9260    32.5730     4.9150    95.0210
  872.5000     4.8390    32.4330     4.4240    99.8340
  873.0000     4.7530    32.2930     4.1210   105.5690
  873.5000     4.7530    32.1530     4.1950   108.3330
  874.0000     4.7530    32.0130     4.4710   105.8370
  874.5000     5.1690    31.8730     4.7260   103.6970
  875.0000     5.5890    31.7330     4.9800   103.6310
  875.5000     6.0080    31.5930     5.2350   104.9840
  876.0000     6.4280    31.4530     5.7630  -999.2500
  876.5000     6.8470    31.3130     6.6920  -999.2500
  877.0000     7.2660    31.1730     7.6210  -999.2500
  877.5000     7.5370    31.0080     7.9900  -999.2500
  878.0000     7.7150    30.4610     8.0130  -999.2500
  878.5000     7.8930    29.7950     8.0350  -999.2500
  879.0000     8.0710    29.1280     8.0580  -999.2500
  879.5000     8.2490    28.4620     8.0800  -999.2500
  880.0000     8.4270    27.7950     8.1030  -999.2500
  880.5000     8.6050    27.1290     8.1200  -999.2500
  881.0000     8.7830    26.4630     8.2110  -999.2500
  881.5000     8.9620    25.7960     8.4160  -999.2500
  882.0000     9.1400    25.1300     8.6210  -999.2500
  882.5000     9.3660    24.4640     8.8260  -999.2500
  883.0000     9.5350    23.7970     9.0300  -999.2500
  883.5000     9.7070    23.1310     9.2350  -999.2500
  884.0000     9.8820    22.4650     9.4400  -999.2500
  884.5000  -999.2500    21.7980     9.6450  -999.2500
  885.0000  -999.2500    21.1320     9.8490  -999.2500
  885.5000  -999.2500    20.4660    10.0540  -999.2500
  886.0000  -999.2500    19.7990    10.2410  -999.2500
  886.5000  -999.2500    19.1330    12.4620  -999.2500
  887.0000  -999.2500    18.4670  -999.2500  -999.2500
  887.5000  -999.2500    17.8000  -999.2500  -999.2500
