~VERSION INFORMATION
 VERS.                2.0:   CWLS LOG ASCII STANDARD - VERSION 2.0
 WRAP.                 NO:   ONE LINE PER DEPTH STEP
~WELL INFORMATION
#MNEM.UNIT      DATA TYPE    INFORMATION
#----------   ------------   ------------------------------
 STRT.F          148.0000:   START DEPTH
 STOP.F         3394.0000:   STOP DEPTH
 STEP.F            0.5000:   STEP LENGTH
 NULL.          -999.2500:   NO VALUE
 COMP.    FENIX & SCISSON:   COMPANY
 WELL.  FENIX "AX" #28-10:   WELL
 FLD .        TEAPOT DOME:   FIELD
 LOC .      S10 T38N R78W:   LOCATION
 CNTY.            NATRONA:   COUNTY
 STAT.            WYOMING:   STATE
 CTRY. UNITED STATES OF AMERICA:   COUNTRY
 SRVC.       SCHLUMBERGER:   SERVICE COMPANY
 DATE.        03-MAR-1981:   LOGDATE
 API .     49025108680000:   API NUMBER
~CURVE INFORMATION
#MNEM.UNIT       API CODE    CURVE DESCRIPTION
#----------   ------------   ------------------------------
 DEPT.F                  :   
 SFL .OHMM   07 220 01 00:   SHALLOW FOCUSED LOG RESISTIVITY
 ILD .OHMM   07 120 46 00:   INDUCTION LOG DEEP RESISTIVITY
 ILM .OHMM   07 120 44 00:   INDUCTION LOG MEDIUM RESISTIVITY
 TENR.LBS    07 635 01 00:   TENSION
 SPR .MV     07 010 01 00:   SPONTANEOUS POTENTIAL
 CALD.IN     45 280 60 00:   CALIPER FROM DENSITY LOG
 GRD .GAPI   45 310 01 00:   GAMMA RAY FROM DENSITY LOG
 TEND.LBS    45 635 01 00:   TENSION FROM DENSITY LOG
 CORR.G/C3   45 356 01 00:   DENSITY CORRECTION
 RHOB.G/C3   45 350 01 00:   BULK DENSITY
~PARAMETER INFORMATION
#MNEM.UNIT          VALUE    DESCRIPTION
#----------   ------------   ------------------------------
 EKB .F         5241.0000:   Kelly bushing
 EGL .F         5231.0000:   Ground level
 EDF .F            0.0000:   Drilling floor
 TD  .F         3381.0000:   Total depth
 DATE.        03-MAR-1981:   Date logged
 CLNT.            A2DTECH:   Client Code
 SL  . 640' FSL & 720' FWL:   Surface Location
 PD  .                 GL:   Permanent Datum
 EPD .F              5231:   Elevation Permanent Datum
 LMF .                 KB:   Log Measured From
 DMF .                 KB:   Drilling Measured From
 DAPD.F                10:   Feet Above Permanent Datum
 DD  .F              3361:   Depth driller
 DL  .F              3381:   Depth logger
 BLI .F              3375:   Bottom log interval
 TLI .F               233:   Top log interval
 CS1 .IN            8.625:   Casing size
 CBD1.      8.625" @ 224':   Casing driller 1
 CBL1.F               233:   Casing logger 1
 BS1 .IN            7.875:   Bit size
 BSD1.F              3361:   Depth drilled with bit1
 DFT .           CHEM/GEL:   Type fluid in hole
 DFD .                  9:   Density
 DFV .                 40:   Viscosity
 DFPH.                8.5:   pH
 DFL .                 11:   Fluid loss
 MSS .           MUD/TANK:   Source of sample
 RMS .OHMM           2.52:   Rm
 MST .F                66:   Rm Meas. temp.
 RMF .OHMM            1.8:   Rmf
 MFST.F                67:   Rmf Meas. temp.
 MFSS.               MEAS:   Source Rmf.
 RMB .OHMM           1.47:   Rm. at BHT
 BHT .F               118:   BHT.
 TCS .HRS            0500:   Time Circ. stopped
 TLAB.HRS            0830:   Time logger at bottom
 MRT .F               118:   Maximum recorded temp.
 LUN .               8035:   Logging unit number
 LUL .               CSPR:   Logging unit location
 ENGI.            BEATTLE:   Recorded By
 WITN.              FIVAS:   Witnessed by
 ORIG.           5" PRINT:   Origin of data
 UWI .     49025108680000:   Unique Well ID
 DICO. A2D TECHNOLOGIES, INC.:   Digitizing Company
~OTHER INFORMATION
~A   DEPT      SFL        ILD        ILM       TENR        SPR         CALD       GRD      TEND       CORR       RHOB   
# ...
 2091.0000     7.6270     5.2600     6.1340   511.6330   -39.0670     8.4290   129.5980   592.3690     0.0200     2.5420
 2091.5000     6.1560     4.5840     5.5570   511.4410   -39.0690     8.4250   131.8820   592.3690     0.0280     2.5260
 2092.0000     4.4670     3.8150     4.9810   511.2500   -39.0750     8.4220   132.3680   592.3690     0.0400     2.4870
 2092.5000     2.8810     3.8150     4.4040   511.0590   -39.0500     8.4190   127.8630   592.3690     0.0470     2.4100
 2093.0000     3.3890     3.8550     3.7440   510.8670   -39.2440     8.4160   123.6100   592.3690     0.0280     2.4160
 2093.5000     4.9380     4.2870     4.3910   510.6760   -39.5420     8.4130   120.7650   592.3690     0.0120     2.4600
 2094.0000     6.4880     4.7190     5.1460   510.4850   -39.8520     8.4100   122.8520   592.3690     0.0080     2.4990
 2094.5000     7.6270     5.1510     5.8680   510.2940   -39.7930     8.4070   126.7670   592.3690     0.0120     2.5320
 2095.0000     8.8590     5.6530     6.1270   510.1020   -39.7070     8.4040   131.0090   592.3690     0.0100     2.5390
 2095.5000     9.0260     6.1180     6.5300   509.9110   -39.6020     8.4010   131.6480   592.3690     0.0050     2.5320
 2096.0000     9.0260     6.6720     6.9320   509.7200   -39.5100     8.3970   129.9110   592.3690     0.0010     2.5240
 2096.5000     9.0260     7.2100     7.3350   509.5280   -39.4130     8.3940   128.1720   592.3690     0.0030     2.5180
 2097.0000     9.0260     7.6270     7.4850   509.3370   -39.3170     8.3910   126.7400   592.3690     0.0060     2.5290
 2097.5000     9.0260     7.4850     7.6500   509.1460   -39.2220     8.3890   125.9250   592.3690     0.0080     2.5390
 2098.0000     9.0380     7.5340     7.7040   508.9540   -39.1220     8.3790   126.7860   592.3690     0.0120     2.5360
 2098.5000     9.0910     7.5830     7.7590   508.7630   -39.0550     8.3690   128.0100   592.3690     0.0170     2.5420
 2099.0000     9.1440     7.6310     7.8140   508.5720   -39.1620     8.3590   126.5070   592.3690     0.0210     2.5490
 2099.5000     9.1970     7.6790     7.8690   508.3800   -39.3410     8.3510   123.3830   592.3690     0.0260     2.5520
 2100.0000     9.5540     7.7270     7.9240   508.1890   -39.5060     8.3700   120.1210   592.3690     0.0140     2.5470
 2100.5000     9.9120     7.7750     7.9780   507.9980   -39.6740     8.3890   118.1580   592.3690     0.0030     2.5430
 2101.0000     9.9120     7.8230     8.0330   507.8060   -39.8410     8.4090   118.5840   592.3690     0.0070     2.5450
 2101.5000     9.9120     7.8720     8.0670   507.6150   -40.0070     8.4280   121.3150   592.3690     0.0100     2.5520
 2102.0000     9.9120     7.9200     8.0820   507.4240   -40.1870     8.4230   123.8170   592.3690     0.0120     2.5600
 2102.5000    10.0670     7.9670     8.0970   507.2320   -40.3030     8.4170   125.3110   592.3690     0.0150     2.5630
 2103.0000    10.2700     8.0150     8.1120   507.0410   -40.3200     8.4100   125.3260   592.3690     0.0130     2.5610
 2103.5000    10.4840     8.0660     8.1280   506.8500   -40.3510     8.4030   127.0770   592.3690     0.0110     2.5600
 2104.0000    10.4840     8.0850     8.1420   506.6580   -40.3800     8.3970   130.5970   592.3690     0.0130     2.5580
 2104.5000    10.4280     8.1200     8.1570   506.4670   -40.4080     8.3900   134.3950   592.3690     0.0170     2.5600
 2105.0000    10.2570     8.1550     8.1740   506.2760   -40.4370     8.3900   137.5760   592.3690     0.0210     2.5670
 2105.5000    10.0870     8.1900     8.1880   506.0850   -40.4660     8.3890   137.3540   592.3690     0.0240     2.5720
 2106.0000     9.9160     8.2250     8.1970   505.8930   -40.4950     8.3900   136.1650   592.3690     0.0280     2.5780
 2106.5000     9.7280     8.2590     8.2240   505.7020   -40.5230     8.3900   133.8670   592.3690     0.0270     2.5730
 2107.0000     9.7280     8.2940     8.2080   505.5110   -40.5520     8.3900   131.7440   592.3690     0.0180     2.5600
 2107.5000     9.9980     8.3290     8.3610   505.3190   -40.5810     8.3900   129.5800   592.3690     0.0110     2.5470
 2108.0000    10.3930     8.3630     8.3050   505.1280   -40.6090     8.3900   127.7040   592.3690     0.0040     2.5450
 2108.5000    10.6820     8.3750     8.2540   504.9370   -40.6380     8.3900   127.6830   592.3690     0.0110     2.5500
 2109.0000    10.6820     8.2940     8.2060   504.7450   -40.6670     8.3900   129.4660   592.3690     0.0180     2.5600
 2109.5000    10.4180     8.2000     8.1610   504.5540   -40.6880     8.3900   131.7710   592.3690     0.0260     2.5650
 2110.0000    10.1520     8.1070     8.1170   504.3630   -40.6900     8.3900   133.8890   592.3690     0.0270     2.5640
 2110.5000     9.8860     8.0130     8.0720   504.1710   -40.7230     8.3900   136.4150   592.3690     0.0210     2.5620
 2111.0000     9.6190     7.9200     8.0260   503.9800   -40.7540     8.3900   135.6840   592.3690     0.0160     2.5610
 2111.5000     9.3530     7.8260     7.9810   503.7890   -40.7870     8.3900   133.5630   592.3690     0.0140     2.5600
 2112.0000     9.1680     7.7710     7.9350   503.5970   -40.8190     8.3900   131.3250   592.3690     0.0140     2.5540
 2112.5000     9.0970     7.7880     7.9170   503.4060   -40.8510     8.3890   131.0400   592.3690     0.0070     2.5390
 2113.0000     9.0260     7.8160     7.9170   503.2150   -40.8840     8.3900   132.6840   592.3690     0.0030     2.5250
 2113.5000     9.1970     7.8440     7.9180   503.0230   -40.9160     8.3890   135.3310   592.3690     0.0010     2.5180
 2114.0000     9.7320     7.8720     7.9190   502.8320   -40.9490     8.3890   135.6760   592.3690     0.0060     2.5250
 2114.5000    10.2000     7.9180     7.9180   502.6410   -40.9810     8.3780   132.7510   592.3690     0.0100     2.5390
 2115.0000    10.0300     7.8900     7.9180   502.4500   -41.0130     8.3660   130.0780   592.3690     0.0100     2.5350
 2115.5000     9.6910     7.8150     7.9180   502.2580   -41.0460     8.3540   128.1340   592.3690     0.0060     2.5300
 2116.0000     9.3520     7.7390     7.9180   502.0670   -41.0790     8.3420   125.9800   592.3690     0.0020     2.5270
 2116.5000     9.0370     7.6640     7.7710   501.8760   -41.0940     8.3300   125.6200   592.3690     0.0010     2.5310
 2117.0000     9.0610     7.5890     7.5600   501.6840   -41.0950     8.3180   126.4530   592.3690     0.0030     2.5330
 2117.5000     9.1080     7.5130     7.4680   501.4930   -41.0680     8.3060   128.9760   592.3690     0.0050     2.5300
 2118.0000     9.1550     7.4380     7.3770   501.3020   -41.0120     8.2940   133.1080   592.3690     0.0080     2.5290
 2118.5000     9.1970     7.3630     7.2860   501.1100   -40.9590     8.2820   137.1700   592.3690     0.0120     2.5290
 2119.0000     8.9900     7.2870     7.1940   500.9190   -40.9070     8.2700   138.3330   592.3690     0.0230     2.5350
 2119.5000     8.8040     7.2120     7.1030   500.7280   -40.8550     8.2630   137.9180   592.3690     0.0290     2.5390
 2120.0000     8.6170     7.1370     7.0120   500.5360   -40.7990     8.2560   138.2100   592.3690     0.0320     2.5340
 2120.5000     8.4300     7.0610     6.9200   500.3450   -40.7510     8.2500   139.9610   592.3690     0.0290     2.5270
 2121.0000     8.2430     6.9860     6.8160   500.1540   -40.6920     8.2430   141.5850   592.3690     0.0190     2.5180
 2121.5000     8.0670     6.8010     6.9150   499.9620   -40.6830     8.2370   143.3860   592.3690     0.0100     2.5050
 2122.0000     7.4790     6.6300     7.0490   499.7710   -40.7980     8.2300   145.1700   592.3690     0.0000     2.4940
 2122.5000     6.9450     6.8860     6.9450   499.5800   -41.2270     8.2290   145.9660   592.3690     0.0020     2.5020
 2123.0000     8.3230     7.1430     7.2350   499.3880   -41.6720     8.2330   141.9360   592.3690     0.0090     2.5140
 2123.5000     9.6470     7.3990     7.5130   499.1970   -41.9880     8.2370   138.3040   592.3690     0.0160     2.5240
 2124.0000    10.6820     7.6550     7.7910   499.0060   -42.1250     8.2410   133.8580   592.3690     0.0200     2.5250
