~VERSION INFORMATION
 VERS.                2.0:   CWLS LOG ASCII STANDARD - VERSION 2.0
 WRAP.                 NO:   ONE LINE PER DEPTH STEP
~WELL INFORMATION
#MNEM.UNIT      DATA TYPE    INFORMATION
#----------   ------------   ------------------------------
 STRT.F           40.0000:   START DEPTH
 STOP.F         1336.0000:   STOP DEPTH
 STEP.F            0.5000:   STEP LENGTH
 NULL.          -999.2500:   NO VALUE
 COMP. LAWRENCE - ALLISON WEST:   COMPANY
 WELL. LAWRENCE NPR 3 "AX" #54-23:   WELL
 FLD .              N P R:   FIELD
 LOC .      S23 T38N R78W:   LOCATION
 CNTY.            NATRONA:   COUNTY
 STAT.            WYOMING:   STATE
 CTRY. UNITED STATES OF AMERICA:   COUNTRY
 SRVC.       SCHLUMBERGER:   SERVICE COMPANY
 DATE.        13-MAY-1982:   LOGDATE
 API .     49025108880000:   API NUMBER
~CURVE INFORMATION
#MNEM.UNIT       API CODE    CURVE DESCRIPTION
#----------   ------------   ------------------------------
 DEPT.F                  :   
 NPOR.DEC    42 890 03 00:   ALPHA PROCESSED NEUTRON POROSITY
 TEND.LBS    45 635 01 00:   TENSION FROM DENSITY LOG
 CORR.G/C3   45 356 01 00:   DENSITY CORRECTION
 RHOB.G/C3   45 350 01 00:   BULK DENSITY
 GRD .GAPI   45 310 01 00:   GAMMA RAY FROM DENSITY LOG
 CALD.IN     45 280 60 00:   CALIPER FROM DENSITY LOG
 SPR .MV     07 010 01 00:   SPONTANEOUS POTENTIAL
 TENR.LBS    07 635 01 00:   TENSION
 ILD .OHMM   07 120 46 00:   DEEP INDUCTION RESISTIVITY
 ILM .OHMM   07 120 44 00:   INDUCTION LOG MEDIUM RESISTIVITY
 SFL .OHMM   07 220 01 00:   SHALLOW FOCUSED LOG RESISTIVITY
~PARAMETER INFORMATION
#MNEM.UNIT          VALUE    DESCRIPTION
#----------   ------------   ------------------------------
 EKB .F         5342.0000:   Kelly bushing
 EGL .F         5332.0000:   Ground level
 EDF .F            0.0000:   Drilling floor
 TD  .F         1325.0000:   Total depth
 DATE.        13-MAY-1982:   Date logged
 CLNT.            A2DTECH:   Client Code
 SL  . 2278' FSL & 2665' FWL:   Surface Location
 PD  .                 GL:   Permanent Datum
 DD  .F              1325:   Depth driller
 DL  .F              1314:   Depth logger
 BLI .F              1308:   Bottom log interval
 CS1 .IN             15.5:   Casing size
 CBD1.        15.5" @ 40':   Casing driller 1
 CBL1.F                54:   Casing logger 1
 BS1 .IN            12.25:   Bit size
 DFT .             LT/GEL:   Type fluid in hole
 DFD .                8.9:   Density
 DFV .                 33:   Viscosity
 DFPH.                8.8:   pH
 DFL .                 16:   Fluid loss
 MSS .                PIT:   Source of sample
 RMS .OHMM           2.47:   Rm
 MST .F                61:   Rm Meas. temp.
 RMF .OHMM           2.12:   Rmf
 MFST.F                62:   Rmf Meas. temp.
 MFSS.               MEAS:   Source Rmf.
 RMB .OHMM           1.73:   Rm. at BHT
 BHT .F                87:   BHT.
 TCS .HRS            2300:   Time Circ. stopped
 MRT .F                87:   Maximum recorded temp.
 LUN .               8043:   Logging unit number
 LUL .               CSPR:   Logging unit location
 ENGI.        WAGNER/CSPR:   Recorded By
 WITN.           JENNINGS:   Witnessed by
 ORIG.           5" PRINT:   Origin of data
 UWI .     49025108880000:   Unique Well ID
 DICO. A2D TECHNOLOGIES, INC.:   Digitizing Company
 BSD1.F              1325:   Depth drilled with bit1
 EPD .F              5332:   Elevation Permanent Datum
 LMF .                 KB:   Log Measured From
 DMF .                 KB:   Drilling Measured From
 TLI .F                54:   Top log interval
 DAPD.F                10:   Feet Above Permanent Datum
~OTHER INFORMATION
~A   DEPT     NPOR       TEND       CORR       RHOB        GRD       CALD        SPR       TENR        ILD        ILM        SFL   
# ...
  863.5000     0.1560   240.3490     0.0370     2.4580   152.8910    12.5700   -22.7220    72.4920     7.5090     6.9500     7.2130
  864.0000     0.1530   240.9360     0.0280     2.4490   152.3710    12.5680   -24.3640    72.0810     7.5430     7.0080     7.2460
  864.5000     0.1510   241.5220     0.0320     2.4450   149.5950    12.5660   -23.1980    71.6700     7.5760     7.0680     7.2900
  865.0000     0.1530   242.1090     0.0370     2.4420   146.8470    12.5640   -21.5810    71.2600     7.6100     7.1270     7.3340
  865.5000     0.1580   242.6960     0.0350     2.4360   144.7520    12.5620   -19.9690    70.8490     7.6470     7.1870     7.3770
  866.0000     0.1660   243.2820     0.0250     2.4270   143.5900    12.5590   -19.9550    70.4380     7.6360     7.2470     7.4210
  866.5000     0.1660   243.8900     0.0200     2.4190   142.4940    12.5570   -21.6810    70.0280     7.6120     7.3070     7.4640
  867.0000     0.1590   242.9200     0.0190     2.4100   143.2270    12.5410   -23.5800    69.6170     7.5880     7.3700     7.5110
  867.5000     0.1530   241.9130     0.0190     2.4020   145.2460    12.5170   -23.6450    69.2070     7.5640     7.3110     7.4170
  868.0000     0.1470   240.9070     0.0190     2.4000   147.0650    12.4960   -21.3720    68.7960     7.5400     7.2470     7.3180
  868.5000     0.1450   239.9010     0.0240     2.4220   146.3590    12.5190   -20.1570    68.3850     7.5170     7.1840     7.2330
  869.0000     0.1480   238.8940     0.0330     2.4410   145.2550    12.5430   -20.0860    67.9750     7.5030     7.1200     7.1980
  869.5000     0.1560   237.8880     0.0420     2.4600   144.1600    12.5660   -21.6810    67.5640     7.4920     7.0560     7.1670
  870.0000     0.1630   236.8820     0.0520     2.4780   143.0620    12.5900   -24.6580    67.1530     7.4810     6.9930     7.1360
  870.5000     0.1680   235.8750     0.0530     2.4900   142.4330    12.5970   -25.9220    66.9730     7.4710     6.9650     7.1060
  871.0000     0.1690   234.8690     0.0400     2.4780   144.0560    12.5980   -24.6770    66.9730     7.4600     6.9650     7.0980
  871.5000     0.1610   233.8620     0.0230     2.4600   146.3870    12.5980   -23.8120    66.9730     7.4490     6.9660     7.0980
  872.0000     0.1510   232.8560     0.0040     2.4430   147.6210    12.5980   -22.9530    66.9730     7.4390     6.9660     7.0980
  872.5000     0.1460   231.8500    -0.0020     2.4350   143.1490    12.5980   -22.9440    66.9730     7.4280     6.9660     7.0980
  873.0000     0.1490   230.8430     0.0010     2.4430   139.9990    12.5980   -23.0950    66.9730     7.4170     6.9660     7.0980
  873.5000     0.1560   229.8370     0.0070     2.4520   138.3660    12.5980   -25.0490    66.9730     7.4070     6.9660     7.0980
  874.0000     0.1620   228.8310     0.0110     2.4650   138.1870    12.5980   -25.5260    66.9730     7.3960     6.9650     7.0980
  874.5000     0.1620   227.8240     0.0150     2.4760   138.7420    12.5980   -23.7430    66.9730     7.3850     6.9650     7.0980
  875.0000     0.1590   226.8180     0.0170     2.4850   139.5750    12.5980   -21.9290    66.9730     7.3750     6.9650     7.0980
  875.5000     0.1570   225.8120     0.0150     2.4860   141.0450    12.6020   -22.1920    66.9730     7.3620     6.9660     7.0980
  876.0000     0.1580   224.8050     0.0080     2.4800   143.2870    12.6060   -24.2000    66.9730     7.3450     6.9650     7.0980
  876.5000     0.1560   223.7990    -0.0020     2.4700   146.2670    12.6100   -25.7810    66.9730     7.3290     6.9650     7.0980
  877.0000     0.1490   222.7930     0.0010     2.4740   148.2150    12.6140   -24.9980    66.9730     7.3140     6.9440     7.0980
  877.5000     0.1450   221.7860     0.0040     2.4780   149.2300    12.6180   -23.8730    66.9730     7.2980     6.9170     7.0980
  878.0000     0.1490   220.7800     0.0060     2.4690   151.3180    12.6190   -22.6650    66.9730     7.2830     6.8900     7.0980
  878.5000     0.1600   219.7740     0.0030     2.4590   153.8490    12.6200   -22.7410    66.9730     7.2670     6.8630     7.0980
  879.0000     0.1690   218.7670    -0.0010     2.4620   152.5420    12.6210   -23.2960    66.9730     7.2510     6.8360     7.0990
  879.5000     0.1660   217.7610    -0.0020     2.4700   148.7660    12.6220   -24.8600    66.9730     7.2330     6.8090     7.0880
  880.0000     0.1580   216.7550     0.0000     2.4770   147.3730    12.6230   -26.0110    66.9730     7.1950     6.7820     7.0690
  880.5000     0.1390   215.7480     0.0020     2.4760   145.9980    12.6240   -24.8660    66.9730     7.1500     6.7550     7.0510
  881.0000     0.1420   214.7420     0.0080     2.4780   147.6550    12.6250   -23.4450    66.9730     7.1040     6.7280     7.0340
  881.5000     0.1460   213.7350     0.0130     2.4840   151.6960    12.6260   -23.4860    66.9730     7.0590     6.7010     7.0170
  882.0000     0.1510   212.7290     0.0190     2.4950   154.9720    12.6280   -24.2650    66.9730     7.0140     6.6720     6.9990
  882.5000     0.1470   211.7230     0.0230     2.5090   155.3630    12.6290   -25.3260    66.9730     6.9680     6.6440     6.9820
  883.0000     0.1400   210.7160     0.0200     2.5110   154.3490    12.6300   -26.7480    66.9730     6.9230     6.6150     6.9650
  883.5000     0.1380   209.7100     0.0150     2.4970   152.5120    12.6310   -26.9290    66.9730     6.8780     6.5830     6.7800
  884.0000     0.1470   208.7040     0.0100     2.4870   149.7240    12.6320   -25.9660    66.9730     6.8360     6.3640     6.6050
  884.5000     0.1610   207.6970     0.0060     2.4780   147.4780    12.6330   -23.7210    66.9730     6.6210     6.1120     6.4310
  885.0000     0.1660   206.6910     0.0020     2.4720   148.7170    12.6340   -22.9800    66.9730     6.4210     5.8790     6.2540
  885.5000     0.1700   205.6850     0.0040     2.4660   152.2440    12.6350   -23.2260    66.9730     6.2210     5.7340     6.0750
  886.0000     0.1780   204.6780     0.0070     2.4590   157.4180    12.6360   -24.6500    66.9730     6.0210     5.5560     5.8960
  886.5000     0.1880   203.6720     0.0070     2.4520   158.1620    12.6370   -25.9200    66.9730     5.8790     5.5670     5.7700
  887.0000     0.1940   203.3350     0.0040     2.4450   156.0610    12.6380   -24.2560    66.9730     5.9880     5.6050     5.7700
  887.5000     0.1950   203.6990    -0.0010     2.4390   153.3450    12.6390   -23.3420    66.9730     6.1090     5.6430     5.9730
  888.0000     0.1790   204.0630    -0.0020     2.4410   155.0140    12.6390   -22.5830    66.9730     6.2310     5.7680     6.1590
  888.5000     0.1710   204.4270    -0.0020     2.4550   154.6910    12.6390   -22.9110    66.9730     6.3520     5.9780     6.3440
  889.0000     0.1610   204.7910    -0.0010     2.4690   150.2480    12.6390   -23.2990    66.9730     6.4600     6.1880     6.5300
  889.5000     0.1510   205.1550     0.0000     2.4780   146.5450    12.6390   -24.4210    66.9730     6.6700     6.3980     6.8130
  890.0000     0.1470   205.5190     0.0010     2.4790   144.1310    12.6390   -24.5540    66.9730     6.8360     6.5830     7.0980
  890.5000     0.1460   205.8840     0.0030     2.4800   143.6480    12.6390   -23.8580    66.9730     6.7980     6.5250     6.9370
  891.0000     0.1540   206.2480     0.0040     2.4810   143.1720    12.6390   -22.5350    66.9730     6.7460     6.4740     6.7930
  891.5000     0.1600   206.6120     0.0050     2.4810   142.4380    12.6390   -22.0950    66.9730     6.6940     6.4060     6.6500
  892.0000     0.1640   206.9760     0.0060     2.4800   142.1020    12.6390   -22.5910    66.9730     6.6420     6.3330     6.5830
  892.5000     0.1600   207.3400     0.0050     2.4750   143.4290    12.6390   -23.6220    66.9730     6.5910     6.2590     6.5830
  893.0000     0.1550   207.7040     0.0000     2.4650   144.7350    12.6390   -24.5390    66.9730     6.5390     6.1860     6.5090
  893.5000     0.1520   208.0690    -0.0040     2.4540   143.9050    12.6400   -24.8810    66.9730     6.4870     6.1120     6.3730
