~VERSION INFORMATION
 VERS.                2.0:   CWLS LOG ASCII STANDARD - VERSION 2.0
 WRAP.                 NO:   ONE LINE PER DEPTH STEP
~WELL INFORMATION
#MNEM.UNIT      DATA TYPE    INFORMATION
#----------   ------------   ------------------------------
 STRT.F           60.0000:   START DEPTH
 STOP.F         5768.0000:   STOP DEPTH
 STEP.F            0.5000:   STEP LENGTH
 NULL.          -999.2500:   NO VALUE
 COMP.              RMOTC:   COMPANY
 WELL. RMOTC NPR-3 61 "X" #2-15:   WELL
 FLD .            N P R-3:   FIELD
 LOC .      S15 T38N R78W:   LOCATION
 CNTY.            NATRONA:   COUNTY
 STAT.            WYOMING:   STATE
 CTRY. UNITED STATES OF AMERICA:   COUNTRY
 SRVC.       SCHLUMBERGER:   SERVICE COMPANY
 DATE.        07-JAN-2002:   LOGDATE
 API .     49025230310000:   API NUMBER
~CURVE INFORMATION
#MNEM.UNIT       API CODE    CURVE DESCRIPTION
#----------   ------------   ------------------------------
 DEPT.F                  :   
 CALD.IN     45 280 60 00:   CALIPER FROM DENSITY LOG
 TEND.LBS    45 635 01 00:   TENSION FROM DENSITY LOG
 PEFZ.B/E    45 358 01 00:   HILT PHOTOELECTRIC FACTOR
 RHOZ.G/C3   45 350 01 00:   HILT BULK DENSITY
 NPOR.DEC    42 890 03 00:   ALPHA PROCESSED NEUTRON POROSITY
 HDRA.G/C3   45 356 01 00:   DELTA RHO HIP TOOL
 GRS .GAPI   60 310 01 00:   GAMMA RAY FROM SONIC LOG
 DTSM.US/F   61 523 00 00:   SHEAR-WAVE INTERVAL TRANSIT TIME DELTA-T
 GRR .GAPI   07 310 01 00:   GAMMA RAY FROM RESISTIVITY
 TENR.LBS    01 635 01 00:   TENSION FROM RES.
 SPR .MV     07 010 01 00:   SPONTANEOUS POTENTIAL
 HLLD.OHMM   11 220 10 00:   LATEROLOG DEEP RES.
 HLLS.OHMM   11 220 09 00:   LATEROLOG SHALLOW RES.
 HRLD.OHMM   11 220 10 00:   HIGH RESOLUTION DEEP RESISTIVITY
~PARAMETER INFORMATION
#MNEM.UNIT          VALUE    DESCRIPTION
#----------   ------------   ------------------------------
 EKB .F         5244.0000:   Kelly bushing
 EGL .F         5227.0000:   Ground level
 EDF .F         5243.0000:   Drilling floor
 EPD .F            0.0000:   Permanent datum
 TD  .F         5756.0000:   Total depth
 DATE.        07-JAN-2002:   Date logged
 CLNT.            A2DTECH:   Client Code
 SL  . 189' FNL & 1895' FEL:   Surface Location
 PD  .                 GL:   Permanent Datum
 DD  .F              5750:   Depth driller
 DL  .F              5756:   Depth logger
 BLI .F              5748:   Bottom log interval
 CS1 .IN             3054:   Casing size
 CBD1.     9.625" @ 3052':   Casing driller 1
 CBL1.F              3054:   Casing logger 1
 BS1 .IN            8.750:   Bit size
 DFT .             3% KCL:   Type fluid in hole
 DFD .                9.3:   Density
 DFV .                 42:   Viscosity
 DFPH.                  8:   pH
 DFL .                 28:   Fluid loss
 MSS .           FLOWLINE:   Source of sample
 RMS .OHMM          0.413:   Rm
 MST .F                74:   Rm Meas. temp.
 RMF .OHMM          0.305:   Rmf
 MFST.F                74:   Rmf Meas. temp.
 RMC .OHMM          0.637:   Rmc
 MCST.F                74:   Rmc Meas. temp.
 MFSS.               CALC:   Source Rmf.
 RMB .OHMM          0.187:   Rm. at BHT
 BHT .F               172:   BHT.
 TCS .HRS            0800:   Time Circ. stopped
 MRT .F               172:   Maximum recorded temp.
 LUN .               2211:   Logging unit number
 LUL .             CASPER:   Logging unit location
 ENGI.        J.L. FLORES:   Recorded By
 WITN.      MARK MILLIKEN:   Witnessed by
 ORIG.           5" PRINT:   Origin of data
 UWI .     49025230310000:   Unique Well ID
 DICO. A2D TECHNOLOGIES, INC.:   Digitizing Company
 DAPD.                 17:   Feet Above Permanent Datum
 BSD1.               5750:   Depth drilled with bit1
 MCSS.               CALC:   Source Rmc.
 LMF .                 KB:   Log Measured From
 DMF .                 KB:   Drilling Measured From
 TLI .               3054:   Top log interval
~OTHER INFORMATION
~A   DEPT     CALD       TEND       PEFZ       RHOZ       NPOR       HDRA        GRS       DTSM         GRR      TENR        SPR       HLLD       HLLS       HRLD   
# ...
 3220.5000    10.9810  2022.8060     2.5070     2.5180     0.2440     0.0060    94.8550  -999.2500   112.6300  2053.6250   -20.4620     6.3690     6.7360     6.2600
 3221.0000    11.1550  2037.7729     2.5490     2.5200     0.2440     0.0110   100.8370  -999.2500   109.4420  2131.7439   -11.2250     6.4570     6.8590     6.1320
 3221.5000    11.3310  2214.6270     2.5880     2.5260     0.2510     0.0150   103.6720  -999.2500   104.5960  2253.1169    41.9880     6.5530     6.5950     6.4560
 3222.0000    11.3490  2296.2229     2.6160     2.5180     0.2690     0.0240   106.5730  -999.2500   104.7010  2353.5249    41.9880     6.2960     6.0660     6.0600
 3222.5000    11.2900  2276.3420     2.6740     2.5060     0.3080     0.0590   106.2240  -999.2500   109.0400  2307.4189    32.4350     5.4410     5.5360     5.0730
 3223.0000    11.2490  2189.0259     2.7150     2.4880     0.3280     0.0650   101.7270  -999.2500   113.5100  2215.2080   -14.8390     4.6500     5.1660     4.1860
 3223.5000    11.2040  2097.4160     2.6800     2.4910     0.3070     0.0660    97.2720  -999.2500   117.2030  2122.9961   -25.1240     4.6460     5.1900     4.1780
 3224.0000    11.1800  2111.4399     2.6370     2.4970     0.3060     0.0490    94.5150  -999.2500   115.4330  2075.4719   -25.7250     4.9840     5.3380     4.3820
 3224.5000    11.1590  2147.8040     2.5960     2.5020     0.2580     0.0200    96.9380  -999.2500   111.1510  2116.7209   -26.0840     5.3220     5.5170     5.1010
 3225.0000    11.1410  2176.9380     2.5890     2.5090     0.2520     0.0100   100.6780  -999.2500   106.2750  2162.5540   -26.0840     5.5490     5.7130     5.5580
 3225.5000    11.1020  2150.0330     2.5820     2.5160     0.2560     0.0040   103.0470  -999.2500   106.7660  2194.6379   -24.2810     5.5170     6.1460     5.4490
 3226.0000    11.0330  2083.3660     2.5750     2.5180     0.2600     0.0030   103.7450  -999.2500   107.4800  2107.2490   -22.2770     5.4860     6.1460     5.3500
 3226.5000    11.0000  2016.7000     2.5780     2.5160     0.2590     0.0010   107.2560  -999.2500   109.7810  2035.7500   -20.2610     5.4570     6.3040     5.2610
 3227.0000    11.0180  2027.3030     2.5840     2.5140     0.2670     0.0010   112.3530  -999.2500   111.8760  2076.2991   -14.0140     6.1290     6.6740     6.0870
 3227.5000    11.0400  2125.6101     2.5910     2.4960     0.2810     0.0010   118.4030  -999.2500   115.4200  2134.2271    -6.4060     6.1630     6.2060     6.3750
 3228.0000    11.0290  2161.9741     2.6160     2.4860     0.2840     0.0020   124.0370  -999.2500   123.6890  2189.6721    -7.2090     5.6200     5.5370     5.6500
 3228.5000    11.0400  2196.8191     2.7170     2.4940     0.2680     0.0080   117.5390  -999.2500   130.6710  2214.4990   -23.6750     5.6050     4.9350     5.6850
 3229.0000    11.1970  2172.0271     2.7920     2.5340     0.2590     0.0120   106.9830  -999.2500   128.9480  2178.0869   -26.4870     6.2610     5.6700     6.2390
 3229.5000    10.9580  2142.6150     2.7760     2.5430     0.2500     0.0130    90.9790  -999.2500   122.3650  2144.9851   -29.3380     6.9180     7.0480     6.7930
 3230.0000    10.9000  2113.2029     2.6870     2.5440     0.2380     0.0110    91.9960  -999.2500   115.7590  2135.0549   -29.3880     7.3130     8.0500     7.0370
 3230.5000    10.8830  2104.0330     2.5880     2.5220     0.2420     0.0080    96.4560  -999.2500   109.0660  2138.5300   -25.6830     6.8970     7.5710     7.1150
 3231.0000    10.8520  2118.3191     2.5710     2.5200     0.2500     0.0060   100.2890  -999.2500   108.1440  2143.4961   -24.0850     6.4340     6.8340     6.5240
 3231.5000    10.8210  2132.6040     2.5510     2.5310     0.2530     0.0050    97.2520  -999.2500   107.4660  2148.4609   -22.7300     6.1460     6.6130     5.7650
 3232.0000    10.8140  2132.6440     2.5270     2.5460     0.2480     0.0030    97.8220  -999.2500   105.0380  2153.4260   -21.0640     7.7940     8.0480     7.5590
 3232.5000    10.8080  2125.9771     2.5490     2.5540     0.2460     0.0010   102.1600  -999.2500   103.8520  2154.9160     6.2450     8.7010     8.6220     8.6220
 3233.0000    10.8010  2119.3110     2.5720     2.5410     0.2530     0.0010   106.4330  -999.2500   106.4230  2135.0549    25.5810     7.5300     7.8190     7.4750
 3233.5000    10.7940  2097.4160     2.5700     2.5180     0.2690     0.0020   103.6680  -999.2500   112.2740  2135.0549    37.5700     6.4650     7.0900     6.2010
 3234.0000    10.7880  2104.9370     2.5530     2.5080     0.2610     0.0030    98.4380  -999.2500   112.5870  2135.0549   -12.0280     5.4820     6.4340     5.2610
 3234.5000    10.7810  2113.2700     2.5360     2.5150     0.2370     0.0040    93.2040  -999.2500   107.0860  2141.2610   -31.5060     5.8290     7.1600     5.4080
 3235.0000    10.7820  2114.4250     2.5190     2.5250     0.2150     0.0070    90.5020  -999.2500   100.7340  2154.9160   -32.1190     6.6730     7.8200     6.5030
 3235.5000    10.7940  2108.8689     2.5240     2.5310     0.2020     0.0100    91.2230  -999.2500    93.0310  2144.9851   -32.9120     7.5160     8.4810     7.6650
 3236.0000    10.8060  2103.3130     2.5400     2.5370     0.1920     0.0110    92.0650  -999.2500    92.5680  2115.1941   -31.9080     8.3590     9.1000     8.3430
 3236.5000    10.8180  2097.4160     2.5550     2.5430     0.1940     0.0110    97.6650  -999.2500    97.0690  2142.0061   -26.2970     8.7630     9.4470     8.6690
 3237.0000    10.8310  2094.9729     2.5550     2.5490     0.2040     0.0110   101.0450  -999.2500   103.6560  2174.7771   -15.3610     8.7270     9.0340     8.5620
 3237.5000    10.8560  2087.8301     2.5550     2.5500     0.2140     0.0100   100.1120  -999.2500   110.2620  2150.4021     0.4220     8.6900     8.5820     8.4650
 3238.0000    10.8630  2080.6870     2.5610     2.5470     0.2140     0.0090    98.0550  -999.2500   115.4250  2123.3191     8.2270     8.6540     8.5820     8.4650
 3238.5000    10.8750  2081.5610     2.5780     2.5400     0.2080     0.0080    93.4240  -999.2500   113.4580  2115.1941    16.8880     8.6220     9.0500     8.4110
 3239.0000    10.8800  2106.5610     2.5790     2.5420     0.1970     0.0070    88.5010  -999.2500   104.5080  2142.6931    15.8840     9.3860    10.4800     8.4650
 3239.5000    10.8800  2131.5610     2.5560     2.5410     0.1760     0.0060    83.5410  -999.2500    98.2770  2173.2490    -6.7620    10.9140    11.8200     9.8870
 3240.0000    10.8850  2137.1770     2.5260     2.5430     0.1780     0.0050    82.5350  -999.2500    95.3850  2194.6379   -26.5510    12.0390    12.0520    11.8740
 3240.5000    10.8920  2137.1770     2.4960     2.5410     0.1820     0.0040    81.7120  -999.2500    94.4640  2169.3601   -35.1200    10.9980    12.0940    10.4090
 3241.0000    10.8990  2113.6379     2.5110     2.5450     0.1840     0.0050    80.7150  -999.2500    93.1740  2133.2490   -35.1200     9.2760    11.9300     8.7010
 3241.5000    10.9000  2073.6379     2.5540     2.5460     0.1840     0.0050    79.5950  -999.2500    91.9270  2095.3330   -32.9770    10.7960    11.7660    10.3760
 3242.0000    10.8830  2057.6541     2.5960     2.5490     0.1870     0.0070    79.1360  -999.2500    90.6350  2108.1001   -29.6990    10.9410    11.6530    10.6940
 3242.5000    10.8440  2064.4470     2.6380     2.5390     0.1910     0.0190    81.6760  -999.2500    90.0240  2122.2871    -1.3860     9.9260    11.4900     9.4040
 3243.0000    10.8040  2077.5349     2.6760     2.5280     0.1980     0.0310    84.8540  -999.2500    93.2170  2135.0549    27.5490     9.3540    11.3440     9.5340
 3243.5000    10.7640  2097.4160     2.6850     2.5270     0.2060     0.0480    88.1430  -999.2500    97.4120  2132.7629    42.8790     8.9720    11.2110     8.6220
 3244.0000    10.7920  2097.4160     2.7010     2.5410     0.2110     0.0560    88.8880  -999.2500    99.6660  2125.1240    53.8350     8.8750    11.0370     8.5430
 3244.5000    10.8200  2097.4160     2.7110     2.5590     0.2120     0.0420    87.2860  -999.2500    98.0680  2117.4851    41.3510     9.1890    10.6620     8.7090
