~VERSION INFORMATION
 VERS.                2.0:   CWLS LOG ASCII STANDARD - VERSION 2.0
 WRAP.                 NO:   ONE LINE PER DEPTH STEP
~WELL INFORMATION
#MNEM.UNIT      DATA TYPE    INFORMATION
#----------   ------------   ------------------------------
 STRT.F          211.0000:   START DEPTH
 STOP.F         3244.0000:   STOP DEPTH
 STEP.F            0.5000:   STEP LENGTH
 NULL.          -999.2500:   NO VALUE
 COMP.    FENIX & SCISSON:   COMPANY
 WELL.  FENIX "AX" #84-15:   WELL
 FLD .  TEAPOT DOME NPR-3:   FIELD
 LOC .      S15 T38N R78W:   LOCATION
 CNTY.            NATRONA:   COUNTY
 STAT.            WYOMING:   STATE
 CTRY. UNITED STATES OF AMERICA:   COUNTRY
 SRVC.           BIRDWELL:   SERVICE COMPANY
 DATE.        17-MAR-1978:   LOGDATE
 API .     49025106050000:   API NUMBER
~CURVE INFORMATION
#MNEM.UNIT       API CODE    CURVE DESCRIPTION
#----------   ------------   ------------------------------
 DEPT.F                  :   
 SPR .MV     05 010 01 00:   SPONTANEOUS POTENTIAL
 SN  .OHMM   05 040 16 00:   SHORT NORMAL
 ILD .OHMM   05 120 46 00:   INDUCTION LOG DEEP
 CALD.IN     45 280 60 00:   CALIPER FROM DENSITY LOG
 GRD .GAPI   45 310 01 00:   GAMMA RAY FROM DENSITY LOG
 RHOB.G/C3   45 350 01 00:   BULK DENSITY
 CORR.G/C3   45 356 01 00:   DENSITY CORRECTION
~PARAMETER INFORMATION
#MNEM.UNIT          VALUE    DESCRIPTION
#----------   ------------   ------------------------------
 EKB .F         5251.0000:   Kelly bushing
 EGL .F         5241.0000:   Ground level
 TD  .F         3250.0000:   Total depth
 CLNT.            A2DTECH:   Client Code
 SL  . 359' FEL & 2310' FNL:   Surface Location
 PD  .                 GL:   Permanent Datum
 LMF .                 KB:   Log Measured From
 DMF .                 KB:   Drilling Measured From
 DATE.        17-MAR-1978:   Date Logged [DD-MMM-YYYY]
 DD  .F              3250:   Depth driller
 DL  .F              3250:   Depth logger
 BLI .F              3244:   Bottom log interval
 TLI .F               224:   Top log interval
 CS1 .IN            8.625:   Casing size
 CBD1.             8.625":   Casing driller 1
 CBL1.F               224:   Casing logger 1
 BS1 .IN            7.875:   Bit size
 BSD1.F              3250:   Depth drilled with bit1
 MSS .           FLOWLINE:   Source of sample
 RMS .OHMM            1.3:   Rm
 MST .F                70:   Rm Meas. temp.
 RMF .OHMM            1.1:   Rmf
 MFST.F                70:   Rmf Meas. temp.
 MFSS.               MEAS:   Source Rmf.
 RMC .OHMM            1.4:   Rmc
 MCST.F                70:   Rmc Meas. temp.
 RMB .OHMM           0.77:   Rm. at BHT
 BHT .F               118:   BHT.
 TCS .HRS               6:   Time Circ. stopped
 MRT .F               118:   Maximum recorded temp.
 LUN .               2958:   Logging unit number
 LUL .               CASP:   Logging unit location
 ENGI.             MILLER:   Recorded By
 WITN.           MCGINLEY:   Witnessed by
 ORIG.           5" PRINT:   Origin of data
 UWI .     49025106050000:   Unique Well ID
 DICO. A2D TECHNOLOGIES, INC.:   Digitizing Company
~OTHER INFORMATION
~A   DEPT      SPR         SN        ILD       CALD         GRD      RHOB       CORR   
# ...
 2031.0000   -34.0073    15.0966    13.8429    10.0043   142.6212     2.4826     0.0459
 2031.5000   -33.6115    14.8932    13.8476    10.0179   130.8150     2.4917     0.0279
 2032.0000   -33.2911    14.5939    13.8523    10.0163   114.1704     2.4781     0.0083
 2032.5000   -32.9998    14.2974    13.8570    10.0148   113.4178     2.4819     0.0008
 2033.0000   -32.8371    14.2060    13.8617    10.0282   113.4148     2.4879     0.0009
 2033.5000   -32.6745    14.3117    13.2969    10.0268   113.4119     2.4856     0.0010
 2034.0000   -32.6627    14.4179    12.6614    10.0253   113.4090     2.4698     0.0089
 2034.5000   -32.8017    14.3163    12.2438    10.0238   113.5567     2.4743     0.0196
 2035.0000   -32.9407    13.9219    12.3335    10.0373   113.5530     2.4812     0.0190
 2035.5000   -32.9289    13.5615    12.4238    10.0358   113.9998     2.4834     0.0045
 2036.0000   -33.1453    13.1969    12.4280    10.0492   114.4466     2.4675     0.0107
 2036.5000   -33.2066    13.0191    12.2605    10.0646   114.8935     2.4746     0.0169
 2037.0000   -33.1946    13.0255    12.0952    10.4785   113.5412     2.4804     0.0124
 2037.5000   -33.1804    13.2145    11.6857    10.1637   107.0915     2.4653     0.0049
 2038.0000   -33.3224    13.2203    11.5280    10.0281   104.8396     2.4547     0.0081
 2038.5000   -33.3092    12.8635    11.4521    10.1607   106.6955     2.4456     0.0112
 2039.0000   -33.2958    12.3435    11.4561    10.3236   109.4807     2.4215     0.0159
 2039.5000   -33.2840    11.8445    11.0599    10.2770   116.8241     2.4018     0.0235
 2040.0000   -33.1222    11.1311    10.6203    10.3799   122.9680     2.3905     0.0464
 2040.5000   -32.9593    10.5278    10.1896    11.6004   127.0130     2.3754     0.0541
 2041.0000   -32.7961    10.0964     9.7086    11.8225   129.4089     2.3588     0.0542
 2041.5000   -32.7843     9.9037     9.3149    11.9403   129.5566     2.2893     0.0088
 2042.0000   -32.5050     9.7046     8.9364    12.0729   127.9038     2.2364     0.0028
 2042.5000   -32.4585     9.7089     8.8159    11.9373   124.7524     2.1596     0.0045
 2043.0000   -32.4465     9.7810     8.7577    10.0283   123.8499     2.1043     0.0061
 2043.5000   -32.4344     9.7853     8.6519    10.0258   123.8469     2.0728     0.0428
 2044.0000   -32.2698     9.9267     8.5242    10.2191   122.9444     2.0544     0.1330
 2044.5000   -32.2594    10.0004     8.4093    10.3440   119.1934     2.0264     0.1473
 2045.0000   -32.4000     9.9355     8.4121    10.5455   116.4918     1.9947     0.1426
 2045.5000   -32.3853     9.8026     8.3567    10.5723   117.1087     1.9569     0.1384
 2046.0000   -32.3734     9.5381     8.3595    10.4364   118.1549     1.8837     0.2219
 2046.5000   -32.3620     9.1525     8.3624    10.3902   119.1808     1.8985     0.2902
 2047.0000   -32.3499     8.8953     8.3653    10.6123   119.7776     1.9806     0.3024
 2047.5000   -32.3380     8.7864     8.2524    10.8343   119.9253     2.0897     0.3010
 2048.0000   -32.4766     8.7913     8.1412    11.9357   120.0723     2.1815     0.2950
 2048.5000   -32.6131     8.7951     8.1446    13.9015   120.2192     2.3920     0.2891
 2049.0000   -32.6013     8.7990     8.1474    13.8851   120.3662     2.4562     0.1968
 2049.5000   -32.5895     8.8029     8.1502    13.8389   120.5132     2.4675     0.0832
 2050.0000   -32.7315     8.8068     8.0660    13.6735   121.1092     2.4063     0.0610
 2050.5000   -32.8705     8.8107     7.8839    12.6586   121.7067     2.4585     0.0561
 2051.0000   -32.8558     8.5135     7.7017    10.0044   122.0036     2.4079     0.0532
 2051.5000   -32.8440     8.2837     7.5196     9.6601   121.1003     2.3950     0.0582
 2052.0000   -32.6813     8.2300     7.4110     9.6736   118.0989     2.3754     0.1017
 2052.5000   -32.6695     8.2337     7.3643     9.6721   115.4069     2.3837     0.2049
 2053.0000   -32.5068     8.1236     7.3681     9.6258   114.6627     2.4300     0.2126
 2053.5000   -32.4947     8.2418     7.3719     9.5490   115.1590     2.4071     0.0930
 2054.0000   -32.4827     8.3609     7.3245     9.5186   116.0120     2.3846     0.1249
 2054.5000   -32.4706     8.4817     7.3283     9.5171   116.6117     2.4418     0.2007
 2055.0000   -32.4585     8.6043     7.3868     9.4856   116.7616     2.4609     0.1599
 2055.5000   -32.4449     8.6681     7.5467     9.4692   116.6117     2.3740     0.0493
 2056.0000   -32.4331     8.7325     7.7068     9.4677   116.3118     2.3816     0.0524
 2056.5000   -32.4213     8.7363     7.7646     9.4662   116.4618     2.4451     0.0768
 2057.0000   -32.4095     8.7402     7.8228     9.4648   117.0615     2.4866     0.0435
 2057.5000   -32.3977     8.8051     7.7715     9.4633   118.5607     2.4677     0.0193
 2058.0000   -32.3861     8.8090     7.7216     9.4618   122.6087     2.4957     0.0103
 2058.5000   -32.3741     8.8744     7.6572     9.4753   124.5577     2.4995     0.0058
 2059.0000   -32.3620     8.8784     7.5699     9.4891   123.8081     2.4965     0.0059
 2059.5000   -32.3499     8.8832     7.5748     9.4872   123.5082     2.4905     0.0060
 2060.0000   -32.3357     8.8871     7.4739     9.4858   125.7867     2.4754     0.0061
 2060.5000   -32.3239     8.8910     7.4778     9.4843   126.8066     2.4950     0.0061
 2061.0000   -32.3121     8.8945     7.4815     9.4828   126.3568     2.4943     0.0047
 2061.5000   -32.3003     8.8985     7.4854     9.4812   125.0075     2.4920     0.0048
 2062.0000   -32.5901     8.9029     7.4893     9.4797   121.8591     2.4905     0.0048
 2062.5000   -32.7292     8.9068     7.4933     9.4783   120.3598     2.4914     0.0066
 2063.0000   -32.8711     8.9107     7.5502     9.4628   119.1604     2.4984     0.0097
 2063.5000   -32.8564     8.9147     7.6068     9.4766   118.5607     2.5102     0.0114
 2064.0000   -32.8446     8.9186     7.6639     9.4757   118.1109     2.5072     0.0158
 2064.5000   -32.8326     9.0476     7.8295     9.4599   117.3613     2.5080     0.0174
 2065.0000   -32.8205     9.1254     7.9433     9.4282   116.3118     2.5141     0.0177
 2065.5000   -32.8062     9.3118     8.0587     9.3985   115.5622     2.5156     0.0190
 2066.0000   -32.7964     9.3810     8.1758     9.3825   114.9625     2.5012     0.0176
 2066.5000   -32.7843     9.3851     8.2371     9.3817   114.6627     2.4982     0.0161
 2067.0000   -32.7708     9.3242     8.2413     9.3808   114.8197     2.4952     0.0117
 2067.5000   -32.7602     9.3283     8.2454     9.3799   115.9498     2.4930     0.0072
 2068.0000   -32.7472     9.3325     8.1925     9.3790   119.7601     2.4907     0.0057
 2068.5000   -32.8869     9.2719     8.1399     9.3782   118.5607     2.4892     0.0058
 2069.0000   -32.8748     9.2118     8.0876     9.3624   117.2114     2.4870     0.0059
 2069.5000   -32.8627     9.2158     7.9800     9.3615   116.6117     2.4861     0.0121
 2070.0000   -32.8507     9.2199     7.9287     9.3606   117.0615     2.5006     0.0182
 2070.5000   -32.8380     9.2241     7.8778     9.3597   117.6612     2.4961     0.0228
 2071.0000   -32.8265     9.2283     7.8828     9.3589   118.4108     2.4992     0.0244
 2071.5000   -32.8144     9.2332     7.8869     9.3580   119.7601     2.5014     0.0245
 2072.0000   -32.8006     9.2373     7.8909     9.3569   124.1079     2.4926     0.0230
 2072.5000   -32.9396     9.2414     7.8392     9.3560   124.7625     2.4856     0.0216
 2073.0000   -32.9291     9.2455     7.7899     9.3551   123.9580     2.4826     0.0186
 2073.5000   -32.9160     9.1845     7.7936     9.3694   124.1079     2.4765     0.0188
 2074.0000   -32.9042     9.1896     7.7978     9.3683   124.7076     2.4728     0.0236
 2074.5000   -32.8924     9.1936     7.8018     9.3674   123.9437     2.4811     0.0448
 2075.0000   -32.7298     9.2619     7.7517     9.3665   121.5330     2.4977     0.0462
 2075.5000   -32.7179     9.3957     7.8099     9.3808   118.1109     2.4781     0.0054
 2076.0000   -32.7059     9.5979     7.8140     9.3797   117.8111     2.4743     0.0009
