~VERSION INFORMATION
 VERS.                2.0:   CWLS LOG ASCII STANDARD - VERSION 2.0
 WRAP.                 NO:   ONE LINE PER DEPTH STEP
~WELL INFORMATION
#MNEM.UNIT      DATA TYPE    INFORMATION
#----------   ------------   ------------------------------
 STRT.F           60.0000:   START DEPTH
 STOP.F         3758.0000:   STOP DEPTH
 STEP.F            0.5000:   STEP LENGTH
 NULL.          -999.2500:   NO VALUE
 COMP. LAWRENCE ALLISON & ASSOCIATES:   COMPANY
 WELL. LAWRENCE "MX" #72-10:   WELL
 FLD .            N P R 3:   FIELD
 LOC .      S10 T38N R78W:   LOCATION
 CNTY.            NATRONA:   COUNTY
 STAT.            WYOMING:   STATE
 CTRY. UNITED STATES OF AMERICA:   COUNTRY
 SRVC.       SCHLUMBERGER:   SERVICE COMPANY
 DATE.        03-JUL-1982:   LOGDATE
 API .     49025108910000:   API NUMBER
~CURVE INFORMATION
#MNEM.UNIT       API CODE    CURVE DESCRIPTION
#----------   ------------   ------------------------------
 DEPT.F                  :   
 GRD .GAPI   45 310 01 00:   GAMMA RAY FROM DENSITY LOG
 NPHI.DEC    42 890 03 00:   NEUTRON POROSITY SANDSTONE
 CALD.IN     45 280 60 00:   CALIPER FROM DENSITY LOG
 RHOB.G/C3   45 350 01 00:   BULK DENSITY
 DRHO.G/C3   45 356 01 00:   DENSITY CORRECTION
 TEND.LBS    45 635 01 00:   TENSION FROM DENSITY LOG
 SPR .MV     07 010 01 00:   SPONTANEOUS POTENTIAL
 SFL .OHMM   07 220 01 00:   SHALLOW FOCUSED LOG RESISTIVITY
 ILD .OHMM   07 120 46 00:   DEEP INDUCTION RESISTIVITY
 ILM .OHMM   07 120 44 00:   INDUCTION LOG MEDIUM RESISTIVITY
 TENR.LBS    07 635 01 00:   TENSION FROM RESISTIVITY
~PARAMETER INFORMATION
#MNEM.UNIT          VALUE    DESCRIPTION
#----------   ------------   ------------------------------
 EKB .F         5182.0000:   Kelly bushing
 EGL .F         5172.0000:   Ground level
 EDF .F            0.0000:   Drilling floor
 EPD .F            0.0000:   Permanent datum
 TD  .F         3770.0000:   Total depth
 DATE.        03-JUL-1982:   Date logged
 CLNT.            A2DTECH:   Client Code
 SL  . 1119' FNL & 21' FEL:   Surface Location
 PD  .                 GL:   Permanent Datum
 DD  .F              3770:   Depth driller
 DL  .F              3750:   Depth logger
 BLI .F              3744:   Bottom log interval
 CS1 .IN            9.625:   Casing size
 CBD1.      9.625" @ 473':   Casing driller 1
 CBL1.F               482:   Casing logger 1
 BS1 .IN            7.875:   Bit size
 DFT .                GEL:   Type fluid in hole
 DFD .                9.1:   Density
 DFV .                 34:   Viscosity
 DFPH.               10.5:   pH
 DFL .                 12:   Fluid loss
 MSS .            MUD PIT:   Source of sample
 RMS .OHMM           1.50:   Rm
 MST .F                84:   Rm Meas. temp.
 RMF .OHMM           1.37:   Rmf
 MFST.F                83:   Rmf Meas. temp.
 RMC .OHMM           1.20:   Rmc
 MCST.F                83:   Rmc Meas. temp.
 MFSS.               MEAS:   Source Rmf.
 RMB .OHMM              1:   Rm. at BHT
 BHT .F               130:   BHT.
 TCS .HRS            1500:   Time Circ. stopped
 MRT .F               130:   Maximum recorded temp.
 LUN .               8039:   Logging unit number
 LUL .               CSPR:   Logging unit location
 ENGI. CONOSCENTI/PIRAKIS:   Recorded By
 WITN.             STRONG:   Witnessed by
 ORIG.       2.5"5" PRINT:   Origin of data
 UWI .     49025108910000:   Unique Well ID
 DICO. A2D TECHNOLOGIES, INC.:   Digitizing Company
 DAPD.                 10:   Feet Above Permanent Datum
 BSD1.               3770:   Depth drilled with bit1
 MCSS.               CALC:   Source Rmc.
 TLI .                482:   Top log interval
 TLAB.HR             1800:   Time logger at bottom
~OTHER INFORMATION
~A   DEPT      GRD       NPHI       CALD       RHOB       DRHO       TEND        SPR        SFL        ILD        ILM       TENR   
# ...
 3079.5000    96.0240     0.2550    12.2370     2.5460     0.0360  1740.0000   -44.8700     7.6880     6.5610     6.7430  1625.6210
 3080.0000    95.4580     0.2590    12.3000     2.5470     0.0430  1740.0000   -44.8640     7.4150     6.3660     6.5940  1625.7340
 3080.5000    94.5270     0.2690    12.3510     2.5340     0.0310  1740.0000   -44.8590     7.1410     6.1700     6.4440  1625.8470
 3081.0000    94.2260     0.2780    12.3850     2.5180     0.0210  1740.0000   -44.8530     6.6860     5.9750     6.2950  1625.9590
 3081.5000    94.7350     0.2880    12.4240     2.5010     0.0120  1740.0000   -44.8480     6.1090     5.7790     6.1460  1626.0720
 3082.0000    94.9980     0.2970    12.4610     2.4900     0.0030  1740.0000   -44.8430     6.1860     5.6990     5.9960  1626.1851
 3082.5000    95.5450     0.2990    12.4990     2.4800     0.0000  1740.0000   -44.8370     6.2900     5.6460     5.8470  1626.2970
 3083.0000    95.6710     0.3020    12.5370     2.4800    -0.0030  1740.0000   -44.8320     6.4570     5.5940     5.7380  1626.4100
 3083.5000    97.6600     0.3040    12.5750     2.4880     0.0180  1740.0000   -44.8270     6.3160     5.5200     5.6210  1626.5229
 3084.0000    98.3290     0.3060    12.6120     2.4980     0.0470  1740.0000   -44.8210     6.1300     5.4190     5.5030  1626.6350
 3084.5000    98.4020     0.3080    12.6500     2.5100     0.0760  1740.0000   -44.8160     5.9430     5.3110     5.4080  1626.7480
 3085.0000    98.5870     0.3110    12.6880     2.5190     0.1000  1740.0000   -44.8100     6.0510     5.1760     5.3200  1626.8610
 3085.5000    98.7530     0.3130    12.7240     2.5170     0.1150  1740.0000   -44.8050     6.1600     4.9410     5.0830  1626.9730
 3086.0000    98.9170     0.3190    12.7460     2.5150     0.1260  1740.0000   -44.8000     6.2810     4.7070     4.8460  1627.0861
 3086.5000    99.1420     0.3280    12.7670     2.4930     0.0980  1740.0000   -44.7940     5.4680     4.4730     4.6090  1627.1990
 3087.0000   100.2110     0.3380    12.7870     2.4640     0.0640  1740.0000   -44.7890     4.8000     4.2380     4.3720  1627.3120
 3087.5000   101.4480     0.3470    12.8080     2.4360     0.0330  1740.0000   -44.7840     4.1320     4.0040     4.1350  1627.4240
 3088.0000   103.2300     0.3560    12.8290     2.4200     0.0130  1740.0000   -44.7780     3.8800     3.7690     3.9230  1627.5370
 3088.5000   105.9890     0.3670    12.8490     2.4260     0.0130  1740.0000   -44.7730     3.6820     3.6360     3.8520  1627.6500
 3089.0000   107.1740     0.3620    12.8710     2.4380     0.0150  1740.0000   -44.7680     3.7110     3.6190     3.7700  1627.7620
 3089.5000   106.8070     0.3560    12.8820     2.4490     0.0220  1740.0000   -44.7620     3.7460     3.6100     3.7120  1627.8750
 3090.0000   103.4930     0.3530    12.8590     2.4600     0.0250  1740.0000   -44.7570     4.0380     3.8560     4.0510  1627.9880
 3090.5000    99.3640     0.3420    12.8370     2.4760     0.0280  1740.0000   -44.7510     4.4600     4.0820     4.3150  1628.1000
 3091.0000    95.4120     0.3330    12.8130     2.4910     0.0300  1740.0000   -44.7460     5.2300     4.3860     4.5790  1628.2130
 3091.5000    91.5880     0.3260    12.7900     2.4940     0.0280  1740.0000   -44.7410     6.0530     4.7230     4.8430  1628.3260
 3092.0000    92.6200     0.3280    12.7670     2.4940     0.0240  1740.0000   -44.7350     6.6060     5.0800     5.1060  1628.4380
 3092.5000    94.4030     0.3290    12.7440     2.4940     0.0220  1740.0000   -44.7300     7.3480     5.1740     5.3690  1628.5510
 3093.0000    95.2120     0.3270    12.7250     2.4960     0.0230  1740.0000   -44.7250     7.2460     5.2220     5.4190  1628.6639
 3093.5000    95.0410     0.3230    12.7150     2.5060     0.0250  1740.0000   -44.7190     6.7670     5.2710     5.4010  1628.7770
 3094.0000    95.3870     0.3180    12.7060     2.5120     0.0270  1740.0000   -44.7140     5.9060     5.2350     5.2940  1628.8890
 3094.5000    97.4970     0.3170    12.6970     2.5050     0.0270  1740.0000   -44.7080     5.4330     5.2220     5.1740  1629.0020
 3095.0000    99.5280     0.3170    12.6860     2.4980     0.0180  1740.0000   -44.7030     5.3510     5.2080     5.1630  1629.1150
 3095.5000    98.7670     0.3170    12.6580     2.4920     0.0100  1740.0000   -44.6980     5.3230     5.1360     5.1520  1629.2271
 3096.0000    96.7780     0.3190    12.6200     2.4850     0.0090  1740.0000   -44.6960     5.5920     5.0650     5.1400  1629.3400
 3096.5000    94.9130     0.3230    12.5840     2.4780     0.0070  1740.0000   -44.6950     6.0350     4.9930     5.1270  1629.4530
 3097.0000    93.7890     0.3370    12.5470     2.4740     0.0060  1740.0000   -44.6950     6.2050     4.9210     5.1490  1629.5649
 3097.5000    93.3600     0.3590    12.5100     2.4790     0.0100  1740.0000   -44.6950     6.3390     4.8830     5.1740  1629.6780
 3098.0000    92.8240     0.3600    12.4740     2.4840     0.0120  1740.0000   -44.6950     5.9750     4.8330     4.9970  1629.7910
 3098.5000    92.3380     0.3530    12.4370     2.4890     0.0150  1740.0000   -44.6950     5.6840     4.7060     4.8280  1629.9030
 3099.0000    92.1800     0.3420    12.4000     2.4940     0.0180  1740.0000   -44.6950     5.3920     4.4950     4.6130  1630.0160
 3099.5000    94.0580     0.3320    12.3640     2.4880     0.0210  1740.0000   -44.6950     5.1270     4.2840     4.3910  1630.1290
 3100.0000    96.6570     0.3320    12.3270     2.4800     0.0230  1740.0000   -44.6950     4.7500     4.0740     4.1690  1630.2419
 3100.5000    99.1050     0.3370    12.2900     2.4710     0.0250  1740.0000   -44.6950     4.4050     3.8630     3.9470  1630.3540
 3101.0000   101.8230     0.3400    12.2540     2.4620     0.0270  1740.0000   -44.6950     4.0330     3.6520     3.7250  1630.4670
 3101.5000   102.9030     0.3480    12.2170     2.4570     0.0290  1740.0000   -44.6950     3.7280     3.4850     3.5440  1630.5800
 3102.0000   103.7490     0.3630    12.1810     2.4530     0.0310  1740.0000   -44.6950     3.4790     3.4470     3.5120  1630.6920
 3102.5000   104.8530     0.3760    12.1440     2.4550     0.0330  1740.0000   -44.6950     3.4790     3.4470     3.5120  1630.8051
 3103.0000   103.8720     0.3710    12.1070     2.4570     0.0340  1740.0000   -44.6950     3.6960     3.6310     3.9240  1630.9180
 3103.5000   101.2360     0.3550    12.0460     2.4590     0.0320  1740.0000   -44.6950     4.3320     3.9200     4.2800  1631.0300
 3104.0000    99.2400     0.3380    11.9750     2.4660     0.0330  1740.0000   -44.6950     5.2260     4.2820     4.6370  1631.1429
 3104.5000    96.6900     0.3190    11.9060     2.4860     0.0360  1740.0000   -44.6950     6.1210     4.6440     4.9930  1631.2560
 3105.0000    97.5760     0.2960    11.8360     2.5110     0.0420  1740.0000   -44.6950     7.0150     5.0060     5.3490  1631.3680
 3105.5000    99.0300     0.2860    11.7660     2.5230     0.0410  1740.0000   -44.6950     7.9100     5.3680     5.7050  1631.4810
 3106.0000    98.1220     0.2760    11.6960     2.5200     0.0320  1740.0000   -44.6950     8.3610     5.6430     6.0610  1631.5940
 3106.5000    96.0890     0.2650    11.6260     2.5090     0.0240  1740.0000   -44.6950     8.2740     5.9450     6.3980  1631.7070
 3107.0000    95.5170     0.2630    11.5560     2.5010     0.0160  1740.0000   -44.6950     7.6950     6.2050     6.4210  1631.8190
 3107.5000    97.8160     0.2640    11.4860     2.4980     0.0160  1740.0000   -44.6950     7.5240     6.3390     6.4490  1631.9320
 3108.0000    96.3200     0.2710    11.4170     2.5020     0.0150  1740.0000   -44.6950     7.4600     6.3980     6.5220  1632.0450
 3108.5000    93.0670     0.2820    11.3460     2.5110     0.0140  1740.0000   -44.6950     7.4160     6.3950     6.6550  1632.1570
 3109.0000    90.4450     0.2800    11.2770     2.5230     0.0140  1740.0000   -44.6950     7.7180     6.3610     6.8250  1632.2700
 3109.5000    90.1510     0.2730    11.2010     2.5350     0.0080  1740.0000   -44.7050     8.5360     6.3390     6.7220  1632.3831
