~VERSION INFORMATION
 VERS.                2.0:   CWLS LOG ASCII STANDARD - VERSION 2.0
 WRAP.                 NO:   ONE LINE PER DEPTH STEP
~WELL INFORMATION
#MNEM.UNIT      DATA TYPE    INFORMATION
#----------   ------------   ------------------------------
 STRT.F          470.0000:   START DEPTH
 STOP.F         3791.5000:   STOP DEPTH
 STEP.F            0.5000:   STEP LENGTH
 NULL.          -999.2500:   NO VALUE
 COMP.    FENIX & SCISSON:   COMPANY
 WELL.   FENIX MDX #44-10:   WELL
 FLD .                NPR:   FIELD
 LOC .      S10 T38N R78W:   LOCATION
 CNTY.            NATRONA:   COUNTY
 STAT.            WYOMING:   STATE
 CTRY. UNITED STATES OF AMERICA:   COUNTRY
 SRVC.       SCHLUMBERGER:   SERVICE COMPANY
 DATE.        25-OCT-1977:   LOGDATE
 API .     49025104310000:   API NUMBER
~CURVE INFORMATION
#MNEM.UNIT       API CODE    CURVE DESCRIPTION
#----------   ------------   ------------------------------
 DEPT.F                  :   
 DT  .US/F   60 520 00 00:   DELTA TIME
 SPR .MV     11 010 01 00:   SPONTANEOUS POTENTIAL FROM RES.
 LLS .OHMM   11 220 09 00:   LATEROLOG LOG SHALLOW
 LLD .OHMM   11 220 10 00:   LATEROLOG LOG DEEP
 MSFL.OHMM   11 270 04 00:   MICRO SPHERICALLY FOCUSED
 NPOR.DEC    42 890 03 00:   ALPHA PROCESSED NEUTRON POROSITY
 RHOB.G/C3   45 350 01 00:   BULK DENSITY
 CORR.G/C3   45 356 01 00:   DENSITY CORRECTION
 GRD .GAPI   45 310 01 00:   GAMMA RAY FROM DENSITY LOG
 CALD.IN     45 280 60 00:   CALIPER FROM DENSITY LOG
~PARAMETER INFORMATION
#MNEM.UNIT          VALUE    DESCRIPTION
#----------   ------------   ------------------------------
 EKB .F         5239.0000:   Kelly bushing
 EGL .F         5229.0000:   Ground level
 EDF .F            0.0000:   Drilling floor
 EPD .F           10.0000:   Permanent datum
 TD  .F         3802.0000:   Total depth
 DATE.        25-OCT-1977:   Date logged
 CLNT.            A2DTECH:   Client Code
 SL  . 2640' FNL & 2640' FEL:   Surface Location
 PD  .                 GL:   Permanent Datum
 DD  .F              3802:   Depth driller
 DL  .F              3791:   Depth logger
 BLI .F              3789:   Bottom log interval
 TLI .F               505:   Top log interval
 CS1 .IN            8.625:   Casing size
 CBD1.       8.625 @ 505':   Casing driller 1
 CBL1.F               505:   Casing logger 1
 BS1 .IN            7.875:   Bit size
 DFT .            KCL MUD:   Type fluid in hole
 DFD .                9.1:   Density
 DFV .                 45:   Viscosity
 DFPH.               10.5:   pH
 DFL .                  8:   Fluid loss
 MSS .             MUDPIT:   Source of sample
 RMS .OHMM           .209:   Rm
 MST .F                72:   Rm Meas. temp.
 RMF .OHMM           .179:   Rmf
 MFST.F                72:   Rmf Meas. temp.
 RMC .OHMM           .314:   Rmc
 MCST.F                72:   Rmc Meas. temp.
 MFSS.               MEAS:   Source Rmf.
 RMB .OHMM           .122:   Rm. at BHT
 BHT .F               123:   BHT.
 TCS .HRS            1400:   Time Circ. stopped
 MRT .F               123:   Maximum recorded temp.
 LUN .               5642:   Logging unit number
 LUL .               CSPR:   Logging unit location
 ENGI.             SAYLER:   Recorded By
 WITN.         PETTINGILL:   Witnessed by
 ORIG.           5" PRINT:   Origin of data
 UWI .     49025104310000:   Unique Well ID
 DICO. A2D TECHNOLOGIES, INC.:   Digitizing Company
 DAPD.                 10:   Feet Above Permanent Datum
 BSD1.               3802:   Depth drilled with bit1
 MCSS.               CALC:   Source Rmc.
~OTHER INFORMATION
~A   DEPT        DT       SPR        LLS        LLD       MSFL       NPOR       RHOB       CORR        GRD       CALD   
# ...
 1810.0000    98.4030   -47.8840     3.6900     5.6080     4.2760     0.3840     2.3900     0.1050   118.4610     9.1090
 1810.5000    97.0020   -48.1770     3.6900     5.5850     3.0390     0.3900     2.4020     0.0810   121.3040     9.2740
 1811.0000    99.2500   -48.4680     3.8630     5.6890     2.4390     0.3930     2.3540    -0.0050   124.1750     9.5530
 1811.5000   110.5500   -48.7590     4.7710     5.6370     2.2440     0.3490     2.3940     0.0070   127.0050     9.2680
 1812.0000   107.9500   -49.0510     5.8750     6.3740     5.3330     0.3260     2.4670    -0.0020   128.9240     9.0940
 1812.5000   108.5500   -49.3420     6.9790     6.9930     8.5990     0.3270     2.4810     0.0120   127.5250     9.1070
 1813.0000   105.9660   -49.6330     8.0840     7.4310     9.1840     0.3330     2.4850    -0.0010   126.7960     9.1200
 1813.5000    95.1500   -49.9250     8.2990     7.4310     9.1840     0.3380     2.4730     0.0210   127.0480     9.1340
 1814.0000    95.0500   -50.2160     7.6470     7.2320     8.2220     0.3520     2.4640     0.0620   127.2920     9.1750
 1814.5000    96.3440   -50.5070     6.5770     6.9050     5.8770     0.3610     2.4570     0.0500   127.5400     9.3310
 1815.0000    97.9870   -50.7980     5.6890     6.7150     4.0460     0.3640     2.4320     0.0190   127.7870     9.2170
 1815.5000    99.9200   -51.0900     5.6890     6.8410     4.5770     0.3600     2.4580     0.0330   128.0330     9.0400
 1816.0000   100.3500   -51.3810     6.3990     7.1300     6.2770     0.3550     2.4790     0.0070   128.2900     9.0400
 1816.5000   100.6500   -51.6720     7.0930     7.4180     7.9780     0.3500     2.4850     0.0130   128.6120     9.0360
 1817.0000    99.4960   -51.9640     7.7870     7.7060     9.6170     0.3450     2.5060     0.0180   129.7340     9.0310
 1817.5000    95.9500   -52.2550     8.4530     7.9260    10.1530     0.3460     2.5070     0.0080   131.8420     9.0260
 1818.0000    96.3500   -52.5460     8.3050     7.8070    10.5450     0.3460     2.5000    -0.0020   135.3340     9.0220
 1818.5000    95.6010   -52.8370     8.1280     7.6650    10.3950     0.3440     2.5070     0.0100   138.6120     9.0170
 1819.0000    96.0540   -53.1290     7.9520     7.5240    10.2750     0.3400     2.5050    -0.0020   138.7070     9.0120
 1819.5000    96.2930   -53.4210     7.9260     7.3830     9.8640     0.3380     2.4960     0.0060   138.6920     9.0080
 1820.0000    96.2900   -53.7120     8.0200     7.3630     9.7060     0.3320     2.4990    -0.0060   138.6910     9.0130
 1820.5000    97.3500   -53.9670     8.1650     7.5630     9.8580     0.3230     2.4980     0.0060   138.8190     9.0240
 1821.0000    96.9100   -53.9610     8.2990     7.8660    10.0340     0.3300     2.4820    -0.0010   139.5140     9.0350
 1821.5000    96.4400   -53.9600     8.3760     8.1480    10.1630     0.3500     2.4710     0.0200   141.0760     9.0460
 1822.0000    95.9690   -53.9600     7.4570     7.7360     9.2690     0.3800     2.4810     0.0540   142.7190     9.0570
 1822.5000    96.0000   -53.9600     6.6710     7.2350     6.6160     0.3770     2.4710     0.0440   146.0320     9.0610
 1823.0000    98.2500   -53.9600     5.8850     6.7770     4.3550     0.3660     2.4370     0.0090   149.3740     9.0370
 1823.5000   100.7140   -53.9600     5.6950     6.7150     4.3550     0.3590     2.4140     0.0050   153.3910     9.0130
 1824.0000   101.8580   -53.9600     5.5330     6.6330     5.5860     0.3570     2.4340     0.0280   158.6720     8.9910
 1824.5000   102.0720   -53.9530     5.3720     6.5580     5.6890     0.3690     2.4190     0.0570   169.5650     8.9680
 1825.0000   101.2500   -53.9120     5.2100     6.4830     4.2550     0.3990     2.4330     0.1050   179.0370     9.1770
 1825.5000    96.3500   -53.8720     5.0480     6.4070     2.7870     0.3990     2.4040     0.0680   185.3050     9.5560
 1826.0000    99.2040   -53.8310     4.9700     6.3320     2.0280     0.3950     2.3510     0.0360   185.7540     9.2060
 1826.5000   101.3500   -53.7910     4.9100     6.2950     3.8640     0.4060     2.4590     0.0800   183.1690     9.0130
 1827.0000   100.4500   -53.7510     4.8490     6.3260     3.1440     0.4200     2.4350     0.0630   183.8840     9.1030
 1827.5000   102.6400   -53.7100     4.8200     6.5890     2.6000     0.4200     2.4070     0.0250   185.3120     9.2030
 1828.0000   100.6680   -53.6700     5.0010     7.5580     4.3670     0.4090     2.4030     0.0000   184.7750     9.1240
 1828.5000   101.3740   -53.6300     6.4470     9.1740     9.3820     0.3980     2.4460     0.0240   182.9310     8.9260
 1829.0000   102.2500   -53.5890     8.3140    10.7900    12.6100     0.3870     2.4360     0.0070   181.0720     8.8600
 1829.5000   100.6540   -53.5490    10.1350    12.4060    14.9630     0.3680     2.4260     0.0150   179.1740     8.8440
 1830.0000    96.5430   -53.5080    11.7480    13.4890    15.1020     0.3700     2.4360     0.0000   177.0450     8.8270
 1830.5000    97.1840   -53.4680    12.3160    13.9840    13.3310     0.3680     2.4340     0.0070   174.8660     8.8460
 1831.0000    97.7500   -53.4280    12.9130    14.2290    11.3510     0.3610     2.4260     0.0080   174.6700     8.8690
 1831.5000    97.5500   -53.3860    13.2930    14.8130     7.5450     0.3510     2.4210     0.0030   176.4820     8.8920
 1832.0000    96.9070   -53.2920    13.6930    15.5120     4.9550     0.3510     2.4260     0.0050   182.3700     8.9150
 1832.5000    96.3750   -53.1360    14.1590    15.9930     9.4990     0.3550     2.4350     0.0050   188.5770     8.9390
 1833.0000    95.8440   -52.9820    13.8210    16.0860    14.4220     0.3620     2.4340     0.0100   193.2530     8.9620
 1833.5000    95.2440   -52.8270    13.3770    16.1790    14.9920     0.3640     2.4280     0.0010   197.9850     8.9850
 1834.0000    94.9210   -52.6720    13.2750    16.3470    15.2840     0.3690     2.4140    -0.0060   199.8410     8.9880
 1834.5000    95.6680   -52.5170    13.4160    16.8710    15.5250     0.3740     2.4020    -0.0010   201.4760     8.9900
 1835.0000    96.4150   -52.3620    13.5220    17.3960    15.2300     0.3730     2.4040    -0.0100   200.2570     8.9920
 1835.5000    97.1500   -52.2070    13.5220    17.8250    14.9800     0.3700     2.4050    -0.0170   197.7750     8.9940
 1836.0000    97.5500   -52.0520    12.5610    17.7370    14.8260     0.3630     2.4070    -0.0050   194.3760     8.9950
 1836.5000    98.1260   -51.8980    12.6770    17.6620    14.8260     0.3530     2.4000    -0.0140   191.1840     8.9970
 1837.0000    97.8470   -51.7400    12.9720    18.3240    15.6060     0.3530     2.3960    -0.0040   188.4210     8.9990
 1837.5000    97.2700   -51.5840    13.8790    19.0860    16.5890     0.3590     2.4050    -0.0140   181.8230     9.0010
 1838.0000    96.8670   -51.4280    14.7860    20.0750    17.5730     0.3640     2.4080    -0.0060   175.2820     9.0030
 1838.5000    96.1500   -51.2720    15.2310    20.6600    18.1990     0.3700     2.4020     0.0010   168.7380     9.0050
 1839.0000    96.5730   -51.1150    15.6730    20.9790    18.3050     0.3710     2.3980    -0.0040   162.1160     9.0080
 1839.5000    96.7860   -50.9590    16.1080    22.2220    18.8770     0.3560     2.4140     0.0110   158.3290     9.0170
 1840.0000    95.9310   -50.8030    16.4950    23.2830    19.7770     0.3370     2.4250    -0.0030   155.2320     9.0260
 1840.5000    94.8850   -50.6470    16.8670    22.3600    20.6550     0.3370     2.4220     0.0050   153.9780     9.0610
 1841.0000    93.1060   -50.4920    16.7080    20.8740    20.8460     0.3370     2.4260    -0.0060   153.3660     9.0980
 1841.5000    91.3440   -50.4200    16.5590    19.3890    20.2760     0.3310     2.4410     0.0010   153.7000     9.1350
 1842.0000    90.1860   -50.4870    16.1330    17.9040    19.8120     0.3230     2.4520    -0.0090   154.0530     9.1720
 1842.5000    89.3580   -50.5520    15.6210    15.9600    19.3660     0.3150     2.4390     0.0000   155.0020     9.2040
 1843.0000    89.0150   -50.6170    15.1100    13.8610    19.1880     0.3120     2.4470    -0.0110   155.9240     9.2130
