~VERSION INFORMATION
 VERS.                2.0:   CWLS LOG ASCII STANDARD - VERSION 2.0
 WRAP.                 NO:   ONE LINE PER DEPTH STEP
~WELL INFORMATION
#MNEM.UNIT      DATA TYPE    INFORMATION
#----------   ------------   ------------------------------
 STRT.F          629.0000:   START DEPTH
 STOP.F         4090.0000:   STOP DEPTH
 STEP.F            0.5000:   STEP LENGTH
 NULL.          -999.2500:   NO VALUE
 COMP. LAWRENCE ALLISON & ASSOCIATES:   COMPANY
 WELL. LAWRENCE NPR 3 "SHX" #36-10:   WELL
 FLD .      NPR - WILDCAT:   FIELD
 LOC .      S10 T38N R78W:   LOCATION
 CNTY.            NATRONA:   COUNTY
 STAT.            WYOMING:   STATE
 CTRY. UNITED STATES OF AMERICA:   COUNTRY
 SRVC.      DRESSER ATLAS:   SERVICE COMPANY
 DATE.        24-DEC-1981:   LOGDATE
 API .     49025108310000:   API NUMBER
~CURVE INFORMATION
#MNEM.UNIT       API CODE    CURVE DESCRIPTION
#----------   ------------   ------------------------------
 DEPT.F                  :   
 DT  .US/F   60 520 00 00:   DELTA TIME
 TENS.LBS    60 635 01 00:   TENSION FROM SONIC
 GRR .GAPI   07 310 01 00:   GAMMA RAY FROM RESISTIVITY
 SPR .MV     07 010 01 00:   SPONTANEOUS POTENTIAL
 RFOC.OHMM   07 220 04 00:   RESISTIVITY FOCUSED LOG RES.
 RILM.OHMM   07 120 44 00:   INDUCTION LOG MEDIUM RESISTIVITY
 RILD.OHMM   07 120 46 00:   DEEP INDUCTION RESISTIVITY
 TENR.LBS    07 635 01 00:   TENSION FROM RESISTIVITY
 NPHI.DEC    42 890 03 00:   NEUTRON POROSITY SANDSTONE
 RHOB.G/C3   45 350 01 00:   BULK DENSITY
 CORR.G/C3   45 356 01 00:   DENSITY CORRECTION
 TEND.LBS    45 635 01 00:   TENSION FROM DENSITY LOG
 CALD.IN     45 280 60 00:   CALIPER FROM DENSITY LOG
~PARAMETER INFORMATION
#MNEM.UNIT          VALUE    DESCRIPTION
#----------   ------------   ------------------------------
 EKB .F         5234.0000:   Kelly bushing
 EGL .F         5224.0000:   Ground level
 EDF .F         5233.0000:   Drilling floor
 EPD .F            0.0000:   Permanent datum
 TD  .F         4100.0000:   Total depth
 DATE.        24-DEC-1981:   Date logged
 CLNT.            A2DTECH:   Client Code
 SL  . 1798' FSL & 1455' FWL:   Surface Location
 PD  .                 GL:   Permanent Datum
 DAPD.F                10:   Feet Above Permanent Datum
 DD  .F              4100:   Depth driller
 DL  .F              4082:   Depth logger
 BLI .F              4074:   Bottom log interval
 TLI .F              2300:   Top log interval
 CS1 .IN            9.625:   Casing size
 CBD1.      9.625" @ 650':   Casing driller 1
 BS1 .IN            7.875:   Bit size
 BSD1.F              4100:   Depth drilled with bit1
 DFT .            KCL/GEL:   Type fluid in hole
 DFD .                9.1:   Density
 DFV .                 60:   Viscosity
 DFPH.                  8:   pH
 DFL .                 12:   Fluid loss
 MSS .           FLOWLINE:   Source of sample
 RMS .OHMM           .536:   Rm
 RMF .OHMM           .402:   Rmf
 RMC .OHMM            067:   Rmc
 MFSS.               CALC:   Source Rmf.
 MCSS.               CALC:   Source Rmc.
 RMB .OHMM            .35:   Rm. at BHT
 BHT .F               135:   BHT.
 TCS .HRS               6:   Time Circ. stopped
 MRT .F               141:   Maximum recorded temp.
 LUL .               GLT1:   Logging unit location
 UWI .     49025108310000:   Unique Well ID
 DICO. A2D TECHNOLOGIES, INC.:   Digitizing Company
~OTHER INFORMATION
~A   DEPT       DT       TENS         GRR       SPR       RFOC       RILM       RILD       TENR       NPHI       RHOB       CORR       TEND       CALD   
# ...
 3463.0000    89.7820   -92.9900   146.9450   -35.1400     5.8650     5.0630     4.4090   -86.2550     0.3110     2.4780     0.0320   -65.3690     8.1370
 3463.5000    89.6030   -93.2440   146.2990   -35.1820     5.9300     5.0070     4.4090   -86.4200     0.3030     2.4800     0.0380   -64.4330     8.1350
 3464.0000    89.4240   -93.4980   148.2650   -35.2710     5.9770     4.9200     4.4090   -86.5850     0.2860     2.4850     0.0450   -63.4410     8.1340
 3464.5000    89.3240   -93.7520   151.3300   -35.3360     6.0330     4.8340     4.4090   -86.7510     0.2740     2.4880     0.0510   -62.4490     8.1320
 3465.0000    89.4080   -94.0060   152.2090   -35.3820     6.0330     4.7480     4.2840   -86.9160     0.2760     2.4830     0.0550   -61.4570     8.1300
 3465.5000    89.4910   -94.2600   151.2470   -35.4280     6.0330     4.6610     4.1070   -87.0810     0.2860     2.4770     0.0560   -60.4650     8.1290
 3466.0000    89.5750   -94.5140   151.4500   -35.4740     5.8260     4.5080     3.9300   -87.2460     0.2910     2.4600     0.0530   -59.4730     8.1270
 3466.5000    90.0050   -94.7690   158.5940   -35.5210     5.5250     4.2830     3.7520   -87.4110     0.2950     2.4520     0.0440   -58.4810     8.1260
 3467.0000    90.5850   -94.8450   165.7300   -35.5670     5.2240     4.0580     3.5750   -87.5760     0.3000     2.4430     0.0360   -57.4890     8.1240
 3467.5000    91.1640   -94.8450   172.8290   -35.6120     4.9230     3.8780     3.3970   -87.7410     0.3050     2.4320     0.0270   -56.4970     8.1230
 3468.0000    91.8020   -94.8450   179.9030   -35.6590     4.6220     3.7410     3.2200   -87.9060     0.3110     2.4200     0.0180   -55.5050     8.1210
 3468.5000    91.6670   -94.8450   183.5280   -35.7150     4.3210     3.6050     3.0430   -88.0710     0.3190     2.4040     0.0130   -60.1260     8.1220
 3469.0000    91.5020   -94.8450   181.4390   -35.4290     4.0580     3.4070     2.8340   -88.2360     0.3250     2.4000     0.0190   -65.4880     8.1220
 3469.5000    90.8630   -94.8450   179.4840   -35.0770     3.9840     3.1870     2.6140   -88.4010     0.3150     2.3950     0.0250   -70.8500     8.1220
 3470.0000    90.1540   -94.8450   178.8700   -34.7220     3.9480     2.9670     2.3940   -88.5660     0.3190     2.3900     0.0370   -76.2120     8.1220
 3470.5000    90.0050   -94.8450   184.0460   -34.3660     3.8570     2.7460     2.2490   -88.7320     0.3260     2.3860     0.0500   -81.5750     8.1210
 3471.0000    90.4140   -94.8450   189.1270   -34.0110     3.7320     2.5590     2.2490   -88.8970     0.3340     2.3860     0.0550   -86.9370     8.1430
 3471.5000    91.1740   -94.8450   194.1940   -33.6570     3.4540     2.5830     2.3410   -89.0620     0.3380     2.3830     0.0280   -92.2990     8.1410
 3472.0000    92.7530   -94.8450   199.1740   -33.2990     2.9940     2.9070     2.5060   -89.2270     0.3220     2.3860     0.0130   -93.7040     8.1390
 3472.5000    94.8050   -94.8450   202.8640   -32.9470     3.1930     3.3560     2.6710   -89.3920     0.3010     2.4160     0.0420   -86.9400     8.1600
 3473.0000    93.8540   -94.8450   193.8020   -33.2720     4.2230     3.8050     2.8360   -89.5570     0.2990     2.4460     0.0860   -80.1760     8.1500
 3473.5000    91.9120   -94.8450   174.3320   -33.7040     5.2840     4.1720     3.0010   -89.7220     0.2760     2.4750     0.1130   -73.4120     8.1420
 3474.0000    88.6090   -94.8450   154.5970   -34.1400     6.3460     4.1220     3.2270   -89.8870     0.2600     2.5000     0.1000   -66.6490     8.1330
 3474.5000    86.1760   -94.8450   136.8840   -34.5940     6.9920     4.0960     3.7200   -90.0520     0.2630     2.5000     0.0680   -69.4210     8.1240
 3475.0000    85.9290   -94.8450   136.8480   -34.5080     6.5730     4.3020     4.2130   -90.2170     0.2680     2.4910     0.0370   -79.3410     8.1150
 3475.5000    86.0400   -94.8450   142.2160   -34.2320     6.0480     4.5100     4.7030   -90.3820     0.2810     2.4810     0.0470   -89.2610     8.1070
 3476.0000    86.7840   -94.8450   148.7550   -33.9500     5.5220     4.7170     4.7030   -90.5470     0.2920     2.4640     0.0590   -99.1820     8.0980
 3476.5000    88.7450   -94.8450   156.7180   -33.7030     5.1100     4.9050     4.5700   -90.7130     0.2860     2.4590     0.0620  -109.1020     8.0890
 3477.0000    90.9010   -94.8450   153.9770   -33.7010     5.0170     5.0630     4.3540   -90.8780     0.2840     2.4610     0.0540  -109.4060     8.0810
 3477.5000    91.8600   -94.8450   149.2440   -33.7030     5.5240     4.8440     4.1380   -91.0430     0.2870     2.4800     0.0480   -93.9060     8.0820
 3478.0000    91.1490   -94.8450   146.1190   -33.7020     5.9390     4.4190     3.7420   -91.2080     0.2840     2.4930     0.0420   -78.4060     8.0820
 3478.5000    90.2000   -94.8450   146.7310   -33.6510     6.1450     3.9930     3.2420   -91.3730     0.2740     2.4900     0.0350   -68.5230     8.0820
 3479.0000    89.2520   -94.8450   147.1800   -33.3130     6.1450     3.5680     3.0560   -91.5380     0.2800     2.4870     0.0380   -85.3290     8.0820
 3479.5000    88.3980   -94.8450   145.5080   -32.9730     5.2910     3.1430     2.9270   -91.7030     0.2940     2.4810     0.0430   -87.1450     8.0820
 3480.0000    89.8440   -94.8450   170.0470   -32.6360     4.2840     2.8850     2.7990   -91.8680     0.3170     2.4490     0.0550   -89.0530     8.0820
 3480.5000    92.0380   -94.8450   201.5290   -32.3030     3.3440     2.8590     2.7340   -92.0330     0.3400     2.4270     0.0950   -90.9600     8.0820
 3481.0000    95.1120   -94.8450   199.5670   -32.3970     3.3130     3.2680     2.7050   -92.1980     0.3620     2.4910     0.1900   -92.8680     8.0820
 3481.5000    98.9260   -94.8450   213.8980   -33.2000     3.3130     3.5910     2.7300   -92.3630     0.3540     2.5410     0.3010   -94.7760     8.0820
 3482.0000    98.4670   -94.8450   184.7230   -33.9930     4.2210     3.9150     2.7810   -92.5280     0.3350     2.6030     0.2620   -94.5520     8.0820
 3482.5000    97.0610   -94.8450   159.0300   -34.7840     5.0630     4.2390     2.9070   -92.6940     0.3190     2.5750     0.1380   -93.0930     8.0820
 3483.0000    93.9040   -94.8450   142.3570   -35.5610     5.9050     4.5620     3.2550   -92.8590     0.2970     2.5450     0.0590   -91.6340     8.0820
 3483.5000    90.7470   -94.8450   135.5280   -35.7180     6.5550     4.8860     3.6030   -93.0240     0.2830     2.5300     0.0440   -90.1760     8.0820
 3484.0000    88.4410   -94.8450   133.3290   -35.2560     6.6150     5.1100     3.9510   -93.1890     0.2790     2.5310     0.0470   -88.7170     8.0820
 3484.5000    88.5990   -94.8450   136.8810   -34.8020     6.4460     5.0460     4.3290   -93.3540     0.2900     2.5250     0.0570   -87.2580     8.0820
 3485.0000    88.7270   -94.8450   141.1360   -34.3440     6.1160     4.9970     4.3080   -93.5190     0.3010     2.5200     0.0670   -85.7990     8.0820
 3485.5000    88.8700   -94.8450   145.4570   -33.8840     5.7610     4.9250     4.2860   -93.6840     0.3110     2.5140     0.0620   -84.3400     8.0820
 3486.0000    88.9990   -94.8450   152.5220   -33.4260     5.1880     4.9580     4.2630   -93.8490     0.3370     2.5020     0.0560   -82.8810     8.0820
 3486.5000    92.6960   -94.8450   160.0150   -33.1120     4.5700     5.0200     4.2410   -94.0140     0.3350     2.4720     0.0510   -81.4220     8.0820
 3487.0000    94.8720   -94.8450   166.3420   -33.6430     4.2110     5.0820     4.2180   -94.1790     0.3000     2.4520     0.0710   -79.9640     8.0820
 3487.5000    96.7070   -94.8450   162.3210   -34.1550     4.5050     5.1100     4.1960   -94.3440     0.3010     2.4570     0.0660   -78.5050     8.0840
 3488.0000    96.7070   -94.8450   158.8070   -34.6620     5.6900     5.1100     4.1730   -94.5100     0.3010     2.4750     0.0600   -77.0460     8.0880
 3488.5000    95.0400   -94.8450   159.1050   -35.1730     6.1000     5.1100     4.1500   -94.6750     0.3010     2.4930     0.0520   -75.5870     8.0920
