~VERSION INFORMATION
 VERS.                2.0:   CWLS LOG ASCII STANDARD - VERSION 2.0
 WRAP.                 NO:   ONE LINE PER DEPTH STEP
~WELL INFORMATION
#MNEM.UNIT      DATA TYPE    INFORMATION
#----------   ------------   ------------------------------
 STRT.F          290.0000:   START DEPTH
 STOP.F         2884.0000:   STOP DEPTH
 STEP.F            0.5000:   STEP LENGTH
 NULL.          -999.2500:   NO VALUE
 COMP.   FENNIX & SCISSON:   COMPANY
 WELL. FENIX & SCISSON AX #22-28:   WELL
 FLD .             NPR #3:   FIELD
 LOC .      S28 T39N R78W:   LOCATION
 CNTY.            NATRONA:   COUNTY
 STAT.            WYOMING:   STATE
 CTRY. UNITED STATES OF AMERICA:   COUNTRY
 SRVC.              WELEX:   SERVICE COMPANY
 DATE.        29-DEC-1979:   LOGDATE
 API .     49025107930000:   API NUMBER
~CURVE INFORMATION
#MNEM.UNIT       API CODE    CURVE DESCRIPTION
#----------   ------------   ------------------------------
 DEPT.F                  :   
 GRD .GAPI   45 310 01 00:   GAMMA RAY FROM DENSITY LOG
 CALD.IN     45 280 60 00:   CALIPER FROM DENSITY LOG
 CORR.G/C3   45 356 01 00:   DENSITY CORRECTION
 RHOB.G/C3   45 350 01 00:   BULK DENSITY
 NPHI.DEC    42 890 03 00:   NEUTRON POROSITY SANDSTONE
 SPR .MV     07 010 01 00:   SPONTANEOUS POTENTIAL
 TENR.LBS    07 635 01 00:   TENSION FROM RESISTIVITY
 ILD .OHMM   07 120 46 00:   DEEP INDUCTION RESISTIVITY
 ILM .OHMM   07 120 44 00:   INDUCTION LOG MEDIUM RESISTIVITY
 SGRD.OHMM   07 220 08 00:   LATEROLOG-8 RES.
~PARAMETER INFORMATION
#MNEM.UNIT          VALUE    DESCRIPTION
#----------   ------------   ------------------------------
 EKB .F         4988.0000:   Kelly bushing
 EGL .F         4978.0000:   Ground level
 EPD .F         4978.0000:   Permanent datum
 TD  .F         2872.0000:   Total depth
 CLNT.            A2DTECH:   Client Code
 SL  . 803' FNL & 938' FWL:   Surface Location
 DATE.        29-DEC-1979:   Date Logged [DD-MMM-YYYY]
 DD  .F              2868:   Depth driller
 DL  .F              2872:   Depth logger
 BLI .F              2870:   Bottom log interval
 TLI .F               300:   Top log interval
 CS1 .              8.625:   Casing size
 CBD1.      8.625" @ 318':   Casing driller 1
 CBL1.IN              318:   Casing logger 1
 BS1 .IN            7.875:   Bit size
 BSD1.F              2868:   Depth drilled with bit1
 DFT .          GEL-BENEX:   Type fluid in hole
 DFD .                8.8:   Density
 TCS .HRS              10:   Time Circ. stopped
 MRT .F               109:   Maximum recorded temp.
 ENGI.               REIN:   Recorded By
 WITN.          MR. AMEND:   Witnessed by
 ORIG.      2.5" 5" PRINT:   Origin of data
 UWI .     49025107930000:   Unique Well ID
 DICO. A2D TECHNOLOGIES, INC.:   Digitizing Company
 PD  .                 GL:   Permanent Datum
 LMF .                 KB:   Log Measured From
 DMF .                 KB:   Drilling Measured From
~OTHER INFORMATION
~A   DEPT       GRD        CALD     CORR         RHOB       NPHI      SPR       TENR        ILD        ILM       SGRD   
  290.0000    52.6589     8.3779  -999.2500     1.9364     0.3875  -999.2500  -999.2500  -999.2500  -999.2500  -999.2500
  290.5000    55.8162     8.3788  -999.2500     1.9275     0.3903  -999.2500  -999.2500  -999.2500  -999.2500  -999.2500
  291.0000    57.1760     8.3798  -999.2500     1.9231     0.3936  -999.2500  -999.2500  -999.2500  -999.2500  -999.2500
  291.5000    56.3110     8.3807  -999.2500     1.9209     0.3930  -999.2500  -999.2500  -999.2500  -999.2500  -999.2500
  292.0000    57.2290     8.3816  -999.2500     1.9172     0.3969  -999.2500  -999.2500  -999.2500  -999.2500  -999.2500
  292.5000    59.6328     8.3825  -999.2500     1.9060     0.3932  -999.2500  -999.2500  -999.2500  -999.2500  -999.2500
  293.0000    62.3339     8.3835  -999.2500     1.8971     0.3996  -999.2500  -999.2500  -999.2500  -999.2500  -999.2500
  293.5000    64.7378     8.3844  -999.2500     1.8941     0.3900  -999.2500  -999.2500  -999.2500  -999.2500  -999.2500
  294.0000    66.5407     8.3853  -999.2500     1.9002     0.3817  -999.2500  -999.2500  -999.2500  -999.2500  -999.2500
  294.5000    63.0076     8.3862  -999.2500     1.9220     0.3772  -999.2500  -999.2500  -999.2500  -999.2500  -999.2500
  295.0000    58.8736     8.3872  -999.2500     1.9353     0.3765  -999.2500  -999.2500  -999.2500  -999.2500  -999.2500
  295.5000    55.6311     8.3881  -999.2500     1.9367     0.3768  -999.2500  -999.2500  -999.2500  -999.2500  -999.2500
  296.0000    54.1651     8.3890  -999.2500     1.9284     0.3770  -999.2500  -999.2500  -999.2500  -999.2500  -999.2500
  296.5000    54.4953     8.3900  -999.2500     1.9245     0.3788  -999.2500  -999.2500  -999.2500  -999.2500  -999.2500
  297.0000    54.8190     8.3909  -999.2500     1.9227     0.3850  -999.2500  -999.2500  -999.2500  -999.2500  -999.2500
  297.5000    54.2444     8.3918  -999.2500     1.9319     0.3874  -999.2500  -999.2500  -999.2500  -999.2500  -999.2500
  298.0000    54.2775     8.3927  -999.2500     1.9342     0.3905  -999.2500  -999.2500  -999.2500  -999.2500  -999.2500
  298.5000    55.7899     8.3937  -999.2500     1.9283     0.3895  -999.2500  -999.2500  -999.2500  -999.2500  -999.2500
  299.0000    57.8966     8.3946  -999.2500     1.9216     0.3885  -999.2500  -999.2500  -999.2500  -999.2500  -999.2500
  299.5000    58.8146     8.3955  -999.2500     1.9150     0.3882  -999.2500  -999.2500  -999.2500  -999.2500  -999.2500
  300.0000    59.1382     8.3966  -999.2500     1.9143     0.3888  -999.2500  -999.2500  -999.2500  -999.2500  -999.2500
  300.5000    58.8675     8.3980  -999.2500     1.8933     0.3935  -999.2500  -999.2500  -999.2500  -999.2500  -999.2500
  301.0000    58.5968     8.3997  -999.2500     1.8852     0.3980  -999.2500  -999.2500  -999.2500  -999.2500  -999.2500
  301.5000    58.0289     8.4014  -999.2500     1.8808     0.4001  -999.2500  -999.2500  -999.2500  -999.2500  -999.2500
  302.0000    57.4610     8.4034  -999.2500     1.8748     0.3914  -999.2500  -999.2500  -999.2500  -999.2500  -999.2500
  302.5000    56.8997     8.4051  -999.2500     1.8712     0.3854  -999.2500  -999.2500  -999.2500  -999.2500  -999.2500
  303.0000    57.8177     8.4067  -999.2500     1.8705     0.3829  -999.2500  -999.2500  -999.2500  -999.2500  -999.2500
  303.5000    59.3300     8.4084  -999.2500     1.8669     0.3796  -999.2500  -999.2500  -999.2500  -999.2500  -999.2500
  304.0000    59.6470     8.4101  -999.2500     1.8579     0.3753  -999.2500  -999.2500  -999.2500  -999.2500  -999.2500
  304.5000    58.1942     8.4117  -999.2500     1.8490     0.3716  -999.2500  -999.2500  -999.2500  -999.2500  -999.2500
  305.0000    55.2489     8.4134  -999.2500     1.8747     0.3697  -999.2500  -999.2500  -999.2500  -999.2500  -999.2500
  305.5000    53.4923     8.3993  -999.2500     1.8913     0.3681  -999.2500  -999.2500  -999.2500  -999.2500  -999.2500
  306.0000    52.0329     8.3856  -999.2500     1.9034     0.3674  -999.2500  -999.2500  -999.2500  -999.2500  -999.2500
  306.5000    51.7556     8.4030  -999.2500     1.8983     0.3667  -999.2500  -999.2500  -999.2500  -999.2500  -999.2500
  307.0000    52.6802     8.4047  -999.2500     1.8939     0.3657  -999.2500  -999.2500  -999.2500  -999.2500  -999.2500
  307.5000    53.8953     8.4064  -999.2500     1.9112     0.3642  -999.2500  -999.2500  -999.2500  -999.2500  -999.2500
  308.0000    55.4077     8.3926  -999.2500     1.9332     0.3604  -999.2500  -999.2500  -999.2500  -999.2500  -999.2500
  308.5000    57.5144     8.3944  -999.2500     1.9438     0.3569  -999.2500  -999.2500  -999.2500  -999.2500  -999.2500
  309.0000    59.6211     8.3960  -999.2500     1.9521     0.3532  -999.2500  -999.2500  -999.2500  -999.2500  -999.2500
  309.5000    60.8362     8.3823  -999.2500     1.9605     0.3475  -999.2500  -999.2500  -999.2500  -999.2500  -999.2500
  310.0000    61.4571     8.3840  -999.2500     1.9704     0.3416  -999.2500  -999.2500  -999.2500  -999.2500  -999.2500
  310.5000    61.7807     8.3703  -999.2500     1.9795     0.3372  -999.2500  -999.2500  -999.2500  -999.2500  -999.2500
  311.0000    62.1043     8.3721  -999.2500     1.9864     0.3337  -999.2500  -999.2500  -999.2500  -999.2500  -999.2500
  311.5000    61.8336     8.3741  -999.2500     2.0015     0.3331  -999.2500  -999.2500  -999.2500  -999.2500  -999.2500
  312.0000    61.5513     8.3757  -999.2500     2.0327     0.3312  -999.2500  -999.2500  -999.2500  -999.2500  -999.2500
  312.5000    60.6978     8.3928  -999.2500     2.0538     0.3320  -999.2500  -999.2500  -999.2500  -999.2500  -999.2500
  313.0000    59.7959     8.3944  -999.2500     2.0635     0.3329  -999.2500  -999.2500  -999.2500  -999.2500  -999.2500
  313.5000    58.9677     8.3961  -999.2500     2.0831     0.3319  -999.2500  -999.2500  -999.2500  -999.2500  -999.2500
  314.0000    58.6970     8.3978  -999.2500     2.1005     0.3285  -999.2500  -999.2500  -999.2500  -999.2500  -999.2500
  314.5000    58.7300     8.3994  -999.2500     2.1322     0.3263  -999.2500  -999.2500  -999.2500  -999.2500  -999.2500
  315.0000    59.6480     8.3853    -0.4750     2.1834     0.3259  -999.2500  -999.2500  -999.2500  -999.2500  -999.2500
  315.5000    62.0519     8.3716    -0.4172     2.2309     0.3259  -999.2500  -999.2500  -999.2500  -999.2500  -999.2500
  316.0000    66.8332     8.3579    -0.3468     2.2693     0.3250  -999.2500  -999.2500  -999.2500  -999.2500  -999.2500
  316.5000    69.5342     8.3600    -0.2312     2.3243     0.3093  -999.2500  -999.2500  -999.2500  -999.2500  -999.2500
  317.0000    72.8296     8.3617    -0.0819     2.3891     0.3055  -999.2500  -999.2500     0.8668  -999.2500  -999.2500
  317.5000    76.1250     8.3633     0.0314     2.4546     0.3036  -999.2500  -999.2500     2.2318  -999.2500  -999.2500
  318.0000    81.2035     8.3496     0.1162     2.4765     0.3005   -99.9415  1060.7272     5.9872     5.0233     4.9673
  318.5000    84.4989     8.3974     0.1369     2.4337     0.2990   -98.6993  1060.4167     9.1568     7.8925     6.7050
  319.0000    85.7141     8.4929     0.1581     2.4165     0.2993   -97.4570  1060.1191    10.3589     9.3030     2.4964
  319.5000    83.9575     8.6656     0.1738     2.4113     0.2996   -96.2148  1059.8215     5.3654     9.6949     1.1569
  320.0000    81.8971     8.8561     0.2036     2.4280     0.2999   -92.8965  1059.4724     4.7844     9.6969     0.5880
  320.5000    83.1189     9.0944     0.1897     2.4123     0.2866   -84.3384  1058.3972     6.6315     9.0574     0.5200
  321.0000    86.4143     9.6811     0.1680     2.3943     0.2648   -79.2828  1057.3220     7.8753     8.6948     0.4354
  321.5000    88.2238    10.7581     0.1495     2.3839     0.2477   -76.5085  1056.2468     9.3309     8.8164     0.3746
  322.0000    90.3305    12.1115     0.1371     2.3630     0.2464   -75.5297  1055.1718     9.8063     8.9398     0.4601
  322.5000    91.8428    12.4357     0.1233     2.3450     0.2492   -75.1190  1054.0966     9.4113     9.3163     1.2297
  323.0000    93.0580    12.3606     0.1328     2.3293     0.2513   -74.9315  1053.0214     9.1568     9.9782     2.1752
