~VERSION INFORMATION
 VERS.                2.0:   CWLS LOG ASCII STANDARD - VERSION 2.0
 WRAP.                 NO:   ONE LINE PER DEPTH STEP
~WELL INFORMATION
#MNEM.UNIT      DATA TYPE    INFORMATION
#----------   ------------   ------------------------------
 STRT.F          192.0000:   START DEPTH
 STOP.F         3016.0000:   STOP DEPTH
 STEP.F            0.5000:   STEP LENGTH
 NULL.          -999.2500:   NO VALUE
 COMP. FENIX & SCISSON U.S. NAVY:   COMPANY
 WELL.  FENIX "AX" #81-33:   WELL
 FLD .              NPR-3:   FIELD
 LOC .      S33 T39N R78W:   LOCATION
 CNTY.            NATRONA:   COUNTY
 STAT.            WYOMING:   STATE
 CTRY. UNITED STATES OF AMERICA:   COUNTRY
 SRVC.              WELEX:   SERVICE COMPANY
 DATE.        12-MAY-1977:   LOGDATE
 API .     49025109850000:   API NUMBER
~CURVE INFORMATION
#MNEM.UNIT       API CODE    CURVE DESCRIPTION
#----------   ------------   ------------------------------
 DEPT.F                  :   
 SPR .MV     07 010 01 00:   SPONTANEOUS POTENTIAL
 RILM.OHMM   07 120 44 00:   INDUCTION LOG MEDIUM RESISTIVITY
 RILD.OHMM   07 120 46 00:   DEEP INDUCTION RESISTIVITY
 SGRD.OHMM   07 220 05 00:   SHALLOW GUARD LOG RESISTIVITY
 NPHI.DEC    42 890 03 00:   NEUTRON POROSITY SANDSTONE
 GRD .GAPI   45 310 01 00:   GAMMA RAY FROM DENSITY LOG
 CALD.IN     45 280 60 00:   CALIPER FROM DENSITY LOG
 RHOB.G/C3   45 350 01 00:   BULK DENSITY
 DCOR.G/C3   45 356 01 00:   DENSITY CORRECTION
~PARAMETER INFORMATION
#MNEM.UNIT          VALUE    DESCRIPTION
#----------   ------------   ------------------------------
 EKB .F         5114.0000:   Kelly bushing
 EGL .F         5100.0000:   Ground level
 EDF .F         5112.0000:   Drilling floor
 TD  .F         3014.0000:   Total depth
 DATE.        12-MAY-1977:   Date logged
 CLNT.            A2DTECH:   Client Code
 SL  . 660' FEL & 660' FNL:   Surface Location
 PD  .                 GL:   Permanent Datum
 EPD .F              5100:   Elevation Permanent Datum
 LMF .                 KB:   Log Measured From
 DMF .                 KB:   Drilling Measured From
 DD  .F              3000:   Depth driller
 DL  .F              3014:   Depth logger
 BLI .F              3012:   Bottom log interval
 TLI .F              1500:   Top log interval
 CS1 .IN            8.625:   Casing size
 CBD1.      8.625" @ 217':   Casing driller 1
 CBL1.F               209:   Casing logger 1
 BS1 .IN            7.875:   Bit size
 BSD1.F              3000:   Depth drilled with bit1
 DFT .            KCL MUD:   Type fluid in hole
 DFD .                  9:   Density
 DFV .                 33:   Viscosity
 DFPH.                7.5:   pH
 DFL .                7.8:   Fluid loss
 MSS .           FLOWLINE:   Source of sample
 RMS .OHMM           0.69:   Rm
 MST .F                68:   Rm Meas. temp.
 RMF .OHMM           0.66:   Rmf
 MFST.F                68:   Rmf Meas. temp.
 RMC .OHMM           1.27:   Rmc
 MCST.F                68:   Rmc Meas. temp.
 MFSS.                 BK:   Source Rmf.
 MCSS.                 BK:   Source Rmc.
 RMB .OHMM           0.39:   Rm. at BHT
 BHT .F               118:   BHT.
 TCS .HRS               6:   Time Circ. stopped
 MRT .F               118:   Maximum recorded temp.
 LUN .               9685:   Logging unit number
 LUL .           BRIGHTON:   Logging unit location
 ENGI.          T. JOYNER:   Recorded By
 WITN.            K. JAPP:   Witnessed by
 ORIG.           5" PRINT:   Origin of data
 UWI .     49025109850000:   Unique Well ID
 DICO. A2D TECHNOLOGIES, INC.:   Digitizing Company
~OTHER INFORMATION
~A   DEPT      SPR       RILM       RILD       SGRD       NPHI         GRD        CALD       RHOB     DCOR   
# ...
  374.5000   -47.3660     6.6600     6.7530    10.0090  -999.2500   117.7620     8.6930     2.4760     0.0220
  375.0000   -47.4880     6.7030     6.6680    10.0210  -999.2500   118.0820     8.6830     2.4740     0.0200
  375.5000   -47.6100     6.7440     6.6340    10.0330  -999.2500   118.4840     8.6730     2.4710     0.0170
  376.0000   -47.7320     6.7800     6.5960    10.0450  -999.2500   118.8850     8.6620     2.4690     0.0150
  376.5000   -47.8540     6.8170     6.5420    10.0570  -999.2500   119.2870     8.6520     2.4670     0.0160
  377.0000   -47.9760     6.8540     6.4870    10.0690  -999.2500   119.7080     8.6420     2.4650     0.0190
  377.5000   -48.0980     6.9160     6.4330    10.0840  -999.2500   119.4610     8.6320     2.4650     0.0230
  378.0000   -48.2200     6.9810     6.3780     9.9320  -999.2500   119.0870     8.6210     2.4650     0.0260
  378.5000   -48.3420     6.8470     6.3100     9.7350  -999.2500   118.7130     8.6110     2.4670     0.0290
  379.0000   -48.4640     6.7000     6.3280     9.5370  -999.2500   118.3380     8.6000     2.4690     0.0330
  379.5000   -48.5860     6.5060     6.3520     9.3690  -999.2500   117.9640     8.6060     2.4740     0.0360
  380.0000   -48.7080     6.3130     6.3680     9.3690  -999.2500   117.5990     8.6140     2.4790     0.0390
  380.5000   -48.8300     6.1190     6.2060     9.3360  -999.2500   117.4950     8.6210     2.4840     0.0420
  381.0000   -48.9520     5.9260     6.0840     9.2390  -999.2500   118.1490     8.6280     2.4810     0.0440
  381.5000   -49.0750     5.7580     6.0270     9.1410  -999.2500   118.7790     8.6360     2.4770     0.0420
  382.0000   -49.1970     5.7740     6.0270     9.0890  -999.2500   119.4070     8.6420     2.4750     0.0410
  382.5000   -49.3180     5.7910     6.0040     9.0550  -999.2500   120.0360     8.6500     2.4750     0.0400
  383.0000   -49.4390     5.8090     5.9710     9.0210  -999.2500   120.6630     8.6580     2.4750     0.0390
  383.5000   -49.5260     5.8090     6.0060     8.9860  -999.2500   121.2930     8.6650     2.4710     0.0380
  384.0000   -49.5650     5.7870     6.0750     8.9520  -999.2500   121.9540     8.6730     2.4650     0.0360
  384.5000   -49.6050     5.7440     6.1380     8.7700  -999.2500   121.5710     8.6810     2.4620     0.0390
  385.0000   -49.6440     5.7030     5.8850     8.5700  -999.2500   120.8230     8.6890     2.4610     0.0430
  385.5000   -49.6820     5.4790     5.6530     8.3210  -999.2500   120.0670     8.6970     2.4610     0.0450
  386.0000   -49.6390     5.2720     5.4200     7.7960  -999.2500   119.3100     8.6860     2.4570     0.0400
  386.5000   -49.4750     4.9230     5.1870     7.1380  -999.2500   119.2110     8.6680     2.4520     0.0350
  387.0000   -49.3130     4.9230     5.1020     6.2520  -999.2500   119.7690     8.6490     2.4460     0.0300
  387.5000   -49.1500     5.3110     5.0400     6.9400  -999.2500   120.3250     8.6520     2.4440     0.0260
  388.0000   -48.9880     5.6780     4.9690     8.1450  -999.2500   120.8850     8.6770     2.4510     0.0230
  388.5000   -48.8250     5.8670     4.9930     9.0370  -999.2500   121.4480     8.7020     2.4600     0.0260
  389.0000   -48.6620     5.9570     5.0830     9.4070  -999.2500   122.0150     8.7260     2.4680     0.0290
  389.5000   -48.5000     6.1000     5.3760     9.7780  -999.2500   122.4510     8.7310     2.4700     0.0320
  390.0000   -48.3360     6.4230     5.6690    10.0330  -999.2500   121.2590     8.7160     2.4670     0.0270
  390.5000   -48.1700     6.6070     5.9610    10.1300  -999.2500   120.0980     8.7000     2.4640     0.0220
  391.0000   -48.1700     6.5930     6.2540    10.2270  -999.2500   118.9460     8.6850     2.4670     0.0240
  391.5000   -48.2090     6.5580     6.5460    10.3240  -999.2500   117.7880     8.6690     2.4720     0.0260
  392.0000   -48.2500     6.5240     6.5150    10.4210  -999.2500   116.5840     8.6540     2.4780     0.0290
  392.5000   -48.2900     6.4900     6.4840    10.5180  -999.2500   116.0800     8.6390     2.4760     0.0310
  393.0000   -48.3350     6.4550     6.4530    10.6560  -999.2500   115.5910     8.6230     2.4720     0.0330
  393.5000   -48.5140     6.4270     6.4270    10.6050  -999.2500   115.5430     8.6080     2.4760     0.0360
  394.0000   -48.7030     6.5610     6.5360    10.5180  -999.2500   115.9390     8.5920     2.4810     0.0380
  394.5000   -48.8920     6.6740     6.6280    10.4310  -999.2500   116.3340     8.5770     2.4770     0.0400
  395.0000   -49.0810     6.7920     6.6710    10.3450  -999.2500   116.7330     8.5610     2.4730     0.0420
  395.5000   -49.2700     6.8560     6.6770    10.2580  -999.2500   117.1320     8.5740     2.4740     0.0440
  396.0000   -49.4630     6.9240     6.6830    10.1710  -999.2500   117.5270     8.5900     2.4760     0.0460
  396.5000   -49.5090     6.9920     6.6890    10.0840  -999.2500   117.9240     8.6060     2.4760     0.0480
  397.0000   -49.5110     7.0640     6.6950     9.9920  -999.2500   117.9100     8.6220     2.4760     0.0490
  397.5000   -49.5110     7.1360     6.7010    10.0560  -999.2500   117.4850     8.6380     2.4760     0.0510
  398.0000   -49.6010     7.2430     6.7060    10.1250  -999.2500   117.0610     8.6540     2.4750     0.0550
  398.5000   -49.7730     7.2090     6.7120    10.1940  -999.2500   116.6330     8.6700     2.4720     0.0550
  399.0000   -49.9450     7.1110     6.7180    10.2630  -999.2500   116.2010     8.6860     2.4690     0.0520
  399.5000   -50.1180     7.1210     6.7240    10.3320  -999.2500   115.7600     8.7020     2.4670     0.0500
  400.0000   -50.2910     7.1420     6.7290    10.3660  -999.2500   116.0620     8.7180     2.4630     0.0480
  400.5000   -50.4640     7.1620     6.7290    10.2060  -999.2500   116.4400     8.7050     2.4580     0.0500
  401.0000   -50.6370     7.1770     6.7290    10.0830  -999.2500   116.9990     8.6880     2.4520     0.0530
  401.5000   -50.8090     6.8820     6.6380     9.9610  -999.2500   117.9220     8.6720     2.4460     0.0530
  402.0000   -50.9820     6.6560     6.5090     9.7020  -999.2500   118.8400     8.6560     2.4400     0.0500
  402.5000   -51.1580     6.4300     6.3680     9.3110  -999.2500   119.7630     8.6400     2.4330     0.0470
  403.0000   -51.3780     6.2030     6.1070     9.0090  -999.2500   120.6780     8.6230     2.4260     0.0460
  403.5000   -51.7490     6.0590     5.8200     8.6380  -999.2500   121.3050     8.6070     2.4170     0.0450
  404.0000   -52.1110     5.8540     5.5330     8.2670  -999.2500   120.9940     8.5910     2.4060     0.0430
  404.5000   -52.4730     5.6130     5.2460     7.8960  -999.2500   120.3890     8.5850     2.3940     0.0420
  405.0000   -52.7920     5.3710     5.0620     7.5230  -999.2500   119.7130     8.6030     2.3830     0.0400
  405.5000   -53.0730     5.1300     4.9690     7.1490  -999.2500   120.0740     8.6210     2.3720     0.0390
  406.0000   -53.3630     4.7980     4.4650     6.6770  -999.2500   121.2060     8.6390     2.3610     0.0390
  406.5000   -53.3670     4.3830     4.0560     6.1660  -999.2500   122.8180     8.6570     2.3490     0.0410
  407.0000   -53.2850     3.9730     3.9000     5.5560  -999.2500   123.4100     8.6740     2.3380     0.0430
  407.5000   -53.1990     3.5940     3.5210     4.8900  -999.2500   123.6880     8.6920     2.3270     0.0450
  408.0000   -53.1130     3.2150     3.1420     4.2090  -999.2500   123.1760     8.7100     2.3160     0.0470
  408.5000   -52.9790     2.8360     2.5870     3.5270  -999.2500   122.6100     8.7280     2.3090     0.0500
  409.0000   -52.5330     2.5400     2.6130     3.0810  -999.2500   122.1000     8.7460     2.3080     0.0450
  409.5000   -52.0650     2.6650     2.6840     3.3010  -999.2500   121.3340     8.7640     2.3100     0.0380
  410.0000   -51.3680     2.8220     2.4040     3.8370  -999.2500   120.5020     8.7770     2.3220     0.0300
  410.5000   -50.6310     3.2170     2.5370     4.4500  -999.2500   119.6670     8.7660     2.3560     0.0190
