~VERSION INFORMATION
 VERS.                2.0:   CWLS LOG ASCII STANDARD - VERSION 2.0
 WRAP.                 NO:   ONE LINE PER DEPTH STEP
~WELL INFORMATION
#MNEM.UNIT      DATA TYPE    INFORMATION
#----------   ------------   ------------------------------
 STRT.F          218.5000:   START DEPTH
 STOP.F         3291.0000:   STOP DEPTH
 STEP.F            0.5000:   STEP LENGTH
 NULL.          -999.2500:   NO VALUE
 COMP.    FENIX & SCISSON:   COMPANY
 WELL.   FENIX SHX #63-23:   WELL
 FLD .  TEAPOT DOME NPR-3:   FIELD
 LOC .      S23 T38N R78W:   LOCATION
 CNTY.            NATRONA:   COUNTY
 STAT.            WYOMING:   STATE
 CTRY. UNITED STATES OF AMERICA:   COUNTRY
 SRVC.           BIRDWELL:   SERVICE COMPANY
 DATE.        08-JUL-1978:   LOGDATE
 API .     49025106600000:   API NUMBER
~CURVE INFORMATION
#MNEM.UNIT       API CODE    CURVE DESCRIPTION
#----------   ------------   ------------------------------
 DEPT.F                  :   
 GRD .GAPI   45 310 01 00:   GAMMA RAY FROM DENSITY LOG
 CALD.IN     45 280 60 00:   CALIPER FROM DENSITY LOG
 CORR.G/C3   45 356 01 00:   DENSITY CORRECTION
 RHOB.G/C3   45 350 01 00:   BULK DENSITY
 GR  .GAPI   35 310 01 00:   GAMMA RAY
 NEUT.NAPI   35 330 01 00:   NEUTRON
~PARAMETER INFORMATION
#MNEM.UNIT          VALUE    DESCRIPTION
#----------   ------------   ------------------------------
 EKB .F         5368.0000:   Kelly bushing
 EGL .F         5358.0000:   Ground level
 TD  .F         3299.0000:   Total depth
 CLNT.            A2DTECH:   Client Code
 PD  .                 GL:   Permanent Datum
 EPD .F              5358:   Elevation Permanent Datum
 LMF .                 KB:   Log Measured From
 DMF .                 KB:   Drilling Measured From
 DAPD.F                10:   Feet Above Permanent Datum
 DATE.        08-JUL-1978:   Date Logged [DD-MMM-YYYY]
 DD  .F              3299:   Depth driller
 DL  .F              3291:   Depth logger
 BLI .F              3291:   Bottom log interval
 TLI .F              1430:   Top log interval
 CS1 .IN            9.625:   Casing size
 CBD1.     9.625" @ 1450':   Casing driller 1
 CBL1.F              1442:   Casing logger 1
 BS1 .IN            8.750:   Bit size
 BSD1.F              3299:   Depth drilled with bit1
 DFT .          KCL WATER:   Type fluid in hole
 BHT .F               118:   BHT.
 TCS .HRS               2:   Time Circ. stopped
 MRT .F               118:   Maximum recorded temp.
 LUN .               2958:   Logging unit number
 LUL .               CASP:   Logging unit location
 ENGI.             MILLER:   Recorded By
 WITN.           MCGINLEY:   Witnessed by
 ORIG.           5" PRINT:   Origin of data
 UWI .     49025106600000:   Unique Well ID
 DICO. A2D TECHNOLOGIES, INC.:   Digitizing Company
 SL  . 1800' FNL & 1825' FEL:   Surface Location
~OTHER INFORMATION
~A   DEPT      GRD       CALD       CORR       RHOB          GR      NEUT   
# ...
 1674.5000    81.3513     9.4761     0.0892     2.5337  -999.2500  -999.2500
 1675.0000    81.3228     9.4722     0.0876     2.5499  -999.2500  -999.2500
 1675.5000    81.2343     9.4675     0.0860     2.5572  -999.2500  -999.2500
 1676.0000    81.1533     9.4627     0.0843     2.5624  -999.2500  -999.2500
 1676.5000    81.8986     9.4579     0.0858     2.5593  -999.2500  -999.2500
 1677.0000    83.4038     9.4548     0.0856     2.5504  -999.2500  -999.2500
 1677.5000    85.0912     9.4384     0.0855     2.5467  -999.2500  -999.2500
 1678.0000    86.8665     9.4524     0.0885     2.5548  -999.2500  -999.2500
 1678.5000    83.8124     9.4662     0.0884     2.5614  -999.2500  -999.2500
 1679.0000    80.1504     9.5262     0.0883     2.5702  -999.2500  -999.2500
 1679.5000    79.6800     9.4334     0.0821     2.5724  -999.2500  -999.2500
 1680.0000    79.9694     9.3866     0.0759     2.5583  -999.2500  -999.2500
 1680.5000    80.2918     9.3699     0.0728     2.5598  -999.2500  -999.2500
 1681.0000    80.7001     9.3688     0.0696     2.5627  -999.2500  -999.2500
 1681.5000    80.6819     9.3676     0.0649     2.5641  -999.2500  -999.2500
 1682.0000    78.2358     9.3664     0.0633     2.5581  -999.2500  -999.2500
 1682.5000    73.0540     9.3653     0.0587     2.5499  -999.2500  -999.2500
 1683.0000    72.8866     9.3641     0.0570     2.5477  -999.2500  -999.2500
 1683.5000    73.9332     9.3627     0.0554     2.5477  -999.2500  -999.2500
 1684.0000    74.6785     9.3615     0.0553     2.5498  -999.2500  -999.2500
 1684.5000    75.1235     9.3451     0.0582     2.5564  -999.2500  -999.2500
 1685.0000    75.1053     9.3287     0.0612     2.5572  -999.2500  -999.2500
 1685.5000    75.0907     9.2971     0.0626     2.5593  -999.2500  -999.2500
 1686.0000    75.2282     9.2652     0.0641     2.5637  -999.2500  -999.2500
 1686.5000    75.2100     9.2336     0.0669     2.5651  -999.2500  -999.2500
 1687.0000    75.1954     9.2172     0.0683     2.5629  -999.2500  -999.2500
 1687.5000    75.3365     9.2008     0.0682     2.5599  -999.2500  -999.2500
 1688.0000    75.3183     9.1845     0.0696     2.5568  -999.2500  -999.2500
 1688.5000    75.3037     9.1680     0.0695     2.5531  -999.2500  -999.2500
 1689.0000    75.4411     9.1362     0.0694     2.5501  -999.2500  -999.2500
 1689.5000    75.5786     9.1046     0.0708     2.5464  -999.2500  -999.2500
 1690.0000    75.5604     9.1643     0.0713     2.5434  -999.2500  -999.2500
 1690.5000    75.5458     9.3001     0.0737     2.5485  -999.2500  -999.2500
 1691.0000    75.6832     9.3142     0.0736     2.5499  -999.2500  -999.2500
 1691.5000    75.9726     9.3127     0.0735     2.5492  -999.2500  -999.2500
 1692.0000    76.1101     9.3209     0.0748     2.5462  -999.2500  -999.2500
 1692.5000    76.5514     9.3259     0.0763     2.5469  -999.2500  -999.2500
 1693.0000    76.6852     9.3397     0.0762     2.5520  -999.2500  -999.2500
 1693.5000    77.1266     9.3689     0.0837     2.5617  -999.2500  -999.2500
 1694.0000    78.4798     9.3830     0.1003     2.5748  -999.2500  -999.2500
 1694.5000    79.0816     9.3970     0.1171     2.5711  -999.2500  -999.2500
 1695.0000    79.5145     9.4262     0.1334     2.5843  -999.2500  -999.2500
 1695.5000    79.1924     9.4404     0.1409     2.5895  -999.2500  -999.2500
 1696.0000    78.4179     9.4542     0.1393     2.5820  -999.2500  -999.2500
 1696.5000    79.0113     9.4834     0.1149     2.5601  -999.2500  -999.2500
 1697.0000    79.4527     9.4820     0.0951     2.5465  -999.2500  -999.2500
 1697.5000    79.7593     9.5112     0.0857     2.5435  -999.2500  -999.2500
 1698.0000    80.3318     9.5256     0.0842     2.5445  -999.2500  -999.2500
 1698.5000    77.4297     9.5396     0.0856     2.5551  -999.2500  -999.2500
 1699.0000    75.7434     9.5382     0.0855     2.5588  -999.2500  -999.2500
 1699.5000    75.2729     9.5370     0.0839     2.5603  -999.2500  -999.2500
 1700.0000    75.4103     9.5359     0.0792     2.5580  -999.2500  -999.2500
 1700.5000    75.3951     9.5417     0.0746     2.5491  -999.2500  -999.2500
 1701.0000    75.3775     9.5475     0.0730     2.5380  -999.2500  -999.2500
 1701.5000    75.5186     9.5307     0.0714     2.5284  -999.2500  -999.2500
 1702.0000    75.8043     9.4984     0.0697     2.5320  -999.2500  -999.2500
 1702.5000    75.7897     9.4662     0.0666     2.5431  -999.2500  -999.2500
 1703.0000    76.2311     9.4646     0.0650     2.5445  -999.2500  -999.2500
 1703.5000    76.8208     9.4478     0.0619     2.5386  -999.2500  -999.2500
 1704.0000    75.8943     9.4461     0.0603     2.5356  -999.2500  -999.2500
 1704.5000    75.4238     9.4293     0.0571     2.5341  -999.2500  -999.2500
 1705.0000    75.5649     9.4277     0.0555     2.5319  -999.2500  -999.2500
 1705.5000    77.6743     9.4105     0.0539     2.5289  -999.2500  -999.2500
 1706.0000    79.7874     9.4089     0.0538     2.5250  -999.2500  -999.2500
 1706.5000    79.9248     9.3921     0.0537     2.5222  -999.2500  -999.2500
 1707.0000    80.2105     9.3904     0.0537     2.5192  -999.2500  -999.2500
 1707.5000    80.5035     9.3888     0.0551     2.5162  -999.2500  -999.2500
 1708.0000    80.7929     9.3720     0.0550     2.5191  -999.2500  -999.2500
 1708.5000    79.4069     9.3700     0.0610     2.5296  -999.2500  -999.2500
 1709.0000    77.0942     9.3684     0.0655     2.5412  -999.2500  -999.2500
 1709.5000    76.7942     9.3670     0.0638     2.5508  -999.2500  -999.2500
 1710.0000    78.4477     9.3652     0.0591     2.5404  -999.2500  -999.2500
 1710.5000    78.5887     9.3636     0.0545     2.5382  -999.2500  -999.2500
 1711.0000    77.2027     9.3467     0.0529     2.5374  -999.2500  -999.2500
 1711.5000    75.5164     9.3447     0.0528     2.5391  -999.2500  -999.2500
 1712.0000    75.0459     9.3431     0.0527     2.5477  -999.2500  -999.2500
 1712.5000    75.6356     9.3415     0.0527     2.5514  -999.2500  -999.2500
 1713.0000    76.0806     9.3399     0.0542     2.5521  -999.2500  -999.2500
 1713.5000    76.5219     9.3384     0.0570     2.5520  -999.2500  -999.2500
 1714.0000    75.5918     9.3367     0.0569     2.5490  -999.2500  -999.2500
 1714.5000    74.9693     9.3347     0.0584     2.5402  -999.2500  -999.2500
 1715.0000    75.4107     9.3179     0.0598     2.5350  -999.2500  -999.2500
 1715.5000    75.8484     9.3163     0.0627     2.5482  -999.2500  -999.2500
 1716.0000    76.1378     9.3147     0.0642     2.5541  -999.2500  -999.2500
 1716.5000    76.5828     9.3283     0.0701     2.5585  -999.2500  -999.2500
 1717.0000    76.8721     9.3266     0.0716     2.5630  -999.2500  -999.2500
 1717.5000    77.1581     9.3250     0.0730     2.5666  -999.2500  -999.2500
 1718.0000    77.2280     9.3231     0.0714     2.5673  -999.2500  -999.2500
 1718.5000    77.4327     9.3215     0.0683     2.5658  -999.2500  -999.2500
 1719.0000    77.4144     9.3199     0.0667     2.5628  -999.2500  -999.2500
 1719.5000    77.5518     9.3183     0.0666     2.5576  -999.2500  -999.2500
 1720.0000    77.6929     9.3252     0.0604     2.5465  -999.2500  -999.2500
 1720.5000    77.6747     9.3301     0.0542     2.5420  -999.2500  -999.2500
 1721.0000    78.0062     9.3283     0.0481     2.5398  -999.2500  -999.2500
 1721.5000    79.4656     9.3423     0.0495     2.5375  -999.2500  -999.2500
 1722.0000    80.3628     9.3403     0.0511     2.5478  -999.2500  -999.2500
 1722.5000    80.8042     9.3461     0.0524     2.5531  -999.2500  -999.2500
 1723.0000    80.9416     9.3675     0.0477     2.5567  -999.2500  -999.2500
 1723.5000    80.9270     9.3963     0.0446     2.5448  -999.2500  -999.2500
 1724.0000    81.0644     9.4099     0.0414     2.5300  -999.2500  -999.2500
 1724.5000    80.4383     9.4388     0.0383     2.5263  -999.2500  -999.2500
 1725.0000    79.3599     9.4524     0.0382     2.5373  -999.2500  -999.2500
 1725.5000    78.4334     9.4657     0.0442     2.5432  -999.2500  -999.2500
 1726.0000    78.1149     9.4805     0.0472     2.5461  -999.2500  -999.2500
