~VERSION INFORMATION
 VERS.                2.0:   CWLS LOG ASCII STANDARD - VERSION 2.0
 WRAP.                 NO:   ONE LINE PER DEPTH STEP
~WELL INFORMATION
#MNEM.UNIT      DATA TYPE    INFORMATION
#----------   ------------   ------------------------------
 STRT.F            0.0000:   START DEPTH
 STOP.F         5786.0000:   STOP DEPTH
 STEP.F            0.5000:   STEP LENGTH
 NULL.          -999.2500:   NO VALUE
 COMP. U.S. DEPARTMENT OF ENERGY:   COMPANY
 WELL. DEPARTMENT "X" #2-3:   WELL
 FLD .           N P R #3:   FIELD
 LOC .       S3 T38N R78W:   LOCATION
 CNTY.            NATRONA:   COUNTY
 STAT.            WYOMING:   STATE
 CTRY. UNITED STATES OF AMERICA:   COUNTRY
 SRVC.       BAKER HUHGES:   SERVICE COMPANY
 DATE.        14-JUL-2002:   LOGDATE
 API .     49025230540000:   API NUMBER
~CURVE INFORMATION
#MNEM.UNIT       API CODE    CURVE DESCRIPTION
#----------   ------------   ------------------------------
 DEPT.F                  :   
 TEND.LBS    45 635 01 00:   TENSION FROM DENSITY LOG
 CALD.IN     45 280 60 00:   CALIPER FROM DENSITY LOG
 ZCOR.G/C3   45 356 01 00:   DENSITY CORRECTION
 PE  .B/E    45 358 01 00:   PHOTOELECTRIC FACTOR
 ZDEN.G/C3   45 350 01 00:   BULK DENSITY
 CNCF.DEC    42 890 03 00:   NEUTRON POROSITY
 TENS.LBS    60 635 01 00:   TENSION FROM SONIC
 DT  .US/F   60 520 00 00:   DELTA TIME
 RD  .OHMM   11 220 10 00:   RESISTIVITY DEEP
 TENR.LBS    11 635 01 00:   TENSION FROM RES. LOG
 RS  .OHMM   11 220 09 00:   RESISTIVITY SHALLOW
 GRR .GAPI   11 310 01 00:   GAMMA RAY FROM RES.
 RMLL.OHMM   11 270 04 00:   MICRO LATEROLOG
 SPR .MV     11 010 01 00:   SPONTANEOUS POTENTIAL FROM RES.
~PARAMETER INFORMATION
#MNEM.UNIT          VALUE    DESCRIPTION
#----------   ------------   ------------------------------
 EKB .F         5164.7000:   Kelly bushing
 EGL .F         5154.7000:   Ground level
 EDF .F         5163.7000:   Drilling floor
 TD  .F         5773.0000:   Total depth
 DATE.        14-JUL-2002:   Date logged
 CLNT.            A2DTECH:   Client Code
 SL  . 838' FNL & 2128' FWL:   Surface Location
 PD  .                 GL:   Permanent Datum
 EPD .F            5154.7:   Elevation Permanent Datum
 LMF .                 KB:   Log Measured From
 DMF .                 KB:   Drilling Measured From
 DD  .F              5770:   Depth driller
 DL  .F              5773:   Depth logger
 BLI .F              5770:   Bottom log interval
 CS1 .IN            9.625:   Casing size
 CBD1.       9.625 @ 578':   Casing driller 1
 CBL1.F               578:   Casing logger 1
 BS1 .IN             8.75:   Bit size
 DFT .       GEL/CHEMICAL:   Type fluid in hole
 DFD .                  9:   Density
 DFV .                 45:   Viscosity
 DFPH.                8.5:   pH
 DFL .                9.6:   Fluid loss
 MSS .           FLOWLINE:   Source of sample
 RMS .OHMM          0.568:   Rm
 MST .F                91:   Rm Meas. temp.
 RMF .OHMM          0.490:   Rmf
 MFST.F                92:   Rmf Meas. temp.
 RMC .OHMM          1.072:   Rmc
 MCST.F                90:   Rmc Meas. temp.
 MFSS.               MEAS:   Source Rmf.
 RMB .OHMM          0.291:   Rm. at BHT
 BHT .F               184:   BHT.
 TCS .HRS               8:   Time Circ. stopped
 MRT .F               184:   Maximum recorded temp.
 LUN .            HL-6530:   Logging unit number
 LUL .             CASPER:   Logging unit location
 ENGI.           VERCIMAK:   Recorded By
 WITN.              HARDY:   Witnessed by
 ORIG.           5" PRINT:   Origin of data
 UWI .     49025230540000:   Unique Well ID
 DICO. A2D TECHNOLOGIES, INC.:   Digitizing Company
~OTHER INFORMATION
~A    DEPT    TEND       CALD       ZCOR         PE       ZDEN       CNCF       TENS         DT         RD       TENR         RS         GRR      RMLL        SPR   
# ...
 1249.5000   -15.0000     9.6430     0.1270     3.0520     2.4410     0.3240   -42.2750    94.5980     5.2840   -27.3340     6.4370    97.6410  -999.2500   -14.9610
 1250.0000    -0.0150     9.6430     0.0780     3.0710     2.4790     0.3060   -43.0610    91.4200     5.3980   -25.4490     6.6110    97.2390  -999.2500   -14.8910
 1250.5000     5.0000     9.6080     0.0420     3.0900     2.5160     0.3110   -43.8480    89.2480     5.5120   -25.4490     6.7850    98.0150  -999.2500   -14.8210
 1251.0000     5.0000     9.5990     0.0230     3.1080     2.5230     0.3190   -44.6340    90.7930     5.5480   -25.4490     6.9640    98.7860  -999.2500   -14.7680
 1251.5000     5.0000     9.5930     0.0450     3.1270     2.4930     0.3200   -45.4210    92.7320     5.4410   -25.4490     6.8490    99.8210  -999.2500   -14.7700
 1252.0000     5.6540     9.5870     0.0790     3.1460     2.4700     0.3130   -46.2070    93.2740     5.3890   -28.0940     6.6960    99.2810  -999.2500   -14.7680
 1252.5000     6.6770     9.5830     0.0910     3.1640     2.4800     0.3060   -46.9940    93.5350     5.3480   -32.1860     6.5460    98.4390  -999.2500   -14.6990
 1253.0000     7.7000     9.5860     0.0710     3.1840     2.5070     0.3020   -47.7800    93.4870     5.3970   -36.2770     6.5460    97.6580  -999.2500   -14.3430
 1253.5000     8.7230     9.5890     0.0570     3.2020     2.5330     0.3050   -48.5670    93.1660     5.4230   -40.3690     6.7120    99.0290  -999.2500   -13.9920
 1254.0000     9.7460     9.5920     0.0790     3.2600     2.5530     0.3190   -49.3530    92.8560     5.5570   -44.4610     6.8870    99.3760  -999.2500   -13.7670
 1254.5000    10.7690     9.5950     0.0990     3.3460     2.5680     0.3340   -50.1390    91.2350     5.6920   -45.4090     7.0620    97.5580  -999.2500   -13.9120
 1255.0000    11.7920     9.5980     0.1150     3.2550     2.5750     0.3220   -50.9260    89.6690     5.8270   -45.4090     7.1770    96.0640  -999.2500   -14.0630
 1255.5000    12.8150     9.6010     0.1150     3.0190     2.5650     0.3100   -51.7120    88.8480     5.9710   -45.4090     7.2430    96.5730  -999.2500   -14.1500
 1256.0000    13.8370     9.6040     0.0840     2.7630     2.5400     0.3000   -52.4990    90.3570     5.7980   -45.4090     7.2430    97.0980  -999.2500   -13.9660
 1256.5000    14.8600     9.6070     0.0560     2.6410     2.5150     0.2950   -53.2850    91.9230     5.5690   -45.4090     6.9860    97.6380  -999.2500   -13.7780
 1257.0000    20.3000     9.6100     0.0590     2.5710     2.5050     0.2870   -54.0720    92.9550     5.3970   -45.4090     6.7900    98.8630  -999.2500   -13.5870
 1257.5000    26.4370     9.6130     0.0780     2.5980     2.5060     0.2830   -54.3380    92.8730     5.4320   -45.4090     6.6070    99.9220  -999.2500   -13.8690
 1258.0000    32.5750     9.6150     0.0820     2.6150     2.5220     0.2850   -53.4820    92.1190     5.5660   -45.4090     6.7790    98.2770  -999.2500   -13.7640
 1258.5000    31.9690     9.6180     0.0700     2.6230     2.5380     0.2860   -52.6270    92.0050     5.6990   -45.4090     6.9420    98.1430  -999.2500   -13.7740
 1259.0000    24.4150     9.6210     0.0570     2.6310     2.5440     0.2840   -51.7710    92.0540     5.8320   -45.4090     7.1040    99.5080  -999.2500   -13.7680
 1259.5000    16.8620     9.6220     0.0700     2.6390     2.5370     0.2820   -50.9150    91.1370     5.9660   -41.1610     7.2670   100.9180  -999.2500   -14.0250
 1260.0000     9.3080     9.6210     0.0810     2.6460     2.5300     0.2770   -50.0590    90.2670     6.0990   -34.1460     7.4290   100.2730  -999.2500   -14.2340
 1260.5000     1.7540     9.6190     0.0830     2.6640     2.5220     0.2710   -49.2030    89.3970     6.2330   -27.1310     7.5920    99.0920  -999.2500   -14.4480
 1261.0000    -5.8000     9.6180     0.0860     2.6930     2.5150     0.2680   -48.3480    88.5470     6.4270   -20.1170     7.7960    98.3470  -999.2500   -14.3660
 1261.5000   -13.3540     9.6170     0.0920     2.7670     2.5100     0.2760   -47.4920    88.9480     6.3870   -19.6110     7.7610   100.2920  -999.2500   -13.9680
 1262.0000   -20.9080     9.6150     0.0920     2.9910     2.5050     0.2860   -46.6360    88.8970     6.3120   -24.4770     7.6960   102.3950  -999.2500   -13.6140
 1262.5000   -25.0000     9.6140     0.0830     3.1940     2.5040     0.2880   -45.7800    88.9580     6.2370   -22.6250     7.6310   104.4930  -999.2500   -13.5290
 1263.0000   -25.0000     9.6130     0.0770     3.3630     2.5040     0.2880   -44.9240    89.7260     6.1620   -20.7720     7.5670   104.8080  -999.2500   -13.4830
 1263.5000   -25.0000     9.6110     0.0830     3.2990     2.5080     0.2890   -41.0600    90.4940     6.1380   -18.9190     7.5020   104.8140  -999.2500   -13.4390
 1264.0000   -24.0570     9.6100     0.0900     3.1620     2.5090     0.2900   -35.2590    91.2610     6.1380   -17.0660     7.4380   104.8200  -999.2500   -13.3940
 1264.5000   -21.7190     9.6080     0.0750     3.0690     2.5110     0.2870   -29.4590    91.4530     6.1380   -15.2130     7.3730   104.7720  -999.2500   -13.3370
 1265.0000   -19.3810     9.6070     0.0560     3.0690     2.5210     0.2800   -24.9220    91.1720     6.1380   -13.3600     7.2430   103.1400  -999.2500   -13.1650
 1265.5000   -17.0430     9.6060     0.0490     3.0260     2.5330     0.2730   -27.3500    90.8510     6.1380   -11.5070     7.3120   101.7840  -999.2500   -12.9930
 1266.0000   -14.5230     9.6040     0.0560     2.9800     2.5390     0.2730   -29.7780    90.5580     6.2090    -9.6540     7.4250   100.8610  -999.2500   -12.8230
 1266.5000   -10.7460     9.6030     0.0630     2.9310     2.5420     0.2750   -32.2060    90.2450     6.2800    -7.8010     7.5380    98.2590  -999.2500   -12.6530
 1267.0000    -6.9690     9.6060     0.0690     2.7760     2.5400     0.2820   -34.6340    89.9310     6.3510    -5.9480     7.6500    96.3640  -999.2500   -12.6280
 1267.5000    -7.4740     9.6100     0.0620     2.6430     2.5340     0.2890   -37.0620    89.9500     6.3680   -16.7740     7.7960    97.7800  -999.2500   -12.7500
 1268.0000   -12.6420     9.6140     0.0390     2.6590     2.5250     0.2890   -39.4910    90.9640     6.1840   -20.5510     7.7960   100.0540  -999.2500   -12.8710
 1268.5000   -17.8110     9.6180     0.0460     2.7200     2.5160     0.2800   -41.9190    91.6150     6.0230   -24.3280     7.2430   102.2930  -999.2500   -12.9480
 1269.0000   -22.9790     9.6210     0.0770     2.7260     2.5100     0.2880   -44.3470    93.0320     5.8610   -25.4490     7.1110   104.1910  -999.2500   -12.8480
 1269.5000   -33.5430     9.6230     0.0990     2.7220     2.5120     0.2950   -43.9790    94.5870     5.7000   -22.3270     6.9120   103.3970  -999.2500   -12.7530
 1270.0000   -47.5710     9.6230     0.0870     2.7170     2.5260     0.2930   -43.3010    95.3610     5.5480   -18.8200     6.7290   102.3290  -999.2500   -12.6580
 1270.5000   -61.6000     9.6230     0.0720     2.7140     2.5420     0.2910   -42.6230    94.0190     5.4970   -15.4690     6.7730   102.1220  -999.2500   -12.5620
 1271.0000   -75.6290     9.6190     0.0560     2.7300     2.5530     0.2950   -41.9450    93.2570     5.5580   -14.7310     6.8390   100.1020  -999.2500   -12.4660
 1271.5000   -84.0940     9.6110     0.0420     2.7960     2.5170     0.3000   -41.2670    92.4430     5.6510   -13.8540     6.9050    97.6120  -999.2500   -12.3710
 1272.0000   -81.3670     9.6030     0.0780     2.8590     2.4840     0.3050   -40.5890    91.0520     5.7030   -12.9780     6.9180    96.1980  -999.2500   -12.5040
 1272.5000   -78.6390     9.6200     0.1260     2.9230     2.4580     0.3080   -39.9110    92.9560     5.4860   -12.1010     6.7140    95.7960  -999.2500   -12.6540
 1273.0000   -75.9110     9.6390     0.1660     3.0250     2.4420     0.3110   -39.2330    92.9560     5.3190   -11.2240     6.5270    95.0260  -999.2500   -12.7180
 1273.5000   -71.5080     9.6570     0.1810     3.1360     2.4010     0.3190   -38.5550    93.1390     5.2390   -10.3470     6.4730    93.8570  -999.2500   -12.5130
