~VERSION INFORMATION
 VERS.                2.0:   CWLS LOG ASCII STANDARD - VERSION 2.0
 WRAP.                 NO:   ONE LINE PER DEPTH STEP
~WELL INFORMATION
#MNEM.UNIT      DATA TYPE    INFORMATION
#----------   ------------   ------------------------------
 STRT.F           61.5000:   START DEPTH
 STOP.F         4220.0000:   STOP DEPTH
 STEP.F            0.5000:   STEP LENGTH
 NULL.          -999.2500:   NO VALUE
 COMP.   LAWRENCE ALLISON:   COMPANY
 WELL. ALLISON NPR 3 "LX" #28-34:   WELL
 FLD .                NPR:   FIELD
 LOC .      S34 T39N R78W:   LOCATION
 CNTY.            NATRONA:   COUNTY
 STAT.            WYOMING:   STATE
 CTRY. UNITED STATES OF AMERICA:   COUNTRY
 SRVC.       DRESER ATLAS:   SERVICE COMPANY
 DATE.        23-MAR-1983:   LOGDATE
 API .     49025109190000:   API NUMBER
~CURVE INFORMATION
#MNEM.UNIT       API CODE    CURVE DESCRIPTION
#----------   ------------   ------------------------------
 DEPT.F                  :   
 TEND.LBS    45 635 01 00:   TENSION FROM DENSITY LOG
 CORR.G/C3   45 356 01 00:   DENSITY CORRECTION
 RHOB.G/C3   45 350 01 00:   BULK DENSITY
 CN  .DEC    42 890 00 00:   Neutron Porosity
 SPR .MV     07 010 01 00:   SPONTANEOUS POTENTIAL
 GRR .GAPI   07 310 01 00:   GAMMA RAY FROM RESISTIVITY
 TENR.LBS    07 635 01 00:   TENSION FROM RESISTIVITY
 RILD.OHMM   07 120 46 00:   DEEP INDUCTION RESISTIVITY
 RILM.OHMM   07 120 44 00:   INDUCTION LOG MEDIUM RESISTIVITY
 RFOC.OHMM   07 220 01 00:   RESISTIVITY FOCUSED LOG RES.
 TENS.LBS    60 635 01 00:   TENSION FROM SONIC LOG
 DT  .US/F   60 520 00 00:   DELTA TIME
 CALS.IN     60 280 50 00:   CALIPER FROM SONIC LOG
~PARAMETER INFORMATION
#MNEM.UNIT          VALUE    DESCRIPTION
#----------   ------------   ------------------------------
 EKB .F         5184.0000:   Kelly bushing
 EGL .F         5174.0000:   Ground level
 EDF .F            0.0000:   Drilling floor
 TD  .F         4397.0000:   Total depth
 DATE.        23-MAR-1983:   Date logged
 CLNT.            A2DTECH:   Client Code
 SL  . 942' FWL & 645' FSL:   Surface Location
 PD  .                 GL:   Permanent Datum
 EPD .F              5174:   Elevation Permanent Datum
 LMF .                 KB:   Log Measured From
 DMF .                 KB:   Drilling Measured From
 DAPD.F                10:   Feet Above Permanent Datum
 DD  .F              4397:   Depth driller
 DL  .F              4203:   Depth logger
 BLI .F              4201:   Bottom log interval
 CS1 .IN            9.625:   Casing size
 CBD1.      9.625" @ 659':   Casing driller 1
 CBL1.F               658:   Casing logger 1
 BS1 .IN             8.75:   Bit size
 BSD1.F              4397:   Depth drilled with bit1
 DFT .   GEL/DRISPACK/KCL:   Type fluid in hole
 DFD .                8.6:   Density
 DFV .                 36:   Viscosity
 DFPH.                8.5:   pH
 DFL .                 18:   Fluid loss
 MSS .               TANK:   Source of sample
 RMS .OHMM           0.55:   Rm
 MST .F                74:   Rm Meas. temp.
 RMF .OHMM           0.43:   Rmf
 MFST.F                66:   Rmf Meas. temp.
 RMC .OHMM           0.69:   Rmc
 MCST.F                74:   Rmc Meas. temp.
 MFSS.               MEAS:   Source Rmf.
 MCSS.               CALC:   Source Rmc.
 RMB .OHMM           0.33:   Rm. at BHT
 BHT .F               122:   BHT.
 TCS .HRS             5.5:   Time Circ. stopped
 MRT .F               122:   Maximum recorded temp.
 LUN .               6270:   Logging unit number
 LUL .              WLSTN:   Logging unit location
 ENGI.             REEVES:   Recorded By
 WITN.             STRONG:   Witnessed by
 ORIG.           5" PRINT:   Origin of data
 UWI .     49025109190000:   Unique Well ID
 DICO. A2D TECHNOLOGIES, INC.:   Digitizing Company
~OTHER INFORMATION
~A   DEPT     TEND       CORR       RHOB         CN        SPR         GRR      TENR       RILD       RILM       RFOC       TENS         DT       CALS   
# ...
  659.5000  -999.2500  -999.2500  -999.2500  -999.2500   -15.5800    93.5230    -8.6260  -999.2500  -999.2500     4.9180   -52.6250   115.7370    15.4520
  660.0000  -999.2500  -999.2500  -999.2500  -999.2500   -16.8470    91.0630     7.4420  -999.2500  -999.2500     4.9790   -44.4030   109.9560    15.4740
  660.5000  -999.2500  -999.2500  -999.2500  -999.2500   -18.1130    88.6560    25.5510  1142.0590  -999.2500     5.0490   -31.8020   103.1010    15.4950
  661.0000  -999.2500  -999.2500  -999.2500  -999.2500   -19.2250    91.3110    16.7330   297.5630  -999.2500     5.1200   -19.2020    98.3330    15.5000
  661.5000  -999.2500  -999.2500  -999.2500  -999.2500   -19.5960    93.8200     6.6330    21.7340  -999.2500     5.1640    -6.6010    95.5220    15.5200
  662.0000  -999.2500  -999.2500  -999.2500  -999.2500   -20.3680    96.1900     1.5270    10.4020  -999.2500     5.2030    -4.0160    95.7250    15.4990
  662.5000  -999.2500  -999.2500  -999.2500  -999.2500   -21.0970    95.1510    -8.5170     6.9520    12.1510     5.2160   -11.5460    97.0930    15.4980
  663.0000  -999.2500  -999.2500  -999.2500  -999.2500   -21.8520    93.3820   -18.6170     6.9060    11.8220     5.2290   -19.9460    98.4610    15.4970
  663.5000  -999.2500  -999.2500  -999.2500  -999.2500   -22.5950    92.7690   -28.7170     6.7310    11.4590     5.2420   -28.3470    99.1370    15.4970
  664.0000  -999.2500  -999.2500  -999.2500  -999.2500   -23.3960    93.5870   -34.5690     6.8640    10.4360     5.2550   -34.6260    98.9720    15.4960
  664.5000  -999.2500  -999.2500  -999.2500  -999.2500   -23.8430    97.6980   -34.5690     6.5720     8.8150     5.2670   -36.2010    97.9320    15.4960
  665.0000  -999.2500  -999.2500  -999.2500  -999.2500   -23.8300   101.5950   -34.5690     6.3180     7.1930     5.2800   -37.7760    97.7070    15.4950
  665.5000  -999.2500  -999.2500  -999.2500  -999.2500   -23.8780   103.0510   -34.5690     6.0640     5.4940     5.2950   -39.3510    97.5300    15.4940
  666.0000  -999.2500  -999.2500  -999.2500  -999.2500   -23.9200   100.7840   -34.5690     5.8110     5.3900     5.2430   -40.9260    97.7310    15.4940
  666.5000  -999.2500  -999.2500  -999.2500  -999.2500   -23.9520    98.6780   -34.5690     5.5570     5.3940     5.0870   -42.5010    99.6020    15.4930
  667.0000  -999.2500  -999.2500  -999.2500  -999.2500   -23.9930    98.5880   -35.9600     5.3030     4.9380     4.6610   -44.0760   101.9560    15.4920
  667.5000  -999.2500  -999.2500  -999.2500  -999.2500   -24.0320    98.6090   -38.9310     5.0490     4.7880     4.2340   -45.6510   104.2340    15.4920
  668.0000  -999.2500  -999.2500  -999.2500  -999.2500   -24.0680    98.2900   -41.9010     4.9180     4.9610     4.0150   -47.2260   105.9640    15.4910
  668.5000  -999.2500  -999.2500  -999.2500  -999.2500   -24.1080    97.7960   -44.8720     5.0720     5.1340     4.3450   -48.8010   105.6470    15.4910
  669.0000  -999.2500  -999.2500  -999.2500  -999.2500   -24.1490    95.5780   -47.8430     5.1980     5.3060     4.8240   -50.3770   104.5580    15.4900
  669.5000  -999.2500  -999.2500  -999.2500  -999.2500   -24.1730    95.0480   -50.8130     5.3460     5.4940     5.3030   -51.9520   102.3990    15.4890
  670.0000  -999.2500  -999.2500  -999.2500  -999.2500   -24.3360    94.4640   -53.7840     5.5090     5.6550     5.7820   -53.5270   100.4620    15.4890
  670.5000  -999.2500  -999.2500  -999.2500  -999.2500   -24.6000    94.0010   -48.0960     5.6720     5.9670     6.3040   -51.3860    99.3370    15.4880
  671.0000  -999.2500  -999.2500  -999.2500  -999.2500   -24.8560    93.5300   -39.0780     5.8360     6.2780     6.8430   -46.3450    98.6340    15.4880
  671.5000  -999.2500  -999.2500  -999.2500  -999.2500   -25.0910    92.7030   -30.0600     5.9990     6.5900     7.1110   -41.3050    98.1330    15.4870
  672.0000  -999.2500  -999.2500  -999.2500  -999.2500   -25.3770    93.0800   -21.0420     6.1380     6.8180     7.2830   -36.2650    97.3060    15.4860
  672.5000  -999.2500  -999.2500  -999.2500  -999.2500   -25.3520    94.5670   -12.0240     6.2490     6.9840     7.4540   -31.2250    96.6000    15.4860
  673.0000  -999.2500  -999.2500  -999.2500  -999.2500   -25.3020    95.6680    -4.5090     6.3980     7.0480     7.6260   -26.1850    95.8950    15.4850
  673.5000  -999.2500  -999.2500  -999.2500  -999.2500   -25.2380    96.5640    -5.3510     6.5460     7.1140     7.8020   -23.0790    95.3210    15.4850
  674.0000  -999.2500  -999.2500  -999.2500  -999.2500   -25.1840    97.1440    -6.0720     6.6080     7.1800     7.8860   -21.3410    95.1890    15.4840
  674.5000  -999.2500  -999.2500  -999.2500  -999.2500   -25.1260    96.6730    -6.7940     6.6080     7.2470     7.9720   -19.6030    95.0210    15.4830
  675.0000  -999.2500  -999.2500  -999.2500  -999.2500   -25.0690    96.2650    -7.5150     6.6080     7.2470     8.0580   -17.8650    95.1870    15.4830
  675.5000  -999.2500  -999.2500  -999.2500  -999.2500   -25.0120    95.8200    -8.2360     6.6080     7.2470     8.1440   -16.1270    95.7480    15.4820
  676.0000  -999.2500  -999.2500  -999.2500  -999.2500   -24.9550    95.4400    -8.9580     6.6080     7.2500     8.2460   -14.3890    95.8740    15.4810
  676.5000  -999.2500  -999.2500  -999.2500  -999.2500   -24.9000    94.8630    -9.6790     6.6080     7.2670     8.0960   -12.6510    96.0010    15.4810
  677.0000  -999.2500  -999.2500  -999.2500  -999.2500   -24.8420    95.5090   -10.4010     6.6080     7.2840     8.0840   -10.9130    96.1240    15.4800
  677.5000  -999.2500  -999.2500  -999.2500  -999.2500   -24.7830    96.7700   -11.1220     6.6080     7.3020     8.0670    -9.1750    95.9240    15.4800
  678.0000  -999.2500  -999.2500  -999.2500  -999.2500   -24.7370    97.7410   -11.8440     6.6080     7.3170     8.0490    -7.4370    95.2340    15.4790
  678.5000  -999.2500  -999.2500  -999.2500  -999.2500   -24.6530    94.7770   -12.5650     6.7140     7.3340     8.0310    -5.6990    94.3940    15.4780
  679.0000  -999.2500  -999.2500  -999.2500  -999.2500   -24.5860    94.2380   -13.2870     6.8560     7.3530     8.0130    -4.0160    93.8430    15.4780
  679.5000  -999.2500  -999.2500  -999.2500  -999.2500   -23.2960    95.7380   -14.0080     6.8110     7.3750     7.9960   -12.6840    93.8730    15.4770
  680.0000  -999.2500  -999.2500  -999.2500  -999.2500   -21.6630    97.0930   -16.8670     6.7580     7.3920     7.9780   -21.0840    94.5450    15.4770
  680.5000  -999.2500  -999.2500  -999.2500  -999.2500   -20.0320    98.3510   -25.2840     6.7310     7.2590     7.9600   -29.4850    95.2170    15.4760
  681.0000  -999.2500  -999.2500  -999.2500  -999.2500   -18.2580    96.0440   -34.5690     6.6860     7.2100     7.9130   -33.1590    95.8890    15.4750
  681.5000  -999.2500  -999.2500  -999.2500  -999.2500   -17.6120    96.2260   -19.4720     6.6210     7.1380     7.7940   -30.9670    96.3430    15.4750
  682.0000  -999.2500  -999.2500  -999.2500  -999.2500   -18.5630    97.0080   -15.3050     6.5560     7.0660     7.6750   -28.7760    96.6790    15.4740
  682.5000  -999.2500  -999.2500  -999.2500  -999.2500   -19.4420    97.8520   -16.4020     6.4910     6.9990     7.5560   -26.5850    97.0150    15.4740
  683.0000  -999.2500  -999.2500  -999.2500  -999.2500   -20.4960    98.6760   -17.5000     6.4260     6.9320     7.4370   -24.3930    97.3510    15.4730
  683.5000  -999.2500  -999.2500  -999.2500  -999.2500   -21.5890    97.6070   -18.5980     6.3610     6.8650     7.3460   -22.2020    97.7310    15.4720
  684.0000  -999.2500  -999.2500  -999.2500  -999.2500   -22.6510    96.1670   -19.6960     6.2960     6.7980     7.2780   -20.0100    97.8180    15.4720
  684.5000  -999.2500  -999.2500  -999.2500  -999.2500   -23.7570    94.4420   -20.7940     6.2310     6.7310     7.1950   -17.8190    97.9320    15.4710
  685.0000  -999.2500  -999.2500  -999.2500  -999.2500   -24.6430    94.8880   -21.8920     6.1660     6.6640     7.1010   -15.6280    97.7420    15.4700
