~VERSION INFORMATION
 VERS.                2.0:   CWLS LOG ASCII STANDARD - VERSION 2.0
 WRAP.                 NO:   ONE LINE PER DEPTH STEP
~WELL INFORMATION
#MNEM.UNIT      DATA TYPE    INFORMATION
#----------   ------------   ------------------------------
 STRT.F          484.0000:   START DEPTH
 STOP.F         4334.0000:   STOP DEPTH
 STEP.F            0.5000:   STEP LENGTH
 NULL.          -999.2500:   NO VALUE
 COMP.    FENIX & SCISSON:   COMPANY
 WELL. FENIX NPR 3 "JX" #46-27:   WELL
 FLD .              N P R:   FIELD
 LOC .      S27 T39N R78W:   LOCATION
 CNTY.            NATRONA:   COUNTY
 STAT.            WYOMING:   STATE
 CTRY. UNITED STATES OF AMERICA:   COUNTRY
 SRVC.       SCHLUMBERGER:   SERVICE COMPANY
 DATE.        01-MAR-1979:   LOGDATE
 API .     49025107660000:   API NUMBER
~CURVE INFORMATION
#MNEM.UNIT       API CODE    CURVE DESCRIPTION
#----------   ------------   ------------------------------
 DEPT.F                  :   
 TENR.LBS    07 635 01 00:   TENSION FROM RESISTIVITY
 SPR .MV     07 010 01 00:   SPONTANEOUS POTENTIAL
 SFL .OHMM   07 220 01 00:   SHALLOW FOCUSED LOG RESISTIVITY
 ILD .OHMM   07 120 46 00:   DEEP INDUCTION RESISTIVITY
 ILM .OHMM   07 120 44 00:   INDUCTION LOG MEDIUM RESISTIVITY
 TEND.LBS    42 635 01 00:   TENSION FROM COMPENSATE NEUTRON
 GRD .GAPI   45 310 01 00:   GAMMA RAY FROM DENSITY LOG
 CALD.IN     45 280 60 00:   CALIPER FROM DENSITY LOG
 RHOB.G/C3   45 350 01 00:   BULK DENSITY
 CORR.G/C3   45 356 01 00:   DENSITY CORRECTION
 NPHI.DEC    42 890 03 00:   NEUTRON POROSITY SANDSTONE
~PARAMETER INFORMATION
#MNEM.UNIT          VALUE    DESCRIPTION
#----------   ------------   ------------------------------
 EKB .F         5059.0000:   Kelly bushing
 EGL .F         5049.0000:   Ground level
 EDF .F            0.0000:   Drilling floor
 TD  .F         4320.0000:   Total depth
 DATE.        01-MAR-1979:   Date logged
 CLNT.            A2DTECH:   Client Code
 SL  . 1625' FSL & 2281' FWL:   Surface Location
 PD  .                 GL:   Permanent Datum
 DD  .F              4320:   Depth driller
 DL  .F              4319:   Depth logger
 BLI .F              4316:   Bottom log interval
 CS1 .IN            8.625:   Casing size
 CBD1.      8.625" @ 505':   Casing driller 1
 CBL1.F               500:   Casing logger 1
 BS1 .IN            7.875:   Bit size
 DFT .                FGM:   Type fluid in hole
 DFD .                9.1:   Density
 DFV .                 40:   Viscosity
 DFPH.               11.7:   pH
 DFL .                6.5:   Fluid loss
 MSS .               TANK:   Source of sample
 RMS .OHMM           .901:   Rm
 MST .F                65:   Rm Meas. temp.
 RMF .OHMM           .852:   Rmf
 MFST.F                65:   Rmf Meas. temp.
 MFSS.               MEAS:   Source Rmf.
 RMB .OHMM            .39:   Rm. at BHT
 BHT .F               151:   BHT.
 TCS .HRS            1200:   Time Circ. stopped
 MRT .F               151:   Maximum recorded temp.
 LUN .               8043:   Logging unit number
 LUL .               CSPR:   Logging unit location
 ENGI.              PFARR:   Recorded By
 WITN.              AMENO:   Witnessed by
 ORIG.         2.5" PRINT:   Origin of data
 UWI .     49025107660000:   Unique Well ID
 DICO. A2D TECHNOLOGIES, INC.:   Digitizing Company
 DAPD.                 10:   Feet Above Permanent Datum
 BSD1.F              4320:   Depth drilled with bit1
 EPD .F              5049:   Elevation Permanent Datum
 LMF .                 KB:   Log Measured From
 DMF .                 KB:   Drilling Measured From
 TLI .F               500:   Top log interval
 TLAB.HRS            1900:   Time logger at bottom
~OTHER INFORMATION
~A   DEPT     TENR        SPR        SFL        ILD        ILM       TEND         GRD      CALD       RHOB       CORR         NPHI 
# ...
 2253.0000   799.9080   -40.4220     7.9480     7.2540     7.3870   996.3290    94.9750     8.6200     2.4970     0.0080     0.3130
 2253.5000   800.1450   -40.4830     8.1250     7.3070     7.4420   996.5190    92.1770     8.6060     2.4930     0.0030     0.3080
 2254.0000   800.3810   -40.5420     8.5680     7.4400     7.5780   996.7100    90.1710     8.5680     2.4900     0.0000     0.3020
 2254.5000   800.6180   -40.5990     9.0110     7.5740     7.7140   996.9000    91.6290     8.5310     2.4870    -0.0050     0.3040
 2255.0000   800.8550   -40.6680     9.4530     7.7070     7.8500   997.0900    92.8120     8.5010     2.4920    -0.0030     0.3100
 2255.5000   801.0910   -40.5710     9.8960     7.8410     7.9850   997.2810    94.2760     8.5000     2.5000     0.0030     0.3130
 2256.0000   801.3280   -40.2580     9.8960     7.9480     8.0940   997.4710    94.7240     8.5000     2.5040     0.0080     0.3130
 2256.5000   801.5650   -39.9610     9.8290     7.9480     8.0940   997.6620    94.3990     8.5000     2.5050     0.0090     0.3000
 2257.0000   801.8010   -39.6500     9.7730     7.8430     7.9870   997.8520    94.1240     8.5000     2.5010     0.0080     0.2960
 2257.5000   802.0380   -39.3500     9.7170     7.6670     7.8090   998.0430    94.3580     8.5000     2.4950     0.0060     0.2960
 2258.0000   802.2750   -39.1110     9.2390     7.4920     7.6310   998.2330    95.5430     8.5000     2.4880     0.0060     0.3080
 2258.5000   802.5110   -39.3020     8.4420     7.3870     7.5240   998.4230    96.6920     8.5000     2.4870     0.0070     0.3150
 2259.0000   802.7480   -39.4720     7.5960     7.5810     7.7210   998.6140    97.1750     8.5000     2.4950     0.0100     0.3200
 2259.5000   802.9850   -39.6630     8.0600     7.7750     7.9190   998.8040    96.2980     8.5000     2.5040     0.0130     0.3170
 2260.0000   803.2210   -39.8440     8.9010     7.9690     8.1160   998.9950    95.5500     8.5000     2.5120     0.0190     0.3110
 2260.5000   803.4580   -40.0270     9.7420     8.1630     8.3130   999.1850    96.3630     8.5000     2.5150     0.0250     0.3040
 2261.0000   803.6950   -40.2100    10.2650     8.3950     8.5500   999.3750    97.7980     8.5000     2.5020     0.0300     0.3110
 2261.5000   803.9310   -40.3940    10.2650     8.5170     8.6740   999.5660    99.3920     8.5000     2.4840     0.0240     0.3150
 2262.0000   804.1680   -40.5760    10.2650     8.8210     8.9840   999.7560    97.0830     8.5000     2.4760     0.0170     0.3170
 2262.5000   804.4040   -40.7590    10.5620     9.1250     9.2930   999.9470    94.4390     8.5000     2.4740     0.0100     0.3190
 2263.0000   804.6410   -40.9460    10.9340     9.2840     9.4550  1000.1370    91.6000     8.4990     2.4810     0.0070     0.3080
 2263.5000   804.8780   -41.0720    11.3060     9.1880     9.3580  1000.3280    90.8150     8.5050     2.4900     0.0120     0.3110
 2264.0000   805.1140   -41.0730    11.4540     9.1630     9.3320  1000.5180    91.8350     8.5150     2.4970     0.0170     0.3160
 2264.5000   805.3510   -41.0230    11.0820     9.1370     9.3050  1000.7080    93.1040     8.5230     2.5010     0.0210     0.3200
 2265.0000   805.5880   -40.8490    10.7720     9.1110     9.2790  1000.8990    93.2120     8.5320     2.5050     0.0210     0.3080
 2265.5000   805.8240   -40.6790    10.4620     9.0850     9.2530  1001.0890    93.1210     8.5410     2.5090     0.0190     0.3010
 2266.0000   806.0610   -40.5070    10.1510     9.0590     9.2270  1001.2800    94.2410     8.5490     2.5060     0.0170     0.3060
 2266.5000   806.2980   -40.3350     9.7170     9.0340     9.2000  1001.4700    96.7560     8.5580     2.4960     0.0150     0.3100
 2267.0000   806.5340   -40.1630     9.9780     9.0080     9.1740  1001.6600    99.0910     8.5670     2.4890     0.0130     0.3140
 2267.5000   806.7710   -39.9930    10.4120     8.9820     9.1480  1001.8510   101.5780     8.5760     2.4840     0.0100     0.3150
 2268.0000   807.0080   -39.8170    10.8460     8.9560     9.1210  1002.0410   103.2610     8.5790     2.4780     0.0070     0.3130
 2268.5000   807.2440   -39.6490    11.4540     8.9310     9.0950  1002.2320   102.8260     8.5740     2.4770     0.0080     0.3080
 2269.0000   807.4810   -39.4980    11.3310     8.9050     9.0690  1002.4220    99.8360     8.5700     2.4920     0.0080     0.3010
 2269.5000   807.7180   -39.5810    11.1250     8.8790     9.0430  1002.6120    96.3940     8.5660     2.5060     0.0100     0.3000
 2270.0000   807.9540   -39.6650    10.8100     8.7430     8.9040  1002.8030    92.7700     8.5610     2.5200     0.0110     0.3020
 2270.5000   808.1910   -39.7590    10.4200     8.5320     8.6900  1002.9930    92.2180     8.5570     2.5200     0.0130     0.3040
 2271.0000   808.4280   -39.8470    10.0310     8.3220     8.4760  1003.1840    94.8550     8.5530     2.5140     0.0160     0.3050
 2271.5000   808.6640   -39.9370     9.6420     8.1120     8.2620  1003.3740    98.0850     8.5490     2.5080     0.0220     0.2970
 2272.0000   808.9010   -40.0270     9.2530     7.9020     8.0480  1003.5650    99.4400     8.5450     2.5020     0.0190     0.2950
 2272.5000   809.1380   -40.1170     8.8640     7.6920     7.8340  1003.7550    98.5360     8.5410     2.4960     0.0170     0.2960
 2273.0000   809.3740   -40.2070     8.7080     7.5240     7.6620  1003.9450    97.8190     8.5550     2.4930     0.0140     0.3110
 2273.5000   809.6110   -40.2970     8.8600     7.5650     7.7050  1004.1360    97.1510     8.5730     2.5030     0.0120     0.3270
 2274.0000   809.8480   -40.3870     8.9870     7.6000     7.7400  1004.3260    96.4750     8.5920     2.5130     0.0170     0.3230
 2274.5000   810.0840   -40.4770     9.1140     7.6350     7.7750  1004.5170    97.1440     8.6100     2.5230     0.0210     0.3160
 2275.0000   810.3210   -40.5670     9.2410     7.6620     7.8040  1004.7070    98.8850     8.6290     2.5250     0.0260     0.3090
 2275.5000   810.5580   -40.6560     9.3680     7.6620     7.8040  1004.8970    98.7950     8.6470     2.5240     0.0280     0.3030
 2276.0000   810.7940   -40.7480     9.2360     7.5690     7.7080  1005.0880    96.8810     8.6660     2.5170     0.0310     0.3010
 2276.5000   811.0310   -40.8360     9.0150     7.4750     7.6130  1005.2780    95.6110     8.6840     2.5050     0.0220     0.3000
 2277.0000   811.2670   -40.9230     8.7930     7.3810     7.5170  1005.4690    95.8830     8.7030     2.4930     0.0150     0.2980
 2277.5000   811.5040   -41.0300     8.5720     7.2880     7.4220  1005.6590    99.0670     8.7210     2.4860     0.0070     0.2970
 2278.0000   811.7410   -40.9740     8.3950     7.1940     7.3260  1005.8500   102.4860     8.7390     2.4850     0.0110     0.2970
 2278.5000   811.9770   -40.6780     8.6680     7.1000     7.2310  1006.0400    99.5570     8.7440     2.4840     0.0150     0.3030
 2279.0000   812.2140   -40.4080     8.8960     7.0060     7.1360  1006.2300    96.4340     8.7480     2.4800     0.0140     0.3190
 2279.5000   812.4510   -40.0800     9.0320     6.9130     7.0400  1006.4210    93.0510     8.7520     2.4750     0.0110     0.3190
 2280.0000   812.6870   -39.6990     8.5800     6.8190     6.9450  1006.6110    89.8600     8.7570     2.4720     0.0090     0.3190
 2280.5000   812.9240   -39.2970     7.9480     6.7250     6.8490  1006.8020    87.6530     8.7610     2.4710     0.0060     0.3060
 2281.0000   813.1610   -39.1130     8.0030     6.6320     6.7540  1006.9920    89.4080     8.7650     2.4700     0.0080     0.3050
 2281.5000   813.3970   -39.2790     8.0940     6.5380     6.6580  1007.1820    91.7350     8.7690     2.4640     0.0090     0.3050
 2282.0000   813.4920   -39.4070     7.9480     6.5000     6.6200  1007.3730    93.1090     8.7730     2.4620     0.0130     0.3070
 2282.5000   813.4920   -39.5430     7.4520     6.5000     6.6200  1007.5630    91.9480     8.7770     2.4650     0.0180     0.3110
 2283.0000   813.4920   -39.6820     7.1220     6.5000     6.6200  1007.7540    90.5530     8.7810     2.4670     0.0240     0.3160
