~VERSION INFORMATION
 VERS.                2.0:   CWLS LOG ASCII STANDARD - VERSION 2.0
 WRAP.                 NO:   ONE LINE PER DEPTH STEP
~WELL INFORMATION
#MNEM.UNIT      DATA TYPE    INFORMATION
#----------   ------------   ------------------------------
 STRT.F          211.0000:   START DEPTH
 STOP.F         3244.0000:   STOP DEPTH
 STEP.F            0.5000:   STEP LENGTH
 NULL.          -999.2500:   NO VALUE
 COMP.    FENIX & SCISSON:   COMPANY
 WELL.  FENIX "AX" #84-15:   WELL
 FLD .  TEAPOT DOME NPR-3:   FIELD
 LOC .      S15 T38N R78W:   LOCATION
 CNTY.            NATRONA:   COUNTY
 STAT.            WYOMING:   STATE
 CTRY. UNITED STATES OF AMERICA:   COUNTRY
 SRVC.           BIRDWELL:   SERVICE COMPANY
 DATE.        17-MAR-1978:   LOGDATE
 API .     49025106050000:   API NUMBER
~CURVE INFORMATION
#MNEM.UNIT       API CODE    CURVE DESCRIPTION
#----------   ------------   ------------------------------
 DEPT.F                  :   
 SPR .MV     05 010 01 00:   SPONTANEOUS POTENTIAL
 SN  .OHMM   05 040 16 00:   SHORT NORMAL
 ILD .OHMM   05 120 46 00:   INDUCTION LOG DEEP
 CALD.IN     45 280 60 00:   CALIPER FROM DENSITY LOG
 GRD .GAPI   45 310 01 00:   GAMMA RAY FROM DENSITY LOG
 RHOB.G/C3   45 350 01 00:   BULK DENSITY
 CORR.G/C3   45 356 01 00:   DENSITY CORRECTION
~PARAMETER INFORMATION
#MNEM.UNIT          VALUE    DESCRIPTION
#----------   ------------   ------------------------------
 EKB .F         5251.0000:   Kelly bushing
 EGL .F         5241.0000:   Ground level
 TD  .F         3250.0000:   Total depth
 CLNT.            A2DTECH:   Client Code
 SL  . 359' FEL & 2310' FNL:   Surface Location
 PD  .                 GL:   Permanent Datum
 LMF .                 KB:   Log Measured From
 DMF .                 KB:   Drilling Measured From
 DATE.        17-MAR-1978:   Date Logged [DD-MMM-YYYY]
 DD  .F              3250:   Depth driller
 DL  .F              3250:   Depth logger
 BLI .F              3244:   Bottom log interval
 TLI .F               224:   Top log interval
 CS1 .IN            8.625:   Casing size
 CBD1.             8.625":   Casing driller 1
 CBL1.F               224:   Casing logger 1
 BS1 .IN            7.875:   Bit size
 BSD1.F              3250:   Depth drilled with bit1
 MSS .           FLOWLINE:   Source of sample
 RMS .OHMM            1.3:   Rm
 MST .F                70:   Rm Meas. temp.
 RMF .OHMM            1.1:   Rmf
 MFST.F                70:   Rmf Meas. temp.
 MFSS.               MEAS:   Source Rmf.
 RMC .OHMM            1.4:   Rmc
 MCST.F                70:   Rmc Meas. temp.
 RMB .OHMM           0.77:   Rm. at BHT
 BHT .F               118:   BHT.
 TCS .HRS               6:   Time Circ. stopped
 MRT .F               118:   Maximum recorded temp.
 LUN .               2958:   Logging unit number
 LUL .               CASP:   Logging unit location
 ENGI.             MILLER:   Recorded By
 WITN.           MCGINLEY:   Witnessed by
 ORIG.           5" PRINT:   Origin of data
 UWI .     49025106050000:   Unique Well ID
 DICO. A2D TECHNOLOGIES, INC.:   Digitizing Company
~OTHER INFORMATION
~A   DEPT      SPR         SN        ILD       CALD         GRD      RHOB       CORR   
# ...
 3032.0000   -30.1262     6.0803     5.1684     9.0161   121.2546     2.5171    -0.0027
 3032.5000   -29.5270     6.0397     5.1350     9.0156   122.5972     2.5295     0.0125
 3033.0000   -29.5375     5.9999     5.1376     9.0150   123.7896     2.5417     0.0217
 3033.5000   -30.4513     5.9604     5.1405     9.0145   125.7499     2.5549     0.0217
 3034.0000   -30.2826     5.9629     5.1067     9.0139   126.9689     2.5549     0.0218
 3034.5000   -29.9837     5.9649     5.0737     9.0134   127.5171     2.5535     0.0254
 3035.0000   -29.5348     6.0505     5.1479     9.0128   126.3049     2.5708     0.0401
 3035.5000   -29.3857     6.1801     5.2225     9.0123   122.2421     2.5603     0.0221
 3036.0000   -29.2370     6.4008     5.2982     9.0117   116.2273     2.5347     0.0191
 3036.5000   -29.3890     6.5875     5.3749     9.0112   116.5210     2.5438     0.0192
 3037.0000   -29.3905     6.6318     5.4528     9.0107   116.6624     2.5514     0.0223
 3037.5000   -29.3920     6.6808     5.5335     9.0101   115.9007     2.5552     0.0239
 3038.0000   -29.3935     6.7767     5.6176     9.0096   113.7814     2.5560     0.0255
 3038.5000   -29.5451     6.9701     5.7338     9.0090   113.0303     2.5537     0.0255
 3039.0000   -29.5466     7.0211     5.7765     9.0085   114.6710     2.5514     0.0256
 3039.5000   -29.6982     7.0235     5.8281     9.0079   116.0136     2.5478     0.0257
 3040.0000   -29.5495     7.0259     5.9040     9.0074   116.7578     2.5471     0.0258
 3040.5000   -29.4008     7.0283     5.9480     9.0068   114.9450     2.5479     0.0236
 3041.0000   -29.4027     6.9819     5.9508     9.0063   114.6359     2.5479     0.0229
 3041.5000   -29.4041     6.9844     5.9537     9.0057   114.7795     2.5465     0.0230
 3042.0000   -30.0062     6.9384     5.9981     9.0052   113.7175     2.5480     0.0215
 3042.5000   -30.4581     6.8922     6.0010     9.0047   112.2048     2.5511     0.0216
 3043.0000   -30.4596     6.8951     6.0039     9.0041   112.0483     2.5483     0.0201
 3043.5000   -30.1608     6.8496     6.0074     9.0036   113.9893     2.5428     0.0202
 3044.0000   -29.8616     6.7111     5.9678     9.0030   115.0316     2.5346     0.0203
 3044.5000   -30.1637     6.4840     5.8075     9.0025   115.9237     2.5261     0.0219
 3045.0000   -30.1652     6.1782     5.4958     9.0019   118.1672     2.5177     0.0235
 3045.5000   -30.0165     5.8055     4.9881     9.0014   125.8161     2.5031     0.0251
 3046.0000   -29.8678     5.3799     4.3122     9.0008   137.0686     2.4941     0.0297
 3046.5000   -29.7192     4.8827     3.8598     9.0003   140.9637     2.4888     0.0449
 3047.0000   -29.7210     4.3099     3.7557     8.9998   153.8679     2.4986     0.0632
 3047.5000   -29.7225     4.0499     3.8101     8.9992   152.7982     2.4994     0.0708
 3048.0000   -29.5738     3.9954     3.8386     8.9840   142.1364     2.5349     0.0952
 3048.5000   -29.5753     4.0293     3.8408     8.9101   129.0646     2.5568     0.0872
 3049.0000   -29.7269     4.2073     3.8427     8.8214   118.9958     2.5651     0.0302
 3049.5000   -29.8785     4.5645     3.9530     8.8070   112.3804     2.5644     0.0226
 3050.0000   -29.8800     5.1033     4.2991     8.8078   110.8701     2.5625     0.0219
 3050.5000   -30.0114     5.8258     4.8411     8.7935   110.8614     2.5579     0.0219
 3051.0000   -30.1802     6.1610     5.2286     8.7793   110.7025     2.5526     0.0205
 3051.5000   -30.9309     6.4704     5.6080     8.7569   110.3934     2.5528     0.0206
 3052.0000   -30.3303     6.6551     5.8498     8.7359   110.2342     2.5535     0.0207
 3052.5000   -29.5796     6.6574     5.9760     8.7216   110.2235     2.5543     0.0207
 3053.0000   -31.2312     6.6596     5.8517     8.7074   110.8153     2.5551     0.0223
 3053.5000   -31.9820     6.5699     5.6974     8.7082   114.2600     2.5529     0.0224
 3054.0000   -31.8318     6.3920     5.5830     8.7089   117.0857     2.5521     0.0240
 3054.5000   -31.3814     6.2188     5.5463     8.7095   120.9583     2.5537     0.0256
 3055.0000   -30.7808     6.1350     5.5104     8.7102   122.1625     2.5544     0.0287
 3055.5000   -30.9309     6.1376     5.4748     8.7077   119.6129     2.5567     0.0317
 3056.0000   -31.2312     6.1397     5.4781     8.7039   116.0122     2.5643     0.0317
 3056.5000   -31.6817     6.0988     5.4807     8.7001   114.9641     2.5681     0.0259
 3057.0000   -31.2312     6.0586     5.4833     8.6962   114.6667     2.5564     0.0214
 3057.5000   -30.7808     6.0611     5.4859     8.6924   114.8222     2.5470     0.0245
 3058.0000   -30.6306     6.0212     5.5269     8.6886   115.6213     2.5500     0.0216
 3058.5000   -30.4805     5.8990     5.4911     8.6847   118.8805     2.5508     0.0186
 3059.0000   -31.0811     5.6599     5.4563     8.6809   121.8864     2.5417     0.0172
 3059.5000   -31.9820     5.4306     5.1994     8.6770   130.5981     2.5137     0.0248
 3060.0000   -30.1802     5.0676     4.4949     8.6732   142.3127     2.5168     0.0385
 3060.5000   -30.4805     4.6181     3.8321     8.6694   156.7301     2.5122     0.0446
 3061.0000   -30.6306     4.2181     3.6768     8.6655   173.7000     2.5062     0.0553
 3061.5000   -30.1802     3.9501     3.6790     8.6617   190.3696     2.5138     0.0737
 3062.0000   -29.7297     3.8431     3.6807     8.6599   191.3776     2.5411     0.0810
 3062.5000   -29.8799     3.7912     3.7072     8.6308   176.8619     2.5563     0.0358
 3063.0000   -29.8799     3.9540     3.8177     8.6314   155.8033     2.5442     0.0178
 3063.5000   -29.8799     4.5453     4.1004     8.6172   134.3673     2.5534     0.0148
 3064.0000   -29.8799     5.1889     4.5441     8.6179   119.8144     2.5571     0.0180
 3064.5000   -30.1802     6.0064     5.0815     8.6186   119.3662     2.5594     0.0210
 3065.0000   -31.6817     6.4501     5.6430     8.6342   119.2197     2.5594     0.0211
 3065.5000   -32.2823     6.8122     6.0105     8.6349   118.6220     2.5542     0.0242
 3066.0000   -32.8829     7.1047     6.2696     8.6396   117.4238     2.5511     0.0243
 3066.5000   -33.4835     7.3075     6.3164     8.6660   113.9732     2.5550     0.0229
 3067.0000   -33.7838     7.4640     6.3194     8.6667   110.8230     2.5610     0.0212
 3067.5000   -31.5117     7.5711     6.3665     8.6852   109.0242     2.5664     0.0125
 3068.0000   -30.7546     7.6265     6.3696     8.6978   107.9760     2.5634     0.0050
 3068.5000   -30.0300     7.7359     6.4234     8.6984   106.9279     2.5573     0.0066
 3069.0000   -29.4294     7.7385     6.4657     8.6991   106.4804     2.5520     0.0097
 3069.5000   -32.4324     7.7411     6.5139     8.6998   106.4835     2.5482     0.0128
 3070.0000   -30.1802     7.7438     6.5625     8.7004   106.4870     2.5521     0.0113
 3070.5000   -29.7297     7.6400     6.4749     8.7011   106.9404     2.5521     0.0069
 3071.0000   -29.8799     7.5365     6.3442     8.6870   107.6941     2.5514     0.0054
 3071.5000   -30.9309     7.3841     6.3025     8.6876   112.0514     2.5499     0.0055
 3072.0000   -32.2823     7.2341     6.2190     8.6882   115.6579     2.5446     0.0071
 3072.5000   -30.8996     7.2366     6.2221     8.6890   117.4627     2.5401     0.0087
 3073.0000   -29.8799     7.2390     6.2695     8.6896   118.0662     2.5386     0.0103
 3073.5000   -30.1802     7.2415     6.3153     8.6947   118.0691     2.5439     0.0119
 3074.0000   -30.6306     7.2439     6.3631     8.7058   117.7718     2.5477     0.0116
 3074.5000   -30.9309     7.3001     6.3661     8.7065   114.5398     2.5515     0.0083
 3075.0000   -31.3814     7.4533     6.3691     8.7221   110.0932     2.5584     0.0053
 3075.5000   -31.6817     7.6135     6.3722     8.7376   106.9698     2.5607    -0.0038
 3076.0000   -31.9820     7.6692     6.3752     8.7533   107.1236     2.5513    -0.0113
 3076.5000   -30.7808     7.5659     6.3859     8.7689   107.8773     2.5213    -0.0038
 3077.0000   -30.8091     7.4633     6.4257     8.7844   111.1835     2.5198    -0.0043
