~VERSION INFORMATION
 VERS.                2.0:   CWLS LOG ASCII STANDARD - VERSION 2.0
 WRAP.                 NO:   ONE LINE PER DEPTH STEP
~WELL INFORMATION
#MNEM.UNIT      DATA TYPE    INFORMATION
#----------   ------------   ------------------------------
 STRT.F          174.0000:   START DEPTH
 STOP.F         3492.0000:   STOP DEPTH
 STEP.F            0.5000:   STEP LENGTH
 NULL.          -999.2500:   NO VALUE
 COMP.    FENIX & SCISSON:   COMPANY
 WELL.   FENIX "AX" #18-3:   WELL
 FLD .        TEAPOT DOME:   FIELD
 LOC .       S3 T38N R78W:   LOCATION
 CNTY.            NATRONA:   COUNTY
 STAT.            WYOMING:   STATE
 CTRY. UNITED STATES OF AMERICA:   COUNTRY
 SRVC.       SCHLUMBERGER:   SERVICE COMPANY
 DATE.        09-FEB-1981:   LOGDATE
 API .     49025108630000:   API NUMBER
~CURVE INFORMATION
#MNEM.UNIT       API CODE    CURVE DESCRIPTION
#----------   ------------   ------------------------------
 DEPT.F                  :   
 CALD.IN     45 280 60 00:   CALIPER FROM DENSITY LOG
 GRD .GAPI   45 310 01 00:   GAMMA RAY FROM DENSITY LOG
 RHOB.G/C3   45 350 01 00:   BULK DENSITY
 DRHO.G/C3   45 356 01 00:   DENSITY CORRECTION
 TENR.LBS    07 635 01 00:   TENSION FROM RESISTIVITY
 SPR .MV     07 010 01 00:   SPONTANEOUS POTENTIAL
 ILM .OHMM   07 120 44 00:   INDUCTION LOG MEDIUM RESISTIVITY
 ILD .OHMM   07 120 46 00:   INDUCTION LOG DEEP RESISTIVITY
 SFLU.OHMM   07 220 01 00:   SPHERICALLY FOCUSED LOG UNAVERAGED RESISTIVITY
~PARAMETER INFORMATION
#MNEM.UNIT          VALUE    DESCRIPTION
#----------   ------------   ------------------------------
 EKB .F         5267.0000:   Kelly bushing
 EGL .F         5257.0000:   Ground level
 EDF .F            0.0000:   Drilling floor
 TD  .F         3472.0000:   Total depth
 DATE.        09-FEB-1981:   Date logged
 CLNT.            A2DTECH:   Client Code
 SL  . 669' FSL & 42' FWL:   Surface Location
 PD  .                 GL:   Permanent Datum
 DD  .F              3401:   Depth driller
 DL  .F              3472:   Depth logger
 BLI .F              3466:   Bottom log interval
 CS1 .IN            8.625:   Casing size
 CBD1.      8.625" @ 200':   Casing driller 1
 CBL1.F               196:   Casing logger 1
 BS1 .IN            7.875:   Bit size
 DFT .            KCL/GEL:   Type fluid in hole
 DFD .                  9:   Density
 DFV .                 60:   Viscosity
 DFPH.                8.5:   pH
 DFL .                 10:   Fluid loss
 MSS .            MUD/PIT:   Source of sample
 RMS .OHMM           1.88:   Rm
 MST .F                75:   Rm Meas. temp.
 RMF .OHMM           1.12:   Rmf
 MFST.F                75:   Rmf Meas. temp.
 MFSS.               MEAS:   Source Rmf.
 RMB .OHMM           1.21:   Rm. at BHT
 BHT .F               120:   BHT.
 TCS .HRS            1800:   Time Circ. stopped
 MRT .F               120:   Maximum recorded temp.
 LUN .               8043:   Logging unit number
 LUL .               CSPR:   Logging unit location
 ENGI.            CONNETT:   Recorded By
 WITN.              SCOTT:   Witnessed by
 ORIG.           5" PRINT:   Origin of data
 UWI .     49025108630000:   Unique Well ID
 DICO. A2D TECHNOLOGIES, INC.:   Digitizing Company
 DAPD.F                10:   Feet Above Permanent Datum
 BSD1.F              3401:   Depth drilled with bit1
 EPD .F              5257:   Elevation Permanent Datum
 LMF .                 KB:   Log Measured From
 DMF .                 KB:   Drilling Measured From
 TLI .F               196:   Top log interval
 TLAB.               0000:   Time logger at bottom
~OTHER INFORMATION
~A   DEPT     CALD         GRD      RHOB       DRHO       TENR        SPR        ILM        ILD       SFLU   
# ...
  867.5000     9.3230    99.5560     2.5420     0.0810   902.4440   -59.7810     9.0730     9.8120    10.4210
  868.0000     9.3230    99.5050     2.5360     0.0750   898.2820   -59.7990     9.1810     9.8770    10.3930
  868.5000     9.3230    97.7090     2.5500     0.0800   894.1190   -59.8170     9.2890     9.9410    10.3650
  869.0000     9.3230    95.7950     2.5640     0.0860   890.8910   -59.8340     9.3970    10.0050    10.3370
  869.5000     9.3230    94.4170     2.5760     0.0920   892.9370   -59.8520     9.5050    10.0170    10.3010
  870.0000     9.3230    93.8450     2.5670     0.0960   894.9350   -59.8700     9.7440    10.0170    10.3140
  870.5000     9.3230    94.0340     2.5430     0.0730   896.9330   -59.8870     9.7210    10.0170    10.3390
  871.0000     9.3230    94.2080     2.5320     0.0680   898.9310   -59.9010     9.6680    10.0170    10.3640
  871.5000     9.3230    94.4180     2.5290     0.0670   900.9290   -59.9010     9.6150    10.0170    10.3890
  872.0000     9.3230    95.5980     2.5360     0.0710   902.9270   -59.9010     9.5610    10.0170    10.4150
  872.5000     9.3230    97.6710     2.5440     0.0740   904.9250   -59.9010     9.5080    10.0170    10.4400
  873.0000     9.3230    99.8700     2.5510     0.0780   906.9230   -59.9010     9.4540    10.0150    10.4650
  873.5000     9.3230   101.8310     2.5590     0.0800   908.9210   -59.9010     9.4010    10.0720    10.4900
  874.0000     9.3230   102.0270     2.5680     0.0840   910.9110   -59.9010     9.3910    10.1410    10.5160
  874.5000     9.3230   100.5690     2.5690     0.0780   910.3790   -59.9010     9.5070    10.2100    10.5410
  875.0000     9.3230    99.1300     2.5450     0.0690   907.7500   -59.9010     9.6220    10.2780    10.5660
  875.5000     9.3230    97.7960     2.5360     0.0620   905.1210   -59.9010     9.7370    10.3470    10.6050
  876.0000     9.3230    98.8670     2.5280     0.0610   902.4920   -59.9010     9.8520    10.4150    10.6980
  876.5000     9.3230   100.0340     2.5210     0.0590   899.8630   -59.9010     9.9680    10.4840    10.7900
  877.0000     9.3230   101.1980     2.5150     0.0570   897.2340   -59.9010    10.0830    10.5530    10.8830
  877.5000     9.3230   102.3760     2.5170     0.0550   894.6050   -59.9010    10.1980    10.6210    10.9760
  878.0000     9.3230   103.3430     2.5420     0.0740   891.9760   -59.9010    10.3140    10.6900    11.0680
  878.5000     9.3230    99.6700     2.5670     0.0960   890.8910   -59.9010    10.4290    10.7590    11.1610
  879.0000     9.3230    95.9790     2.5800     0.1000   890.8910   -59.9010    10.5440    10.8270    11.2920
  879.5000     9.3230    94.8200     2.5730     0.0980   890.8910   -59.9010    10.6850    10.8830    11.2660
  880.0000     9.3230    96.0470     2.5660     0.0850   890.8910   -59.9010    10.5770    10.8420    11.2210
  880.5000     9.3240    98.1680     2.5580     0.0710   890.8910   -59.9010    10.4390    10.8060    11.1750
  881.0000     9.3130    99.9090     2.5500     0.0610   890.8910   -59.9020    10.3000    10.7710    11.1300
  881.5000     9.3000    99.5080     2.5430     0.0500   892.0880   -59.9310    10.1620    10.7360    11.0840
  882.0000     9.2880    99.0950     2.5460     0.0510   894.1690   -59.9630    10.0240    10.7010    11.0390
  882.5000     9.2750    99.4320     2.5830     0.0700   896.2500   -59.9940     9.8860    10.6650    10.9940
  883.0000     9.2620   100.5670     2.6120     0.1020   898.3320   -60.0260     9.7440    10.6300    10.9480
  883.5000     9.2500   100.9440     2.6190     0.1200   900.4130   -60.0570     9.7440    10.5870    10.8830
  884.0000     9.2370    97.5600     2.6130     0.1220   902.4940   -60.0880     9.9270    10.6350    10.9580
  884.5000     9.2240    94.1220     2.6060     0.1100   904.5750   -60.1200    10.1160    10.6980    11.1620
  885.0000     9.2210    93.1760     2.6000     0.1040   906.6570   -60.1510    10.3060    10.7610    11.3670
  885.5000     9.2200    94.5050     2.5930     0.1010   908.7380   -60.1830    10.4950    10.8240    11.5710
  886.0000     9.2190    95.0720     2.5770     0.0890   910.9110   -60.2140    10.6850    10.8870    11.8250
  886.5000     9.2180    94.5610     2.5580     0.0770   910.9110   -60.2460    10.8830    10.9500    11.7290
  887.0000     9.2170    94.6210     2.5470     0.0780   910.9110   -60.2760    10.8550    11.0130    11.6030
  887.5000     9.2160    95.1610     2.5580     0.0900   910.9110   -60.2670    10.8250    11.0760    11.4760
  888.0000     9.2150    94.3810     2.5740     0.1020   910.9110   -60.1630    10.7950    11.1390    11.2920
  888.5000     9.2140    93.0150     2.5850     0.1010   910.9110   -60.0650    10.7650    11.2020    11.4640
  889.0000     9.2130    92.1630     2.5760     0.0920   908.9980   -59.9660    10.7340    11.2650    11.7770
  889.5000     9.2120    93.2810     2.5600     0.0830   903.4480   -59.8670    10.7040    11.3280    12.0450
  890.0000     9.2110    96.1810     2.5450     0.0730   897.8980   -59.7690    10.6850    11.3910    12.0850
  890.5000     9.2100    98.2590     2.5380     0.0650   892.3480   -59.7100    10.8830    11.4540    12.1380
  891.0000     9.2090    97.6530     2.5390     0.0580   891.7090   -59.7410    10.8270    11.5170    12.1910
  891.5000     9.2080    97.1100     2.5430     0.0550   892.8190   -59.7690    10.7850    11.6090    12.2440
  892.0000     9.2070    97.0760     2.5510     0.0630   893.9290   -59.7970    10.7440    11.5640    12.2690
  892.5000     9.2060    97.6410     2.5640     0.0790   895.0390   -59.8250    10.7020    11.4790    12.2110
  893.0000     9.2050    98.5320     2.5760     0.0970   896.1490   -59.8540    10.6600    11.3940    12.1570
  893.5000     9.2040   100.5320     2.5880     0.1020   897.2590   -59.8810    10.6180    11.3090    11.9350
  894.0000     9.2030   101.8140     2.5940     0.1020   898.3690   -59.9020    10.5760    11.2240    11.9350
  894.5000     9.2050    99.6680     2.5810     0.0840   899.4790   -59.9820    10.5340    11.1380    12.0450
  895.0000     9.2130    97.3820     2.5560     0.0660   900.5890   -60.0700    10.4920    11.0530    11.8380
  895.5000     9.2200    95.3600     2.5370     0.0500   901.6990   -60.1580    10.4500    10.9680    11.6130
  896.0000     9.2270    96.0740     2.5430     0.0470   902.8090   -60.2460    10.4080    10.8830    11.3880
  896.5000     9.2340    96.8180     2.5660     0.0680   903.9190   -60.3330    10.3660    10.7980    11.1680
  897.0000     9.2410    97.5540     2.5740     0.0830   905.0290   -60.4210    10.3240    10.7130    10.9840
  897.5000     9.2480    98.2960     2.5770     0.0890   906.1390   -60.5090    10.2830    10.6280    10.7840
  898.0000     9.2550    98.8450     2.5800     0.0930   907.2490   -60.5990    10.2410    10.5450    11.2100
  898.5000     9.2630    96.7870     2.5840     0.0980   908.3590   -60.6870    10.2030    10.4630    12.0480
  899.0000     9.2700    94.7590     2.5870     0.0930   909.4690   -60.5270    10.0990    10.3800    12.9670
  899.5000     9.2770    92.7560     2.5800     0.0860   910.5790   -60.3410     9.9930    10.2980    13.0870
  900.0000     9.2840    93.6120     2.5690     0.0770   911.3710   -60.1490     9.8880    10.2160    11.8910
  900.5000     9.2910    96.3490     2.5580     0.0680   912.0260   -60.1000     9.7830    10.1340    10.8830
  901.0000     9.2980    99.7340     2.5550     0.0610   912.6820   -60.0990     9.6780    10.0300    10.7360
  901.5000     9.3050   103.1650     2.5670     0.0620   913.3370   -60.0990     9.5720     9.9170    10.5730
  902.0000     9.3130   105.1310     2.5700     0.0620   913.9930   -60.0990     9.4670     9.8050    10.4100
  902.5000     9.3200   106.5380     2.5750     0.0720   914.6480   -60.0990     9.3620     9.6920    10.2980
  903.0000     9.3230   106.4390     2.5820     0.0870   915.3040   -60.0990     9.2570     9.5790    10.5060
  903.5000     9.3220   105.1120     2.5890     0.1000   915.9590   -60.0990     9.1510     9.4660    10.7840
