~VERSION INFORMATION
 VERS.                2.0:   CWLS LOG ASCII STANDARD - VERSION 2.0
 WRAP.                 NO:   ONE LINE PER DEPTH STEP
~WELL INFORMATION
#MNEM.UNIT      DATA TYPE    INFORMATION
#----------   ------------   ------------------------------
 STRT.F            0.0000:   START DEPTH
 STOP.F         3110.5000:   STOP DEPTH
 STEP.F            0.5000:   STEP LENGTH
 NULL.          -999.2500:   NO VALUE
 COMP. LAWRENCE  ALLISON AND ASSOCIATES:   COMPANY
 WELL. LAWRENCE NPR 3 "X" #72-15:   WELL
 FLD .                NPR:   FIELD
 LOC .      S15 T38N R78W:   LOCATION
 CNTY.            NATRONA:   COUNTY
 STAT.            WYOMING:   STATE
 CTRY. UNITED STATES OF AMERICA:   COUNTRY
 SRVC.           WIRELINE:   SERVICE COMPANY
 DATE.        16-JAN-1988:   LOGDATE
 API .     49025111930000:   API NUMBER
~CURVE INFORMATION
#MNEM.UNIT       API CODE    CURVE DESCRIPTION
#----------   ------------   ------------------------------
 DEPT.F                  :   
 TENR.LBS    07 635 01 00:   TENSION FROM RESISTIVITY
 GRR .GAPI   07 310 01 00:   GAMMA RAY FROM RESISTIVITY
 SPR .MV     07 010 01 00:   SPONTANEOUS POTENTIAL
 RFOC.OHMM   07 220 04 00:   RESISTIVITY FOCUSED LOG RES.
 RILD.OHMM   07 120 46 00:   DEEP INDUCTION RESISTIVITY
 RILM.OHMM   07 120 44 00:   INDUCTION LOG MEDIUM RESISTIVITY
 TEND.LBS    45 635 01 00:   TENSION FROM DENSITY LOG
 RHOB.G/C3   45 350 01 00:   BULK DENSITY
 CORR.G/C3   45 356 01 00:   DENSITY CORRECTION
 CNC .DEC    42 890 03 00:   NEUTRON PORISITY SANDSTONE
 CALR.IN     07 280 01 00:   CALIPER FROM RESISTIVITY
~PARAMETER INFORMATION
#MNEM.UNIT          VALUE    DESCRIPTION
#----------   ------------   ------------------------------
 EKB .F         5240.0000:   Kelly bushing
 EGL .F         5229.0000:   Ground level
 EDF .F            0.0000:   Drilling floor
 TD  .F         3090.0000:   Total depth
 DATE.        16-JAN-1988:   Date logged
 CLNT.            A2DTECH:   Client Code
 SL  . 814' FNL & 1208' FEL:   Surface Location
 PD  .                 GL:   Permanent Datum
 DD  .F              3085:   Depth driller
 DL  .F              3090:   Depth logger
 BLI .F              3089:   Bottom log interval
 CS1 .IN            8.625:   Casing size
 CBD1.      8.625" @ 610':   Casing driller 1
 CBL1.F               613:   Casing logger 1
 BS1 .IN            7.875:   Bit size
 DFT .            KCL/GEL:   Type fluid in hole
 DFD .                8.8:   Density
 DFV .                 40:   Viscosity
 DFPH.                8.5:   pH
 DFL .                 10:   Fluid loss
 MSS .           FLOWLINE:   Source of sample
 RMS .OHMM           .543:   Rm
 MST .F                65:   Rm Meas. temp.
 RMF .OHMM           .349:   Rmf
 MFST.F                65:   Rmf Meas. temp.
 RMC .OHMM           .557:   Rmc
 MCST.F                65:   Rmc Meas. temp.
 MFSS.               CALC:   Source Rmf.
 RMB .OHMM           .258:   Rm. at BHT
 BHT .F               114:   BHT.
 TCS .HRS               5:   Time Circ. stopped
 MRT .F               114:   Maximum recorded temp.
 LUN .            HL-6321:   Logging unit number
 LUL .           GILLETTE:   Logging unit location
 ENGI.               CAIN:   Recorded By
 WITN.             STRONG:   Witnessed by
 ORIG.           5" PRINT:   Origin of data
 UWI .     49025111930000:   Unique Well ID
 DICO. A2D TECHNOLOGIES, INC.:   Digitizing Company
 DAPD.F                11:   Feet Above Permanent Datum
 BSD1.F              3085:   Depth drilled with bit1
 MCSS.               CALC:   Source Rmc.
 EPD .F              5229:   Elevation Permanent Datum
 LMF .                 KB:   Log Measured From
 DMF .                 KB:   Drilling Measured From
~OTHER INFORMATION
~A    DEPT    TENR         GRR       SPR       RFOC       RILD       RILM       TEND       RHOB       CORR        CNC       CALR   
# ...
 2226.5000   -17.2520   122.1630   -63.7710     9.2330     7.4170     6.8440  -999.2500  -999.2500  -999.2500  -999.2500     8.9090
 2227.0000   -17.4490   119.7000   -63.5610     8.8120     7.0410     6.5240  -999.2500  -999.2500  -999.2500  -999.2500     8.9110
 2227.5000   -17.6470   110.9660   -63.3500     8.5870     6.6660     6.2050  -999.2500  -999.2500  -999.2500  -999.2500     8.9130
 2228.0000   -17.8440   107.1740   -62.9970     7.8280     6.1510     5.8680  -999.2500  -999.2500  -999.2500  -999.2500     8.9140
 2228.5000   -18.0410   104.9870   -62.5000     6.6210     5.8140     5.7080  -999.2500  -999.2500  -999.2500  -999.2500     8.9160
 2229.0000   -18.2380   106.9010   -61.9870     5.9770     5.8680     5.7740  -999.2500  -999.2500  -999.2500  -999.2500     8.9180
 2229.5000   -18.4350   106.7360   -61.8540     5.9220     5.9850     5.8610  -999.2500  -999.2500  -999.2500  -999.2500     8.9190
 2230.0000   -18.6320   107.1240   -61.9690     6.9440     6.1560     5.9470  -999.2500  -999.2500  -999.2500  -999.2500     8.9210
 2230.5000   -18.8290   108.3640   -62.1340     8.6430     6.3260     6.0340  -999.2500  -999.2500  -999.2500  -999.2500     8.9230
 2231.0000   -19.0260   112.7220   -62.2520     8.7230     6.4960     6.1210  -999.2500  -999.2500  -999.2500  -999.2500     8.9250
 2231.5000   -19.2230   115.4070   -62.1900     8.7230     6.6660     6.2080  -999.2500  -999.2500  -999.2500  -999.2500     8.9260
 2232.0000   -19.4200   113.8470   -61.9570     8.4850     6.8010     6.2590  -999.2500  -999.2500  -999.2500  -999.2500     8.9280
 2232.5000   -19.6170   112.5740   -61.7310     8.0040     6.5560     5.9360  -999.2500  -999.2500  -999.2500  -999.2500     8.9300
 2233.0000   -19.8140   112.9460   -61.5030     7.8910     6.2560     5.6680  -999.2500  -999.2500  -999.2500  -999.2500     8.9310
 2233.5000   -20.0110   113.3170   -61.2580     7.7780     5.9160     5.4010  -999.2500  -999.2500  -999.2500  -999.2500     8.9330
 2234.0000   -20.2080   112.5500   -61.0880     7.3860     5.5520     5.1340  -999.2500  -999.2500  -999.2500  -999.2500     8.9350
 2234.5000   -20.4060   111.8370   -60.9510     6.8640     5.1890     4.8800  -999.2500  -999.2500  -999.2500  -999.2500     8.9360
 2235.0000   -20.6030   114.4180   -60.8600     5.8620     5.0240     4.7910  -999.2500  -999.2500  -999.2500  -999.2500     8.9380
 2235.5000   -20.8000   118.2080   -60.9010     5.2540     4.9640     4.7630  -999.2500  -999.2500  -999.2500  -999.2500     8.9400
 2236.0000   -20.9970   119.5720   -61.0720     5.2540     4.9050     4.7370  -999.2500  -999.2500  -999.2500  -999.2500     8.9420
 2236.5000   -21.1940   117.0780   -61.2520     5.8050     4.8450     4.7030  -999.2500  -999.2500  -999.2500  -999.2500     8.9400
 2237.0000   -21.3910   116.6120   -61.7020     6.4720     4.7910     4.7270  -999.2500  -999.2500  -999.2500  -999.2500     8.9390
 2237.5000   -21.5880   116.0290   -62.0860     6.8010     4.8910     4.7620  -999.2500  -999.2500  -999.2500  -999.2500     8.9370
 2238.0000   -21.7850   113.5370   -62.1810     6.5540     4.9820     4.7970  -999.2500  -999.2500  -999.2500  -999.2500     8.9360
 2238.5000   -21.9820   111.0850   -62.2810     6.2790     5.0600     4.8350  -999.2500  -999.2500  -999.2500  -999.2500     8.9340
 2239.0000   -22.1790   112.7160   -62.3810     6.1450     5.0330     4.8320  -999.2500  -999.2500  -999.2500  -999.2500     8.9320
 2239.5000   -22.3760   114.2050   -62.4800     6.4200     5.0050     4.8250  -999.2500  -999.2500  -999.2500  -999.2500     8.9310
 2240.0000   -22.5730   114.3330   -62.5800     6.7380     4.9780     4.8180  -999.2500  -999.2500  -999.2500  -999.2500     8.9290
 2240.5000   -22.7700   114.4780   -62.6790     6.4950     4.9510     4.8110  -999.2500  -999.2500  -999.2500  -999.2500     8.9280
 2241.0000   -22.9670   115.5460   -62.7790     6.0470     4.9230     4.8040  -999.2500  -999.2500  -999.2500  -999.2500     8.9260
 2241.5000   -23.1650   117.5370   -62.8790     5.7080     4.8960     4.7970  -999.2500  -999.2500  -999.2500  -999.2500     8.9240
 2242.0000   -23.3620   119.5480   -62.9780     6.0260     4.8690     4.7470  -999.2500  -999.2500  -999.2500  -999.2500     8.9230
 2242.5000   -23.5590   121.6100   -63.0490     6.3170     4.8350     4.7820  -999.2500  -999.2500  -999.2500  -999.2500     8.9220
 2243.0000   -23.7560   119.9730   -63.0480     6.0040     4.9250     4.8270  -999.2500  -999.2500  -999.2500  -999.2500     8.9230
 2243.5000   -23.9530   117.9430   -63.0480     5.7610     5.1100     4.8710  -999.2500  -999.2500  -999.2500  -999.2500     8.9250
 2244.0000   -24.1500   113.3120   -63.0470     6.3230     5.0870     4.9250  -999.2500  -999.2500  -999.2500  -999.2500     8.9260
 2244.5000   -24.3470   108.8860   -63.0500     7.2620     5.0290     4.8790  -999.2500  -999.2500  -999.2500  -999.2500     8.9270
 2245.0000   -24.5440   105.4760   -63.3730     7.9550     4.9700     4.7680  -999.2500  -999.2500  -999.2500  -999.2500     8.9290
 2245.5000   -24.7410   106.9510   -63.7470     7.6500     4.8800     4.6600  -999.2500  -999.2500  -999.2500  -999.2500     8.9300
 2246.0000   -12.8200   112.7590   -63.8640     6.6270     4.8800     4.7290  -999.2500  -999.2500  -999.2500  -999.2500     8.9310
 2246.5000    -9.8830   117.4870   -63.9100     5.6030     4.8800     4.7950  -999.2500  -999.2500  -999.2500  -999.2500     8.9320
 2247.0000   -21.5250   116.6900   -63.9530     4.8350     4.8800     4.8620  -999.2500  -999.2500  -999.2500  -999.2500     8.9340
 2247.5000   -33.1680   113.4370   -63.9960     4.9710     5.0280     4.9290  -999.2500  -999.2500  -999.2500  -999.2500     8.9350
 2248.0000   -21.4180   107.5780   -64.0400     6.3360     5.2020     4.9960  -999.2500  -999.2500  -999.2500  -999.2500     8.9360
 2248.5000    -5.8940   102.5690   -64.0830     7.5270     5.3760     5.0620  -999.2500  -999.2500  -999.2500  -999.2500     8.9380
 2249.0000     5.2550   103.1820   -64.1260     7.4170     5.5490     5.1530  -999.2500  -999.2500  -999.2500  -999.2500     8.9390
 2249.5000    -1.1450   105.6560   -64.1700     7.2540     5.7230     5.3050  -999.2500  -999.2500  -999.2500  -999.2500     8.9400
 2250.0000    -7.0530   106.3990   -64.2110     7.4250     5.8970     5.4570  -999.2500  -999.2500  -999.2500  -999.2500     8.9410
 2250.5000   -12.9610   106.9290   -64.1910     7.6670     6.0700     5.6080  -999.2500  -999.2500  -999.2500  -999.2500     8.9430
 2251.0000   -14.7650   106.5550   -63.9920     7.4540     6.1450     5.7600  -999.2500  -999.2500  -999.2500  -999.2500     8.9440
 2251.5000   -14.7650   106.1710   -63.8000     7.1490     6.0050     5.8680  -999.2500  -999.2500  -999.2500  -999.2500     8.9450
 2252.0000   -14.7650   105.7920   -63.6080     6.8640     5.8760     5.7480  -999.2500  -999.2500  -999.2500  -999.2500     8.9470
 2252.5000   -14.7650   105.3710   -63.4160     7.1330     5.7480     5.6370  -999.2500  -999.2500  -999.2500  -999.2500     8.9480
 2253.0000   -14.7650   103.7100   -63.2200     7.9550     5.6100     5.5260  -999.2500  -999.2500  -999.2500  -999.2500     8.9490
 2253.5000   -14.7650   101.8850   -63.0060     7.8820     5.6480     5.4150  -999.2500  -999.2500  -999.2500  -999.2500     8.9500
 2254.0000   -14.7650   103.3150   -62.7930     6.3610     5.6990     5.3510  -999.2500  -999.2500  -999.2500  -999.2500     8.9520
 2254.5000   -14.1800   107.6560   -62.6370     5.6040     5.7490     5.4670  -999.2500  -999.2500  -999.2500  -999.2500     8.9530
 2255.0000   -13.6320   109.7630   -62.6030     6.0030     5.8000     5.5520  -999.2500  -999.2500  -999.2500  -999.2500     8.9540
 2255.5000   -13.0840   110.5650   -62.5690     7.1720     5.8680     5.5260  -999.2500  -999.2500  -999.2500  -999.2500     8.9560
 2256.0000   -12.5360   109.5280   -62.5340     8.4850     5.8530     5.5000  -999.2500  -999.2500  -999.2500  -999.2500     8.9570
 2256.5000   -11.9880   107.6890   -62.4990     8.1070     5.8310     5.4750  -999.2500  -999.2500  -999.2500  -999.2500     8.9580
