~VERSION INFORMATION
 VERS.                2.0:   CWLS LOG ASCII STANDARD - VERSION 2.0
 WRAP.                 NO:   ONE LINE PER DEPTH STEP
~WELL INFORMATION
#MNEM.UNIT      DATA TYPE    INFORMATION
#----------   ------------   ------------------------------
 STRT.F         2144.5000:   START DEPTH
 STOP.F         2870.0000:   STOP DEPTH
 STEP.F            0.5000:   STEP LENGTH
 NULL.          -999.2500:   NO VALUE
 COMP. LAWRENCE ALLISON & ASSOCIATES:   COMPANY
 WELL. LAWRENCE "X" #13-21:   WELL
 FLD .        TEAPOT DOME:   FIELD
 LOC .      S21 T39N R78W:   LOCATION
 CNTY.            NATRONA:   COUNTY
 STAT.            WYOMING:   STATE
 CTRY. UNITED STATES OF AMERICA:   COUNTRY
 SRVC.      DRESSER ATLAS:   SERVICE COMPANY
 DATE.        09-FEB-1987:   LOGDATE
 API .     49025111200000:   API NUMBER
~CURVE INFORMATION
#MNEM.UNIT       API CODE    CURVE DESCRIPTION
#----------   ------------   ------------------------------
 DEPT.F                  :   
 MCAL.IN     15 280 01 00:   CALIPER FROM MICRO LOG
 MTEN.LBS    15 635 01 00:   TENSION FROM MICRO LOG
 GRR .GAPI   05 310 01 00:   GAMMA RAY FROM RES.
 R2SL.OHMM   05 120 00 00:   RESISTIVITY
~PARAMETER INFORMATION
#MNEM.UNIT          VALUE    DESCRIPTION
#----------   ------------   ------------------------------
 EKB .F         4986.0000:   Kelly bushing
 EGL .F         4974.0000:   Ground level
 EDF .F            0.0000:   Drilling floor
 EPD .F         4974.0000:   Permanent datum
 TD  .F         2852.0000:   Total depth
 DATE.        09-FEB-1987:   Date logged
 CLNT.            A2DTECH:   Client Code
 SL  . 1962' FNL & 352' FWL:   Surface Location
 DAPD.F                12:   Feet Above Permanent Datum
 DD  .F              2850:   Depth driller
 DL  .F              2852:   Depth logger
 BLI .F              2846:   Bottom log interval
 TLI .F              2150:   Top log interval
 CS1 .IN            8.625:   Casing size
 CBD1.      8.625" @ 282':   Casing driller 1
 BS1 .IN            7.875:   Bit size
 BSD1.F              2850:   Depth drilled with bit1
 DFT .        KCL POLYMER:   Type fluid in hole
 DFD .                8.9:   Density
 DFV .                 40:   Viscosity
 DFPH.                9.7:   pH
 DFL .                8.6:   Fluid loss
 MSS .           FLOWLINE:   Source of sample
 RMS .OHMM          0.287:   Rm
 MST .F                60:   Rm Meas. temp.
 RMF .OHMM          0.203:   Rmf
 MFST.F                60:   Rmf Meas. temp.
 RMC .OHMM          0.358:   Rmc
 MCST.F                60:   Rmc Meas. temp.
 MFSS.               MEAS:   Source Rmf.
 MCSS.               CALC:   Source Rmc.
 RMB .OHMM          0.154:   Rm. at BHT
 BHT .F               112:   BHT.
 TCS .HRS               7:   Time Circ. stopped
 MRT .F               112:   Maximum recorded temp.
 LUN .            HL-6274:   Logging unit number
 LUL .           GILLETTE:   Logging unit location
 ENGI.             RAUTIO:   Recorded By
 WITN.             STRONG:   Witnessed by
 ORIG.           5" PRINT:   Origin of data
 UWI .     49025111200000:   Unique Well ID
 DICO. A2D TECHNOLOGIES, INC.:   Digitizing Company
~OTHER INFORMATION
~A  DEPT      MCAL       MTEN        GRR       R2SL   
# ...
 2801.5000     7.8880    25.3950   122.3040  -999.2500
 2802.0000     7.8910    26.1450   123.4570  -999.2500
 2802.5000     7.8930    26.8940   123.9590  -999.2500
 2803.0000     7.8950    27.6380   124.4440  -999.2500
 2803.5000     7.8970    31.7090   124.9200  -999.2500
 2804.0000     7.8990    35.7470   126.2610  -999.2500
 2804.5000     7.9020    39.7860   128.1260  -999.2500
 2805.0000     7.9040    43.8240   129.8630  -999.2500
 2805.5000     7.9060    47.8630   129.6220  -999.2500
 2806.0000     7.9080    51.9020   128.2980  -999.2500
 2806.5000     7.9100    55.9400   127.1540  -999.2500
 2807.0000     7.9130    58.3030   127.7180  -999.2500
 2807.5000     7.9080    59.2500   128.2950  -999.2500
 2808.0000     7.8970    60.1970   128.8660  -999.2500
 2808.5000     7.8870    61.1450   129.4220  -999.2500
 2809.0000     7.8760    62.0920   129.6680  -999.2500
 2809.5000     7.8650    63.0390   127.8770  -999.2500
 2810.0000     7.8550    63.9870   126.8190  -999.2500
 2810.5000     7.8440    64.9340   126.5700  -999.2500
 2811.0000     7.8340    65.8810   129.8110  -999.2500
 2811.5000     7.8340    66.8290   134.1910  -999.2500
 2812.0000     7.8340    67.8390   138.5880  -999.2500
 2812.5000     7.8340    61.8720   142.6920  -999.2500
 2813.0000     7.8340    55.4770   142.4660  -999.2500
 2813.5000     7.8340    49.0830   135.4980  -999.2500
 2814.0000     7.8340    42.6880   128.5550  -999.2500
 2814.5000     7.8340    39.4880   121.4030  -999.2500
 2815.0000     7.8340    47.7390   118.5370  -999.2500
 2815.5000     7.8340    55.9900   117.6490  -999.2500
 2816.0000     7.8340    64.2410   117.7580  -999.2500
 2816.5000     7.8350    72.4910   118.2910  -999.2500
 2817.0000     7.8360    80.7420   119.5330  -999.2500
 2817.5000     7.8360    87.9400   120.8250  -999.2500
 2818.0000     7.8370    90.1550   121.9770  -999.2500
 2818.5000     7.8380    92.5350   122.2860  -999.2500
 2819.0000     7.8390    94.9140   120.9610  -999.2500
 2819.5000     7.8390    97.2930   117.2930     2.1230
 2820.0000     7.8400    99.6730   113.5830     2.2720
 2820.5000     7.8410   102.0520   109.9350     2.3970
 2821.0000     7.8410   104.4310   110.4100     2.4110
 2821.5000     7.8420   106.8110   111.4960     2.4650
 2822.0000     7.8430   109.1900   112.7530     2.5720
 2822.5000     7.8440   111.5690   117.7630     2.7300
 2823.0000     7.8440   113.9490   123.5270     2.6700
 2823.5000     7.8450   116.3280   147.6360     2.0660
 2824.0000     7.8460   118.7070   179.0830     2.0570
 2824.5000     7.8460   121.0870   228.5180     2.0490
 2825.0000     7.8470   123.4660   220.5780     2.0400
 2825.5000     7.8480   125.8460   200.1470     2.0320
 2826.0000     7.8490   128.2250   151.0070     2.0280
 2826.5000     7.8490   130.6040   130.2050     2.3310
 2827.0000     7.8500   132.9840   117.4320     2.6790
 2827.5000     7.8510   135.3630   112.3320     2.7960
 2828.0000     7.8510   137.7420   109.9930     2.8360
 2828.5000     7.8520   140.1220   107.6260     2.9080
 2829.0000     7.8530   142.5010   105.1120     3.0280
 2829.5000     7.8540   144.8800   102.9530     3.1480
 2830.0000     7.8490   147.2600   101.0900     3.1670
 2830.5000     7.8440   151.2190   101.6200     3.1670
 2831.0000     7.8390   156.2890   102.1630     3.1670
 2831.5000     7.8340   161.3580   102.6550     3.1670
 2832.0000     7.8290   166.4280   102.8030     3.1670
 2832.5000     7.8240   171.4970   102.9640     3.0600
 2833.0000     7.8190   176.5670   103.1270     2.9120
 2833.5000     7.8140   181.6360   103.2750     2.7650
 2834.0000     7.8090   186.7060   103.0120     2.6180
 2834.5000     7.8040   191.7750   101.2470     2.5340
 2835.0000     7.7990   196.8450   101.1750     2.5580
 2835.5000     7.7940   201.9140   101.3630     2.7880
 2836.0000     7.7890   206.9840   102.0910     3.0040
 2836.5000     7.7840   212.0530   103.4440     3.1960
 2837.0000     7.7790   217.1230   104.7980     3.1380
 2837.5000     7.7740   222.1920   105.4000     3.2870
 2838.0000     7.7740   227.2620   105.3980     3.1620
 2838.5000     7.7740   232.3310   105.4870     2.9160
 2839.0000     7.7740   237.4010   103.3760     2.6710
 2839.5000     7.7740   242.4700    95.0790     2.4630
 2840.0000     7.7740   247.5390    85.6340     2.4560
 2840.5000     7.7740   252.6090    82.9350     2.4480
 2841.0000     7.7740   257.6780    89.6980     2.4420
 2841.5000     7.7740   267.0750    99.3860     2.4650
 2842.0000     7.7740   277.6920   100.1890     2.5640
 2842.5000     7.7740   288.3090   100.1920     2.6550
 2843.0000     7.7740   298.9270   100.1950     2.6550
 2843.5000     7.7740   309.5440   100.1790     2.5020
 2844.0000     7.7740   320.1610   100.1490     2.3130
 2844.5000     7.7740   330.7780   100.1180     2.1440
 2845.0000     7.7740   341.3960   100.0880     2.1440
 2845.5000     7.7740   352.0130   100.0580     2.0770
 2846.0000     7.7740   362.6300   100.0270  -999.2500
 2846.5000     7.7740   370.0960    99.9970  -999.2500
 2847.0000     7.7740   374.4810    99.9670  -999.2500
 2847.5000     7.7740   378.8660    99.9360  -999.2500
 2848.0000     7.7740   383.2510    99.9060  -999.2500
 2848.5000     7.7740   387.6350    99.8750  -999.2500
 2849.0000     7.7740   392.0200    99.8450  -999.2500
 2849.5000     7.7740   396.4050    99.8150  -999.2500
 2850.0000     7.7750   402.9020    99.7990  -999.2500
 2850.5000     7.7790   414.4560    99.7990  -999.2500
 2851.0000     7.7830   426.0090    99.7990  -999.2500
 2851.5000     7.7870   437.5630    99.7990  -999.2500
 2852.0000     7.7920   449.1160    99.7990  -999.2500
 2852.5000  -999.2500   459.7990    99.7990  -999.2500
 2853.0000  -999.2500   465.7040    99.7990  -999.2500
 2853.5000  -999.2500   431.6580    99.7990  -999.2500
 2854.0000  -999.2500   348.3850    99.7990  -999.2500
 2854.5000  -999.2500   191.2420    99.7990  -999.2500
 2855.0000  -999.2500    34.0990    99.7990  -999.2500
 2855.5000  -999.2500   -77.3870    99.7990  -999.2500
 2856.0000  -999.2500  -177.3870    99.7990  -999.2500
 2856.5000  -999.2500  -218.9920  -999.2500  -999.2500
 2857.0000  -999.2500  -227.4920  -999.2500  -999.2500
 2857.5000  -999.2500  -235.9920  -999.2500  -999.2500
 2858.0000  -999.2500  -244.4920  -999.2500  -999.2500
 2858.5000  -999.2500  -252.9920  -999.2500  -999.2500
 2859.0000  -999.2500  -261.4920  -999.2500  -999.2500
 2859.5000  -999.2500  -269.9920  -999.2500  -999.2500
 2860.0000  -999.2500  -278.4920  -999.2500  -999.2500
 2860.5000  -999.2500  -286.9920  -999.2500  -999.2500
 2861.0000  -999.2500  -295.4920  -999.2500  -999.2500
 2861.5000  -999.2500  -303.9920  -999.2500  -999.2500
 2862.0000  -999.2500  -312.4920  -999.2500  -999.2500
 2862.5000  -999.2500  -320.9920  -999.2500  -999.2500
 2863.0000  -999.2500  -329.4920  -999.2500  -999.2500
 2863.5000  -999.2500  -337.9920  -999.2500  -999.2500
 2864.0000  -999.2500  -346.4920  -999.2500  -999.2500
 2864.5000  -999.2500  -354.9920  -999.2500  -999.2500
 2865.0000  -999.2500  -363.4920  -999.2500  -999.2500
 2865.5000  -999.2500  -371.9920  -999.2500  -999.2500
 2866.0000  -999.2500  -380.4920  -999.2500  -999.2500
 2866.5000  -999.2500  -391.7540  -999.2500  -999.2500
 2867.0000  -999.2500  -405.3910  -999.2500  -999.2500
 2867.5000  -999.2500  -435.5710  -999.2500  -999.2500
 2868.0000  -999.2500  -505.0250  -999.2500  -999.2500
 2868.5000  -999.2500  -505.0250  -999.2500  -999.2500
 2869.0000  -999.2500  -505.0250  -999.2500  -999.2500
 2869.5000  -999.2500  -505.0250  -999.2500  -999.2500
 2870.0000  -999.2500  -505.0250  -999.2500  -999.2500
