~VERSION INFORMATION
 VERS.                2.0:   CWLS LOG ASCII STANDARD - VERSION 2.0
 WRAP.                 NO:   ONE LINE PER DEPTH STEP
~WELL INFORMATION
#MNEM.UNIT      DATA TYPE    INFORMATION
#----------   ------------   ------------------------------
 STRT.F           40.0000:   START DEPTH
 STOP.F         3032.5000:   STOP DEPTH
 STEP.F            0.5000:   STEP LENGTH
 NULL.          -999.2500:   NO VALUE
 COMP.   TESORO PETROLEUM:   COMPANY
 WELL. TESORO NPR 3 "AX" #51-15:   WELL
 FLD .        TEAPOT DOME:   FIELD
 LOC .      S15 T38N R78W:   LOCATION
 CNTY.            NATRONA:   COUNTY
 STAT.            WYOMING:   STATE
 CTRY. UNITED STATES OF AMERICA:   COUNTRY
 SRVC.       SCHLUMBERGER:   SERVICE COMPANY
 DATE.        21-JUL-1969:   LOGDATE
 API .     49025100240000:   API NUMBER
~CURVE INFORMATION
#MNEM.UNIT       API CODE    CURVE DESCRIPTION
#----------   ------------   ------------------------------
 DEPT.F                  :   
 CALD.IN     45 280 60 00:   CALIPER FROM DENSITY LOG
 GRD .GAPI   45 310 01 00:   GAMMA RAY FROM DENSITY LOG
 RHOB.G/C3   45 350 01 00:   BULK DENSITY
 CORR.G/C3   45 356 01 00:   DENSITY CORRECTION
 GR  .GAPI   35 310 01 00:   GAMMA RAY FROM GAMMA RAY LOG
 SPR .MV     05 010 01 00:   SPONTANEOUS POTENTIAL
 ASN .OHMM   05 041 16 00:   AMPLIFIED SHORT NORMAL 16"
 ILD .OHMM   05 120 46 00:   DEEP INDUCTION RESISTIVITY
~PARAMETER INFORMATION
#MNEM.UNIT          VALUE    DESCRIPTION
#----------   ------------   ------------------------------
 EKB .F         5235.0000:   Kelly bushing
 EGL .F         5222.0000:   Ground level
 EDF .F            0.0000:   Drilling floor
 TD  .F         3027.0000:   Total depth
 DATE.        21-JUL-1969:   Date logged
 CLNT.            A2DTECH:   Client Code
 SL  . 2000' FEL & 660' FNL:   Surface Location
 PD  .                 GL:   Permanent Datum
 EPD .F              5222:   Elevation Permanent Datum
 LMF .                 KB:   Log Measured From
 DMF .                 KB:   Drilling Measured From
 DAPD.F                13:   Feet Above Permanent Datum
 DD  .F              3027:   Depth driller
 DL  .F              3025:   Depth logger
 BLI .F              3024:   Bottom log interval
 TLI .F              2604:   Top log interval
 CS1 .IN            10.75:   Casing size
 CBD1.      10.75" @ 622':   Casing driller 1
 BS1 .IN                9:   Bit size
 BSD1.F              3027:   Depth drilled with bit1
 DFT .          FRESH/GEL:   Type fluid in hole
 DFD .                9.7:   Density
 DFV .                 65:   Viscosity
 DFPH.                9.5:   pH
 DFL .                  7:   Fluid loss
 MSS .           FLOWLINE:   Source of sample
 RMS .OHMM           2.48:   Rm
 MST .F                80:   Rm Meas. temp.
 RMF .OHMM           2.80:   Rmf
 MFST.F                80:   Rmf Meas. temp.
 MFSS.               MEAS:   Source Rmf.
 RMB .OHMM           2.20:   Rm. at BHT
 BHT .F               106:   BHT.
 TCS .HRS               1:   Time Circ. stopped
 MRT .F               106:   Maximum recorded temp.
 LUN .               4507:   Logging unit number
 LUL .               CSPR:   Logging unit location
 ENGI.           CHAMPLIN:   Recorded By
 WITN.                MAY:   Witnessed by
 ORIG.           5" PRINT:   Origin of data
 UWI .     49025100240000:   Unique Well ID
 DICO. A2D TECHNOLOGIES, INC.:   Digitizing Company
~OTHER INFORMATION
~A   DEPT     CALD        GRD       RHOB       CORR         GR        SPR        ASN          ILD 
# ...
 2632.0000     8.9520    71.6610     2.4410     0.0300  -999.2500   -37.7560    35.8300    27.5000
 2632.5000     8.9520    68.7290     2.4310     0.0340  -999.2500   -37.7430    36.3330    27.7780
 2633.0000     8.9520    66.6060     2.4230     0.0340  -999.2500   -37.7490    36.8280    28.0570
 2633.5000     8.9520    65.5490     2.4220     0.0210  -999.2500   -37.7710    37.3470    28.4250
 2634.0000     8.9520    64.3410     2.4310     0.0120  -999.2500   -38.1110    37.8360    28.9950
 2634.5000     8.9520    65.4680     2.4460     0.0120  -999.2500   -38.4760    38.3630    29.5540
 2635.0000     8.9520    67.7700     2.4510     0.0230  -999.2500   -38.8290    38.3660    30.0320
 2635.5000     8.9520    69.9950     2.4500     0.0330  -999.2500   -39.2160    38.1410    29.9050
 2636.0000     8.9520    70.0030     2.4400     0.0440  -999.2500   -39.1990    37.9410    29.7020
 2636.5000     8.9520    69.8690     2.4320     0.0530  -999.2500   -38.9260    37.4600    29.2810
 2637.0000     8.9520    69.5290     2.4590     0.0540  -999.2500   -38.7030    36.5400    28.7710
 2637.5000     8.9520    69.8080     2.4510     0.0480  -999.2500   -38.4640    35.6340    28.2460
 2638.0000     8.9520    69.5690     2.4330     0.0420  -999.2500   -38.2320    34.7110    27.3740
 2638.5000     8.9520    76.8200     2.4400     0.0370  -999.2500   -37.9930    33.8510    26.5050
 2639.0000     8.9520    75.4660     2.4580     0.0320  -999.2500   -37.7330    33.4570    25.5830
 2639.5000     8.9520    74.0610     2.4760     0.0210  -999.2500   -37.2160    33.4420    24.7290
 2640.0000     8.9520    72.3390     2.4840     0.0140  -999.2500   -36.6240    33.2790    23.7960
 2640.5000     8.9520    72.9950     2.4840     0.0140  -999.2500   -36.2090    32.7260    23.6750
 2641.0000     8.9520    76.2800     2.4990     0.0290  -999.2500   -36.4160    32.1630    23.5130
 2641.5000     8.9520    79.3170     2.5150     0.0280  -999.2500   -36.4400    31.5870    23.8150
 2642.0000     8.9520    82.5640     2.5270     0.0480  -999.2500   -35.3570    31.2180    24.2030
 2642.5000     8.9520    81.1350     2.5310     0.0650  -999.2500   -34.3810    31.3440    23.9420
 2643.0000     8.9520    77.6650     2.5190     0.0820  -999.2500   -33.3880    31.5100    23.4550
 2643.5000     8.9520    76.8560     2.4950     0.0690  -999.2500   -32.8570    31.6770    23.5440
 2644.0000     8.9550    77.1230     2.4990     0.0590  -999.2500   -33.4920    31.8110    23.6190
 2644.5000     8.9590    77.2630     2.5010     0.0480  -999.2500   -34.2340    31.5960    23.7240
 2645.0000     8.9620    77.3890     2.4950     0.0560  -999.2500   -34.6240    31.1640    23.4910
 2645.5000     8.9660    76.4280     2.5010     0.0490  -999.2500   -34.5660    30.4740    22.9290
 2646.0000     8.9700    75.1960     2.4930     0.0400  -999.2500   -34.5830    29.8140    22.4060
 2646.5000     8.9730    73.7240     2.4800     0.0410  -999.2500   -34.5940    29.1440    21.8580
 2647.0000     8.9770    75.3950     2.4630     0.0430  -999.2500   -34.4680    28.4690    21.3370
 2647.5000     8.9810    78.5530     2.4710     0.0400  -999.2500   -34.3190    27.7990    20.7640
 2648.0000     8.9840    81.5540     2.4910     0.0370  -999.2500   -33.5900    27.1250    20.5150
 2648.5000     8.9880    82.7120     2.5100     0.0370  -999.2500   -32.3320    26.4470    20.3340
 2649.0000     8.9910    83.3260     2.5240     0.0400  -999.2500   -31.1460    25.8910    20.0520
 2649.5000     8.9950    83.7520     2.5170     0.0410  -999.2500   -29.9290    25.6620    19.7630
 2650.0000     8.9990    84.2190     2.4960     0.0650  -999.2500   -29.9550    25.4770    19.4590
 2650.5000     9.0020    84.6920     2.4740     0.0680  -999.2500   -30.0590    25.2580    18.5400
 2651.0000     9.0060    84.9270     2.4940     0.0620  -999.2500   -30.1890    24.3870    17.8750
 2651.5000     9.0090    85.8580     2.4980    -0.0020  -999.2500   -30.1850    23.5110    17.1780
 2652.0000     9.0130    83.1820     2.4970     0.0080  -999.2500   -29.5080    22.5980    16.5110
 2652.5000     9.0170    84.7470     2.4930     0.0150  -999.2500   -28.8470    21.7100    15.8260
 2653.0000     9.0200    87.8860     2.5140     0.0260  -999.2500   -28.0820    20.7990    15.1650
 2653.5000     9.0240    90.0280     2.5070     0.0340  -999.2500   -27.3030    19.8690    14.4170
 2654.0000     9.0270    89.6600     2.4970     0.0270  -999.2500   -26.4980    19.2530    13.9220
 2654.5000     9.0310    91.0230     2.5000     0.0200  -999.2500   -25.9050    19.1220    13.8030
 2655.0000     9.0300    92.8000     2.5030     0.0260  -999.2500   -25.8140    18.9690    13.5710
 2655.5000     9.0260    90.2370     2.4910     0.0340  -999.2500   -25.6930    18.7920    13.6080
 2656.0000     9.0230    85.9230     2.5040     0.0260  -999.2500   -25.5950    18.8120    13.8140
 2656.5000     9.0190    83.3210     2.4960     0.0170  -999.2500   -25.4840    19.0030    14.1350
 2657.0000     9.0160    85.8960     2.5260     0.0080  -999.2500   -25.3780    19.1770    14.4530
 2657.5000     9.0120    87.6220     2.5140     0.0140  -999.2500   -25.2730    19.3170    14.5990
 2658.0000     9.0090    86.7590     2.5110     0.0200  -999.2500   -25.1570    18.6650    14.4830
 2658.5000     9.0050    84.3400     2.5050     0.0210  -999.2500   -25.0940    18.0670    14.2260
 2659.0000     9.0020    81.8890     2.4990     0.0170  -999.2500   -25.1020    17.8040    13.9870
 2659.5000     8.9980    81.1430     2.4960     0.0120  -999.2500   -25.0980    18.1650    13.6630
 2660.0000     8.9950    83.5440     2.4930     0.0080  -999.2500   -25.0990    17.9160    13.1740
 2660.5000     8.9920    86.8070     2.4890     0.0000  -999.2500   -25.0990    17.3480    12.6690
 2661.0000     8.9900    88.0410     2.4930     0.0170  -999.2500   -25.0990    16.7970    12.1610
 2661.5000     8.9890    89.2790     2.5060     0.0200  -999.2500   -25.0990    16.1970    11.2910
 2662.0000     8.9870    90.4530     2.5080     0.0150  -999.2500   -25.0990    15.6000    10.4500
 2662.5000     8.9860    92.0480     2.5060     0.0220  -999.2500   -25.0990    15.0560     9.5960
 2663.0000     8.9840    94.1940     2.5030     0.0340  -999.2500   -25.0990    13.9710     8.7910
 2663.5000     8.9830    96.5090     2.5050     0.0410  -999.2500   -25.1000    12.8930     8.4060
 2664.0000     8.9810    98.7260     2.5110     0.0480  -999.2500   -25.0990    12.1830     8.5750
 2664.5000     8.9800   101.3390     2.5200     0.0400  -999.2500   -25.1010    12.3940     8.8310
 2665.0000     8.9790   105.1050     2.5330     0.0280  -999.2500   -25.1030    13.1000     9.1090
 2665.5000     8.9770   111.9520     2.5460     0.0370  -999.2500   -25.1000    13.8380     9.7410
 2666.0000     8.9760   110.4010     2.5560     0.0350  -999.2500   -25.1130    16.3800    10.8440
 2666.5000     8.9740    98.5860     2.5140     0.0280  -999.2500   -25.0850    19.0450    12.5880
 2667.0000     8.9730    89.9410     2.4840     0.0680  -999.2500   -25.3390    21.7090    14.0510
 2667.5000     8.9710    83.7330     2.4880     0.0730  -999.2500   -25.8060    24.3730    17.1190
 2668.0000     8.9700    78.2740     2.4870     0.0710  -999.2500   -26.3020    27.4800    19.7610
 2668.5000     8.9680    75.3790     2.4910     0.0500  -999.2500   -27.4030    29.1080    22.4900
 2669.0000     8.9670    75.0010     2.5000     0.0220  -999.2500   -28.7120    31.0600    25.2940
 2669.5000     8.9650    74.8920     2.5050     0.0220  -999.2500   -30.0010    33.0130    27.3180
 2670.0000     8.9640    71.9560     2.4670     0.0290  -999.2500   -31.9260    34.5980    28.3580
 2670.5000     8.9630    72.0860     2.4380     0.0220  -999.2500   -33.9740    35.2260    29.7110
 2671.0000     8.9610    72.7740     2.4370     0.0310  -999.2500   -34.5180    35.8530    30.5270
 2671.5000     8.9600    73.0050     2.4680     0.0330  -999.2500   -34.9160    36.4090    30.2380
 2672.0000     8.9580    70.0510     2.4890     0.0280  -999.2500   -35.3090    37.4160    29.9120
