~VERSION INFORMATION
 VERS.                2.0:   CWLS LOG ASCII STANDARD - VERSION 2.0
 WRAP.                 NO:   ONE LINE PER DEPTH STEP
~WELL INFORMATION
#MNEM.UNIT      DATA TYPE    INFORMATION
#----------   ------------   ------------------------------
 STRT.F           85.5000:   START DEPTH
 STOP.F         3267.0000:   STOP DEPTH
 STEP.F            0.5000:   STEP LENGTH
 NULL.          -999.2500:   NO VALUE
 COMP. LAWRENCE ALLISON & ASSOCIATES:   COMPANY
 WELL. LAWRENCE "X" #78-33:   WELL
 FLD .           N P R #3:   FIELD
 LOC .      S33 T39N R78W:   LOCATION
 CNTY.            NATRONA:   COUNTY
 STAT.            WYOMING:   STATE
 CTRY. UNITED STATES OF AMERICA:   COUNTRY
 SRVC.      DRESSER ATLAS:   SERVICE COMPANY
 DATE.        04-FEB-1986:   LOGDATE
 API .     49025110630000:   API NUMBER
~CURVE INFORMATION
#MNEM.UNIT       API CODE    CURVE DESCRIPTION
#----------   ------------   ------------------------------
 DEPT.F                  :   
 CNC .DEC    42 890 03 00:   NEUTRON PORISITY SANDSTONE
 DEN .G/C3   45 350 01 00:   BULK DENSITY
 DCOR.G/C3   45 356 01 00:   DENSITY CORRECTION
 TEND.LBS    45 635 01 00:   TENSION FROM DENSITY LOG
 GRR .GAPI   07 310 01 00:   GAMMA RAY FROM RESISTIVITY
 CALR.IN     07 280 01 00:   CALIPER FROM RESISTIVITY
 RILM.OHMM   07 120 44 00:   INDUCTION LOG MEDIUM RESISTIVITY
 RILD.OHMM   07 120 46 00:   DEEP INDUCTION RESISTIVITY
 RFOC.OHMM   07 220 04 00:   RESISTIVITY FOCUSED LOG RES.
 TENR.LBS    07 635 01 00:   TENSION FROM RESISTIVITY
 DT  .US/F   60 520 00 00:   DELTA TIME
 TENS.LBS    60 635 01 00:   TENSION FROM SONIC
 SPR .MV     07 010 01 00:   SPONTANEOUS POTENTIAL
~PARAMETER INFORMATION
#MNEM.UNIT          VALUE    DESCRIPTION
#----------   ------------   ------------------------------
 EKB .F            0.0000:   Kelly bushing
 EGL .F         5150.0000:   Ground level
 EDF .F         5161.0000:   Drilling floor
 TD  .F         3260.0000:   Total depth
 DATE.        04-FEB-1986:   Date logged
 CLNT.            A2DTECH:   Client Code
 SL  . 1200' FEL & 650' FEL:   Surface Location
 PD  .                 GL:   Permanent Datum
 DD  .F              3260:   Depth driller
 DL  .F              3260:   Depth logger
 BLI .F              3258:   Bottom log interval
 CS1 .IN            8.625:   Casing size
 CBD1.      8.625" @ 566':   Casing driller 1
 CBL1.F               566:   Casing logger 1
 BS1 .IN            7.875:   Bit size
 DFT .        POLYMER-KCL:   Type fluid in hole
 DFD .                9.0:   Density
 DFV .                 36:   Viscosity
 DFPH.                8.5:   pH
 DFL .                 14:   Fluid loss
 MSS .           FLOWLINE:   Source of sample
 RMS .OHMM          0.367:   Rm
 MST .F                65:   Rm Meas. temp.
 RMF .OHMM          0.275:   Rmf
 MFST.F                65:   Rmf Meas. temp.
 RMC .OHMM          0.459:   Rmc
 MCST.F                65:   Rmc Meas. temp.
 MFSS.               CALC:   Source Rmf.
 RMB .OHMM          0.227:   Rm. at BHT
 BHT .F               105:   BHT.
 TCS .HRS               6:   Time Circ. stopped
 MRT .F               105:   Maximum recorded temp.
 LUN .               6274:   Logging unit number
 LUL .           GILLETTE:   Logging unit location
 ENGI.             MILLER:   Recorded By
 WITN.             STRONG:   Witnessed by
 ORIG.           5" PRINT:   Origin of data
 UWI .     49025110630000:   Unique Well ID
 DICO. A2D TECHNOLOGIES, INC.:   Digitizing Company
 DAPD.                 11:   Feet Above Permanent Datum
 BSD1.               3260:   Depth drilled with bit1
 MCSS.               CALC:   Source Rmc.
 EPD .F              5150:   Elevation Permanent Datum
 LMF .                 KB:   Log Measured From
 DMF .                 KB:   Drilling Measured From
 TLI .                566:   Top log interval
~OTHER INFORMATION
~A   DEPT      CNC        DEN       DCOR       TEND         GRR      CALR       RILM       RILD       RFOC       TENR         DT       TENS        SPR   
# ...
 2347.5000     0.2900     2.4770     0.0100  -124.4090   103.8440    10.0660     2.6490     2.8370     3.2660   -48.2240    97.7050   -61.4740   -74.0580
 2348.0000     0.2860     2.4690     0.0090  -124.4950   106.1980    10.0720     2.8110     3.0170     3.9820   -52.1320    97.1730   -56.4470   -74.2940
 2348.5000     0.2840     2.4780     0.0070  -125.4030   112.4740    10.0910     3.0000     3.1960     4.3150   -56.0390    96.6060   -65.1290   -74.4950
 2349.0000     0.2860     2.4890     0.0100  -126.3110   114.9210    10.1120     3.2880     3.3760     3.4920   -59.9470    96.3590   -73.8120   -74.7290
 2349.5000     0.2990     2.5010     0.0210  -127.2180   114.9450    10.1250     3.4990     3.5550     3.5570   -65.0000    96.4300   -82.4940   -74.8940
 2350.0000     0.2860     2.5120     0.0310  -128.1260   116.8180    10.1300     3.6380     3.7350     4.3530   -63.0300    96.1590   -80.5960   -75.0720
 2350.5000     0.2870     2.5230     0.0420  -129.0330   117.2470    10.1330     3.7930     3.9360     5.3830   -60.2440    95.8500   -71.9290   -75.0210
 2351.0000     0.2810     2.5330     0.0520  -129.9410   115.0690    10.1370     4.1030     4.2190     5.3850   -57.4580    96.1890   -63.2610   -74.6810
 2351.5000     0.2720     2.5400     0.0630  -130.8480   112.5870    10.1410     4.4360     4.5410     4.9660   -54.6720    96.5010   -55.0000   -74.5500
 2352.0000     0.2660     2.5490     0.0660  -131.7560   112.8450    10.1440     4.6450     4.8630     4.7320   -51.8860    96.3500   -61.2800   -74.5280
 2352.5000     0.2710     2.5490     0.0470  -132.6640   112.5200    10.1480     4.8530     5.0470     4.9720   -49.1000    95.7500   -71.1000   -74.4580
 2353.0000     0.2880     2.5440     0.0380  -133.5710   108.3530    10.1520     5.0310     5.0470     5.5710   -46.3140    94.3120   -80.9200   -74.5820
 2353.5000     0.3050     2.5370     0.0410  -134.0730   104.0510    10.1550     5.0010     5.0470     6.4260   -43.5280    92.8500   -90.7400   -74.6330
 2354.0000     0.3230     2.5330     0.0460  -134.0730   104.0880    10.1590     5.0010     5.0470     7.2800   -40.7420    92.4500   -91.1660   -74.3360
 2354.5000     0.3340     2.5310     0.0500  -134.0730   108.2630    10.1630     4.7130     5.0470     7.9990   -37.9560    92.7300   -84.3930   -74.1240
 2355.0000     0.3380     2.5260     0.0480  -134.0730   113.4790    10.1630     4.6450     5.0320     7.7100   -35.0000    93.7900   -77.6210   -74.3370
 2355.5000     0.3020     2.5240     0.0460  -134.0730   116.9570    10.1590     4.8320     4.9900     6.5190   -36.1310    94.8500   -70.8480   -74.5680
 2356.0000     0.2930     2.5260     0.0430  -134.0730   116.0830    10.1530     4.7980     4.9480     5.4760   -37.6690    95.9090   -64.0760   -74.7230
 2356.5000     0.2910     2.5390     0.0350  -134.0730   114.4050    10.1500     4.7550     4.9090     4.9090   -39.2060    96.5280   -57.3030   -75.0270
 2357.0000     0.2870     2.5410     0.0270  -134.0730   112.6060    10.1440     4.9750     5.1560     5.1090   -40.7440    96.5630   -58.6000   -75.1010
 2357.5000     0.2760     2.5400     0.0370  -134.0730   105.3840    10.1200     5.1590     5.4330     5.3320   -42.2810    96.0080   -64.0560   -75.1390
 2358.0000     0.2650     2.5360     0.0590  -134.0730    99.4130    10.0940     5.2850     5.7440     5.5560   -43.8190    94.9770   -69.5110   -74.9540
 2358.5000     0.2680     2.5280     0.0740  -134.5660    99.6430    10.0840     5.8480     6.0950     6.0060   -45.0000    93.9800   -74.9670   -74.1430
 2359.0000     0.2740     2.5180     0.0390  -135.2070    98.9400    10.0800     6.1350     6.4470     6.5840   -52.5750    93.0500   -80.4220   -73.7310
 2359.5000     0.2740     2.5070     0.0250  -135.8480    97.9500    10.0760     6.4130     6.7980     7.1630   -58.7250    92.4910   -85.0000   -73.6760
 2360.0000     0.2610     2.5070     0.0390  -136.4890   100.8410    10.0730     6.8210     7.2280     7.7410   -65.0000    92.2640   -79.5770   -73.5130
 2360.5000     0.2560     2.5120     0.0600  -137.1300   105.9540    10.0690     7.2950     7.2770     8.2230   -60.0140    92.3500   -73.9120   -73.4740
 2361.0000     0.2620     2.5190     0.0590  -137.7710   110.0740    10.0660     7.1890     7.3390     8.6150   -54.9240    92.8020   -68.2460   -73.3790
 2361.5000     0.2700     2.5260     0.0530  -138.4120   109.7910    10.0620     7.1080     7.4010     8.8040   -49.8340    93.2930   -62.5810   -73.2980
 2362.0000     0.2780     2.5310     0.0470  -139.0530   106.5370    10.0590     7.1440     7.4490     8.5650   -44.7450    93.7500   -56.9150   -73.2580
 2362.5000     0.2870     2.5230     0.0540  -139.6940   103.5850    10.0550     7.1780     7.4840     8.0190   -39.6550    93.5500   -57.7080   -73.3740
 2363.0000     0.2890     2.5170     0.0620  -140.3360   101.4890    10.0520     7.2110     7.5190     7.7810   -35.0000    92.2970   -61.8000   -73.7020
 2363.5000     0.2860     2.5210     0.0650  -140.9770    98.7460    10.0480     7.2280     7.5550     7.9260   -41.4080    91.1040   -65.8920   -74.0810
 2364.0000     0.2810     2.5280     0.0640  -141.6180    97.4950    10.0460     7.2280     7.5900     9.1640   -47.3120    90.0520   -69.9830   -74.3490
 2364.5000     0.2760     2.5330     0.0590  -142.2590   102.1310    10.0450     7.2520     7.6250     9.5480   -53.2160    89.6500   -74.0750   -74.0760
 2365.0000     0.2710     2.5220     0.0580  -142.9000   106.7580    10.0460     7.2950     7.6600     9.1910   -59.1200    89.8350   -72.0000   -73.4460
 2365.5000     0.2660     2.5100     0.0660  -143.5410   110.3960    10.0460     7.0960     7.6950     8.8340   -65.0000    90.0230   -66.7390   -72.8590
 2366.0000     0.2640     2.4990     0.0760  -144.1530   114.3280    10.0440     7.0960     7.7300     8.9340   -57.4950    90.2740   -61.4790   -72.2420
 2366.5000     0.2760     2.4990     0.0780  -142.1450   116.1020    10.0420     7.0960     7.7660     8.6320   -48.1240    90.6490   -56.2180   -71.8220
 2367.0000     0.2870     2.5000     0.0780  -140.2220   116.4700    10.0320     7.5690     7.8820     8.2470   -38.7520    91.0250   -50.9570   -71.6900
 2367.5000     0.2900     2.5030     0.0830  -138.2990   114.0770    10.0330     7.9260     8.0730     8.0730   -29.3810    91.4000   -45.6960   -71.5580
 2368.0000     0.2810     2.5040     0.0890  -136.3760   111.0540    10.0230     7.6900     8.0250     8.2990   -30.4580    91.4860   -49.4450   -71.5010
 2368.5000     0.2690     2.5020     0.0860  -134.4530   110.4560     9.9510     7.5940     7.9590     9.1100   -40.7080    91.5260   -56.1410   -71.5790
 2369.0000     0.2700     2.5060     0.0700  -132.4460   113.0650     9.8850     7.6390     7.8930     9.6170   -50.9580    91.6020   -62.8360   -71.6620
 2369.5000     0.2710     2.5160     0.0590  -130.4190   115.1340     9.8610     7.7810     7.8280    10.2090   -61.2080    91.9490   -69.5320   -71.7460
 2370.0000     0.2670     2.5250     0.0730  -128.3920   112.5210     9.8380     7.0960     7.7620    10.5450   -71.4580    92.4400   -75.0000   -71.8170
 2370.5000     0.2640     2.5280     0.0730  -126.3650   109.7310     9.8130     7.2820     7.6970     9.6630   -70.5590    92.8500   -69.9370   -71.8820
 2371.0000     0.2670     2.5180     0.0630  -124.3380   108.6350     9.7890     7.2940     7.6310     9.0570   -63.7720    92.8050   -64.7680   -71.8540
 2371.5000     0.2730     2.5070     0.0510  -122.3110   108.8020     9.7720     7.4990     7.5650     8.5680   -56.9860    92.7230   -59.6000   -71.8870
 2372.0000     0.2750     2.4950     0.0370  -120.2840   109.0660     9.7590     7.0310     7.4990     8.5100   -50.2000    92.6320   -55.0000   -72.1370
 2372.5000     0.2730     2.4860     0.0230  -118.2570   106.0590     9.7310     7.2930     7.5510     8.6900   -43.4140    92.4680   -60.1350   -72.1440
 2373.0000     0.2770     2.4850     0.0300  -116.2300   101.7920     9.6920     7.5690     7.6040     8.6110   -35.0000    92.2140   -65.8000   -71.8870
