~VERSION INFORMATION
 VERS.                2.0:   CWLS LOG ASCII STANDARD - VERSION 2.0
 WRAP.                 NO:   ONE LINE PER DEPTH STEP
~WELL INFORMATION
#MNEM.UNIT      DATA TYPE    INFORMATION
#----------   ------------   ------------------------------
 STRT.F          298.0000:   START DEPTH
 STOP.F         3084.0000:   STOP DEPTH
 STEP.F            0.5000:   STEP LENGTH
 NULL.          -999.2500:   NO VALUE
 COMP. LAWERNCE ALLISON AND ASSOCIATED:   COMPANY
 WELL. LAWERNCE "TX" #77-20:   WELL
 FLD .        TEAPOT DOME:   FIELD
 LOC .      S20 T39N R78W:   LOCATION
 CNTY.            NATRONA:   COUNTY
 STAT.            WYOMING:   STATE
 CTRY. UNITED STATES OF AMERICA:   COUNTRY
 SRVC.       SCHLUMBERGER:   SERVICE COMPANY
 DATE.        22-JAN-1982:   LOGDATE
 API .     49025108840000:   API NUMBER
~CURVE INFORMATION
#MNEM.UNIT       API CODE    CURVE DESCRIPTION
#----------   ------------   ------------------------------
 DEPT.F                  :   
 CALD.IN     45 280 60 00:   CALIPER FROM DENSITY LOG
 GRD .GAPI   45 310 01 00:   GAMMA RAY FROM DENSITY LOG
 TEND.LBS    45 635 01 00:   TENSION FROM DENSITY LOG
 RHOB.G/C3   45 350 01 00:   BULK DENSITY
 NPHI.DEC    42 890 03 00:   NEUTRON POROSITY SANDSTONE
 CORR.G/C3   45 356 01 00:   DENSITY CORRECTION
 SFLU.OHMM   07 220 01 00:   SPHERICALLY FOCUSED LOG UNAVERAGED RESISTIVITY
 ILD .OHMM   07 120 46 00:   INDUCTION LOG DEEP RESISTIVITY
 ILM .OHMM   07 120 44 00:   INDUCTION LOG MEDIUM RESISTIVITY
 TENR.LBS    07 635 01 00:   TENSION
 SPR .MV     07 010 01 00:   SPONTANEOUS POTENTIAL
~PARAMETER INFORMATION
#MNEM.UNIT          VALUE    DESCRIPTION
#----------   ------------   ------------------------------
 EKB .F         5022.0000:   Kelly bushing
 EGL .F         5012.0000:   Ground level
 EDF .F         5021.0000:   Drilling floor
 TD  .F         3079.0000:   Total depth
 DATE.        22-JAN-1982:   Date logged
 CLNT.            A2DTECH:   Client Code
 SL  . 986' FSL & 779' FEL:   Surface Location
 PD  .                 GL:   Permanent Datum
 EPD .F              5012:   Elevation Permanent Datum
 LMF .                 KB:   Log Measured From
 DMF .                 KB:   Drilling Measured From
 DAPD.F                10:   Feet Above Permanent Datum
 DD  .F              3079:   Depth driller
 DL  .F              3070:   Depth logger
 BLI .F              3064:   Bottom log interval
 TLI .F               328:   Top log interval
 CS1 .IN            9.625:   Casing size
 CBD1.      9.625" @ 300':   Casing driller 1
 CBL1.F               328:   Casing logger 1
 BS1 .IN            7.875:   Bit size
 BSD1.F              3079:   Depth drilled with bit1
 DFT .           CHEM/GEL:   Type fluid in hole
 DFD .                8.9:   Density
 DFV .                 50:   Viscosity
 DFPH.               10.5:   pH
 DFL .                  8:   Fluid loss
 MSS .           FLOWLINE:   Source of sample
 RMS .OHMM           2.53:   Rm
 MST .F                49:   Rm Meas. temp.
 RMF .OHMM           2.04:   Rmf
 MFST.F                49:   Rmf Meas. temp.
 RMC .OHMM           3.80:   Rmc
 MCST.F                49:   Rmc Meas. temp.
 MFSS.               MEAS:   Source Rmf.
 MCSS.               CALC:   Source Rmc.
 RMB .OHMM           1.04:   Rm. at BHT
 BHT .F               119:   BHT.
 TCS .HRS            0330:   Time Circ. stopped
 TLAB.HRS            0800:   Time logger at bottom
 MRT .F               119:   Maximum recorded temp.
 LUN .               8043:   Logging unit number
 LUL .               CSPR:   Logging unit location
 ENGI.            PERAKIS:   Recorded By
 WITN.              SCOTT:   Witnessed by
 ORIG.           5" PRINT:   Origin of data
 UWI .     49025108840000:   Unique Well ID
 DICO. A2D TECHNOLOGIES, INC.:   Digitizing Company
~OTHER INFORMATION
~A   DEPT       CALD       GRD      TEND         RHOB       NPHI     CORR       SFLU        ILD        ILM       TENR        SPR   
# ...
 1945.0000    10.7550    93.5070   950.6020     2.4840     0.3160     0.0050     6.8720     5.5750     5.7590   980.1370   -24.0000
 1945.5000    10.7470    97.0670   952.0610     2.4830     0.3290     0.0120     6.6870     5.5250     5.7110   982.5360   -23.9050
 1946.0000    10.7390   102.2970   953.5200     2.4790     0.3370     0.0290     6.5030     5.4740     5.6620   984.7720   -23.8110
 1946.5000    10.7310   105.2900   954.9790     2.4720     0.3310     0.0440     6.3690     5.4240     5.6130   979.0440   -23.7910
 1947.0000    10.7240   107.3520   956.4380     2.4640     0.3200     0.0410     6.3690     5.3730     5.5650   973.6790   -23.9370
 1947.5000    10.7160   108.1550   957.8970     2.4560     0.3180     0.0380     6.3690     5.3220     5.5160   968.3140   -24.0800
 1948.0000    10.7070   110.4310   959.3560     2.4520     0.3240     0.0350     5.9640     5.2720     5.4670   964.4670   -24.1530
 1948.5000    10.7190   112.3340   960.8150     2.4460     0.3310     0.0320     5.8550     5.2210     5.4190   964.4670   -23.9130
 1949.0000    10.7400   113.1300   962.2740     2.4410     0.3340     0.0300     6.2040     5.1710     5.3700   964.4670   -23.6390
 1949.5000    10.7600   114.1290   963.7330     2.4490     0.3400     0.0310     6.6290     5.1200     5.3210   964.4670   -23.3630
 1950.0000    10.7810   117.8720   963.2360     2.4620     0.3480     0.0430     6.6740     5.0700     5.2730   964.4670   -23.0870
 1950.5000    10.7600   122.6930   960.7590     2.4750     0.3530     0.0580     6.0220     5.0190     5.2240   964.4670   -22.8120
 1951.0000    10.7090   127.1690   958.2820     2.4680     0.3560     0.0520     6.0220     4.9690     5.1750   964.7820   -22.5680
 1951.5000    10.6480   128.1650   955.8050     2.4540     0.3630     0.0410     6.0660     4.9180     5.1270   965.8200   -22.6820
 1952.0000    10.6480   125.8960   953.3280     2.4430     0.3700     0.0290     6.1350     4.8680     5.0780   966.8580   -22.9160
 1952.5000    10.6830   120.9520   950.8510     2.4470     0.3700     0.0400     5.8860     4.8120     5.0290   967.8960   -23.1500
 1953.0000    10.7170   116.1450   948.3730     2.4520     0.3440     0.0620     5.5350     4.8880     4.9960   968.9340   -23.3580
 1953.5000    10.7350   111.3020   945.8960     2.4510     0.3290     0.0750     5.4340     4.9930     5.1460   969.9720   -23.3080
 1954.0000    10.6400   111.2650   939.0860     2.4360     0.3360     0.0620     5.6940     5.0990     5.2600   971.0100   -23.2480
 1954.5000    10.5420   112.1170   923.8580     2.4200     0.3640     0.0390     6.2360     5.2050     5.3830   972.0480   -23.1960
 1955.0000    10.5050   113.5980   935.0250     2.4180     0.3590     0.0230     6.8270     5.4770     5.7170   973.0860   -23.3380
 1955.5000    10.4810   115.2430   945.1780     2.4300     0.3510     0.0240     7.4650     5.8160     6.0810   974.1240   -23.7400
 1956.0000    10.4610   117.2800   955.3300     2.4420     0.3530     0.0250     7.8590     6.1540     6.4440   975.1620   -24.0840
 1956.5000    10.4650   120.9930   964.4670     2.4390     0.3580     0.0230     8.2860     6.4920     6.8070   976.2000   -24.4270
 1957.0000    10.4700   123.9760   959.3910     2.4320     0.3550     0.0190     8.7120     6.8300     7.1480   977.2380   -24.7740
 1957.5000    10.4760   123.5720   953.7510     2.4350     0.3480     0.0150     9.0380     7.2590     7.3340   978.2760   -25.1360
 1958.0000    10.4810   121.0330   948.1110     2.4480     0.3420     0.0130     9.1580     7.2110     7.5190   979.3140   -25.0240
 1958.5000    10.4870   118.3960   942.4700     2.4530     0.3350     0.0150     9.2780     7.1200     7.6770   980.3520   -24.8410
 1959.0000    10.4920   116.0030   936.8300     2.4480     0.3310     0.0210     9.3970     7.0300     7.4680   981.3900   -24.4510
 1959.5000    10.4980   116.3450   931.1900     2.4430     0.3290     0.0260     9.4290     6.9400     7.3110   982.4280   -23.8570
 1960.0000    10.5050   118.1300   925.5500     2.4360     0.3320     0.0220     8.9890     6.8490     7.1540   983.4660   -23.2640
 1960.5000    10.5200   119.8870   927.5980     2.4260     0.3340     0.0190     8.5210     6.7590     6.9970   984.5040   -22.9610
 1961.0000    10.5340   121.6440   932.9410     2.4160     0.3400     0.0260     8.0520     6.6680     6.8400   984.7720   -23.1540
 1961.5000    10.5490   123.2920   938.2850     2.4050     0.3550     0.0340     7.5840     6.5780     6.6110   984.7720   -23.4230
 1962.0000    10.5640   123.4310   943.6280     2.3930     0.3710     0.0290     7.4650     6.4880     6.6210   984.7720   -23.5540
 1962.5000    10.5780   123.5230   948.9710     2.3770     0.3790     0.0190     7.9320     6.4290     6.6380   984.7720   -23.1520
 1963.0000    10.5930   123.6140   954.3150     2.3890     0.3680     0.0250     8.1200     6.4840     6.6550   984.7720   -22.6890
 1963.5000    10.6080   122.9570   959.6580     2.4150     0.3630     0.0350     8.1500     6.5840     6.6740   984.7720   -22.6570
 1964.0000    10.6220   121.8530   965.0010     2.4350     0.3700     0.0410     8.1960     6.6850     6.8070   984.7720   -22.9990
 1964.5000    10.6170   120.8360   970.3450     2.4310     0.3740     0.0390     8.6880     6.7850     6.9460   984.7720   -23.3470
 1965.0000    10.6100   120.3000   975.6880     2.4310     0.3620     0.0410     9.2030     6.8850     7.0860   984.7720   -23.5850
 1965.5000    10.6020   119.7160   981.0310     2.4450     0.3520     0.0460     9.4290     6.9850     7.2260   984.7720   -24.0250
 1966.0000    10.5950   117.1870   984.7720     2.4500     0.3380     0.0480     9.4290     7.0860     7.2980   984.7720   -24.4730
 1966.5000    10.5870   114.3010   974.2290     2.4330     0.3390     0.0400     9.1800     7.1860     7.3670   984.7720   -24.9300
 1967.0000    10.5870   114.1160   962.5150     2.4140     0.3520     0.0370     8.7380     7.2860     7.4360   981.5230   -25.1710
 1967.5000    10.6000   116.5350   950.8000     2.4050     0.3670     0.0380     8.2970     7.3860     7.5050   972.6770   -25.0720
 1968.0000    10.6130   119.0760   939.0860     2.4110     0.3810     0.0380     8.1960     7.4870     7.6400   963.8310   -24.7600
 1968.5000    10.6240   118.2760   927.3720     2.4250     0.3880     0.0290     8.9170     7.5870     7.8240   954.9860   -24.4620
 1969.0000    10.6110   116.3980   927.4710     2.4380     0.3740     0.0200     9.6590     7.6870     8.0080   946.1400   -24.1640
 1969.5000    10.5960   116.5770   932.6340     2.4480     0.3620     0.0150    10.4890     7.7870     8.1960   949.6730   -23.9660
 1970.0000    10.5830   118.7780   937.7960     2.4550     0.3490     0.0230    11.3830     7.8880     8.2730   956.7700   -24.2890
 1970.5000    10.5900   121.2060   942.9580     2.4620     0.3380     0.0300    11.5800     7.9700     8.2050   963.8670   -24.5960
 1971.0000    10.6030   120.0120   948.1200     2.4640     0.3430     0.0370    11.3140     7.7590     8.1350   970.9640   -24.7480
 1971.5000    10.6160   118.2260   953.2820     2.4540     0.3500     0.0330    10.6190     7.3970     7.7380   978.0620   -24.5490
 1972.0000    10.6290   117.7230   958.4440     2.4430     0.3520     0.0220     9.9240     7.0360     7.2510   985.1590   -24.1540
 1972.5000    10.6410   117.6180   963.6070     2.4380     0.3400     0.0180     9.2290     6.6740     6.7640   992.2560   -23.7680
 1973.0000    10.6540   115.7050   968.7690     2.4330     0.3320     0.0350     8.2030     6.3100     6.2770   999.3530   -23.7250
 1973.5000    10.6740   110.9290   973.9310     2.3990     0.3440     0.0460     7.0890     6.3100     6.0780  1005.0760   -23.8400
 1974.0000    10.7280   105.8260   979.0930     2.3250     0.3670     0.0220     6.1930     6.3380     6.1350   989.1100   -23.9080
 1974.5000    10.7830   106.3490   984.7720     2.2850     0.3890     0.0000     6.8020     6.3660     6.4880   973.0480   -23.9770
 1975.0000    10.8370   112.2080   984.3900     2.3300     0.3890    -0.0010     8.3360     6.3940     6.8420   956.9860   -24.0490
