~VERSION INFORMATION
 VERS.                2.0:   CWLS LOG ASCII STANDARD - VERSION 2.0
 WRAP.                 NO:   ONE LINE PER DEPTH STEP
~WELL INFORMATION
#MNEM.UNIT      DATA TYPE    INFORMATION
#----------   ------------   ------------------------------
 STRT.F          200.0000:   START DEPTH
 STOP.F         3135.5000:   STOP DEPTH
 STEP.F            0.5000:   STEP LENGTH
 NULL.          -999.2500:   NO VALUE
 COMP.    FENOX & SCISSON:   COMPANY
 WELL. FENIX NPR 23 "AX" #3-11:   WELL
 FLD .                NPR:   FIELD
 LOC .      S11 T38N R78W:   LOCATION
 CNTY.            NATRONA:   COUNTY
 STAT.            WYOMING:   STATE
 CTRY. UNITED STATES OF AMERICA:   COUNTRY
 SRVC.       SCHLUMBERGER:   SERVICE COMPANY
 DATE.        06-NOV-1977:   LOGDATE
 API .     49025104320000:   API NUMBER
~CURVE INFORMATION
#MNEM.UNIT       API CODE    CURVE DESCRIPTION
#----------   ------------   ------------------------------
 DEPT.F                  :   
 CALD.IN     45 280 60 00:   CALIPER FROM DENSITY LOG
 GRD .GAPI   45 310 01 00:   GAMMA RAY FROM DENSITY LOG
 RHOB.G/C3   45 350 01 00:   BULK DENSITY
 CORR.G/C3   45 356 01 00:   DENSITY CORRECTION
 SPR .MV     07 010 01 00:   SPONTANEOUS POTENTIAL
 LL8 .OHMM   07 220 08 00:   LATEROLOG-8 RES.
 ILD .OHMM   07 120 46 00:   DEEP INDUCTION RESISTIVITY
 ILM .OHMM   07 120 44 00:   INDUCTION LOG MEDIUM RESISTIVITY
~PARAMETER INFORMATION
#MNEM.UNIT          VALUE    DESCRIPTION
#----------   ------------   ------------------------------
 EKB .F         5176.0000:   Kelly bushing
 EGL .F         5171.0000:   Ground level
 TD  .F         3138.0000:   Total depth
 DATE.        06-NOV-1977:   Date logged
 CLNT.            A2DTECH:   Client Code
 SL  . 1650' FNL & 750' FWL:   Surface Location
 PD  .                 GL:   Permanent Datum
 EPD .F              5171:   Elevation Permanent Datum
 LMF .                 KB:   Log Measured From
 DMF .                 KB:   Drilling Measured From
 DAPD.F                 5:   Feet Above Permanent Datum
 DD  .F              3138:   Depth driller
 DL  .F              3135:   Depth logger
 BLI .F              3134:   Bottom log interval
 TLI .F               196:   Top log interval
 CS1 .IN            8.625:   Casing size
 CBD1.      8.625" @ 205':   Casing driller 1
 CBL1.F               205:   Casing logger 1
 BS1 .IN            7.875:   Bit size
 BSD1.F              3138:   Depth drilled with bit1
 DFT .            KCL/MUD:   Type fluid in hole
 DFD .                8.8:   Density
 DFV .                 34:   Viscosity
 DFPH.                 11:   pH
 DFL .                  6:   Fluid loss
 MSS .            MUD/PIT:   Source of sample
 RMS .OHMM           0.27:   Rm
 MST .F                48:   Rm Meas. temp.
 RMF .OHMM           0.29:   Rmf
 MFST.F                48:   Rmf Meas. temp.
 RMC .OHMM           0.39:   Rmc
 MCST.F                48:   Rmc Meas. temp.
 MFSS.               MEAS:   Source Rmf.
 MCSS.               CALC:   Source Rmc.
 RMB .OHMM           0.12:   Rm. at BHT
 BHT .F               104:   BHT.
 TCS .HRS            1500:   Time Circ. stopped
 TLAB.HRS            1930:   Time logger at bottom
 MRT .F               104:   Maximum recorded temp.
 LUN .               7711:   Logging unit number
 LUL .               CSPR:   Logging unit location
 ENGI.       CRAIG/SAYLER:   Recorded By
 WITN.         PETTINGILL:   Witnessed by
 ORIG.           5" PRINT:   Origin of data
 UWI .     49025104320000:   Unique Well ID
 DICO. A2D TECHNOLOGIES, INC.:   Digitizing Company
~OTHER INFORMATION
~A   DEPT     CALD        GRD       RHOB       CORR        SPR        LL8        ILD        ILM   
# ...
 1941.5000     8.2209   152.7108     2.4649     0.0037   -90.0949    15.2086    11.0372    11.0372
 1942.0000     8.2226   154.5181     2.4719     0.0027   -90.0965    12.4329    11.2413    10.9366
 1942.5000     8.2244   152.4096     2.4829     0.0127   -90.0981    11.0372    11.0372    11.0372
 1943.0000     8.2261   144.8783     2.4899     0.0157   -90.0997    12.3196    10.2574    11.8764
 1943.5000     8.2278   138.2518     2.4979     0.0157   -90.3028    14.9325    10.0712    11.8764
 1944.0000     8.2295   134.6373     2.5109     0.0197   -90.3044    15.9213    10.2574    11.7681
 1944.5000     8.2313   131.9265     2.5169     0.0247   -90.5076    15.2086    10.3518    11.4491
 1945.0000     8.2330   131.3241     2.5169     0.0257   -90.5092    14.6614    10.6402    11.2413
 1945.5000     8.2347   131.0229     2.5139     0.0197   -90.7123    14.0051    10.9366    11.1388
 1946.0000     8.2365   129.5169     2.5099     0.0157   -90.7140    13.2562    10.7381    11.1388
 1946.5000     8.2382   121.6855     2.5060     0.0127   -91.1187    12.8969    10.7381    11.2413
 1947.0000     8.2399   117.4687     2.5020     0.0077   -91.3219    12.6628    10.6402    11.2413
 1947.5000     8.2417   115.0590     2.5080     0.0027   -91.5254    12.8969    10.7381    11.3447
 1948.0000     8.2434   115.6614     2.5080    -0.0013   -91.7287    13.6255    10.6402    11.5545
 1948.5000     8.2451   122.2880     2.5050    -0.0003   -91.9319    13.8774    10.6402    11.6608
 1949.0000     8.2469   127.1072     2.5010    -0.0023   -91.7320    15.3485    10.6402    11.6608
 1949.5000     8.2486   129.5169     2.4980    -0.0043   -91.1289    15.6323    10.6402    11.6608
 1950.0000     8.2503   129.5169     2.4940    -0.0052   -90.9289    15.4897    10.7380    11.7679
 1950.5000     8.2691   128.9145     2.4890    -0.0052   -91.7373    13.2771    10.7386    11.7685
 1951.0000     8.2691   129.5169     2.4840    -0.0042   -91.9371    12.5487    10.6415    11.4501
 1951.5000     8.2691   131.6253     2.4830    -0.0002   -92.1387    12.4345    10.5448    11.2432
 1952.0000     8.2784   134.9386     2.5090     0.0108   -92.5419    12.2101    10.2598    11.1413
 1952.5000     8.2878   140.0590     2.5060     0.0178   -92.5419    12.4368    10.2602    10.7415
 1953.0000     8.2971   143.6735     2.4940     0.0038   -92.5419    12.3239     9.7619    10.6439
 1953.5000     8.3065   145.1795     2.4950     0.0038   -92.7435    12.3246     9.6730    10.5479
 1954.0000     8.3158   144.5771     2.5030     0.0088   -92.9452    11.9913     9.5851     9.8932
 1954.5000     8.3448   144.5771     2.5060     0.0158   -93.1468    11.8826     9.4981     9.8036
 1955.0000     8.3433   144.8783     2.5010     0.0158   -93.3484    11.7750     9.4984     9.8042
 1955.5000     8.3417   143.6735     2.4951     0.0158   -93.5500    11.6683     9.4992     9.7154
 1956.0000     8.3402   140.3602     2.4921     0.0128   -94.1548    11.1467     9.4997     9.6275
 1956.5000     8.3387   137.0470     2.5041     0.0098   -93.3484    10.8453     9.5003     9.7166
 1957.0000     8.3371   132.8301     2.5061     0.0068   -93.1468    10.6491     9.5010     9.7172
 1957.5000     8.3356   129.2157     2.5051     0.0008   -93.7516    11.1487     9.5014     9.6292
 1958.0000     8.3341   127.7096     2.5031     0.0028   -93.9532    11.5654     9.5021     9.8078
 1958.5000     8.3325   127.4084     2.5021     0.0078   -93.9532    11.8882     9.5027     9.9897
 1959.0000     8.3310   128.3120     2.5061     0.0078   -93.9532    11.8889     9.5032     9.8090
 1959.5000     8.3293   128.6133     2.5101     0.0048   -93.7516    11.8894     9.5039     9.8096
 1960.0000     8.3293   128.9145     2.5101     0.0018   -93.5500    11.7549     9.5042     9.8102
 1960.5000     8.3293   129.8181     2.5161     0.0138   -93.9532    11.6752     9.4180     9.7214
 1961.0000     8.3293   129.2157     2.5261     0.0198   -93.9532    11.4641     9.4187     9.6333
 1961.5000     8.3494   128.6133     2.5191     0.0119   -93.9532    11.4648     9.4192     9.7227
 1962.0000     8.3494   128.0108     2.5061     0.0029   -94.1548    11.4654     9.3338     9.6346
 1962.5000     8.3494   128.0108     2.5061     0.0059   -93.7516    11.3616     9.3345     9.6352
 1963.0000     8.3494   128.3120     2.5091     0.0069   -93.7878    11.2587     9.3350     9.6358
 1963.5000     8.3494   127.1072     2.5031    -0.0011   -93.8239    11.0551     9.3355     9.7250
 1964.0000     8.3494   126.8060     2.4971    -0.0001   -93.8601    10.9550     9.3362     9.4621
 1964.5000     8.3494   128.9145     2.5091     0.0009   -93.8963    11.0564     9.3368     9.5497
 1965.0000     8.3494   129.8181     2.5091     0.0029   -93.9324    11.0570     9.3372     9.5503
 1965.5000     8.3494   128.9145     2.4972     0.0019   -93.9532    11.0577     9.3379     9.4638
 1966.0000     8.3494   128.3120     2.4932    -0.0041   -93.9532    10.7587     9.3384     9.4644
 1966.5000     8.3293   128.0108     2.4992    -0.0051   -93.9532    10.8583     9.3390     9.5521
 1967.0000     8.3293   127.4084     2.5032    -0.0021   -94.0696    11.2640     9.3397     9.5526
 1967.5000     8.3293   127.1072     2.4982    -0.0011   -93.9532    11.5784     9.3401     9.5532
 1968.0000     8.3127   128.0108     2.4972    -0.0001   -94.0054    11.6853     9.3406     9.4667
 1968.5000     8.3145   131.3241     2.5002    -0.0011   -94.0576    10.2804     9.1714     9.1269
 1969.0000     8.3162   132.8301     2.5012     0.0009   -94.1098     9.8210     9.0051     9.3816
 1969.5000     8.3179   134.3361     2.5022     0.0069   -94.1620     9.2120     8.9233     9.2120
 1970.0000     8.3197   134.6373     2.5042     0.0149   -94.2142    10.0040     8.9239     9.4692
 1970.5000     8.3214   134.6373     2.5102     0.0179   -94.2664    10.0558     8.9244     9.5568
 1971.0000     8.3231   133.1313     2.5102     0.0159   -94.3186    10.7239     8.9250     9.9139
 1971.5000     8.3249   131.3241     2.5092     0.0070   -94.3708    10.9233     9.0080     9.4709
 1972.0000     8.3266   132.2277     2.5112     0.0120   -94.4230    10.7252     9.0916     9.7352
 1972.5000     8.3283   133.1313     2.5242     0.0150   -94.4752    10.5719     9.3859     9.8253
 1973.0000     8.3301   134.6386     2.5252     0.0180   -94.5581    10.5725     9.4724     9.5598
 1973.5000     8.3318   128.3120     2.5162     0.0090   -94.3565    10.5731     9.4731    10.1930
 1974.0000     8.3335   125.9024     2.5022     0.0020   -94.3565    10.0087     9.4738    10.0087
 1974.5000     8.3353   124.0952     2.4933     0.0050   -94.7597    10.1942     9.4742     9.9180
 1975.0000     8.3370   125.9024     2.4973     0.0060   -94.5581    10.1948     9.3883    10.1948
 1975.5000     8.3387   129.5169     2.5043     0.0050   -94.5581    10.4793     9.3891    10.4793
 1976.0000     8.3404   131.6253     2.5023     0.0020   -94.5581    10.5762     9.3897     9.6512
 1976.5000     8.2892   134.3361     2.4973    -0.0020   -94.5581    10.6742     9.3046     9.9205
 1977.0000     8.2892   134.0349     2.4943    -0.0040   -94.5581    10.6748     9.3052    10.2911
 1977.5000     8.2892   132.2277     2.4923    -0.0050   -94.5581    10.4818     9.3058     9.6530
 1978.0000     8.2920   128.9157     2.4973     0.0000   -94.5581    10.2924     9.3065     9.7427
 1978.5000     8.2949   124.3964     2.4993     0.0030   -94.5581    10.0143     9.2224    10.0143
 1979.0000     8.2978   122.8904     2.5013     0.0020   -94.5581     9.6549     9.2230     9.6549
 1979.5000     8.3007   122.8904     2.5013     0.0000   -94.5581     9.7442     9.2236     9.7442
 1980.0000     8.3036   122.5892     2.4973    -0.0019   -94.1548    10.2949     9.1401    10.2949
 1980.5000     8.3065   122.5892     2.4943    -0.0009   -94.5581    10.2955     9.4815    10.2955
 1981.0000     8.3494   121.3843     2.4883    -0.0019   -94.5581    10.2961     9.4819    10.2961
 1981.5000     8.3494   120.7819     2.4863    -0.0019   -94.3565    10.2967     9.5699    10.2967
