~VERSION INFORMATION
 VERS.                2.0:   CWLS LOG ASCII STANDARD - VERSION 2.0
 WRAP.                 NO:   ONE LINE PER DEPTH STEP
~WELL INFORMATION
#MNEM.UNIT      DATA TYPE    INFORMATION
#----------   ------------   ------------------------------
 STRT.F          212.0000:   START DEPTH
 STOP.F         2806.0000:   STOP DEPTH
 STEP.F            0.5000:   STEP LENGTH
 NULL.          -999.2500:   NO VALUE
 COMP.    FENIX & SCISSON:   COMPANY
 WELL.    FENIX AX #12-21:   WELL
 FLD .        TEAPOT DOME:   FIELD
 LOC .      S21 T39N R78W:   LOCATION
 CNTY.            NATRONA:   COUNTY
 STAT.            WYOMING:   STATE
 CTRY. UNITED STATES OF AMERICA:   COUNTRY
 SRVC.           BIRDWELL:   SERVICE COMPANY
 DATE.        14-AUG-1973:   LOGDATE
 API .     49025106930000:   API NUMBER
~CURVE INFORMATION
#MNEM.UNIT       API CODE    CURVE DESCRIPTION
#----------   ------------   ------------------------------
 DEPT.F                  :   
 SN  .OHMM   05 040 16 00:   SHORT NORMAL 16"
 ILD .OHMM   05 120 46 00:   INDUCTION LOG DEEP RESISTIVITY
 RHOB.G/C3   45 350 01 00:   BULK DENSITY
 CORR.G/C3   45 356 01 00:   DENSITY CORRECTION
 GRD .GAPI   45 310 01 00:   GAMMA RAY FROM DENSITY LOG
 CALD.IN     45 280 60 00:   CALIPER FROM DENSITY LOG
 SPR .MV     05 010 01 00:   SPONTANEOUS POTENTIAL
~PARAMETER INFORMATION
#MNEM.UNIT          VALUE    DESCRIPTION
#----------   ------------   ------------------------------
 EKB .F         4998.0000:   Kelly bushing
 EGL .F         4988.0000:   Ground level
 EDF .F            0.0000:   Drilling floor
 EPD .F         4988.0000:   Permanent datum
 TD  .F         2809.0000:   Total depth
 DATE.        14-AUG-1973:   Date logged
 CLNT.            A2DTECH:   Client Code
 SL  . 1300' FNL & 300' FWL:   Surface Location
 PD  .                 GL:   Permanent Datum
 DD  .F              2800:   Depth driller
 DL  .F              2809:   Depth logger
 BLI .F              2803:   Bottom log interval
 TLI .F               235:   Top log interval
 CS1 .IN            8.625:   Casing size
 BS1 .IN            7.875:   Bit size
 BSD1.F              2800:   Depth drilled with bit1
 DFT .                GEL:   Type fluid in hole
 DFD .                9.7:   Density
 DFV .                 34:   Viscosity
 DFPH.                 12:   pH
 MSS .           FLOWLINE:   Source of sample
 RMS .OHMM            .15:   Rm
 MST .F                57:   Rm Meas. temp.
 RMF .OHMM            .95:   Rmf
 MFST.F                69:   Rmf Meas. temp.
 RMC .OHMM            1.5:   Rmc
 MCST.F                78:   Rmc Meas. temp.
 MFSS.               MEAS:   Source Rmf.
 RMB .OHMM            .87:   Rm. at BHT
 BHT .F               115:   BHT.
 TCS .HRS               3:   Time Circ. stopped
 MRT .F               115:   Maximum recorded temp.
 LUN .               3006:   Logging unit number
 LUL .               CASP:   Logging unit location
 ENGI.             MILLER:   Recorded By
 WITN.           MCGINLEY:   Witnessed by
 UWI .     49025106930000:   Unique Well ID
 DICO. A2D TECHNOLOGIES, INC.:   Digitizing Company
 ORIG.           5" PRINT:   Origin of data
~OTHER INFORMATION
~A   DEPT       SN        ILD       RHOB       CORR         GRD      CALD        SPR   
# ...
  394.0000     9.1290     7.3200     2.5500     0.1950    92.1550     9.0820    -5.2580
  394.5000     9.1500     7.3380     2.5510     0.2000    96.9640     9.0890    -5.2800
  395.0000     9.1720     7.3560     2.5520     0.2040    94.4100     9.0950    -5.3020
  395.5000     9.1940     7.3740     2.5530     0.2040    89.0620     9.1010    -5.3230
  396.0000     9.2150     7.4310     2.5530     0.2040    85.7970     9.1080    -5.3450
  396.5000     9.2370     7.4960     2.5510     0.2040    88.1590     9.1140    -5.3670
  397.0000     9.2580     7.5620     2.5480     0.2040    91.8180     9.1200    -5.3880
  397.5000     9.2800     7.6270     2.5450     0.2040    95.5040     9.1110    -5.4100
  398.0000     9.3020     7.6930     2.5430     0.2040   101.8350     9.0980    -5.4320
  398.5000     9.3230     7.7580     2.5430     0.2040   100.9780     9.0860    -5.4500
  399.0000     9.3450     7.8240     2.5470     0.2020   100.1350     9.0740    -5.4720
  399.5000     9.3670     7.8890     2.5500     0.1980    98.5900     9.0620    -5.4940
  400.0000     9.6110     7.9550     2.5570     0.2020    97.1110     9.0490    -5.5160
  400.5000     9.8830     8.0150     2.5650     0.1940    96.1930     9.0370    -5.5380
  401.0000    10.1770     8.0290     2.5610     0.1830    96.2840     9.0250    -5.5600
  401.5000    10.1900     8.0440     2.5570     0.1700    96.6560     9.0120    -5.5830
  402.0000    10.2040     8.0580     2.5290     0.1400    96.8090     8.9990    -5.6050
  402.5000    10.2180     8.0730     2.5320     0.1250    96.8550     8.9830    -5.6260
  403.0000    10.2310     8.0870     2.5320     0.1190    96.8540     8.9670    -5.6750
  403.5000    10.2450     8.1020     2.5280     0.1130    96.8400     8.9510    -5.7310
  404.0000    10.2590     8.1160     2.5240     0.1070    96.6670     8.9350    -5.7880
  404.5000    10.2710     8.1300     2.5290     0.1090    95.9570     8.9190    -5.8440
  405.0000    10.2520     8.1450     2.5350     0.1110    94.9650     8.9030    -5.9010
  405.5000    10.2350     8.1620     2.5350     0.1140    94.6520     8.8870    -5.9570
  406.0000    10.2190     8.1560     2.5390     0.1190    93.7770     8.9040    -6.0140
  406.5000    10.2020     8.1470     2.5450     0.1250    93.0560     8.9230    -6.0700
  407.0000    10.1850     8.1380     2.5480     0.1350    92.2170     8.9410    -6.1270
  407.5000    10.1690     8.1300     2.5490     0.1440    89.0790     8.9600    -6.1830
  408.0000    10.1520     8.1210     2.5500     0.1490    85.5960     8.9780    -6.2260
  408.5000    10.1360     8.1130     2.5510     0.1550    82.5860     8.9970    -6.2150
  409.0000    10.1190     8.1040     2.5540     0.1630    83.1710     9.0160    -6.2040
  409.5000    10.1030     8.0960     2.5550     0.1670    84.7130     9.0260    -6.1940
  410.0000    10.0860     8.0870     2.5560     0.1690    86.6260     9.0300    -6.1840
  410.5000    10.0700     8.0790     2.5580     0.1710    89.4700     9.0340    -6.1730
  411.0000    10.0530     8.0700     2.5700     0.1720    92.3870     9.0380    -6.1630
  411.5000    10.0370     8.0620     2.5790     0.1720    92.8370     9.0420    -6.1530
  412.0000    10.0200     8.0530     2.5760     0.1660    90.4870     9.0540    -6.1420
  412.5000    10.0040     8.0450     2.5600     0.1570    90.3720     9.0720    -6.1320
  413.0000     9.9870     8.0360     2.5510     0.1600    89.5910     9.0900    -6.1220
  413.5000     9.9700     8.0280     2.5530     0.1690    88.7580     9.1080    -6.1120
  414.0000     9.9540     8.0190     2.5540     0.1760    89.3700     9.1270    -6.1010
  414.5000     9.9370     8.0140     2.5520     0.1800    89.5880     9.1430    -6.0910
  415.0000     9.9210     8.0110     2.5510     0.1850    88.3260     9.1500    -6.0810
  415.5000     9.9040     8.0070     2.5540     0.1900    86.9790     9.1570    -6.0700
  416.0000     9.8880     8.0030     2.5570     0.1980    86.1580     9.1640    -6.0600
  416.5000     9.8710     7.9990     2.5570     0.2060    87.8430     9.1720    -6.0500
  417.0000     9.8550     7.9950     2.5550     0.2060    90.2400     9.1790    -6.0400
  417.5000     9.8380     7.9910     2.5510     0.2060    90.7540     9.1670    -6.0290
  418.0000     9.8220     7.9860     2.5490     0.2060    88.3300     9.1510    -6.0090
  418.5000     9.8050     7.9820     2.5490     0.2050    85.3230     9.1350    -5.9870
  419.0000     9.7890     7.9780     2.5490     0.2010    86.6670     9.1190    -5.9640
  419.5000     9.7720     7.9740     2.5490     0.1980    90.9940     9.1030    -5.9420
  420.0000     9.7550     7.9700     2.5500     0.1930    93.3550     9.0870    -5.9200
  420.5000     9.7390     7.9660     2.5480     0.1830    91.0870     9.0700    -5.8980
  421.0000     9.7200     7.9620     2.5440     0.1650    88.0400     9.0510    -5.8760
  421.5000     9.7470     7.9580     2.5430     0.1520    84.9570     9.0320    -5.8540
  422.0000     9.7800     7.9540     2.5410     0.1410    82.3460     9.0130    -5.8310
  422.5000     9.8130     7.9500     2.5340     0.1200    85.8200     8.9940    -5.8090
  423.0000     9.8460     7.9460     2.5230     0.1060    89.4090     8.9750    -5.7870
  423.5000     9.8780     7.9420     2.5190     0.1000    90.9920     8.9590    -5.7650
  424.0000     9.9110     7.9400     2.5190     0.1000    91.9060     8.9480    -5.7430
  424.5000     9.9440     7.9450     2.5190     0.0970    92.4240     8.9360    -5.7200
  425.0000     9.9770     7.9500     2.5190     0.0940    91.0640     8.9240    -5.6980
  425.5000    10.0090     7.9540     2.5150     0.0910    88.8900     8.9130    -5.6760
  426.0000    10.0420     7.9590     2.5080     0.0880    86.6740     8.9010    -5.6540
  426.5000    10.0750     7.9630     2.5000     0.0880    85.3950     8.8890    -5.6330
  427.0000    10.0920     7.9680     2.4950     0.0910    84.3730     8.8980    -5.6500
  427.5000    10.1040     7.9720     2.4930     0.0950    83.4250     8.9140    -5.6680
  428.0000    10.1160     7.9770     2.4930     0.1000    84.6950     8.9310    -5.6850
  428.5000    10.1280     7.9810     2.5030     0.1140    89.0340     8.9470    -5.7030
  429.0000    10.1390     7.9860     2.5210     0.1320    89.2980     8.9640    -5.7200
  429.5000    10.1510     7.9900     2.5280     0.1430    90.1420     8.9800    -5.7380
  430.0000    10.1630     7.9950     2.5310     0.1480    92.6560     8.9850    -5.7550
  430.5000    10.1750     7.9990     2.5310     0.1520    92.4720     8.9870    -5.7730
  431.0000    10.1860     8.0040     2.5320     0.1560    90.2010     8.9880    -5.7910
  431.5000    10.1980     8.0080     2.5320     0.1590    90.0500     8.9900    -5.8080
  432.0000    10.2100     8.0130     2.5310     0.1680    91.9510     8.9910    -5.8230
  432.5000    10.2220     8.0250     2.5290     0.1700    91.3940     8.9930    -5.9270
  433.0000    10.2330     8.0430     2.5320     0.1720    92.1700     8.9940    -6.0570
  433.5000    10.2450     8.0610     2.5390     0.1720    93.4020     8.9960    -6.1870
  434.0000    10.2570     8.0790     2.5480     0.1730    93.5500     8.9970    -6.3170
  434.5000    10.2680     8.0980     2.5520     0.1640    91.3720     8.9990    -6.4490
  435.0000    10.2800     8.1160     2.5490     0.1530    90.1430     9.0000    -6.5710
  435.5000    10.2920     8.1340     2.5490     0.1480    90.5980     9.0020    -6.6960
  436.0000    10.3040     8.1520     2.5490     0.1460    91.0180     9.0030    -6.8210
  436.5000    10.3150     8.1710     2.5510     0.1460    91.2560     9.0050    -6.9450
  437.0000    10.3270     8.1890     2.5540     0.1460    90.7680     9.0070    -7.0700
  437.5000    10.3390     8.2070     2.5530     0.1450    90.4160     9.0080    -7.1950
  438.0000    10.3510     8.2250     2.5530     0.1450    90.6640     9.0100    -7.2470
  438.5000    10.3650     8.2430     2.5520     0.1450    91.9550     9.0110    -7.2880
  439.0000    10.3530     8.2620     2.5520     0.1450    92.9930     9.0130    -7.3270
