~VERSION INFORMATION
 VERS.                2.0:   CWLS LOG ASCII STANDARD - VERSION 2.0
 WRAP.                 NO:   ONE LINE PER DEPTH STEP
~WELL INFORMATION
#MNEM.UNIT      DATA TYPE    INFORMATION
#----------   ------------   ------------------------------
 STRT.F          200.0000:   START DEPTH
 STOP.F         3038.0000:   STOP DEPTH
 STEP.F            0.5000:   STEP LENGTH
 NULL.          -999.2500:   NO VALUE
 COMP.    FENIX & SCISSON:   COMPANY
 WELL. FENIX NPR 3 "A" #63-28:   WELL
 FLD .            WILDCAT:   FIELD
 LOC .      S28 T39N R78W:   LOCATION
 CNTY.            NATRONA:   COUNTY
 STAT.            WYOMING:   STATE
 CTRY. UNITED STATES OF AMERICA:   COUNTRY
 SRVC.              WELEX:   SERVICE COMPANY
 DATE.        29-MAY-1977:   LOGDATE
 API .     49025103740000:   API NUMBER
~CURVE INFORMATION
#MNEM.UNIT       API CODE    CURVE DESCRIPTION
#----------   ------------   ------------------------------
 DEPT.F                  :   
 SPR .MV     07 010 01 00:   SPONTANEOUS POTENTIAL
 ILM .OHMM   07 120 44 00:   INDUCTION LOG MEDIUM RESISTIVITY
 ILD .OHMM   07 120 46 00:   DEEP INDUCTION RESISTIVITY
 SGRD.OHMM   07 220 05 00:   SHALLOW SHORT GUARD RESISTIVITY
 GRD .GAPI   45 310 01 00:   GAMMA RAY FROM DENSITY LOG
 CALD.IN     45 280 60 00:   CALIPER FROM DENSITY LOG
 RHOB.G/C3   45 350 01 00:   BULK DENSITY
 CORR.G/C3   45 356 01 00:   DENSITY CORRECTION
~PARAMETER INFORMATION
#MNEM.UNIT          VALUE    DESCRIPTION
#----------   ------------   ------------------------------
 EKB .F         5040.0000:   Kelly bushing
 EGL .F         5029.0000:   Ground level
 EDF .F            0.0000:   Drilling floor
 EPD .F         5029.0000:   Permanent datum
 TD  .F         3040.0000:   Total depth
 DATE.        29-MAY-1977:   Date logged
 CLNT.            A2DTECH:   Client Code
 SL  . 1650' FNL & 1650' FEL:   Surface Location
 PD  .                 GL:   Permanent Datum
 LMF .                 KB:   Log Measured From
 DMF .                 KB:   Drilling Measured From
 DD  .F              3040:   Depth driller
 DL  .F              3038:   Depth logger
 BLI .F              3036:   Bottom log interval
 TLI .F               200:   Top log interval
 CS1 .IN            8.625:   Casing size
 BSD1.F              3040:   Depth drilled with bit1
 DFT .            KCL MUD:   Type fluid in hole
 ORIG.     2.5", 5" PRINT:   Origin of data
 UWI .     49025103740000:   Unique Well ID
 DICO. A2D TECHNOLOGIES, INC.:   Digitizing Company
 DAPD.                 11:   Feet Above Permanent Datum
 CBD1.      8.625" @ 220':   Casing driller 1
 BS1 .              7.875:   Bit size
 DFD .                8.7:   Density
 MRT .                108:   Maximum recorded temp.
 ENGI.            C. DOAK:   Recorded By
 WITN.      W. PETTINGILL:   Witnessed by
~OTHER INFORMATION
~A   DEPT      SPR        ILM          ILD     SGRD         GRD        CALD       RHOB      CORR  
# ...
 2427.5000   -63.9180     9.4810     6.9700    10.4610   109.8130     9.5850     2.4860    -0.0010
 2428.0000   -63.8810     9.4960     7.0180    10.6560   109.6230     9.5850     2.4850    -0.0010
 2428.5000   -63.8450     9.5110     7.0660    10.4020   110.4510     9.5860     2.4790    -0.0010
 2429.0000   -63.8350     9.5260     7.1140    10.1200   111.1030     9.5790     2.4730    -0.0040
 2429.5000   -63.8610     9.5430     7.1770     9.8100   111.5930     9.5660     2.4660    -0.0070
 2430.0000   -63.8880     9.5090     7.1440     9.8100   112.0700     9.5530     2.4600    -0.0100
 2430.5000   -63.9140     9.4420     7.0980     9.8100   112.5610     9.5400     2.4550    -0.0120
 2431.0000   -63.9410     9.3750     7.0510     9.8800   113.0490     9.5270     2.4530    -0.0160
 2431.5000   -63.9670     9.3080     7.0050     9.9920   113.6640     9.5140     2.4530    -0.0170
 2432.0000   -63.9940     9.2410     6.9810     9.9920   114.6360     9.5000     2.4580    -0.0170
 2432.5000   -64.0190     9.1740     6.9390     9.5890   114.9990     9.4870     2.4680    -0.0170
 2433.0000   -64.0200     9.1140     6.8930     9.4550   115.4630     9.4740     2.4790    -0.0090
 2433.5000   -64.0200     8.9880     6.8460     9.4550   115.8920     9.4610     2.4900     0.0020
 2434.0000   -64.0200     8.8740     6.7990     9.4550   116.3360     9.4480     2.5020     0.0130
 2434.5000   -64.0200     8.7600     6.7530     9.4550   116.7460     9.4340     2.5130     0.0230
 2435.0000   -64.0350     8.6450     6.6660     9.4550   117.2370     9.4360     2.5240     0.0340
 2435.5000   -64.0700     8.5310     6.5380     9.4550   117.5550     9.4490     2.5340     0.0380
 2436.0000   -64.1050     8.4170     6.4110     9.3530   119.0900     9.4600     2.5450     0.0400
 2436.5000   -64.1400     8.3140     6.2830     9.0260   120.5010     9.4710     2.5480     0.0420
 2437.0000   -64.1750     8.0890     6.1560     8.7050   122.1680     9.4820     2.5470     0.0420
 2437.5000   -64.2110     7.8390     6.0280     8.6850   123.2210     9.4930     2.5420     0.0390
 2438.0000   -64.2040     7.5890     5.9010     8.6250   124.5720     9.5050     2.5310     0.0360
 2438.5000   -64.1910     7.5140     5.8630     8.2510   124.3310     9.5160     2.5180     0.0310
 2439.0000   -64.1770     7.5140     5.9170     7.5270   124.3740     9.5270     2.5050     0.0240
 2439.5000   -64.1630     7.6080     5.9170     7.2430   122.9060     9.5380     2.4910     0.0190
 2440.0000   -64.1500     7.6930     5.9170     8.2570   121.3140     9.5490     2.4780     0.0190
 2440.5000   -64.1360     7.7780     5.9170     8.8660   119.7200     9.5610     2.4700     0.0190
 2441.0000   -64.1220     7.8640     5.9500     8.8660   118.0670     9.5710     2.4760     0.0190
 2441.5000   -64.1090     8.0140     5.9860     8.8030   117.3930     9.5840     2.4830     0.0200
 2442.0000   -64.0950     7.9980     6.0270     8.7460   117.5360     9.5810     2.4890     0.0210
 2442.5000   -64.0810     7.9650     6.0260     8.6880   117.6290     9.5750     2.4960     0.0230
 2443.0000   -64.0680     7.9330     6.0270     8.6250   117.7280     9.5690     2.5030     0.0240
 2443.5000   -64.0540     7.9010     6.0270     8.6250   117.8360     9.5630     2.5090     0.0260
 2444.0000   -64.0400     7.8690     6.0270     8.7050   117.9380     9.5580     2.5160     0.0270
 2444.5000   -64.0270     7.8370     6.0270     8.6770   118.0430     9.5520     2.5190     0.0290
 2445.0000   -64.0040     7.8050     5.9790     8.6460   118.1290     9.5460     2.5230     0.0300
 2445.5000   -63.9730     7.7770     5.9360     8.6250   118.4650     9.5400     2.5280     0.0300
 2446.0000   -63.9410     7.7400     5.8930     8.4680   119.3330     9.5350     2.5240     0.0260
 2446.5000   -63.9090     7.7020     5.8630     8.4980   120.1730     9.5290     2.5150     0.0230
 2447.0000   -63.8780     7.6650     5.8820     8.5420   121.0470     9.5230     2.5070     0.0200
 2447.5000   -63.8450     7.6540     5.9210     8.5860   121.8910     9.5170     2.5010     0.0170
 2448.0000   -63.7880     7.8880     5.9600     8.6250   122.7460     9.5110     2.4990     0.0140
 2448.5000   -63.6510     8.1950     6.1000     8.5180   123.7190     9.5080     2.4970     0.0110
 2449.0000   -63.5160     8.5020     6.2840     8.3900   124.5180     9.5150     2.4950     0.0110
 2449.5000   -63.3810     8.8100     6.4680     9.0550   124.3720     9.5230     2.4930     0.0110
 2450.0000   -63.2410     9.1170     6.6520     9.9290   124.2340     9.5310     2.4940     0.0110
 2450.5000   -63.1830     9.4240     6.8360    10.5580   121.8490     9.5380     2.4970     0.0110
 2451.0000   -63.1260     9.7730     7.0210    10.7380   119.7580     9.5460     2.5000     0.0100
 2451.5000   -63.0700    10.1030     7.2050    10.9280   117.5410     9.5540     2.5030     0.0100
 2452.0000   -63.0390    10.3350     7.3890    11.1570   115.3430     9.5610     2.5060     0.0100
 2452.5000   -63.0390    10.4650     7.6530    10.7850   113.2330     9.5700     2.5080     0.0100
 2453.0000   -63.0390    10.7060     7.9530    10.5580   111.0280     9.5770     2.5080     0.0090
 2453.5000   -63.0390    11.2180     8.2530    10.4610   110.2790     9.5840     2.5050     0.0090
 2454.0000   -63.0390    11.7300     8.5530    10.4610   109.6300     9.5620     2.5030     0.0090
 2454.5000   -63.0730    12.2880     8.8520    10.9540   109.7040     9.5390     2.5010     0.0090
 2455.0000   -63.1240    12.8060     8.9480    12.1490   109.7120     9.5140     2.4950     0.0080
 2455.5000   -63.1750    13.2860     8.8150    13.1640   109.8140     9.4910     2.4840     0.0080
 2456.0000   -63.2240    13.2860     8.7090    12.3760   112.7360     9.4670     2.4740     0.0080
 2456.5000   -63.3160    12.2400     8.6020    11.6450   116.0000     9.4410     2.4720     0.0080
 2457.0000   -63.4130    11.2680     8.5460    10.5580   119.3540     9.4390     2.4720     0.0080
 2457.5000   -63.5110    10.6560     8.3370    10.4190   122.8020     9.4620     2.4760     0.0070
 2458.0000   -63.6080    10.6560     8.1420    10.3480   124.4630     9.4810     2.4880     0.0070
 2458.5000   -63.7060    10.6560     7.9460    10.3220   122.5040     9.5020     2.4870     0.0070
 2459.0000   -63.8030    10.6560     7.7510    10.2960   121.0120     9.5230     2.4850     0.0080
 2459.5000   -63.8690    10.6560     7.5560    10.2710   119.1690     9.5440     2.4830     0.0090
 2460.0000   -63.9260    10.5420     7.3610    10.1370   120.0820     9.5450     2.4810     0.0110
 2460.5000   -63.9830    10.2970     7.1660     9.8470   121.3240     9.5280     2.4800     0.0120
 2461.0000   -64.0130    10.0510     6.9810     9.5520   122.6820     9.5110     2.4850     0.0130
 2461.5000   -63.9930     9.8050     6.9810     9.2430   123.8900     9.4930     2.4920     0.0140
 2462.0000   -63.9730     9.7200     6.9810     9.2900   125.1270     9.4760     2.4970     0.0150
 2462.5000   -63.9540     9.7620     6.9870     9.3040   125.2220     9.4580     2.5000     0.0130
 2463.0000   -63.9340     9.8120     7.0080     9.3180   125.0740     9.4410     2.5000     0.0110
 2463.5000   -63.9150     9.8610     7.0300     9.3320   125.4590     9.4230     2.4990     0.0090
 2464.0000   -63.8950     9.9110     7.0520     9.3470   123.3060     9.4060     2.4920     0.0060
 2464.5000   -63.8760     9.9600     7.0730     9.3610   122.6120     9.3920     2.4840     0.0040
 2465.0000   -63.8560    10.0100     7.0950     9.3840   119.7830     9.3920     2.4820     0.0030
 2465.5000   -63.8370    10.0600     7.1170     9.4460   117.4250     9.3910     2.4840     0.0050
 2466.0000   -63.8230    10.1090     7.1380     9.5080   116.7720     9.4010     2.4880     0.0080
 2466.5000   -63.8240    10.1590     7.1600     9.5710   117.1790     9.4140     2.4920     0.0100
 2467.0000   -63.8240    10.1770     7.1820     9.6310   117.4210     9.4270     2.4950     0.0130
 2467.5000   -63.8240    10.1770     7.2070     9.6410   117.2490     9.4400     2.4990     0.0150
