~VERSION INFORMATION
 VERS.                2.0:   CWLS LOG ASCII STANDARD - VERSION 2.0
 WRAP.                 NO:   ONE LINE PER DEPTH STEP
~WELL INFORMATION
#MNEM.UNIT      DATA TYPE    INFORMATION
#----------   ------------   ------------------------------
 STRT.F          620.0000:   START DEPTH
 STOP.F         3209.0000:   STOP DEPTH
 STEP.F            0.5000:   STEP LENGTH
 NULL.          -999.2500:   NO VALUE
 COMP. FENIX & SCISSON - US NAVY:   COMPANY
 WELL.   FENIX "A" #23-33:   WELL
 FLD .             NPR #3:   FIELD
 LOC .      S33 T39N R78W:   LOCATION
 CNTY.            NATRONA:   COUNTY
 STAT.            WYOMING:   STATE
 CTRY. UNITED STATES OF AMERICA:   COUNTRY
 SRVC.              WELEX:   SERVICE COMPANY
 DATE.        26-MAR-1977:   LOGDATE
 API .     49025103250000:   API NUMBER
~CURVE INFORMATION
#MNEM.UNIT       API CODE    CURVE DESCRIPTION
#----------   ------------   ------------------------------
 DEPT.F                  :   
 GRD .GAPI   45 310 01 00:   GAMMA RAY FROM DENSITY LOG
 CALD.IN     45 280 60 00:   CALIPER FROM DENSITY LOG
 CORR.G/C3   45 356 01 00:   DENSITY CORRECTION
 RHOB.G/C3   45 350 01 00:   BULK DENSITY
 SPR .MV     07 010 01 00:   SPONTANEOUS POTENTIAL
 ILD .OHMM   07 120 46 00:   DEEP INDUCTION RESISTIVITY
 ILM .OHMM   07 120 44 00:   INDUCTION LOG MEDIUM RESISTIVITY
 SGRD.OHMM   07 220 05 00:   SHALLOW SHORT GUARD RESISTIVITY
~PARAMETER INFORMATION
#MNEM.UNIT          VALUE    DESCRIPTION
#----------   ------------   ------------------------------
 EKB .F         5183.0000:   Kelly bushing
 EGL .F         5172.0000:   Ground level
 TD  .F         3213.0000:   Total depth
 CLNT.            A2DTECH:   Client Code
 SL  . 900' FWL & 1650' FNL:   Surface Location
 PD  .                 GL:   Permanent Datum
 EPD .F              5172:   Elevation Permanent Datum
 LMF .                 KB:   Log Measured From
 DMF .                 KB:   Drilling Measured From
 DAPD.F                11:   Feet Above Permanent Datum
 DATE.        26-MAR-1977:   Date Logged [DD-MMM-YYYY]
 DD  .F              3210:   Depth driller
 DL  .F              3213:   Depth logger
 BLI .F              3211:   Bottom log interval
 TLI .F               625:   Top log interval
 CS1 .IN            8.625:   Casing size
 CBD1.      8.625" @ 633':   Casing driller 1
 CBL1.F               635:   Casing logger 1
 BS1 .IN            7.875:   Bit size
 BSD1.F              3210:   Depth drilled with bit1
 DFT .            KCL MUD:   Type fluid in hole
 DFD .                9.5:   Density
 DFV .                 34:   Viscosity
 DFPH.                8.5:   pH
 DFL .                 14:   Fluid loss
 MSS .           FLOWLINE:   Source of sample
 RMS .OHMM           0.34:   Rm
 MST .F                86:   Rm Meas. temp.
 RMF .OHMM           0.25:   Rmf
 MFST.F                86:   Rmf Meas. temp.
 MFSS.            FANN KL:   Source Rmf.
 RMC .OHMM           0.55:   Rmc
 MCST.F                86:   Rmc Meas. temp.
 MCSS.            FANN KL:   Source Rmc.
 RMB .OHMM           0.31:   Rm. at BHT
 BHT .F                92:   BHT.
 TCS .HRS             2.5:   Time Circ. stopped
 MRT .F                92:   Maximum recorded temp.
 LUN .               8611:   Logging unit number
 LUL .             CASPER:   Logging unit location
 ENGI.            C. DOAK:   Recorded By
 WITN.            K. JAPP:   Witnessed by
 ORIG.           5" PRINT:   Origin of data
 UWI .     49025103250000:   Unique Well ID
 DICO. A2D TECHNOLOGIES, INC.:   Digitizing Company
~OTHER INFORMATION
~A   DEPT       GRD        CALD      CORR        RHOB      SPR        ILD        ILM       SGRD   
# ...
 1470.5000    74.9277    10.4404     0.0259     2.5134   -41.4374     5.8626     7.0202     7.4375
 1471.0000    74.4941    10.4566     0.0261     2.5135   -41.1367     5.8660     7.0393     7.4421
 1471.5000    74.0680    10.4726     0.0263     2.5091   -40.8364     5.8693     7.0763     7.4467
 1472.0000    73.9347    10.4738     0.0264     2.5025   -40.3888     5.8727     7.1289     7.4522
 1472.5000    74.2470    10.4805     0.0206     2.4958   -41.2789     5.8349     7.1328     7.4045
 1473.0000    74.5593    10.4909     0.0177     2.4884   -41.8500     5.7990     7.1363     7.3582
 1473.5000    75.1713    10.5069     0.0180     2.4878   -41.9915     5.7624     7.1402     7.3638
 1474.0000    75.3311    10.5081     0.0196     2.4909   -41.9843     5.7657     7.1444     7.4191
 1474.5000    75.1980    10.5092     0.0213     2.4872   -41.8313     5.7558     7.1482     7.4236
 1475.0000    75.2170    10.4955     0.0215     2.4828   -41.8255     5.7327     7.1520     7.4794
 1475.5000    75.2323    10.4819     0.0216     2.4845   -41.8197     5.7361     7.1560     7.4840
 1476.0000    75.2475    10.4534     0.0218     2.4875   -41.6667     5.7401     7.1107     7.4885
 1476.5000    75.4111    10.4248     0.0220     2.4853   -41.5136     5.7429     7.1147     7.5448
 1477.0000    75.5747    10.3966     0.0222     2.4817   -41.3608     5.7467     7.1194     7.6014
 1477.5000    75.7383    10.3942     0.0193     2.4780   -41.3548     5.7898     7.1226     7.6061
 1478.0000    75.9021    10.3690     0.0195     2.4774   -41.2018     5.7928     7.1271     7.5809
 1478.5000    75.9177    10.3210     0.0197     2.4842   -41.0364     5.8046     7.1304     7.5634
 1479.0000    75.7878    10.2918     0.0201     2.4918   -40.7482     5.8803     7.1388     7.5680
 1479.5000    75.6509    10.2541     0.0230     2.4986   -40.7423     5.9078     7.1882     7.5208
 1480.0000    75.3694    10.2255     0.0262     2.5047   -40.7354     5.9278     7.1915     7.5261
 1480.5000    75.8335    10.1894     0.0264     2.5086   -40.5824     5.9312     7.1957     7.5307
 1481.0000    76.2939    10.1685     0.0266     2.5078   -40.5766     5.9347     7.1994     7.5352
 1481.5000    76.3091    10.1400     0.0267     2.5064   -40.5708     5.9381     7.2531     7.5398
 1482.0000    75.7309    10.1266     0.0269     2.5050   -40.5651     5.9416     7.2571     7.5964
 1482.5000    75.4488    10.1126     0.0271     2.5028   -40.7080     5.9869     7.3112     7.6535
 1483.0000    75.1679    10.1289     0.0272     2.5014   -40.7008     5.9903     7.3152     7.7110
 1483.5000    75.4844    10.1450     0.0274     2.4985   -40.7657     6.0347     7.3200     7.7690
 1484.0000    76.1068    10.1659     0.0261     2.4949   -40.8365     6.0387     7.0269     7.6095
 1484.5000    76.7011    10.1769     0.0263     2.4950   -40.9441     6.0421     6.9825     7.3631
 1485.0000    76.8599    10.1929     0.0250     2.4989   -41.1195     5.9620     6.9384     7.2669
 1485.5000    77.1355    10.2089     0.0251     2.5026   -41.2607     5.8837     6.8946     7.2203
 1486.0000    77.3383    10.2249     0.0237     2.5042   -41.4011     5.8065     6.8992     7.1752
 1486.5000    77.2084    10.2261     0.0194     2.4924   -41.8386     5.7311     6.8547     7.1806
 1487.0000    76.9269    10.2275     0.0166     2.4850   -41.9801     5.6558     6.8593     7.1991
 1487.5000    76.4970    10.2287     0.0168     2.4821   -41.8256     5.5816     6.8630     7.2390
 1488.0000    75.6221    10.2298     0.0169     2.4806   -41.6726     5.5465     6.9141     7.2934
 1488.5000    74.4503    10.2310     0.0171     2.4793   -41.5195     5.5505     6.9179     7.2978
 1489.0000    73.5754    10.2322     0.0173     2.4831   -41.3054     5.5921     6.9694     7.3526
 1489.5000    72.9933    10.2333     0.0174     2.4885   -41.2136     5.6340     6.9864     7.4079
 1490.0000    72.7151    10.2194     0.0177     2.4922   -41.0604     5.6762     7.0333     7.4125
 1490.5000    73.3243    10.2208     0.0178     2.4908   -40.6679     5.7285     7.0783     7.5198
 1491.0000    73.9401    10.1923     0.0180     2.4962   -40.9219     5.8416     7.0822     7.5773
 1491.5000    74.5826    10.1626     0.0182     2.5022   -41.4212     5.8450     7.0860     7.6342
 1492.0000    76.0445    10.1192     0.0183     2.5060   -41.9205     5.8888     7.0898     7.6388
 1492.5000    76.3565    10.1067     0.0185     2.5024   -41.7673     5.9330     7.0937     7.6429
 1493.0000    76.0750    10.0931     0.0201     2.4980   -41.7614     5.9364     7.0975     7.6481
 1493.5000    75.6451    10.1094     0.0203     2.5041   -41.7544     5.9809     7.1010     7.6528
 1494.0000    74.7701    10.1144     0.0220     2.5117   -41.8974     5.9844     7.0863     7.6574
 1494.5000    74.3364    10.1414     0.0222     2.5164   -42.3334     5.9879     7.0601     7.6621
 1495.0000    75.8392    10.1479     0.0254     2.5193   -42.9168     5.9500     7.0157     7.6665
 1495.5000    76.7446    10.1689     0.0286     2.5194   -42.6150     5.9134     7.0195     7.6188
 1496.0000    76.7598    10.2042     0.0303     2.5165   -42.4620     5.8762     6.9751     7.6234
 1496.5000    76.3248    10.2204     0.0319     2.5188   -42.3089     5.8795     6.9310     7.6281
 1497.0000    75.7334    10.2378     0.0321     2.5219   -42.1559     5.8425     6.9357     7.4768
 1497.5000    75.9192    10.2673     0.0292     2.5182   -42.0028     5.8049     6.9395     7.3285
 1498.0000    76.3757    10.2833     0.0264     2.5174   -41.8498     5.7287     6.9432     7.2827
 1498.5000    75.6529    10.2993     0.0281     2.5259   -41.8439     5.7328     6.9470     7.1875
 1499.0000    75.9649    10.3153     0.0328     2.5328   -41.9853     5.6575     6.9507     7.1930
 1499.5000    76.5736    10.3313     0.0360     2.5276   -41.9783     5.6218     6.9545     7.1974
 1500.0000    76.2921    10.3473     0.0316     2.5187   -41.8262     5.5865     6.9582     7.1513
 1500.5000    75.2397    10.3633     0.0273     2.5121   -41.8195     5.5897     6.9133     7.1066
 1501.0000    74.9859    10.3644     0.0244     2.5106   -41.8137     5.5545     6.8704     7.1120
 1501.5000    74.4070    10.4099     0.0216     2.5107   -41.8079     5.5176     6.8271     7.1163
 1502.0000    73.9765    10.4258     0.0218     2.5011   -41.6549     5.4850     6.7840     7.0718
 1502.5000    73.9936    10.4418     0.0219     2.4848   -41.6491     5.4523     6.7877     7.0762
 1503.0000    74.4639    10.4577     0.0190     2.4789   -41.6434     5.4197     6.7448     7.0804
 1503.5000    75.2540    10.4294     0.0192     2.4790   -41.7850     5.3871     6.7022     6.9879
 1504.0000    76.4123    10.4008     0.0194     2.4813   -42.1228     5.3545     6.6598     6.9294
 1504.5000    76.4269    10.3870     0.0196     2.4851   -42.2151     5.3218     6.6524     6.8865
 1505.0000    76.1411    10.3730     0.0197     2.4897   -42.3566     5.2892     6.6364     6.8437
 1505.5000    75.8626    10.3744     0.0214     2.4943   -42.4982     5.2566     6.6203     6.8008
 1506.0000    75.7252    10.3903     0.0218     2.4996   -42.3437     5.2239     6.6042     6.7579
 1506.5000    76.0401    10.3914     0.0232     2.5013   -42.3379     5.1913     6.5882     6.7245
 1507.0000    76.0547    10.3925     0.0219     2.4939   -42.1848     5.1587     6.5721     6.6821
 1507.5000    75.6242    10.4084     0.0205     2.4835   -42.1791     5.1260     6.5561     6.6399
 1508.0000    74.7486    10.4095     0.0207     2.4732   -42.0920     5.0934     6.5400     6.5980
 1508.5000    73.8729    10.4106     0.0209     2.4807   -41.9654     5.0791     6.5239     6.6024
 1509.0000    75.0745    10.3969     0.0241     2.4890   -41.8672     5.0821     6.5079     6.6516
 1509.5000    76.2760    10.3831     0.0273     2.4966   -41.7142     5.0845     6.4918     6.7011
 1510.0000    76.5873    10.3546     0.0274     2.4922   -41.7084     5.0869     6.4757     6.7510
 1510.5000    75.9886    10.3260     0.0260     2.4871   -41.7025     5.0540     6.4597     6.7546
