~VERSION INFORMATION
 VERS.                2.0:   CWLS LOG ASCII STANDARD - VERSION 2.0
 WRAP.                 NO:   ONE LINE PER DEPTH STEP
~WELL INFORMATION
#MNEM.UNIT      DATA TYPE    INFORMATION
#----------   ------------   ------------------------------
 STRT.F          200.0000:   START DEPTH
 STOP.F         3060.0000:   STOP DEPTH
 STEP.F            0.5000:   STEP LENGTH
 NULL.          -999.2500:   NO VALUE
 COMP.    FENIX & SCISSON:   COMPANY
 WELL. FENIX & SCISSON NPR "AX" #81-10:   WELL
 FLD .                NPR:   FIELD
 LOC .      S10 T38N R78W:   LOCATION
 CNTY.            NATRONA:   COUNTY
 STAT.            WYOMING:   STATE
 CTRY. UNITED STATES OF AMERICA:   COUNTRY
 SRVC.              WELEX:   SERVICE COMPANY
 DATE.        28-NOV-1977:   LOGDATE
 API .     49025104400000:   API NUMBER
~CURVE INFORMATION
#MNEM.UNIT       API CODE    CURVE DESCRIPTION
#----------   ------------   ------------------------------
 DEPT.F                  :   
 CALD.IN     45 280 60 00:   CALIPER FROM DENSITY LOG
 GRD .GAPI   45 310 01 00:   GAMMA RAY FROM DENSITY LOG
 RHOB.G/C3   45 350 01 00:   BULK DENSITY
 CORR.G/C3   45 356 01 00:   DENSITY CORRECTION
 TEND.LBS    45 635 01 00:   TENSION FROM DENSITY LOG
 NPHI.DEC    42 890 03 00:   NEUTRON POROSITY SANDSTONE
 SPR .MV     07 010 01 00:   SPONTANEOUS POTENTIAL
 IL  .OHMM   07 120 00 00:   INDUCTION LOG RES.
 ASGR.OHMM   07 221 05 00:   AMPLIFIED SHALLOW GUARD
 SNP .DEC    41 890 00 00:   SIDEWALL NEUTRON POROSITY
~PARAMETER INFORMATION
#MNEM.UNIT          VALUE    DESCRIPTION
#----------   ------------   ------------------------------
 EKB .F         5147.0000:   Kelly bushing
 EGL .F         5137.0000:   Ground level
 EDF .F            0.0000:   Drilling floor
 TD  .F         3058.0000:   Total depth
 DATE.        28-NOV-1977:   Date logged
 CLNT.            A2DTECH:   Client Code
 PD  .                 GL:   Permanent Datum
 EPD .F              5137:   Elevation Permanent Datum
 LMF .                 KB:   Log Measured From
 DMF .                 KB:   Drilling Measured From
 DD  .F              3055:   Depth driller
 DL  .F              3058:   Depth logger
 BLI .F              3055:   Bottom log interval
 TLI .F               200:   Top log interval
 CS1 .IN            8.625:   Casing size
 CBD1.      8.625" @ 205':   Casing driller 1
 CBL1.F               215:   Casing logger 1
 BSD1.F              3055:   Depth drilled with bit1
 DFT .            KCL/MUD:   Type fluid in hole
 ENGI.            BENTSEN:   Recorded By
 WITN.         HARRINGTON:   Witnessed by
 ORIG.           5" PRINT:   Origin of data
 UWI .     49025104400000:   Unique Well ID
 DICO. A2D TECHNOLOGIES, INC.:   Digitizing Company
 DAPD.                 10:   Feet Above Permanent Datum
 BS1 .IN            7.875:   Bit size
 DFD .                8.9:   Density
 DFV .                 35:   Viscosity
 MSS .           FLOWLINE:   Source of sample
 RMS .OHMM            .17:   Rm
 MST .F                75:   Rm Meas. temp.
 RMF .OHMM            .12:   Rmf
 MFST.F                75:   Rmf Meas. temp.
 MFSS.               FANN:   Source Rmf.
 RMC .OHMM            .50:   Rmc
 MCST.F                75:   Rmc Meas. temp.
 MCSS.                KIT:   Source Rmc.
 RMB .OHMM           .113:   Rm. at BHT
 BHT .F               113:   BHT.
 TCS .HRS             2.5:   Time Circ. stopped
 MRT .F               113:   Maximum recorded temp.
 LUN .               9685:   Logging unit number
 LUL .             CASPER:   Logging unit location
 SL  . 601' FNL & 200' FEL:   Surface Location
~OTHER INFORMATION
~A   DEPT       CALD      GRD       RHOB       CORR        TEND        NPHI       SPR        IL       ASGR        SNP   
# ...
  769.5000     9.6900   106.8540     2.4970     0.0420   968.3150     0.1440   -84.1950     6.7830     7.2670     0.2600
  770.0000     9.6970   106.1750     2.4990     0.0420   968.3510     0.1450   -84.1950     6.7550     7.1100     0.2570
  770.5000     9.7040   105.3860     2.5010     0.0410   968.3880     0.1420   -84.1950     6.6160     7.1370     0.2520
  771.0000     9.7110   104.5860     2.4990     0.0410   968.4250     0.1390   -84.1950     6.4070     7.0900     0.2470
  771.5000     9.7190   103.7870     2.4850     0.0380   968.4610     0.1370   -84.1950     6.2010     7.0110     0.2420
  772.0000     9.7030   102.9950     2.4710     0.0330   968.4980     0.1380   -84.1950     6.1500     6.9440     0.2380
  772.5000     9.6820   102.6200     2.4570     0.0270   968.5340     0.1400   -84.1950     6.1120     7.0150     0.2430
  773.0000     9.6610   103.1550     2.4430     0.0220   968.5710     0.1420   -84.1950     6.0800     7.0900     0.2500
  773.5000     9.6400   102.7110     2.4300     0.0170   968.6070     0.1460   -84.1950     6.1280     7.0290     0.2560
  774.0000     9.6190   102.3290     2.4230     0.0120   968.6440     0.1500   -84.1950     6.1790     6.9320     0.2650
  774.5000     9.5990   104.2260     2.4250     0.0070   968.6800     0.1490   -84.1950     6.2290     7.0360     0.2710
  775.0000     9.5780   106.3280     2.4330     0.0050   968.7170     0.1450   -84.1950     6.2800     6.9770     0.2640
  775.5000     9.5550   107.8480     2.4530     0.0050   968.7540     0.1400   -84.1960     6.3300     7.1570     0.2560
  776.0000     9.5390   107.3270     2.4730     0.0050   968.7900     0.1370   -84.2530     6.3810     7.2730     0.2490
  776.5000     9.5380   106.8520     2.4920     0.0050   968.8270     0.1350   -84.4080     6.4310     7.2900     0.2400
  777.0000     9.5390   106.3830     2.5100     0.0050   968.8630     0.1340   -84.5620     6.4820     7.2560     0.2310
  777.5000     9.5400   105.9130     2.5070     0.0050   968.9000     0.1360   -84.7150     6.5320     7.2540     0.2280
  778.0000     9.5410   105.4710     2.5040     0.0060   968.9360     0.1370   -84.8690     6.5830     7.2660     0.2290
  778.5000     9.5420   105.6600     2.5010     0.0060   968.9730     0.1370   -85.0240     6.6340     7.2020     0.2300
  779.0000     9.5420   106.1540     2.4990     0.0060   969.0090     0.1350   -85.1820     6.6800     7.1280     0.2290
  779.5000     9.5430   106.6430     2.4960     0.0060   969.0460     0.1310   -85.1800     6.6110     7.1190     0.2290
  780.0000     9.5440   107.1330     2.4950     0.0060   969.0830     0.1290   -85.1690     6.5370     7.1120     0.2230
  780.5000     9.5450   107.6230     2.4990     0.0060   969.1190     0.1290   -85.1590     6.4640     7.1000     0.2170
  781.0000     9.5460   108.1160     2.5020     0.0060   969.1560     0.1290   -85.1480     6.3910     7.0690     0.2130
  781.5000     9.5460   108.6220     2.5050     0.0060   969.1920     0.1300   -85.1380     6.3180     7.0370     0.2120
  782.0000     9.5470   108.9520     2.5080     0.0050   969.2290     0.1290   -85.1280     6.2450     7.0070     0.2110
  782.5000     9.5480   110.0630     2.5120     0.0030   969.2650     0.1280   -85.1170     6.1750     6.9890     0.2100
  783.0000     9.5490   111.1570     2.5110     0.0020   969.3020     0.1270   -85.1070     6.1220     7.0470     0.2090
  783.5000     9.5500   110.8490     2.5030     0.0010   969.3380     0.1260   -85.0960     6.0700     7.1280     0.2080
  784.0000     9.5510   110.4390     2.4940     0.0000   969.3750     0.1250   -85.0860     6.0190     7.1810     0.2070
  784.5000     9.5510   110.2230     2.4850    -0.0010   969.4120     0.1260   -85.0760     5.9920     7.1560     0.2070
  785.0000     9.5520   110.5230     2.4760    -0.0030   969.4480     0.1290   -85.0650     6.0460     7.1320     0.2070
  785.5000     9.5530   111.1850     2.4740    -0.0030   969.4850     0.1290   -85.0550     6.0980     7.1330     0.2090
  786.0000     9.5540   111.4300     2.4770    -0.0010   969.5210     0.1270   -85.0450     6.1490     7.1440     0.2100
  786.5000     9.5550   110.6960     2.4810     0.0010   969.5580     0.1270   -85.0340     6.2010     7.1270     0.2120
  787.0000     9.5550   109.9540     2.4850     0.0030   969.5940     0.1300   -85.0240     6.2530     7.0980     0.2120
  787.5000     9.5560   110.1130     2.4890     0.0060   969.6310     0.1320   -85.0140     6.3040     7.0690     0.2120
  788.0000     9.5570   110.4480     2.4930     0.0080   969.6670     0.1340   -85.0030     6.3560     7.0460     0.2200
  788.5000     9.5580   110.7950     2.4970     0.0100   969.7040     0.1330   -84.9900     6.4080     7.0830     0.2230
  789.0000     9.5590   110.9930     2.5010     0.0120   969.7400     0.1320   -85.1210     6.4600     7.1210     0.2220
  789.5000     9.5590   110.0690     2.5050     0.0140   969.7770     0.1310   -85.2990     6.4960     7.1390     0.2200
  790.0000     9.5600   109.0790     2.5090     0.0160   969.8140     0.1340   -85.4780     6.5210     7.0930     0.2190
  790.5000     9.5610   108.0810     2.5140     0.0180   969.8500     0.1380   -85.6560     6.5460     7.0480     0.2250
  791.0000     9.5620   108.2170     2.5080     0.0180   969.8870     0.1400   -85.7880     6.5710     7.0020     0.2310
  791.5000     9.5630   108.4070     2.5010     0.0170   969.9230     0.1390   -85.7850     6.5710     6.9570     0.2350
  792.0000     9.5630   107.1870     2.4950     0.0160   969.9600     0.1360   -85.7850     6.5480     6.9260     0.2390
  792.5000     9.5640   105.8030     2.4920     0.0150   969.9960     0.1360   -85.7850     6.5240     6.9600     0.2350
  793.0000     9.5650   105.0670     2.4930     0.0140   970.0330     0.1370   -85.7850     6.5010     6.9860     0.2320
  793.5000     9.5660   105.0660     2.4940     0.0130   970.0690     0.1380   -85.7850     6.4780     6.9730     0.2320
  794.0000     9.5670   105.0590     2.4940     0.0120   970.1060     0.1390   -85.7850     6.4550     6.9660     0.2340
  794.5000     9.5680   105.0240     2.4950     0.0110   970.1430     0.1390   -85.7850     6.4310     6.9870     0.2350
  795.0000     9.5680   104.8590     2.4960     0.0100   970.1790     0.1380   -85.7860     6.4080     7.0080     0.2350
  795.5000     9.5690   104.6980     2.4970     0.0090   970.2160     0.1380   -85.7860     6.3850     7.0290     0.2340
  796.0000     9.5700   105.0080     2.4960     0.0080   970.2520     0.1360   -85.8340     6.3620     7.0440     0.2330
  796.5000     9.5710   105.8890     2.4930     0.0070   970.2890     0.1310   -85.9630     6.3380     6.9890     0.2320
  797.0000     9.5720   106.7000     2.4900     0.0060   970.3250     0.1250   -86.0910     6.3150     6.9520     0.2200
  797.5000     9.5720   106.1610     2.4870     0.0060   970.3620     0.1230   -86.2200     6.2920     7.0080     0.2080
  798.0000     9.5730   105.2700     2.4840     0.0050   970.3980     0.1210   -86.3540     6.2820     7.0150     0.2000
  798.5000     9.5740   105.4760     2.4810     0.0040   970.4350     0.1220   -86.2340     6.2810     6.9120     0.1970
  799.0000     9.5750   106.8840     2.4780     0.0030   970.4720     0.1260   -86.0410     6.2810     6.8620     0.2000
  799.5000     9.5760   108.2440     2.4790     0.0030   970.5080     0.1270   -85.8440     6.2810     6.9300     0.2030
  800.0000     9.5760   109.6280     2.4850     0.0040   970.5450     0.1260   -85.6390     6.2810     6.9180     0.2040
  800.5000     9.5770   110.1100     2.4910     0.0040   970.5810     0.1270   -85.6460     6.2810     6.8070     0.2050
  801.0000     9.5780   109.8880     2.4960     0.0050   970.6180     0.1300   -85.7250     6.2820     6.9120     0.2070
  801.5000     9.5790   110.5550     2.4930     0.0050   970.6540     0.1310   -85.8070     6.2810     7.0110     0.2110
  802.0000     9.5810   112.5330     2.4910     0.0060   970.6910     0.1300   -85.8880     6.2150     6.9020     0.2150
  802.5000     9.5840   114.5020     2.4880     0.0070   970.7270     0.1310   -85.9700     6.1380     6.7670     0.2180
