~VERSION INFORMATION
 VERS.                2.0:   CWLS LOG ASCII STANDARD - VERSION 2.0
 WRAP.                 NO:   ONE LINE PER DEPTH STEP
~WELL INFORMATION
#MNEM.UNIT      DATA TYPE    INFORMATION
#----------   ------------   ------------------------------
 STRT.F          213.5000:   START DEPTH
 STOP.F         3198.0000:   STOP DEPTH
 STEP.F            0.5000:   STEP LENGTH
 NULL.          -999.2500:   NO VALUE
 COMP.    FENIX & SCISSON:   COMPANY
 WELL.   FENIX "AX" #14-2:   WELL
 FLD .              NPR-3:   FIELD
 LOC .       S2 T38N R78W:   LOCATION
 CNTY.            NATRONA:   COUNTY
 STAT.            WYOMING:   STATE
 CTRY. UNITED STATES OF AMERICA:   COUNTRY
 SRVC.              WELEX:   SERVICE COMPANY
 DATE.        14-MAY-1977:   LOGDATE
 API .     49025103620000:   API NUMBER
~CURVE INFORMATION
#MNEM.UNIT       API CODE    CURVE DESCRIPTION
#----------   ------------   ------------------------------
 DEPT.F                  :   
 GRD .GAPI   45 310 01 00:   GAMMA RAY FROM DENSITY LOG
 CALD.IN     45 280 60 00:   CALIPER FROM DENSITY LOG
 CORR.G/C3   45 356 01 00:   DENSITY CORRECTION
 RHOB.G/C3   45 350 01 00:   BULK DENSITY
 SPR .MV     07 010 01 00:   SPONTANEOUS POTENTIAL FROM RES.
 ILD .OHMM   07 120 46 00:   DEEP INDUCTION RESISTIVITY
 ILM .OHMM   07 120 44 00:   INDUCTION LOG MEDIUM RESISTIVITY
 SGRD.OHMM   07 220 05 00:   SHALLOW SHORT GUARD RESISTIVITY
~PARAMETER INFORMATION
#MNEM.UNIT          VALUE    DESCRIPTION
#----------   ------------   ------------------------------
 EKB .F         5119.0000:   Kelly bushing
 EGL .F         5110.0000:   Ground level
 TD  .F         3200.0000:   Total depth
 CLNT.            A2DTECH:   Client Code
 SL  . 2400' FNL & 150' FWL:   Surface Location
 PD  .                 GL:   Permanent Datum
 EPD .F              5110:   Elevation Permanent Datum
 LMF .                 KB:   Log Measured From
 DMF .                 KB:   Drilling Measured From
 DAPD.F                 9:   Feet Above Permanent Datum
 DATE.        14-MAY-1977:   Date Logged [DD-MMM-YYYY]
 DD  .F              3200:   Depth driller
 DL  .F              3199:   Depth logger
 BLI .F              3197:   Bottom log interval
 TLI .F               217:   Top log interval
 CS1 .IN            8.625:   Casing size
 BS1 .IN            7.875:   Bit size
 BSD1.F              3200:   Depth drilled with bit1
 DFT .            KCL MUD:   Type fluid in hole
 DFD .                8.8:   Density
 TCS .HRS             2.5:   Time Circ. stopped
 MRT .F               130:   Maximum recorded temp.
 ENGI.          T. JOYNER:   Recorded By
 WITN.      W. PETTINGILL:   Witnessed by
 ORIG.           5" PRINT:   Origin of data
 UWI .     49025103620000:   Unique Well ID
 DICO. A2D TECHNOLOGIES, INC.:   Digitizing Company
 DFV .                 31:   Viscosity
 DFPH.                7.5:   pH
 DFL .                6.4:   Fluid loss
 MSS .          FLOW LINE:   Source of sample
 RMS .OHMM            .13:   Rm
 MST .F               62.:   Rm Meas. temp.
 RMF .OHMM            .12:   Rmf
 MFST.F                62:   Rmf Meas. temp.
 MFSS.           FANN KIT:   Source Rmf.
 RMC .OHMM            .28:   Rmc
 MCST.F                62:   Rmc Meas. temp.
 RMB .OHMM            .06:   Rm. at BHT
 BHT .F               130:   BHT.
~OTHER INFORMATION
~A   DEPT      GRD       CALD       CORR       RHOB        SPR        ILD        ILM       SGRD   
# ...
  416.0000    77.2219     8.3405     0.0183     2.2411   -22.4504    10.3271     6.3085    14.4741
  416.5000    74.9217     8.3411     0.0170     2.2389   -22.2058    10.3419     8.4359    15.5224
  417.0000    73.1569     8.3724     0.0156     2.2330   -22.0599    10.4160    10.6401    16.4246
  417.5000    71.9826     8.4018     0.0127     2.2278   -21.9501    10.4262    13.1499    16.5471
  418.0000    72.6124     8.4620     0.0114     2.2188   -21.7790    10.4347    12.7909    14.8324
  418.5000    70.8475     8.4626     0.0131     2.2136   -21.4088    10.4432    10.9951    13.7597
  419.0000    69.9717     8.4185     0.0132     2.2245   -21.2318    10.5972     9.2577    13.1220
  419.5000    72.0940     8.3745     0.0164     2.2347   -20.8328    10.9030     8.7052    12.7758
  420.0000    73.6128     8.3451     0.0180     2.2400   -20.6505    11.1404     9.2052    12.8757
  420.5000    74.5346     8.3607     0.0197     2.2408   -20.4793    11.0705    10.0065    14.3922
  421.0000    75.1582     8.4060     0.0198     2.2356   -20.4556    11.0817    10.5084    16.0874
  421.5000    74.4945     8.4363     0.0185     2.2282   -20.5486    11.1677    12.9347    17.7357
  422.0000    74.0163     8.4518     0.0141     2.2177   -20.5575    11.1768    15.3810    18.7594
  422.5000    74.6461     8.4524     0.0082     2.2058   -20.5324    11.1859    16.9523    19.4354
  423.0000    74.3738     8.4233    -0.0036     2.2021   -20.5089    11.2727    19.6093    19.1789
  423.5000    74.0949     8.3793    -0.0050     2.2186   -20.4839    11.2820    21.0238    17.0329
  424.0000    74.7248     8.3352    -0.0033     2.2306   -20.4615    11.2933    20.1613    15.8228
  424.5000    76.2435     8.3059    -0.0031     2.2375   -20.4355    11.3025    14.3242    15.6376
  425.0000    77.1653     8.3215     0.0015     2.2454   -20.4142    11.3117    10.8671    16.7738
  425.5000    78.3855     8.3369     0.0033     2.2577   -20.5408    11.2407     9.2673    16.7886
  426.0000    79.6139     8.4268     0.0093     2.2668   -20.5148    11.1723    10.5744    16.9198
  426.5000    80.8637     8.5316     0.0095     2.2571   -20.4885    11.1837    11.8986    18.3975
  427.0000    82.0816     8.5927     0.0036     2.2459   -20.4675    11.1928    12.9343    19.7300
  427.5000    80.2837     8.6518    -0.0037     2.2294   -20.4438    11.2019    13.9634    20.0219
  428.0000    79.3910     8.6822    -0.0096     2.2340   -20.4201    11.2111    18.0385    18.7026
  428.5000    78.2466     8.6977    -0.0049     2.2543   -20.5454    11.2202    23.4643    17.2307
  429.0000    77.3839     8.7132    -0.0048     2.2693   -20.8180    11.2293    37.8068    16.8922
  429.5000    77.1050     8.7138    -0.0017     2.2843   -20.9427    11.3164    74.9353    16.4408
  430.0000    76.8328     8.6993     0.0138     2.3278   -21.2821    11.8981   242.4918    16.2354
  430.5000    76.2620     8.6554     0.0262     2.3731   -21.3723    12.6849   204.1737    16.9407
  431.0000    75.9963     8.6113     0.0364     2.4080   -21.6068    13.0279    84.2857    21.2943
  431.5000    75.1270     8.5375     0.0410     2.3826   -21.8794    13.1289    65.4301    27.7070
  432.0000    73.9592     8.4637     0.0412     2.3594   -21.8580    13.1396   255.6475    32.0583
  432.5000    72.4776     8.4196     0.0368     2.3423   -21.8343    13.0571   264.2440    34.6183
  433.0000    74.0398     8.4053     0.0249     2.3086   -21.9576    12.9777    20.1324    31.8938
  433.5000    75.8726     8.3465     0.0116     2.2847   -21.9344    12.7244     6.0593    21.6856
  434.0000    77.6527     8.3023     0.0041     2.2742   -22.2070    12.4710     4.9621    17.5227
  434.5000    79.1715     8.3328    -0.0017     2.2788   -22.2618    11.9767     6.5907    15.7039
  435.0000    80.6903     8.4078    -0.0060     2.2803   -22.3077    11.5795     7.4675    15.5021
  435.5000    81.9105     8.4828    -0.0074     2.2766   -22.4332    11.1183     9.6468    15.4090
  436.0000    83.1308     8.5429    -0.0057     2.2819   -22.4041    10.7495    12.5485    15.3168
  436.5000    84.3511     8.6030    -0.0056     2.2827   -22.5346    10.3915    12.8189    15.3306
  437.0000    84.9743     8.6194    -0.0054     2.2812   -22.8072    10.1880    12.8267    15.3443
  437.5000    85.5976     8.6339    -0.0052     2.2783   -22.9660    10.1966    12.9235    15.3603
  438.0000    85.0229     8.6495    -0.0051     2.2738   -23.2436    10.2067    14.5419    15.3739
  438.5000    82.3664     8.6501    -0.0049     2.2656   -23.3863    10.2150    16.7320    15.3874
  439.0000    83.8918     8.6507     0.0012     2.2734   -23.4497    10.2233    18.1757    15.5077
  439.5000    85.7090     8.6513     0.0074     2.2852   -23.7207    10.2316    18.6822    15.5201
  440.0000    89.0189     8.6518     0.0105     2.2935   -23.8462    10.2400    18.1844    15.4247
  440.5000    91.4266     8.6374     0.0122     2.2988   -23.9704    10.2483    16.6335    15.0210
  441.0000    88.1758     8.6083     0.0138     2.3003   -24.0957    10.2567    15.7493    14.6244
  441.5000    85.2170     8.6089     0.0155     2.2944   -24.2189    10.2650    15.2242    14.3375
  442.0000    83.4521     8.6095     0.0171     2.3004   -24.2686    10.3446    14.8185    14.5499
  442.5000    83.4784     8.6101     0.0143     2.3034   -24.3209    10.3530    14.4237    14.7022
  443.0000    82.9075     8.5958     0.0099     2.2968   -24.2918    10.3615    13.8468    14.8921
  443.5000    82.0159     8.5965     0.0041     2.2916   -24.2722    10.3700    13.1108    15.0000
  444.0000    81.7660     8.5971    -0.0018     2.2879   -24.2485    10.3783    12.4998    15.1172
  444.5000    82.0973     8.5827    -0.0001     2.2841   -24.2221    10.3153    12.4212    15.1305
  445.0000    84.5116     8.5834     0.0045     2.2928   -24.1989    10.3258    12.4296    15.1423
  445.5000    86.6274     8.5840     0.0062     2.3007   -24.1756    10.4058    13.1435    15.1239
  446.0000    87.8477     8.5696     0.0048     2.3038   -24.1524    10.3405    14.7894    14.9343
  446.5000    86.9784     8.5554     0.0080     2.3023   -24.2771    10.3510    16.5269    14.7302
  447.0000    85.2136     8.5560     0.0096     2.3098   -24.6976    10.3595    17.9655    14.4802
  447.5000    83.7473     8.5565     0.0128     2.3211   -24.8225    10.3679    20.4963    14.2942
  448.0000    84.0720     8.5572     0.0159     2.3317   -25.1716    10.3028    20.9381    14.0135
  448.5000    85.3055     8.5578     0.0146     2.3340   -25.3675    10.1697    20.5214    13.7383
  449.0000    86.8119     8.5584     0.0117     2.3293   -25.5003    10.1096    19.4334    13.6400
  449.5000    86.8438     8.5590     0.0089     2.3243   -25.7590     9.9793    17.6537    13.3876
  450.0000    86.2730     8.5596     0.0015     2.3191   -25.7607     9.9187    14.3597    13.3072
  450.5000    86.5978     8.5658     0.0018     2.3161   -25.8013     9.8584    13.0446    13.1392
  451.0000    85.7285     8.5756     0.0093     2.3244   -25.8419     9.8667    12.8717    13.0574
  451.5000    84.5541     8.5911     0.0110     2.3335   -25.8825     9.8765    13.2422    13.0434
  452.0000    88.7660     8.5927     0.0111     2.3395   -25.9231     9.8845    13.0666    13.0242
  452.5000    88.7922     8.6096     0.0113     2.3306   -25.9638     9.8926    13.0766    13.0050
  453.0000    88.2209     8.6227     0.0099     2.3247   -26.0044     9.8305    12.9980    13.0032
  453.5000    88.5492     8.6233     0.0056     2.3185   -26.0407     9.9087    13.2812    12.8898
  454.0000    89.4680     8.6388     0.0012     2.3105   -26.0155     9.8056    13.5683    12.8098
  454.5000    88.8972     8.6542    -0.0004     2.3091   -26.1450     9.7056    13.8616    12.7673
  455.0000    89.2285     8.6697    -0.0015     2.3099   -26.1243     9.6057    15.6057    12.7770
  455.5000    89.8517     8.6852    -0.0026     2.3114   -26.2515     9.6208    15.9552    12.7869
  456.0000    90.1765     8.6857    -0.0042     2.3152   -26.5266     9.6719    16.3955    12.7564
