~VERSION INFORMATION
 VERS.                2.0:   CWLS LOG ASCII STANDARD - VERSION 2.0
 WRAP.                 NO:   ONE LINE PER DEPTH STEP
~WELL INFORMATION
#MNEM.UNIT      DATA TYPE    INFORMATION
#----------   ------------   ------------------------------
 STRT.F           32.0000:   START DEPTH
 STOP.F         5116.0000:   STOP DEPTH
 STEP.F            0.5000:   STEP LENGTH
 NULL.          -999.2500:   NO VALUE
 COMP. LAWRENCE ALLISON AND ASSOCIATES:   COMPANY
 WELL. LAWRENCE "X" #11-26:   WELL
 FLD .       N.P.R. NO. 3:   FIELD
 LOC .      S26 T38N R78W:   LOCATION
 CNTY.            NATRONA:   COUNTY
 STAT.            WYOMING:   STATE
 CTRY. UNITED STATES OF AMERICA:   COUNTRY
 SRVC.      DRESSER ATLAS:   SERVICE COMPANY
 DATE.        03-DEC-1984:   LOGDATE
 API .     49025110120000:   API NUMBER
~CURVE INFORMATION
#MNEM.UNIT       API CODE    CURVE DESCRIPTION
#----------   ------------   ------------------------------
 DEPT.F                  :   
 CALD.IN     45 280 60 00:   CALIPER FROM DENSITY LOG
 TEND.LBS    45 635 01 00:   TENSION FORM DENSITY LOG
 CORR.G/C3   45 356 01 00:   DENSITY CORRECTION
 DEN .G/C3   45 350 01 00:   BULK DENSITY
 NPHI.DEC    42 890 03 00:   NEUTRON POROSITY SANDSTONE
 GRR .GAPI   07 310 01 00:   GAMMA RAY FROM RESISTIVITY
 SPR .MV     07 010 01 00:   SPONTANEOUS POTENTIAL
 CALR.IN     07 280 01 00:   CALIPER FROM RESISTIVITY
 TENR.LBS    07 635 01 00:   TENSION FROM RESISTIVITY
 RILD.OHMM   07 120 46 00:   INDUCTION LOG DEEP RESISTIVITY
 RILM.OHMM   07 120 44 00:   INDUCTION LOG MEDIUM RESISTIVITY
 RFOC.OHMM   07 220 04 00:   RESISTIVITY FOCUSED LOG RES.
 TENS.LBS    60 635 01 00:   TENSION FROM SONIC
 DT  .US/F   60 520 00 00:   DELTA TIME
~PARAMETER INFORMATION
#MNEM.UNIT          VALUE    DESCRIPTION
#----------   ------------   ------------------------------
 EKB .F         5321.0000:   Kelly bushing
 EGL .F         5309.0000:   Ground level
 EDF .F         5320.0000:   Drilling floor
 TD  .F         5104.0000:   Total depth
 CLNT.            A2DTECH:   Client Code
 SL  . 509' FWL & 22' FNL:   Surface Location
 PD  .                 GL:   Permanent Datum
 EPD .F              5309:   Elevation Permanent Datum
 LMF .                 KB:   Log Measured From
 DMF .                 KB:   Drilling Measured From
 DAPD.F                12:   Feet Above Permanent Datum
 DATE.        03-DEC-1984:   Date Logged [DD-MMM-YYYY]
 DD  .F              5100:   Depth driller
 DL  .F              5104:   Depth logger
 BLI .F              5102:   Bottom log interval
 TLI .F              1400:   Top log interval
 CS1 .IN            9.625:   Casing size
 CBD1.     9.625' @ 1657':   Casing driller 1
 CBL1.F              1652:   Casing logger 1
 BS1 .IN            7.875:   Bit size
 DFT .            KCL GEL:   Type fluid in hole
 DFD .                90.:   Density
 DFV .                 41:   Viscosity
 DFPH.                8.9:   pH
 DFL .               12.6:   Fluid loss
 MSS .           FLOWLINE:   Source of sample
 RMS .OHMM           .327:   Rm
 MST .F                84:   Rm Meas. temp.
 RMF .OHMM            .29:   Rmf
 MFST.F                84:   Rmf Meas. temp.
 MFSS.               CALC:   Source Rmf.
 RMC .OHMM            .42:   Rmc
 MCST.F                84:   Rmc Meas. temp.
 MCSS.               CALC:   Source Rmc.
 RMB .OHMM            .23:   Rm. at BHT
 BHT .F               142:   BHT.
 TCS .HRS               4:   Time Circ. stopped
 MRT .F               142:   Maximum recorded temp.
 LUN .               6307:   Logging unit number
 LUL .               CLTE:   Logging unit location
 WITN.             STRONG:   Witnessed by
 ORIG.           5" PRINT:   Origin of data
 UWI .     49025110120000:   Unique Well ID
 DICO. A2D TECHNOLOGIES, INC.:   Digitizing Company
~OTHER INFORMATION
~A  DEPTH     CALD       TEND       CORR        DEN       NPHI        GRR        SPR       CALR       TENR       RILD       RILM       RFOC       TENS         DT
# ...
 4050.0000     7.9257   -77.0678     0.0406     2.5368     0.2093   129.1101   -41.8675     8.1386   -35.9988     6.2374     6.6501     7.7124   -47.4024    75.6071
 4050.5000     7.9125   -70.8059     0.0423     2.5323     0.2089   130.6991   -42.0105     8.1393   -35.8200     6.2374     6.5104     7.3226   -48.6609    75.7425
 4051.0000     7.9149   -72.1053     0.0440     2.5349     0.2068   132.1719   -42.0030     8.1099   -43.1934     6.4201     6.5548     6.9985   -57.4268    76.8544
 4051.5000     7.9174   -73.6352     0.0472     2.5499     0.2011   132.7953   -42.1457     8.0805   -50.5220     6.8734     6.9263     7.1016   -73.7003    78.0412
 4052.0000     7.9370   -74.8921     0.0534     2.5628     0.1927   131.3071   -42.2892     8.0664   -50.2985     7.3162     7.3194     7.7189   -44.9282    78.3317
 4052.5000     7.9248   -68.4211     0.0578     2.5735     0.1771   125.2792   -42.2816     8.0370   -50.1126     7.7874     7.5230     8.9299   -38.6636    77.8662
 4053.0000     7.9276   -69.8877     0.0573     2.5781     0.1740   121.0959   -42.1223     8.0226   -49.8962     7.8462     7.5728    11.0723   -32.4301    76.2795
 4053.5000     7.9154   -71.1452     0.0636     2.5842     0.1764   119.3061   -41.9646     7.9932   -49.7173     8.0099     7.5180    12.1186   -34.1842    74.0930
 4054.0000     7.9033   -79.9209     0.0591     2.5836     0.1910   119.6278   -41.6562     7.9941   -34.5235     8.0642     7.6209     9.4451   -50.0001    72.2814
 4054.5000     7.9061   -81.1784     0.0521     2.5747     0.1997   119.9496   -41.3478     7.9948   -34.3447     8.0630     8.0529     9.1248   -43.7130    72.4937
 4055.0000     7.9090   -82.4359     0.0539     2.5636     0.2008   118.1401   -41.0392     7.9955   -26.6516     8.0589     8.4506     9.3188   -45.2861    72.8560
 4055.5000     7.9123   -91.3274     0.0572     2.5540     0.1990   115.1682   -40.8799     7.9734   -26.4349     8.0546     8.7460     9.7839   -38.7225    73.1454
 4056.0000     7.8995   -92.5767     0.0545     2.5458     0.2017   113.9817   -40.7221     7.9514   -33.7635     7.9423     8.8657    10.8071   -40.2956    73.8261
 4056.5000     7.9025   -78.7884     0.0338     2.5505     0.2064   115.2084   -40.7154     7.9395   -33.5961     7.7185     8.1560    11.8839   -41.5541    74.5537
 4057.0000     7.9058   -57.4807     0.0220     2.5537     0.2094   116.4352   -40.5099     7.9404   -33.4084     7.4076     7.4519    10.5657   -42.8125    75.0515
 4057.5000     7.8929   -50.8991     0.0118     2.5582     0.2102   117.0588   -40.3991     7.9414   -33.2207     7.2538     7.0974     8.0092   -44.0710    75.1920
 4058.0000     7.8964   -59.9787     0.0075     2.5569     0.2051   118.2903   -40.3904     7.9423   -33.0184     7.1033     6.9017     8.0669   -45.3295    75.1764
 4058.5000     7.8992   -91.3032     0.0185     2.5517     0.1928   119.5171   -40.3638     7.9432   -32.8454     7.0042     6.7579     8.1246   -46.5880    74.9389
 4059.0000     7.8863   -85.0331     0.0262     2.5488     0.1934   120.4421   -40.2259     7.9440   -32.6459     6.9065     6.8031     8.1262   -47.8465    74.8514
 4059.5000     7.8748   -70.4810     0.0340     2.5482     0.1945   120.1599   -40.2183     7.9449   -39.9775     6.9050     6.8957     8.1843   -49.1049    75.0638
 4060.0000     7.8926   -57.4566     0.0403     2.5491     0.2080   121.1064   -40.2108     7.9608   -40.2903     6.8557     6.8939     8.0732   -57.8709    75.2761
 4060.5000     7.8954   -74.0551     0.0436     2.5522     0.2082   121.7141   -40.2033     7.9647   -47.1096     6.9023     6.9882     8.0191   -59.1294    75.7133
 4061.0000     7.8982   -90.0298     0.0453     2.5554     0.2052   120.5275   -40.1958     7.9777   -46.9009     6.9007     6.9863     8.0211   -60.3879    75.7008
 4061.5000     7.9010   -76.5531     0.0411     2.5555     0.1986   119.0393   -40.1878     7.9787   -46.7342     6.8993     6.7933     8.0226   -61.6464    75.6882
 4062.0000     7.9044   -69.9714     0.0234     2.5556     0.2015   116.9478   -40.1806     7.9795   -46.5466     6.9941     6.5603     8.1362   -55.3973    75.8256
 4062.5000     7.9067   -63.7013     0.0116     2.5565     0.2021   114.8563   -40.3238     7.9806   -46.3495     6.9923     6.4237     8.1945   -56.6820    76.1129
 4063.0000     7.9100   -72.7816     0.0301     2.5589     0.2015   117.8980   -40.3151     7.9815   -46.1409     6.9910     6.3777     8.0836   -57.9579    76.2504
 4063.5000     7.9127   -89.0685     0.0623     2.5621     0.1954   120.6330   -40.3079     7.9823   -45.9621     6.9896     6.3320     7.9735   -51.6646    76.2376
 4064.0000     7.9155   -90.6920     0.0801     2.5659     0.2000   121.5581   -40.3007     7.9982   -45.7958     7.0371     6.4187     7.8110   -45.4156    76.0750
 4064.5000     7.9027   -76.5290     0.0849     2.5698     0.2040   119.7682   -40.5949     8.0142   -45.6081     7.0842     6.5065     7.8130   -46.9887    75.8870
 4065.0000     7.9062   -54.2576     0.0897     2.5737     0.2028   117.6469   -40.5873     8.0151   -45.4204     6.9851     6.5955     7.8145   -48.2472    75.2225
 4065.5000     7.9089   -41.4330     0.0945     2.5745     0.2040   116.7918   -40.4280     8.0160   -45.2021     6.9837     6.7785     7.9806   -72.0282    74.8351
 4066.0000     7.9117   -42.9945     0.0797     2.5739     0.2054   116.5103   -40.4217     8.0170   -54.4756     6.9823     6.8712     8.2066   -80.7942    74.8226
 4066.5000     7.9145   -51.7620     0.0620     2.5710     0.2048   117.1387   -40.4112     8.0178   -59.9041     6.9809     6.8215     8.6162   -66.7230    74.8100
 4067.0000     7.9173   -60.5301     0.0548     2.5659     0.1970   118.0638   -40.2560     8.0187   -59.6807     6.9313     6.7727     8.7382   -52.9665    75.6970
 4067.5000     7.9201   -69.2976     0.0520     2.5608     0.1892   118.6878   -40.2481     8.0211   -67.0093     6.9299     6.6777     8.5532   -46.7174    76.2842
 4068.0000     7.9079   -78.0657     0.0539     2.5586     0.1810   118.1040   -40.2410     8.0357   -59.2784     6.9764     6.6760     8.3856   -63.3055    76.2717
 4068.5000     7.9114   -79.3150     0.0556     2.5648     0.1825   117.8224   -40.2334     8.0383   -59.1216     6.9750     6.6742     8.3294   -64.5640    76.1841
 4069.0000     7.9137   -88.0825     0.0244     2.5657     0.1828   119.0542   -40.0748     8.0524   -58.9207     7.0709     6.7188     8.2735   -58.2583    76.0217
 4069.5000     7.9166   -89.3318     0.0111     2.5635     0.1776   119.9792   -39.9170     8.0533   -58.7418     7.2680     6.7637     8.3331   -59.5735    75.7842
 4070.0000     7.9197   -90.6017     0.0325     2.5614     0.1668   120.6436   -39.9096     8.0542   -58.5586     7.7339     6.8558     8.4590   -60.8319    75.4718
 4070.5000     7.9225   -83.1580     0.0613     2.5698     0.1464   120.6227   -39.6863     8.0402   -58.3395     8.9423     7.0465     8.9350   -62.0904    74.5598
 4071.0000     7.9097   -63.0034     0.0751     2.5977     0.1206   118.5362   -39.4419     8.0393   -58.1832    10.5571     7.6611     9.5781   -48.3339    72.8231
 4071.5000     7.9131   -42.0085     0.0844     2.6339     0.1137   113.7298   -39.1335     8.0267   -57.9819    11.7917     9.2900    10.4832   -49.6248    71.5144
 4072.0000     7.9158   -35.4262     0.0741     2.6573     0.1148   106.5101   -38.8251     8.0185   -57.8030    12.1211    13.5930    11.4738   -50.9007    68.5997
 4072.5000     7.9187   -36.9877     0.0534     2.6371     0.1301    92.8361   -38.5030     7.9985   -57.6202    12.2871    15.2872    20.2449   -44.6018    64.0728
 4073.0000     7.9215   -38.2370     0.0400     2.5704     0.1501    70.6578   -38.0560     7.9694   -57.4007    12.3700    15.4973    35.2764   -53.6818    59.4264
 4073.5000     7.9093   -47.0045     0.0345     2.5150     0.1594    58.9132   -37.7476     7.9703   -57.2447    12.1127    14.8617    47.5326   -54.9403    59.6388
 4074.0000     7.9122   -63.2914     0.0453     2.4678     0.1671    56.5150   -37.5898     7.9712   -57.0430    11.5372    12.8460    39.9791   -56.1987    61.5003
