~VERSION INFORMATION
 VERS.                2.0:   CWLS LOG ASCII STANDARD - VERSION 2.0
 WRAP.                 NO:   ONE LINE PER DEPTH STEP
~WELL INFORMATION
#MNEM.UNIT      DATA TYPE    INFORMATION
#----------   ------------   ------------------------------
 STRT.F          482.0000:   START DEPTH
 STOP.F         4000.0000:   STOP DEPTH
 STEP.F            0.5000:   STEP LENGTH
 NULL.          -999.2500:   NO VALUE
 COMP.    FENIX & SCISSON:   COMPANY
 WELL. FENIX  NPR 3 "LX" #56-10:   WELL
 FLD .              N P R:   FIELD
 LOC .      S10 T38N R78W:   LOCATION
 CNTY.            NATRONA:   COUNTY
 STAT.            WYOMING:   STATE
 CTRY. UNITED STATES OF AMERICA:   COUNTRY
 SRVC.       SCHLUMBERGER:   SERVICE COMPANY
 DATE.        11-JUL-1978:   LOGDATE
 API .     49025107100000:   API NUMBER
~CURVE INFORMATION
#MNEM.UNIT       API CODE    CURVE DESCRIPTION
#----------   ------------   ------------------------------
 DEPT.F                  :   
 GRD .GAPI   45 310 01 00:   GAMMA RAY FROM DENSITY LOG
 CALD.IN     45 280 60 00:   CALIPER FROM DENSITY LOG
 RHOB.G/C3   45 350 01 00:   BULK DENSITY
 NPHI.DEC    42 890 03 00:   NEUTRON POROSITY SANDSTONE
 DRHO.G/C3   45 356 01 00:   DENSITY CORRECTION
 TEND.LBS    45 635 01 00:   TENSION FROM DENSITY LOG
 SPR .MV     07 010 01 00:   SPONTANEOUS POTENTIAL
 TENR.LBS    07 635 01 00:   TENSION FROM RESISTIVITY
 ILD .OHMM   07 120 46 00:   DEEP INDUCTION RESISTIVITY
 ILM .OHMM   07 120 44 00:   INDUCTION LOG MEDIUM RESISTIVITY
 SFLU.OHMM   07 220 01 00:   SPHERICALLY FOCUSED LOG UNAVERAGED RESISTIVITY
~PARAMETER INFORMATION
#MNEM.UNIT          VALUE    DESCRIPTION
#----------   ------------   ------------------------------
 EKB .F         5212.0000:   Kelly bushing
 EGL .F         5202.0000:   Ground level
 EDF .F            0.0000:   Drilling floor
 TD  .F         4000.0000:   Total depth
 DATE.        11-JUL-1978:   Date logged
 CLNT.            A2DTECH:   Client Code
 SL  . 1144' FSL & 2183' FEL:   Surface Location
 PD  .                 GL:   Permanent Datum
 EPD .F              5202:   Elevation Permanent Datum
 LMF .                 KB:   Log Measured From
 DMF .                 KB:   Drilling Measured From
 DD  .F              4000:   Depth driller
 DL  .F              3990:   Depth logger
 BLI .F              3985:   Bottom log interval
 TLI .F               501:   Top log interval
 CS1 .IN            9.625:   Casing size
 CBD1.      9.625" @ 500':   Casing driller 1
 CBL1.F               501:   Casing logger 1
 BS1 .IN            7.875:   Bit size
 DFT .                FGM:   Type fluid in hole
 DFD .                9.1:   Density
 DFV .                 50:   Viscosity
 DFPH.                 12:   pH
 DFL .                4.4:   Fluid loss
 MSS .           MUD/TANK:   Source of sample
 RMS .OHMM           .714:   Rm
 MST .F                83:   Rm Meas. temp.
 RMF .OHMM           .585:   Rmf
 MFST.F                83:   Rmf Meas. temp.
 MFSS.               MEAS:   Source Rmf.
 RMB .OHMM            .42:   Rm. at BHT
 BHT .F               140:   BHT.
 TCS .HRS            1000:   Time Circ. stopped
 MRT .F               140:   Maximum recorded temp.
 LUN .               8035:   Logging unit number
 LUL .       ROCK SPRINGS:   Logging unit location
 ENGI.             MARTIN:   Recorded By
 WITN.           MCCINLEY:   Witnessed by
 ORIG.           5" PRINT:   Origin of data
 UWI .     49025107100000:   Unique Well ID
 DICO. A2D TECHNOLOGIES, INC.:   Digitizing Company
 DAPD.F                10:   Feet Above Permanent Datum
 BSD1.F              4000:   Depth drilled with bit1
 TLAB.HRS            1300:   Time logger at bottom
~OTHER INFORMATION
~A   DEPT       GRD      CALD       RHOB         NPHI     DRHO       TEND        SPR       TENR        ILD        ILM       SFLU   
  482.0000    64.4270  -999.2500  -999.2500     0.3700  -999.2500  -999.2500  -999.2500  -999.2500  -999.2500  -999.2500  -999.2500
  482.5000    63.6360  -999.2500  -999.2500     0.3710  -999.2500   575.3970  -999.2500  -999.2500  -999.2500  -999.2500  -999.2500
  483.0000    62.5990  -999.2500  -999.2500     0.4030  -999.2500   575.3970  -999.2500  -999.2500  -999.2500  -999.2500  -999.2500
  483.5000    61.2650  -999.2500  -999.2500     0.4410  -999.2500   575.3970  -999.2500  -999.2500  -999.2500  -999.2500  -999.2500
  484.0000    62.3970  -999.2500  -999.2500     0.4350  -999.2500   575.3970  -999.2500  -999.2500  -999.2500  -999.2500  -999.2500
  484.5000    64.0140  -999.2500  -999.2500     0.4270  -999.2500   575.3970  -999.2500  -999.2500  -999.2500  -999.2500  -999.2500
  485.0000    65.6310  -999.2500  -999.2500     0.4190  -999.2500   575.3970  -999.2500  -999.2500  -999.2500  -999.2500  -999.2500
  485.5000    66.4790  -999.2500  -999.2500     0.4240  -999.2500   575.3970  -999.2500  -999.2500  -999.2500  -999.2500  -999.2500
  486.0000    68.2330  -999.2500  -999.2500     0.4420  -999.2500   575.3970  -999.2500  -999.2500  -999.2500  -999.2500  -999.2500
  486.5000    68.5250  -999.2500  -999.2500     0.4370  -999.2500   575.3970  -999.2500  -999.2500  -999.2500  -999.2500  -999.2500
  487.0000    68.7820  -999.2500  -999.2500     0.4240  -999.2500   575.3970  -999.2500  -999.2500  -999.2500  -999.2500  -999.2500
  487.5000    68.9480  -999.2500  -999.2500     0.4060  -999.2500   575.3970  -999.2500  -999.2500  -999.2500  -999.2500  -999.2500
  488.0000    69.1780  -999.2500  -999.2500     0.4110  -999.2500   575.3970  -999.2500  -999.2500  -999.2500  -999.2500  -999.2500
  488.5000    69.3750  -999.2500  -999.2500     0.4190  -999.2500   575.3970  -999.2500  -999.2500  -999.2500  -999.2500  -999.2500
  489.0000    69.5930  -999.2500  -999.2500     0.4290  -999.2500   575.3970  -999.2500  -999.2500  -999.2500  -999.2500  -999.2500
  489.5000    69.7940  -999.2500  -999.2500     0.4250  -999.2500   575.3970  -999.2500  -999.2500  -999.2500  -999.2500  -999.2500
  490.0000    69.9180  -999.2500  -999.2500     0.4150  -999.2500   575.3970  -999.2500  -999.2500  -999.2500  -999.2500  -999.2500
  490.5000    69.4800  -999.2500  -999.2500     0.4150  -999.2500   575.3970  -999.2500  -999.2500  -999.2500  -999.2500  -999.2500
  491.0000    69.0890  -999.2500  -999.2500     0.4220  -999.2500   575.3970  -999.2500  -999.2500  -999.2500  -999.2500  -999.2500
  491.5000    68.6950  -999.2500  -999.2500     0.4190  -999.2500   575.3970  -999.2500  -999.2500  -999.2500  -999.2500  -999.2500
  492.0000    68.4480  -999.2500  -999.2500     0.4120  -999.2500   575.3970  -999.2500  -999.2500  -999.2500  -999.2500  -999.2500
  492.5000    69.0970  -999.2500  -999.2500     0.4050  -999.2500   575.3970  -999.2500  -999.2500  -999.2500  -999.2500  -999.2500
  493.0000    69.6970  -999.2500  -999.2500     0.3990  -999.2500   575.3970  -999.2500  -999.2500  -999.2500  -999.2500  -999.2500
  493.5000    70.2730  -999.2500  -999.2500     0.3990  -999.2500   575.3970  -999.2500  -999.2500  -999.2500  -999.2500  -999.2500
  494.0000    70.5870  -999.2500  -999.2500     0.4010  -999.2500   575.3970  -999.2500  -999.2500  -999.2500  -999.2500  -999.2500
  494.5000    68.8140  -999.2500  -999.2500     0.4070  -999.2500   575.3970  -999.2500  -999.2500  -999.2500  -999.2500  -999.2500
  495.0000    67.2850  -999.2500  -999.2500     0.4140  -999.2500   575.3970  -999.2500  -999.2500  -999.2500  -999.2500  -999.2500
  495.5000    65.6730  -999.2500  -999.2500     0.4220  -999.2500   575.3970  -999.2500  -999.2500  -999.2500  -999.2500  -999.2500
  496.0000    64.5670  -999.2500  -999.2500     0.4310  -999.2500   575.3970  -999.2500  -999.2500  -999.2500  -999.2500  -999.2500
  496.5000    65.8970  -999.2500  -999.2500     0.4310  -999.2500   575.3970  -999.2500  -999.2500  -999.2500  -999.2500  -999.2500
  497.0000    67.0080  -999.2500  -999.2500     0.4270  -999.2500   575.3970  -999.2500  -999.2500  -999.2500  -999.2500  -999.2500
  497.5000    68.2420  -999.2500  -999.2500     0.4220  -999.2500   575.3970  -999.2500  -999.2500  -999.2500  -999.2500  -999.2500
  498.0000    69.1140     9.4980     2.3000     0.4180  -999.2500   575.3970  -999.2500  -999.2500  -999.2500  -999.2500  -999.2500
  498.5000    68.6550     9.4980     2.3000     0.4200  -999.2500   575.3970  -999.2500  -999.2500  -999.2500  -999.2500  -999.2500
  499.0000    68.3310     9.4980     2.2970     0.4310  -999.2500   575.3970  -999.2500  -999.2500  -999.2500  -999.2500  -999.2500
  499.5000    67.8850     9.5280     2.2880     0.4410  -999.2500   575.3970  -999.2500  -999.2500  -999.2500  -999.2500  -999.2500
  500.0000    67.4640     9.5600     2.2730     0.4500  -999.2500   575.3970   -45.8000   379.2420    13.5950    50.1450     9.2410
  500.5000    67.2760     9.5930     2.3410     0.4160  -999.2500   575.3970   -49.4000   379.2420    13.5950    50.1450     9.2410
  501.0000    66.4720     9.6740     2.4110     0.4180  -999.2500   575.3970   -49.8000   379.2420    13.5950    50.1450     9.2410
  501.5000    67.6440     9.7810     2.5900     0.4400     0.0510   575.3970   -57.9900   379.2420    13.5950    50.1450     9.2410
  502.0000    69.2990     9.9690     2.5730     0.4620     0.1670   575.3970   -67.0900   379.2420    13.5950    50.1450     9.2410
  502.5000    84.7820    10.1660     2.5230     0.4500     0.1540   575.3970   -76.1900   379.2420    13.5950    50.1450     9.2410
  503.0000    87.2580    10.3140     2.4730     0.4280     0.1280   575.3970   -86.2000   379.2420    13.5950    50.1450     9.2410
  503.5000    90.5540    10.3310     2.4490     0.4050     0.1050   575.3970   -86.9350   379.7890    13.0010    50.4070     9.2940
  504.0000    89.8200    10.3970     2.4700     0.3910     0.1220   575.3970   -86.0940   379.2420    13.5950    50.1450     9.2410
  504.5000    89.3480    10.6370     2.4880     0.3810     0.1720   575.3970   -81.0930   379.2420     2.5990    50.1450     9.2410
  505.0000    88.7070    11.0930     2.4990     0.3650     0.1860   575.3970   -74.5460   379.2420     3.7740    50.1450     9.2410
  505.5000    88.0860    11.8000     2.4870     0.3560     0.1810   575.3970   -68.0350   379.2420     4.9930    29.0140     9.0810
  506.0000    87.4880    12.1320     2.4740     0.3600     0.1340   575.3970   -60.6860   379.2420     6.2130     5.4220     8.8720
  506.5000    86.8630    12.1450     2.4700     0.3670     0.1070   575.3970   -55.8920   419.1620     6.7600     6.2170     8.6620
  507.0000    86.2590    12.1070     2.4760     0.3550     0.1180   575.3970   -53.5740   419.1620     8.7450     7.2770     8.4520
  507.5000    85.6380    11.9590     2.4730     0.3420     0.1200   575.3970   -51.7890   419.1620     8.6790    26.4120     8.2420
  508.0000    85.0310    11.8010     2.4570     0.3270     0.1060   575.3970   -51.3770   419.1620     8.4860    48.3350     7.9770
  508.5000    84.4360    11.6950     2.4390     0.3210     0.0810   575.3970   -51.0360   419.1620     8.2930    25.4920     8.1890
  509.0000    83.7460    11.6780     2.4440     0.3260     0.0770   575.3970   -51.0790   419.1620     8.1250     7.9770     8.7450
  509.5000    83.3730    11.5650     2.4520     0.3460     0.0910   575.3970   -51.1980   419.1620     8.1250     7.5490     9.2410
  510.0000    83.4980    11.3700     2.4470     0.3650     0.0840   575.3970   -51.2810   419.1620     8.1250     7.8310    10.4580
  510.5000    84.8130    11.1770     2.4410     0.3840     0.0580   575.3970   -51.4110   419.1620     8.1250     8.3930    12.6310
  511.0000    85.9710    10.9770     2.4490     0.3620     0.0310   575.3970   -51.4020   419.1620     8.1250     8.9070    10.9330
  511.5000    87.3160    10.9170     2.4650     0.3400     0.0230   575.3970   -51.2300   419.1620     8.1250     9.2410     8.9070
  512.0000    88.4250    10.9210     2.4790     0.3180     0.0200   575.3970   -50.7030   419.1620     8.0320     8.8960     8.7450
