~VERSION INFORMATION
 VERS.                2.0:   CWLS LOG ASCII STANDARD - VERSION 2.0
 WRAP.                 NO:   ONE LINE PER DEPTH STEP
~WELL INFORMATION
#MNEM.UNIT      DATA TYPE    INFORMATION
#----------   ------------   ------------------------------
 STRT.F          200.0000:   START DEPTH
 STOP.F         3038.0000:   STOP DEPTH
 STEP.F            0.5000:   STEP LENGTH
 NULL.          -999.2500:   NO VALUE
 COMP.    FENIX & SCISSON:   COMPANY
 WELL. FENIX NPR 3 "A" #63-28:   WELL
 FLD .            WILDCAT:   FIELD
 LOC .      S28 T39N R78W:   LOCATION
 CNTY.            NATRONA:   COUNTY
 STAT.            WYOMING:   STATE
 CTRY. UNITED STATES OF AMERICA:   COUNTRY
 SRVC.              WELEX:   SERVICE COMPANY
 DATE.        29-MAY-1977:   LOGDATE
 API .     49025103740000:   API NUMBER
~CURVE INFORMATION
#MNEM.UNIT       API CODE    CURVE DESCRIPTION
#----------   ------------   ------------------------------
 DEPT.F                  :   
 SPR .MV     07 010 01 00:   SPONTANEOUS POTENTIAL
 ILM .OHMM   07 120 44 00:   INDUCTION LOG MEDIUM RESISTIVITY
 ILD .OHMM   07 120 46 00:   DEEP INDUCTION RESISTIVITY
 SGRD.OHMM   07 220 05 00:   SHALLOW SHORT GUARD RESISTIVITY
 GRD .GAPI   45 310 01 00:   GAMMA RAY FROM DENSITY LOG
 CALD.IN     45 280 60 00:   CALIPER FROM DENSITY LOG
 RHOB.G/C3   45 350 01 00:   BULK DENSITY
 CORR.G/C3   45 356 01 00:   DENSITY CORRECTION
~PARAMETER INFORMATION
#MNEM.UNIT          VALUE    DESCRIPTION
#----------   ------------   ------------------------------
 EKB .F         5040.0000:   Kelly bushing
 EGL .F         5029.0000:   Ground level
 EDF .F            0.0000:   Drilling floor
 EPD .F         5029.0000:   Permanent datum
 TD  .F         3040.0000:   Total depth
 DATE.        29-MAY-1977:   Date logged
 CLNT.            A2DTECH:   Client Code
 SL  . 1650' FNL & 1650' FEL:   Surface Location
 PD  .                 GL:   Permanent Datum
 LMF .                 KB:   Log Measured From
 DMF .                 KB:   Drilling Measured From
 DD  .F              3040:   Depth driller
 DL  .F              3038:   Depth logger
 BLI .F              3036:   Bottom log interval
 TLI .F               200:   Top log interval
 CS1 .IN            8.625:   Casing size
 BSD1.F              3040:   Depth drilled with bit1
 DFT .            KCL MUD:   Type fluid in hole
 ORIG.     2.5", 5" PRINT:   Origin of data
 UWI .     49025103740000:   Unique Well ID
 DICO. A2D TECHNOLOGIES, INC.:   Digitizing Company
 DAPD.                 11:   Feet Above Permanent Datum
 CBD1.      8.625" @ 220':   Casing driller 1
 BS1 .              7.875:   Bit size
 DFD .                8.7:   Density
 MRT .                108:   Maximum recorded temp.
 ENGI.            C. DOAK:   Recorded By
 WITN.      W. PETTINGILL:   Witnessed by
~OTHER INFORMATION
~A   DEPT      SPR        ILM          ILD     SGRD         GRD        CALD       RHOB      CORR  
# ...
 2994.5000   -58.2080     5.1160     4.3560     5.8090    96.6470     8.0140     2.4510    -0.0060
 2995.0000   -58.2980     5.2060     4.4380     6.5460    97.3770     8.0120     2.4750     0.0010
 2995.5000   -58.3330     5.2970     4.5210     7.4450    97.2610     8.0110     2.4830     0.0070
 2996.0000   -58.3330     5.3710     4.6160     6.0820    97.5340     8.0100     2.4920     0.0110
 2996.5000   -58.3340     5.4250     4.5840     6.2990    97.6740     8.0080     2.5010     0.0100
 2997.0000   -58.3680     5.4970     4.5460     7.4450    97.9010     8.0070     2.4950     0.0090
 2997.5000   -58.5270     5.4380     4.4330     7.9400    98.1880     8.0050     2.4820     0.0090
 2998.0000   -58.6830     5.3470     4.3700     5.9170   100.0050     8.0040     2.4740     0.0080
 2998.5000   -58.8400     5.2560     4.3060     5.8630   101.7390     8.0020     2.4800     0.0070
 2999.0000   -58.9140     5.1650     4.2430     6.3680   103.5420     8.0010     2.4890     0.0070
 2999.5000   -58.7590     5.0250     4.1790     5.7560   105.2760     8.0000     2.4980     0.0060
 3000.0000   -58.6070     4.8780     4.1520     5.6780   107.1860     7.9980     2.4780     0.0050
 3000.5000   -58.5300     4.8220     4.1220     5.6080   108.2480     7.9970     2.4560     0.0050
 3001.0000   -58.5300     4.7810     4.0920     5.5480   107.8360     7.9980     2.4610     0.0040
 3001.5000   -58.5290     4.7410     4.0620     5.5480   106.7300     8.0010     2.4690     0.0040
 3002.0000   -58.5290     4.7020     4.0320     5.5480   105.5640     8.0040     2.4750     0.0030
 3002.5000   -58.5290     4.6160     4.0020     5.7130   104.3240     8.0060     2.4660     0.0020
 3003.0000   -58.5210     4.5960     3.9720     6.0360   104.1310     8.0090     2.4580     0.0020
 3003.5000   -58.4890     4.5720     3.9420     6.1950   106.5770     8.0120     2.4490     0.0010
 3004.0000   -58.4570     4.5470     3.9090     5.2220   109.1400     8.0150     2.4400     0.0000
 3004.5000   -58.4260     4.5350     3.8770     4.8340   110.8590     8.0180     2.4310     0.0000
 3005.0000   -58.3940     4.5560     3.8440     5.9170   110.1530     8.0210     2.4230    -0.0010
 3005.5000   -58.3620     4.5740     3.8110     5.6010   107.9140     8.0240     2.4250    -0.0010
 3006.0000   -58.3370     4.5240     3.7790     5.1080   106.9030     8.0270     2.4310    -0.0010
 3006.5000   -58.4070     4.4600     3.7460     5.4970   107.9870     8.0290     2.4390     0.0020
 3007.0000   -58.4770     4.3970     3.7280     5.1850   109.0460     8.0320     2.4460     0.0070
 3007.5000   -58.5470     4.3340     3.7100     5.4660   110.0540     8.0350     2.4530     0.0120
 3008.0000   -58.6170     4.2710     3.6920     5.4970   111.1020     8.0380     2.4600     0.0170
 3008.5000   -58.6860     4.2070     3.6740     4.7020   111.2980     8.0410     2.4670     0.0190
 3009.0000   -58.7710     4.1440     3.6560     5.1550   110.5410     8.0440     2.4710     0.0180
 3009.5000   -58.8760     4.1340     3.6380     4.7890   108.1790     8.0470     2.4700     0.0150
 3010.0000   -58.9810     4.1340     3.5810     5.1060   105.9220     8.0490     2.4680     0.0120
 3010.5000   -59.0860     4.1340     3.4870     5.4970   103.2900     8.0520     2.4590     0.0090
 3011.0000   -59.1910     4.0890     3.3930     5.3140   102.4910     8.0550     2.4510     0.0060
 3011.5000   -59.2930     3.9770     3.2850     4.9200   104.8630     8.0580     2.4420     0.0040
 3012.0000   -59.3840     3.8650     3.2520     4.5740   106.9240     8.0610     2.4330     0.0010
 3012.5000   -59.4690     3.7530     3.2090     4.7020   109.2580     8.0640     2.4250    -0.0010
 3013.0000   -59.5540     3.7020     3.1660     4.5510   110.5780     8.0670     2.4270    -0.0010
 3013.5000   -59.6380     3.6400     3.1240     4.2110   110.4680     8.0690     2.4290    -0.0010
 3014.0000   -59.7160     3.6010     3.0810     4.1670   109.8840     8.0730     2.4300     0.0070
 3014.5000   -59.7570     3.5620     3.0380     4.1340   108.0900     8.0700     2.4480     0.0150
 3015.0000   -59.8000     3.5240     3.0080     4.4850   106.4170     8.0620     2.4650     0.0190
 3015.5000   -59.8420     3.4850     2.9830     4.5740   104.6690     8.0550     2.4800     0.0190
 3016.0000   -59.8850     3.4540     2.9590     4.0960   104.2330     8.0480     2.4740     0.0150
 3016.5000   -59.9080     3.3880     2.9340     4.7020   104.4060     8.0410     2.4600     0.0110
 3017.0000   -59.9450     3.3210     2.9150     4.0960   105.1640     8.0340     2.4460     0.0080
 3017.5000   -59.9810     3.2550     2.9020     4.1720   104.6150     8.0270     2.4320     0.0030
 3018.0000   -60.0170     3.2610     2.8880     3.8410  -999.2500     8.0190     2.4200     0.0030
 3018.5000   -60.0530     3.2670     2.8750     3.9800  -999.2500     8.0120     2.4290     0.0040
 3019.0000   -60.0900     3.2730     2.8610     4.1720  -999.2500     8.0050     2.4480     0.0080
 3019.5000   -60.0120     3.2790     2.8480     4.0220  -999.2500     7.9980     2.4410     0.0120
 3020.0000   -59.8670     3.2850     2.8360     4.2620  -999.2500     7.9910     2.4250     0.0150
 3020.5000   -59.7200     3.2650     2.8280     4.0960  -999.2500     7.9840     2.4190     0.0190
 3021.0000   -59.5730     3.2370     2.7840     4.3690  -999.2500     7.9770     2.4260     0.0190
 3021.5000   -59.3250     3.2090     2.7350     4.1340  -999.2500     7.9690     2.4320     0.0180
 3022.0000   -58.9990     3.1810     2.6580     4.2430  -999.2500     7.9620     2.4380     0.0140
 3022.5000   -58.6730     3.1530     2.5810     3.8060  -999.2500     7.9550     2.4310     0.0130
 3023.0000   -58.1230     3.1250     2.5050     3.8370  -999.2500     7.9480     2.4240     0.0100
 3023.5000   -57.3930     3.1030     2.4690     3.9120  -999.2500     7.9410     2.4160     0.0070
 3024.0000   -56.5620     3.0880     2.4130     3.6060  -999.2500     7.9340     2.4080     0.0040
 3024.5000   -55.0950     3.0730     2.3820     3.4720  -999.2500     7.9260     2.4000     0.0030
 3025.0000   -53.4180     3.0580     2.3820     3.5680  -999.2500     7.9190     2.3990     0.0040
 3025.5000   -50.5470     3.0490     2.3820     3.8770  -999.2500     7.9120     2.4100     0.0050
 3026.0000   -47.7730     3.0400     2.4260     3.8600  -999.2500     7.9050     2.4200     0.0050
 3026.5000   -38.9870     3.0310     2.5400     3.6020  -999.2500     7.8970     2.4170     0.0060
 3027.0000   -39.3420     3.0050     2.6550     4.0220  -999.2500     7.8910     2.4110     0.0070
 3027.5000   -39.3340     2.9700     3.2920     3.6020  -999.2500     7.8830     2.4180     0.0090
 3028.0000   -39.3120     2.9700     4.4510     3.9090  -999.2500     7.8730     2.4280     0.0110
 3028.5000   -39.3140     2.9700     6.3180     4.2960  -999.2500     7.8240     2.4270     0.0140
 3029.0000   -39.3140     2.9700     8.1840     3.2260  -999.2500     7.7880     2.4150     0.0170
 3029.5000   -39.3140     2.8620    10.0510     3.2550  -999.2500     7.7430     2.4040     0.0190
 3030.0000   -39.3140     2.9440    10.6740     2.9700  -999.2500     7.7240     2.3940     0.0220
 3030.5000  -999.2500     3.1170    10.7440     3.1350  -999.2500     7.7170     2.4020     0.0250
 3031.0000  -999.2500  -999.2500    10.9540     3.2890  -999.2500     7.6940     2.4160     0.0300
 3031.5000  -999.2500  -999.2500    10.9540     3.5380  -999.2500     7.6650     2.4320     0.0350
 3032.0000  -999.2500     3.1960    10.9540     3.9120  -999.2500     7.6450     2.4450     0.0390
 3032.5000  -999.2500     3.1960    10.9540     4.2110  -999.2500     7.5750     2.4530     0.0440
 3033.0000  -999.2500     3.1960    10.9540     3.7710  -999.2500     7.5260     2.4280     0.0480
 3033.5000  -999.2500     3.1960    10.9540     3.9680  -999.2500     7.3130     2.4400     0.0560
 3034.0000  -999.2500     3.1960    10.9540     4.0920  -999.2500     7.1440     2.4490     0.0660
 3034.5000  -999.2500     3.1960    10.9540     4.1720  -999.2500     6.8080     2.4390     0.0750
