~VERSION INFORMATION
 VERS.                2.0:   CWLS LOG ASCII STANDARD - VERSION 2.0
 WRAP.                 NO:   ONE LINE PER DEPTH STEP
~WELL INFORMATION
#MNEM.UNIT      DATA TYPE    INFORMATION
#----------   ------------   ------------------------------
 STRT.F          720.0000:   START DEPTH
 STOP.F         3416.0000:   STOP DEPTH
 STEP.F            0.5000:   STEP LENGTH
 NULL.          -999.2500:   NO VALUE
 COMP.    FENIX & SCISSON:   COMPANY
 WELL.  FENIX "AX" #31-14:   WELL
 FLD .                NPR:   FIELD
 LOC .      S14 T38N R78W:   LOCATION
 CNTY.            NATRONA:   COUNTY
 STAT.            WYOMING:   STATE
 CTRY. UNITED STATES OF AMERICA:   COUNTRY
 SRVC.       SCHLUMBERGER:   SERVICE COMPANY
 DATE.        04-JUN-1981:   LOGDATE
 API .     49025108730000:   API NUMBER
~CURVE INFORMATION
#MNEM.UNIT       API CODE    CURVE DESCRIPTION
#----------   ------------   ------------------------------
 DEPT.F                  :   
 TEND.LBS    45 635 01 00:   TENSION FROM DENSITY LOG
 CORR.G/C3   45 356 01 00:   DENSITY CORRECTION
 RHOB.G/C3   45 350 01 00:   BULK DENSITY
 CALD.IN     45 280 60 00:   CALIPER FROM DENSITY LOG
 GRD .GAPI   45 310 01 00:   GAMMA RAY FROM DENSITY LOG
 SPR .MV     07 010 01 00:   SPONTANEOUS POTENTIAL
 SFL .OHMM   07 220 01 00:   SHALLOW FOCUSED LOG RESISTIVITY
 ILD .OHMM   07 120 46 00:   INDUCTION LOG DEEP RESISTIVITY
 ILM .OHMM   07 120 44 00:   INDUCTION LOG MEDIUM RESISTIVITY
 TENR.LBS    07 635 01 00:   TENSION FROM RESISTIVITY
~PARAMETER INFORMATION
#MNEM.UNIT          VALUE    DESCRIPTION
#----------   ------------   ------------------------------
 EKB .F         5196.0000:   Kelly bushing
 EGL .F         5186.0000:   Ground level
 EDF .F            0.0000:   Drilling floor
 TD  .F         3402.0000:   Total depth
 DATE.        04-JUN-1981:   Date logged
 CLNT.            A2DTECH:   Client Code
 SL  . 377' FWL & 1733' FWL:   Surface Location
 PD  .                 GL:   Permanent Datum
 DD  .F              3400:   Depth driller
 DL  .F              3402:   Depth logger
 BLI .F              3395:   Bottom log interval
 TLI .F               720:   Top log interval
 CS1 .IN            8.625:   Casing size
 CBD1.      8.625" @ 707':   Casing driller 1
 CBL1.F               751:   Casing logger 1
 BS1 .IN            7.875:   Bit size
 BSD1.F              3400:   Depth drilled with bit1
 DFT .                FGM:   Type fluid in hole
 DFD .                8.8:   Density
 DFV .                 55:   Viscosity
 DFPH.                9.5:   pH
 DFL .                  9:   Fluid loss
 MSS .           MUD TANK:   Source of sample
 RMS .OHMM            1.7:   Rm
 MST .F                78:   Rm Meas. temp.
 RMF .OHMM           1.45:   Rmf
 MFST.F                78:   Rmf Meas. temp.
 MFSS.               MEAS:   Source Rmf.
 RMB .OHMM           1.12:   Rm. at BHT
 BHT .F               118:   BHT.
 TCS .HRS            1200:   Time Circ. stopped
 TLAB.HRS            1600:   Time logger at bottom
 MRT .F               118:   Maximum recorded temp.
 LUN .               8043:   Logging unit number
 LUL .             CASPER:   Logging unit location
 ENGI.             LARSON:   Recorded By
 WITN.              FIVAS:   Witnessed by
 ORIG.      2.5" 5" PRINT:   Origin of data
 UWI .     49025108730000:   Unique Well ID
 DICO. A2D TECHNOLOGIES, INC.:   Digitizing Company
 EPD .               5186:   Elevation Permanent Datum
 LMF .                 KB:   Log Measured From
 DMF .                 KB:   Drilling Measured From
 DAPD.                 10:   Feet Above Permanent Datum
~OTHER INFORMATION
~A   DEPT     TEND       CORR       RHOB       CALD         GRD       SPR        SFL        ILD        ILM       TENR   
# ...
  921.0000   863.7530     0.0160     2.4950     9.5720    95.8200   -15.4700     8.8000     8.3150     7.4920   989.3930
  921.5000   862.3320     0.0160     2.4940     9.5460    97.4070   -15.4310     8.7530     8.2910     7.7110   989.6590
  922.0000   860.9100     0.0120     2.4930     9.5310    98.9880   -15.3910     8.6860     8.2560     7.7110   989.9250
  922.5000   859.4890     0.0080     2.4870     9.5290   100.0080   -15.3520     8.6190     8.2200     7.7110   990.1910
  923.0000   858.0670     0.0060     2.4830     9.5260    98.7390   -15.3120     8.5520     8.1850     7.6470   990.4570
  923.5000   856.6460     0.0060     2.4860     9.5240    97.4010   -15.2730     8.4740     8.1500     7.5720   990.7230
  924.0000   855.2240     0.0100     2.4940     9.5210    96.0410   -15.2330     8.5210     8.1140     7.4980   990.9880
  924.5000   853.8030     0.0200     2.5040     9.5190    96.2210   -15.1940     8.5780     8.0790     7.4230   991.2540
  925.0000   852.3810     0.0280     2.5140     9.5160    97.0300   -15.1540     8.6350     8.0440     7.3480   991.5200
  925.5000   850.9590     0.0280     2.5150     9.5140    97.3910   -15.1140     8.5690     8.0080     7.2740   991.7860
  926.0000   849.5380     0.0230     2.5050     9.5110    96.0030   -15.0750     8.4590     7.9730     7.1990   992.0520
  926.5000   848.1160     0.0190     2.4950     9.5090    93.9740   -15.0350     8.3480     7.9380     7.1250   992.3180
  927.0000   846.6950     0.0190     2.4900     9.5070    92.0080   -14.9960     8.2370     7.9020     7.0500   992.5840
  927.5000   845.2730     0.0210     2.4920     9.5040    91.3180   -14.9580     8.1260     7.8610     7.0160   992.8500
  928.0000   843.8520     0.0210     2.4940     9.5020    91.3540   -14.9110     8.0070     7.8690     7.0160   993.1160
  928.5000   842.4300     0.0070     2.4900     9.4990    92.2960   -14.9450     8.0070     7.8860     7.0160   993.3810
  929.0000   841.0090     0.0030     2.4790     9.4970    93.9090   -15.0530     8.0270     7.9040     7.0160   993.6470
  929.5000   839.5870     0.0020     2.4790     9.4940    96.0870   -15.1520     8.0900     7.9200     7.0160   993.9130
  930.0000   838.1660     0.0030     2.4840     9.4920    98.2780   -15.2530     8.1540     7.9370     6.8850   994.1790
  930.5000   836.7440     0.0070     2.4920     9.5000   100.5190   -15.3540     8.2170     7.9540     6.9260   994.4450
  931.0000   835.3230     0.0110     2.4990     9.5120   100.5340   -15.4540     8.2800     7.9700     6.9730   994.7110
  931.5000   833.9010     0.0140     2.5020     9.5230   100.3080   -15.5560     8.3150     7.9860     7.0200   994.9770
  932.0000   832.4790     0.0220     2.5160     9.5350   100.0860   -15.6540     8.2370     8.0060     7.0660   995.2430
  932.5000   831.0580     0.0340     2.5260     9.5470    99.9940   -15.7600     8.1630     7.9210     7.1130   995.5090
  933.0000   829.6360     0.0350     2.5170     9.5590   100.9050   -15.8550     8.0880     7.8190     7.1430   995.7740
  933.5000   828.2150     0.0270     2.4940     9.5700   101.9050   -15.9560     8.0130     7.7170     7.1100   996.0400
  934.0000   826.7930     0.0200     2.4720     9.6080   102.9070   -16.0820     7.9390     7.6140     7.0770   996.3060
  934.5000   825.3720     0.0200     2.4710     9.6430   102.2540   -15.8820     7.8640     7.5110     7.0440   996.5720
  935.0000   823.9500     0.0230     2.4920     9.6620   101.1140   -15.3170     7.7890     7.4250     7.0110   996.8380
  935.5000   822.5290     0.0220     2.5010     9.6750   100.0550   -15.3630     7.7110     7.4700     6.9770   997.1040
  936.0000   821.1070     0.0200     2.4890     9.6870    98.9950   -15.3880     7.7110     7.5090     6.9440   997.3700
  936.5000   819.9620     0.0220     2.4670     9.6990    97.9470   -15.4350     7.7110     7.5670     6.9110   997.6360
  937.0000   821.1160     0.0350     2.4640     9.7110    97.6010   -15.4740     7.7110     7.5220     6.8780   997.9020
  937.5000   822.2710     0.0510     2.4840     9.7260    97.5920   -15.5140     7.7110     7.4370     6.8450   998.1670
  938.0000   823.4250     0.0540     2.4990     9.7420    97.1680   -15.5550     7.6490     7.3510     6.8120   998.4330
  938.5000   824.5790     0.0420     2.5000     9.7580    94.6580   -15.5940     7.5800     7.2650     6.7790   998.6990
  939.0000   825.7340     0.0330     2.5030     9.7760    93.3920   -15.6360     7.5120     7.1800     6.7450   998.9650
  939.5000   826.8880     0.0350     2.5120     9.7050    94.6130   -15.6760     7.4430     7.0940     6.7120   999.2310
  940.0000   828.0420     0.0370     2.5170     9.6250    95.8110   -15.7070     7.3750     7.0080     6.6790   999.4970
  940.5000   829.1970     0.0350     2.5090     9.5460    97.0010   -15.7270     7.3060     6.9230     6.6460   999.7630
  941.0000   830.3510     0.0330     2.5020     9.4710    97.6310   -15.6940     7.2370     6.8370     6.6130  1000.0290
  941.5000   831.5050     0.0230     2.4960     9.3990    97.1760   -15.7340     7.1690     6.7510     6.5790  1000.2950
  942.0000   832.6600     0.0120     2.4990     9.3790    96.7680   -15.5080     7.1000     6.6300     6.5460  1000.5600
  942.5000   833.8140     0.0120     2.5080     9.3490    97.1930   -15.4240     7.0320     6.7050     6.5060  1000.8260
  943.0000   834.9680     0.0130     2.5050     9.3500    99.5490   -15.2780     7.1220     6.8320     6.5270  1001.0920
  943.5000   836.1230     0.0130     2.4990     9.3500   101.9310   -15.3190     7.2580     6.9590     6.5840  1001.3580
  944.0000   837.2770     0.0120     2.4930     9.3500   102.5500   -15.4100     7.3940     7.0860     6.6420  1001.6240
  944.5000   838.4310     0.0120     2.4990     9.3460   103.0320   -15.4810     7.5300     7.2130     6.6990  1001.8900
  945.0000   839.5860     0.0120     2.5010     9.3400   102.1440   -15.5750     7.6660     7.3400     6.7570  1002.1560
  945.5000   840.7400     0.0120     2.4960     9.3340   100.6900   -15.6550     7.8020     7.4670     6.8140  1002.4220
  946.0000   841.8940     0.0120     2.4990     9.3250    99.2500   -15.7390     7.9380     7.5940     6.8710  1002.6870
  946.5000   843.0490     0.0130     2.5080     9.3110    97.7870   -15.8240     8.0230     7.7110     6.9280  1002.9530
  947.0000   844.2030     0.0160     2.5180     9.3160    97.5810   -15.9070     8.0550     7.7440     6.9860  1003.2190
  947.5000   845.3570     0.0210     2.5270     9.3210    98.3230   -15.9890     8.0860     7.7930     7.0160  1003.4850
  948.0000   846.5120     0.0250     2.5220     9.3260    99.5480   -16.0840     8.1180     7.8420     7.0030  1003.7510
  948.5000   847.6660     0.0240     2.5130     9.3310   100.7590   -16.0760     8.1500     7.8900     6.9910  1004.0170
  949.0000   848.8200     0.0200     2.5050     9.3360   101.9750   -15.9450     8.1810     7.9390     6.9780  1004.2830
  949.5000   849.9750     0.0160     2.4990     9.3420   102.6680   -15.8270     8.2130     7.9880     6.9660  1004.5490
  950.0000   851.1290     0.0130     2.4930     9.3470   100.3450   -15.7060     8.2450     8.0070     6.9530  1004.8150
  950.5000   852.2830     0.0140     2.5060     9.3500    97.8650   -15.5840     8.2760     7.9490     6.9410  1005.0800
  951.0000   853.4380     0.0160     2.5090     9.3250    96.5160   -15.4650     8.3080     7.8770     6.9280  1005.3460
  951.5000   854.5920     0.0110     2.5070     9.2980    96.3240   -15.3420     8.2620     7.8040     6.9160  1005.6120
  952.0000   855.7460     0.0060     2.4920     9.2710   100.3380   -15.2230     8.1930     7.7320     6.9030  1005.8780
  952.5000   856.9010     0.0030     2.4760     9.2440   104.8680   -15.1030     8.1240     7.6590     6.8850  1006.1600
  953.0000   858.0550     0.0010     2.4690     9.2160   108.8530   -14.9700     8.0540     7.5870     6.9130  1005.9150
  953.5000   859.2090    -0.0010     2.4650     9.1890   107.9950   -14.9040     8.0070     7.5670     6.9660  1005.6540
  954.0000   860.3240    -0.0030     2.4620     9.1620   107.0070   -14.9570     8.0070     7.6640     7.0180  1005.3930
