~VERSION INFORMATION
 VERS.                2.0:   CWLS LOG ASCII STANDARD - VERSION 2.0
 WRAP.                 NO:   ONE LINE PER DEPTH STEP
~WELL INFORMATION
#MNEM.UNIT      DATA TYPE    INFORMATION
#----------   ------------   ------------------------------
 STRT.F           70.0000:   START DEPTH
 STOP.F         2751.5000:   STOP DEPTH
 STEP.F            0.5000:   STEP LENGTH
 NULL.          -999.2500:   NO VALUE
 COMP.          INTEX OIL:   COMPANY
 WELL. INTEX N.P.R. "AX" #75-20:   WELL
 FLD .             TEAPOT:   FIELD
 LOC .      S20 T39N R78W:   LOCATION
 CNTY.            NATRONA:   COUNTY
 STAT.            WYOMING:   STATE
 CTRY. UNITED STATES OF AMERICA:   COUNTRY
 SRVC.       SCHLUMBERGER:   SERVICE COMPANY
 DATE.        06-MAY-1966:   LOGDATE
 API .     49025095120000:   API NUMBER
~CURVE INFORMATION
#MNEM.UNIT       API CODE    CURVE DESCRIPTION
#----------   ------------   ------------------------------
 DEPT.F                  :   
 CALD.IN     45 280 60 00:   CALIPER FROM DENSITY LOG
 GRD .GAPI   45 310 01 00:   GAMMA RAY FROM DENSITY LOG
 RHOB.G/C3   45 350 01 00:   BULK DENSITY
 CORR.G/C3   45 356 01 00:   DENSITY CORRECTION
 SPR .MV     05 010 01 00:   SPONTANEOUS POTENTIAL
 ILD .OHMM   05 120 46 00:   DEEP INDUCTION RESISTIVITY
 ASN .OHMM   05 041 16 00:   AMPLIFIED SHORT NORMAL 16"
~PARAMETER INFORMATION
#MNEM.UNIT          VALUE    DESCRIPTION
#----------   ------------   ------------------------------
 EKB .F         5016.3000:   Kelly bushing
 EGL .F         5006.0000:   Ground level
 EDF .F            0.0000:   Drilling floor
 TD  .F         2750.0000:   Total depth
 DATE.        06-MAY-1966:   Date logged
 CLNT.            A2DTECH:   Client Code
 PD  .                 GL:   Permanent Datum
 DD  .F              2750:   Depth driller
 DL  .F              2746:   Depth logger
 BLI .F              2745:   Bottom log interval
 CS1 .IN            10.75:   Casing size
 CBD1.       10.75" @ 30':   Casing driller 1
 BS1 .IN            7.875:   Bit size
 DFT .           OIL/EMUL:   Type fluid in hole
 DFD .                9.8:   Density
 DFV .                 43:   Viscosity
 DFPH.                  8:   pH
 DFL .               11.8:   Fluid loss
 MSS .         CIRCULATED:   Source of sample
 RMS .OHMM           1.84:   Rm
 MST .F                73:   Rm Meas. temp.
 RMF .OHMM           1.21:   Rmf
 MFST.F                74:   Rmf Meas. temp.
 MFSS.                 FP:   Source Rmf.
 RMB .OHMM           1.27:   Rm. at BHT
 BHT .F               106:   BHT.
 TCS .HRS             1.5:   Time Circ. stopped
 MRT .F               106:   Maximum recorded temp.
 LUN .               3527:   Logging unit number
 LUL .               CSPR:   Logging unit location
 ENGI.               HAUG:   Recorded By
 WITN.      TUTTLE/HUDSON:   Witnessed by
 ORIG.           5" PRINT:   Origin of data
 UWI .     49025095120000:   Unique Well ID
 DICO. A2D TECHNOLOGIES, INC.:   Digitizing Company
 DAPD.F              10.3:   Feet Above Permanent Datum
 BSD1.F              2750:   Depth drilled with bit1
 MCSS.                 FP:   Source Rmc.
 EPD .F              5006:   Elevation Permanent Datum
 LMF .                 KB:   Log Measured From
 DMF .                 KB:   Drilling Measured From
 TLI .F                88:   Top log interval
~OTHER INFORMATION
~A   DEPT     CALD        GRD       RHOB       CORR        SPR        ILD          ASN 
# ...
 2436.0000     7.6700   139.5240     2.4630     0.0200   -39.2940     3.5120     6.2740
 2436.5000     7.7250   139.1800     2.4660     0.0200   -39.3760     3.7990     6.3160
 2437.0000     7.8040   135.9230     2.4730     0.0200   -39.6500     4.2160     6.4950
 2437.5000     7.8780   131.3480     2.4780     0.0160   -39.9280     4.6340     6.7770
 2438.0000     7.9530   127.8060     2.4880     0.0170   -39.9030     5.0520     7.4100
 2438.5000     8.0300   124.2450     2.4970     0.0270   -39.8620     5.4700     8.2020
 2439.0000     8.0580   120.2070     2.5030     0.0370   -39.8210     5.8880     9.0080
 2439.5000     8.0290   118.0840     2.4930     0.0390   -39.7800     6.3060     9.8140
 2440.0000     8.0080   119.4110     2.5000     0.0360   -39.7450     6.7230    10.7920
 2440.5000     7.9850   126.0060     2.5110     0.0530   -39.7630     7.1420    11.4320
 2441.0000     7.9620   131.3980     2.5100     0.0630   -39.7800     7.5720    11.4450
 2441.5000     7.9390   133.9510     2.5010     0.0480   -39.7980     7.6810    11.3250
 2442.0000     7.9140   129.5750     2.4910     0.0440   -39.8150     7.7080    11.2550
 2442.5000     7.9010   125.5410     2.5000     0.0510   -39.8330     7.7300    11.4580
 2443.0000     7.9040   121.2490     2.4950     0.0430   -39.8500     7.7500    11.7450
 2443.5000     7.9210   116.9820     2.4830     0.0300   -39.8670     7.7650    12.1750
 2444.0000     7.9360   114.1430     2.4720     0.0170   -39.8840     7.6390    12.4400
 2444.5000     7.9520   112.7990     2.4580     0.0080   -39.9010     7.3390    12.9510
 2445.0000     7.9670   112.7080     2.4620     0.0070   -39.9230     7.0650    12.7500
 2445.5000     7.9830   113.4090     2.4800     0.0110   -39.9600     6.7920    12.0700
 2446.0000     7.9980   114.1350     2.4790     0.0160   -39.2890     6.5190    11.2630
 2446.5000     8.0140   116.1650     2.4910     0.0210   -39.1620     6.2450    10.3890
 2447.0000     8.0200   118.6450     2.4830     0.0240   -39.5100     5.9760     9.8980
 2447.5000     8.0190   121.8630     2.4670     0.0190   -39.8710     5.6870     9.7120
 2448.0000     8.0200   124.6100     2.4660     0.0130   -39.6050     5.7160     9.5220
 2448.5000     8.0200   128.4970     2.4670     0.0100   -39.1660     5.8870     9.3440
 2449.0000     8.0200   126.9250     2.4670     0.0120   -39.1410     6.0440     9.4350
 2449.5000     8.0200   122.9060     2.4710     0.0140   -39.4900     6.4060     9.7640
 2450.0000     8.0200   119.6440     2.4790     0.0140   -39.8500     6.7710    10.1930
 2450.5000     8.0200   116.0560     2.4860     0.0110   -39.7560     7.1360    10.9710
 2451.0000     8.0200   113.2780     2.4950     0.0070   -39.5020     7.5000    11.5830
 2451.5000     8.0200   113.4040     2.4960     0.0060   -39.4610     7.8640    12.0570
 2452.0000     8.0200   112.1370     2.5010     0.0110   -39.7220     8.2310    12.5420
 2452.5000     8.0200   109.2540     2.5060     0.0190   -39.9410     8.3710    13.0910
 2453.0000     8.0200   106.2670     2.5060     0.0230   -39.6380     8.3010    12.9990
 2453.5000     8.0200   103.5330     2.5040     0.0160   -39.3210     8.1820    12.8200
 2454.0000     8.0200   102.9620     2.5080     0.0090   -39.2520     8.0620    12.6250
 2454.5000     8.0200   105.9620     2.5000     0.0070   -39.6410     7.9410    11.8820
 2455.0000     8.0200   108.8410     2.4970     0.0070   -39.9440     7.8200    11.6710
 2455.5000     8.0200   110.0200     2.5000     0.0090   -39.9050     7.6990    11.4850
 2456.0000     8.0200   110.9510     2.4970     0.0140   -39.8730     7.6810    11.3020
 2456.5000     8.0200   111.8910     2.4930     0.0200   -39.8440     7.6590    11.1550
 2457.0000     8.0200   111.4320     2.4920     0.0220   -39.8140     7.6380    11.0680
 2457.5000     8.0200   111.9330     2.5000     0.0190   -39.7840     7.6160    11.2550
 2458.0000     8.0200   110.8660     2.5070     0.0190   -39.7540     7.5930    11.5040
 2458.5000     8.0200   109.7900     2.5150     0.0220   -39.7080     7.5120    11.7540
 2459.0000     8.0200   108.4750     2.5150     0.0220   -39.6530     7.3420    12.1170
 2459.5000     8.0200   109.1790     2.5130     0.0150   -39.5970     7.2720    11.9500
 2460.0000     8.0200   112.2090     2.5240     0.0200   -39.5420     7.1990    11.6460
 2460.5000     8.0200   115.2150     2.5300     0.0270   -39.4870     7.1260    11.3200
 2461.0000     8.0200   118.0330     2.5290     0.0200   -39.4320     7.0520    10.9920
 2461.5000     8.0200   121.8130     2.5330     0.0190   -39.3760     6.9790    10.6640
 2462.0000     8.0200   120.3550     2.5320     0.0250   -39.3210     6.9040    10.4590
 2462.5000     8.0200   116.5110     2.5220     0.0280   -39.2650     6.8890    10.5620
 2463.0000     8.0200   113.4190     2.5040     0.0200   -39.2110     6.8920    10.9050
 2463.5000     8.0190   114.6870     2.4960     0.0110   -39.1620     7.0570    11.2360
 2464.0000     8.0200   117.1250     2.5050     0.0050   -38.9700     7.2380    11.5660
 2464.5000     8.0190   123.4800     2.5070     0.0050   -39.0920     7.4200    11.8940
 2465.0000     8.0200   124.9130     2.5090     0.0130   -39.2170     7.6020    11.8810
 2465.5000     8.0190   123.2720     2.5180     0.0230   -39.3410     7.7830    11.8130
 2466.0000     8.0160   119.8260     2.5260     0.0320   -39.4640     7.9650    11.7580
 2466.5000     7.9700   115.3330     2.5220     0.0280   -39.5880     8.1480    12.0650
 2467.0000     7.9270   112.9160     2.5150     0.0230   -39.7160     8.3370    12.3880
 2467.5000     7.8800   109.5710     2.5080     0.0160   -39.6700     8.4510    12.7070
 2468.0000     7.8370   109.0960     2.4990     0.0110   -39.5760     8.4740    12.8860
 2468.5000     7.7890   108.3210     2.5020     0.0100   -39.4810     8.4750    12.6890
 2469.0000     7.7850   110.5590     2.5110     0.0170   -39.3850     8.4660    12.6710
 2469.5000     7.7840   112.4950     2.5200     0.0230   -39.2890     8.2980    12.8050
 2470.0000     7.7860   112.6390     2.5260     0.0250   -39.1940     8.1330    12.9170
 2470.5000     7.7820   112.5980     2.5280     0.0210   -39.1000     7.9670    12.5980
 2471.0000     7.8060   111.7830     2.5230     0.0190   -39.0040     7.8020    12.2660
 2471.5000     7.8610   110.6400     2.5400     0.0220   -39.1190     7.6370    11.9360
 2472.0000     7.9140   110.5130     2.5290     0.0150   -39.4360     7.4720    11.6060
 2472.5000     7.9670   111.9070     2.5190     0.0060   -39.7510     7.3060    11.3740
 2473.0000     8.0160   112.0290     2.5140     0.0070   -39.7850     7.1410    11.2310
 2473.5000     8.0190   111.9550     2.5220     0.0180   -39.4120     6.9960    11.0860
 2474.0000     8.0160   112.4560     2.5240     0.0170   -39.0400     7.1070    10.9790
 2474.5000     8.0110   112.1000     2.5270     0.0160   -38.9270     7.2200    11.5360
 2475.0000     8.0070   112.7060     2.5340     0.0170   -38.8830     7.3330    11.8210
 2475.5000     8.0020   114.7750     2.5550     0.0430   -38.8400     7.4460    11.7540
 2476.0000     7.9980   117.1610     2.5480     0.0380   -38.7980     7.5580    11.6580
 2476.5000     7.9940   119.6720     2.5400     0.0300   -38.7640     7.6710    11.9540
 2477.0000     7.9890   118.2110     2.5270     0.0200   -38.9000     7.7840    12.2770
 2477.5000     7.9850   115.7990     2.5230     0.0160   -39.0420     7.8980    12.6000
 2478.0000     7.9800   113.3550     2.5320     0.0250   -39.1830     8.0410    12.9210
 2478.5000     7.9830   111.3430     2.5390     0.0260   -39.3230     8.2870    13.2430
 2479.0000     7.9890   109.5700     2.5330     0.0200   -39.4640     8.5300    13.4710
 2479.5000     7.9940   105.9640     2.5280     0.0150   -39.6050     8.7720    13.5690
 2480.0000     8.0000   103.5030     2.5260     0.0100   -39.7380     9.0140    13.7880
 2480.5000     8.0050   101.7670     2.5260     0.0040   -39.7190     9.2560    14.2100
 2481.0000     8.0110    99.8760     2.5260     0.0120   -39.5850     9.4970    14.6290
