~VERSION INFORMATION
 VERS.                2.0:   CWLS LOG ASCII STANDARD - VERSION 2.0
 WRAP.                 NO:   ONE LINE PER DEPTH STEP
~WELL INFORMATION
#MNEM.UNIT      DATA TYPE    INFORMATION
#----------   ------------   ------------------------------
 STRT.F           50.5000:   START DEPTH
 STOP.F         5694.0000:   STOP DEPTH
 STEP.F            0.5000:   STEP LENGTH
 NULL.          -999.2500:   NO VALUE
 COMP. LAWRENCE ALLISON AND ASSOCIATES WEST:   COMPANY
 WELL. LAWRENCE "TX" #57-28:   WELL
 FLD .        TEAPOT DOME:   FIELD
 LOC .      S28 T39N R78W:   LOCATION
 CNTY.            NATRONA:   COUNTY
 STAT.            WYOMING:   STATE
 CTRY. UNITED STATES OF AMERICA:   COUNTRY
 SRVC.       SCHLUMBERGER:   SERVICE COMPANY
 DATE.        26-FEB-1982:   LOGDATE
 API .     49025108850000:   API NUMBER
~CURVE INFORMATION
#MNEM.UNIT       API CODE    CURVE DESCRIPTION
#----------   ------------   ------------------------------
 DEPT.F                  :   
 GRR .GAPI   11 310 01 00:   GAMMA RAY FROM RES.
 CALD.IN     45 280 60 00:   CALIPER FROM DENSITY LOG
 TEND.LBS    45 635 01 00:   TENSION FORM DENSITY LOG
 CORR.G/C3   45 356 01 00:   DENSITY CORRECTION
 RHOB.G/C3   45 350 01 00:   BULK DENSITY
 NPHI.DEC    42 890 03 00:   NEUTRON POROSITY SANDSTONE
 TENR.LBS    06 635 01 00:   TENSION FROM RESISTIVITY
 SPR .MV     11 010 01 00:   SPONTANEOUS POTENTIAL FROM RES.
 LLS .OHMM   11 220 09 00:   LATEROLOG LOG SHALLOW
 LLD .OHMM   11 220 10 00:   LATEROLOG DEEP
 MSFL.OHMM   11 270 04 00:   MICRO SPHERICALLY FOCUSED
~PARAMETER INFORMATION
#MNEM.UNIT          VALUE    DESCRIPTION
#----------   ------------   ------------------------------
 EKB .F         5101.0000:   Kelly bushing
 EGL .F         5091.0000:   Ground level
 EDF .F            0.0000:   Drilling floor
 TD  .F         3248.0000:   Total depth
 CLNT.            A2DTECH:   Client Code
 SL  . 950' FSL & 2100' FEL:   Surface Location
 PD  .                 GL:   Permanent Datum
 EPD .F              5091:   Elevation Permanent Datum
 LMF .                 KB:   Log Measured From
 DMF .                 KB:   Drilling Measured From
 DAPD.F                10:   Feet Above Permanent Datum
 DATE.        26-FEB-1982:   Date Logged [DD-MMM-YYYY]
 DD  .F              3243:   Depth driller
 DL  .F              3248:   Depth logger
 BLI .F              3216:   Bottom log interval
 TLI .F                 0:   Top log interval
 CS1 .IN            9.625:   Casing size
 CBD1.      9.625" @ 401':   Casing driller 1
 CBL1.F               401:   Casing logger 1
 BS1 .IN            7.875:   Bit size
 BSD1.F              3243:   Depth drilled with bit1
 DFT .           CHEM GEL:   Type fluid in hole
 DFD .                8.9:   Density
 DFV .                 55:   Viscosity
 DFPH.                9.5:   pH
 DFL .                 10:   Fluid loss
 MSS .            MUD PIT:   Source of sample
 RMS .OHMM           1.82:   Rm
 MST .F                76:   Rm Meas. temp.
 RMF .OHMM           1.64:   Rmf
 MFST.F                75:   Rmf Meas. temp.
 MFSS.               MEAS:   Source Rmf.
 RMB .OHMM           1.15:   Rm. at BHT
 BHT .F               120:   BHT.
 TCS .HRS            1330:   Time Circ. stopped
 TLAB.HRS            1715:   Time logger at bottom
 MRT .F               120:   Maximum recorded temp.
 LUN .               8043:   Logging unit number
 LUL .               CSPR:   Logging unit location
 ENGI.             TAYLOR:   Recorded By
 WITN.       FIVAS/STRONG:   Witnessed by
 ORIG.      1" 2.5" PRINT:   Origin of data
 UWI .     49025108850000:   Unique Well ID
 DICO. A2D TECHNOLOGIES, INC.:   Digitizing Company
~OTHER INFORMATION
~A   DEPT       GRR      CALD       TEND       CORR       RHOB       NPHI       TENR        SPR        LLS        LLD       MSFL   
# ...
 3222.5000   126.1416     9.5008  1318.8209     0.0040     2.4831     0.2332  1340.0000   -76.3226     5.0548     5.2413     5.7032
 3223.0000   132.2247     9.5071  1319.8342     0.0070     2.4756     0.2424  1340.0000   -76.3333     4.5222     4.1833     4.5730
 3223.5000   135.8689     9.5297  1320.8475     0.0159     2.4752     0.2534  1340.0000   -76.3440     3.9902     3.6583     3.6251
 3224.0000   138.2934     9.5424  1321.8608     0.0284     2.4604     0.2742  1340.0000   -76.3547     3.5684     3.5379     3.5238
 3224.5000   137.3996     9.5582  1322.8741     0.0471     2.4614     0.2778  1340.0000   -76.6713     3.5678     3.6686     3.8808
 3225.0000   132.9776     9.5569  1323.8876     0.0595     2.4723     0.2800  1340.0000   -76.9899     3.6917     4.2294     5.0481
 3225.5000   126.7912     9.5559  1324.9009     0.0792     2.4768     0.2841  1340.0000   -77.0000     4.0425     4.6569     5.8813
 3226.0000   125.5005     9.5240  1325.9142     0.0883     2.4737     0.2953  1340.0000   -77.3160     4.5332     4.7842     5.9553
 3226.5000   130.2873     9.4921  1326.9275     0.0647     2.4509     0.2935  1340.0000   -77.3261     4.8953     4.7777     5.8490
 3227.0000   135.1509     9.4602  1327.9408     0.0262     2.4569     0.2905  1340.0000   -77.6422     4.8249     4.1578     5.7559
 3227.5000   136.9664     9.4529  1328.9541     0.0171     2.4766     0.2917  1340.0000   -77.6529     4.1987     4.3136     5.4736
 3228.0000   133.2763     9.4272  1329.9674     0.0186     2.4876     0.2983  1340.0000   -77.6636     4.4355     4.6832     5.1702
 3228.5000   131.4482     9.4261  1330.9807     0.0260     2.4962     0.3014  1340.0000   -77.6743     4.7511     4.5759     4.8209
 3229.0000   132.3359     9.4250  1331.9940     0.0305     2.4953     0.2996  1340.0000   -77.6850     4.2504     4.3117     4.6217
 3229.5000   133.8593     9.4237  1333.0073     0.0305     2.4867     0.2954  1340.0000   -77.6978     4.3538     4.4993     4.6190
 3230.0000   135.6305     9.4227  1334.0206     0.0304     2.4645     0.2888  1340.0000   -77.7079     4.8010     5.3841     5.6226
 3230.5000   138.7012     9.4217  1335.0339     0.0264     2.4535     0.2797  1340.0000   -77.7181     5.7099     7.6099     9.5399
 3231.0000   130.7600     9.4207  1336.0472     0.0142     2.4565     0.2748  1340.0000   -77.4220     7.5867     9.1167    12.0294
 3231.5000   117.3309     9.4196  1337.0605     0.0046     2.4655     0.2485  1340.0000   -77.4327     9.2052     9.8103    13.5458
 3232.0000   110.6092     9.4185  1338.0740    -0.0029     2.4867     0.2290  1340.0000   -77.1369    10.2784    10.3735    15.4867
 3232.5000   109.9850     9.4174  1339.0873    -0.0090     2.5049     0.2179  1340.0000   -77.1483    10.7089    10.9909    17.4256
 3233.0000   112.5883     9.3855  1340.1006    -0.0060     2.5096     0.2091  1340.0000   -77.0458    11.3246    11.5667    17.9052
 3233.5000   114.5397     9.3844  1341.1139    -0.0030     2.5195     0.1981  1340.0000   -76.8639    11.7867    11.9660    17.4050
 3234.0000   117.1019     9.3831  1342.1272     0.0030     2.5354     0.1861  1340.0000   -76.5709    11.4169    11.6294    16.4559
 3234.5000   119.0701     9.3821  1343.1405     0.0044     2.5426     0.1837  1340.0000   -76.5810    11.1387    11.3023    15.1085
 3235.0000   120.8813     9.3502  1344.1538    -0.0008     2.5315     0.1880  1340.0000   -76.5911    11.2076    11.4512    13.8586
 3235.5000   120.2571     9.3492  1345.1671    -0.0052     2.5281     0.1923  1340.0000   -76.6013    11.7589    12.2884    13.7163
 3236.0000   116.5841     9.3481  1346.1804    -0.0063     2.5516     0.1905  1340.0000   -76.6116    13.1298    13.1925    16.6044
 3236.5000   110.4721     9.3471  1347.1937    -0.0025     2.5803     0.1886  1340.0000   -76.3158    14.2601    14.0665    27.2243
 3237.0000   106.0909     9.3460  1348.2070     0.0027     2.6137     0.1873  1340.0000   -76.3272    13.8632    13.4534    24.1728
 3237.5000   108.6109     9.3449  1349.2203     0.0147     2.6409     0.1862  1340.0000   -76.4525    12.9071    12.2277    16.3831
 3238.0000   115.7210     9.3438  1350.2336     0.0237     2.6286     0.1850  1340.0000   -76.6544    11.6784    10.7778    15.4897
 3238.5000   122.3462     9.3427  1351.2469     0.0191     2.6085     0.1842  1340.0000   -76.6672    10.6702     9.9093    14.4433
 3239.0000   126.8761     9.3415  1352.2604     0.0130     2.5696     0.1839  1340.0000   -76.6773     9.5378     9.3671    12.1927
 3239.5000   131.7198     9.3713  1353.2737     0.0100     2.5466     0.1851  1340.0000   -76.6875     8.4058     8.8546    10.5643
 3240.0000   135.9737     9.4012  1354.2870     0.0115     2.5496     0.1924  1340.0000   -76.6976     7.5114     8.4636     9.8768
 3240.5000   139.0080     9.5545  1355.3003     0.0134     2.5473     0.2021  1340.0000   -77.0138     6.7201     7.7266     9.3565
 3241.0000   140.8229     9.6485  1356.3136     0.0144     2.5404     0.2107  1340.0000   -77.3303     6.0959     6.3574     8.5644
 3241.5000   142.0280     9.6276  1357.3269     0.0166     2.5328     0.2120  1340.0000   -77.3410     5.2317     4.9027     7.0920
 3242.0000   142.0122     9.5113  1358.3402     0.0173     2.5069     0.2162  1340.0000   -77.0439     4.3591     4.4052     6.1698
 3242.5000   142.1799     9.5316  1359.3535     0.0187     2.4795     0.2306  1340.0000   -76.9063     4.1299     4.2824     6.0812
 3243.0000   142.8438     9.5956  1360.3668     0.0187     2.4719     0.2549  1340.0000   -76.7615     4.2593     4.4609     6.3359
 3243.5000   144.7585     9.6406  1361.3801     0.0172     2.4734     0.2709  1340.0000   -76.4664     4.3833     4.5199     6.4206
 3244.0000   150.4852     9.5159  1365.7012     0.0156     2.4715     0.2691  1340.0000   -76.1721     4.3281     4.3925     6.3141
 3244.5000   160.2269     9.4532  1372.2561     0.0141     2.4694     0.2655  1340.0000   -75.8765     3.8981     4.1326     5.8737
 3245.0000   175.4564     9.4521  1378.8110     0.0122     2.4640     0.2612  1340.0000   -75.5656     3.1216     3.5265     4.7732
 3245.5000   184.5883     9.4511  1385.3658     0.0079     2.4544     0.2600  1340.0000   -74.9306     2.1466     2.0481     4.1969
 3246.0000   197.4926     9.5208  1391.9208     0.0079     2.4383     0.2632  1354.3000   -74.3778     1.5602     1.3868     1.4710
 3246.5000   199.1936     9.7427  1398.4756     0.0188     2.4154     0.2831  1367.2000   -74.2722     1.1772     1.1296     0.9697
 3247.0000   186.4323    10.4133  1394.1464     0.0841     2.3911     0.3769  1380.0000   -73.9430     1.0723     1.0916     1.0387
 3247.5000   157.3112    10.9138  1373.1708     0.1362     2.3060     0.4534  1368.4445   -73.7997     2.3969     4.4895     3.0206
 3248.0000   145.9842    10.5651  1361.7227     0.1086     2.3090     0.4194  1356.9778   -74.1176     4.9453     4.7419     8.6629
 3248.5000   145.0577     9.3210  1361.5782     0.0212     2.3905     0.2991  1345.5111   -74.4336     5.0883     4.8043     5.7692
 3249.0000   147.2850     9.3200  1361.4338     0.0016     2.4743     0.2377  1340.0000   -74.4437     4.4549     5.4395     4.6601
 3249.5000   140.5632     9.3498  1361.2896     0.0319     2.4849     0.2316  1340.0000   -74.7769     5.3309     6.9138     4.2038
 3250.0000   133.8415     9.3488  1361.1451     0.0296     2.4742     0.2614  1340.0000   -75.4331     7.5327     7.2665     9.4665
 3250.5000   128.8790     9.3786  1361.0009     0.0037     2.4865     0.2474  1340.0000   -76.0897     7.2223     6.6387    11.3955
 3251.0000   129.3483     9.3775  1360.8564     0.0014     2.5024     0.2331  1340.0000   -76.7462     6.5464     6.8332     9.6424
 3251.5000   132.5876     9.3764  1360.7122     0.0088     2.5211     0.2253  1340.0000   -77.0968     6.3692     7.6600     9.2440
 3252.0000   136.7161     9.4062  1360.5677     0.0167     2.5301     0.2399  1340.0000   -77.5677     6.8355     8.6717    10.1805
 3252.5000   139.2738     9.4051  1360.4235     0.0254     2.5286     0.2471  1340.0000   -77.5778     7.6370     9.1592    12.4575
