~VERSION INFORMATION
 VERS.                2.0:   CWLS LOG ASCII STANDARD - VERSION 2.0
 WRAP.                 NO:   ONE LINE PER DEPTH STEP
~WELL INFORMATION
#MNEM.UNIT      DATA TYPE    INFORMATION
#----------   ------------   ------------------------------
 STRT.F            0.0000:   START DEPTH
 STOP.F         3083.0000:   STOP DEPTH
 STEP.F            0.5000:   STEP LENGTH
 NULL.          -999.2500:   NO VALUE
 COMP. LAWRENCE & ALLISON & ASSOCIATES:   COMPANY
 WELL. LAWRENCE 71 "AX" #3-29:   WELL
 FLD .              N P R:   FIELD
 LOC .      S29 T38N R78W:   LOCATION
 CNTY.            NATRONA:   COUNTY
 STAT.            WYOMING:   STATE
 CTRY. UNITED STATES OF AMERICA:   COUNTRY
 SRVC.      DRESSER ATLAS:   SERVICE COMPANY
 DATE.        12-MAR-1985:   LOGDATE
 API .     49025110160000:   API NUMBER
~CURVE INFORMATION
#MNEM.UNIT       API CODE    CURVE DESCRIPTION
#----------   ------------   ------------------------------
 DEPT.F                  :   
 GRR .GAPI   07 310 01 00:   GAMMA RAY FROM RESISTIVITY
 SPR .MV     07 010 01 00:   SPONTANEOUS POTENTIAL
 TENR.LBS    07 635 01 00:   TENSION FROM RESISTIVITY
 RFOC.OHMM   07 220 04 00:   RESISTIVITY FOCUSED LOG RES.
 RILD.OHMM   07 120 46 00:   DEEP INDUCTION RESISTIVITY
 RILM.OHMM   07 120 44 00:   INDUCTION LOG MEDIUM RESISTIVITY
 TEND.LBS    45 635 01 00:   TENSION FROM DENSITY LOG
 DEN .G/C3   45 350 01 00:   BULK DENSITY
 CORR.G/C3   45 356 01 00:   DENSITY CORRECTION
 CNC .DEC    42 890 01 00:   NEUTRON PORISITY LIMESTONE
 CALD.IN     45 280 60 00:   CALIPER FROM DENSITY LOG
~PARAMETER INFORMATION
#MNEM.UNIT          VALUE    DESCRIPTION
#----------   ------------   ------------------------------
 EKB .F         4983.0000:   Kelly bushing
 EGL .F         4971.0000:   Ground level
 TD  .F         3082.0000:   Total depth
 DATE.        12-MAR-1985:   Date logged
 CLNT.            A2DTECH:   Client Code
 SL  . 568' FNL AND 829' FEL:   Surface Location
 PD  .                 GL:   Permanent Datum
 EPD .F              4971:   Elevation Permanent Datum
 LMF .                 KB:   Log Measured From
 DMF .                 KB:   Drilling Measured From
 DD  .F              3080:   Depth driller
 DL  .F              3082:   Depth logger
 BLI .F              3080:   Bottom log interval
 TLI .F              2100:   Top log interval
 CS1 .IN            8.625:   Casing size
 CBD1.      8.625" @ 311':   Casing driller 1
 BS1 .IN            7.875:   Bit size
 DFT .            KCL GEL:   Type fluid in hole
 DFD .                9.1:   Density
 DFV .                 38:   Viscosity
 DFPH.                  8:   pH
 DFL .               10.4:   Fluid loss
 MSS .           FLOWLINE:   Source of sample
 RMS .OHMM            .47:   Rm
 MST .F                60:   Rm Meas. temp.
 RMF .OHMM            .35:   Rmf
 MFST.F                61:   Rmf Meas. temp.
 RMC .OHMM            .53:   Rmc
 MCST.F                61:   Rmc Meas. temp.
 MFSS.               CLAC:   Source Rmf.
 RMB .OHMM           .209:   Rm. at BHT
 BHT .F               134:   BHT.
 TCS .HRS               3:   Time Circ. stopped
 MRT .F               134:   Maximum recorded temp.
 LUN .               6234:   Logging unit number
 LUL .               CLTE:   Logging unit location
 ENGI.      MACK/ EDWARDS:   Recorded By
 WITN.             STRONG:   Witnessed by
 PWI .                  -:   Primary Well Identifier
 ORIG.           5" PRINT:   Origin of data
 UWI .     49025110160000:   Unique Well ID
 DICO. A2D TECHNOLOGIES, INC.:   Digitizing Company
 DAPD.F                12:   Feet Above Permanent Datum
 BSD1.F              3080:   Depth drilled with bit1
 MCSS.               CALC:   Source Rmc.
~OTHER INFORMATION
~A    DEPT      GRR       SPR       TENR       RFOC       RILD       RILM       TEND        DEN       CORR        CNC       CALD   
# ...
  518.5000   100.7910   -42.5880   -68.9930     6.4710     6.2430     5.8930  -999.2500  -999.2500  -999.2500  -999.2500  -999.2500
  519.0000   101.3560   -42.5410   -69.2490     6.4790     6.2530     5.9180  -999.2500  -999.2500  -999.2500  -999.2500  -999.2500
  519.5000   101.1610   -42.4940   -69.5050     6.4850     6.2530     5.9440  -999.2500  -999.2500  -999.2500  -999.2500  -999.2500
  520.0000   100.9410   -42.4460   -69.7610     6.5250     6.2530     5.9700  -999.2500  -999.2500  -999.2500  -999.2500  -999.2500
  520.5000   100.7200   -42.3880   -70.0170     6.5640     6.2530     5.9900  -999.2500  -999.2500  -999.2500  -999.2500  -999.2500
  521.0000   100.3940   -42.7300   -70.2730     6.6030     6.2530     6.0150  -999.2500  -999.2500  -999.2500  -999.2500  -999.2500
  521.5000    99.2060   -43.1370   -70.5290     6.6420     6.2690     6.0400  -999.2500  -999.2500  -999.2500  -999.2500  -999.2500
  522.0000    97.5200   -43.5490   -70.7850     6.7620     6.3450     6.0650  -999.2500  -999.2500  -999.2500  -999.2500  -999.2500
  522.5000    98.9010   -43.9630   -71.0410     7.0400     6.4220     6.0900  -999.2500  -999.2500  -999.2500  -999.2500  -999.2500
  523.0000   100.1580   -44.3530   -71.2970     7.0280     6.4980     6.1150  -999.2500  -999.2500  -999.2500  -999.2500  -999.2500
  523.5000   100.0760   -44.2290   -71.5530     7.0140     6.5740     6.1400  -999.2500  -999.2500  -999.2500  -999.2500  -999.2500
  524.0000    99.4040   -44.0850   -71.8090     7.0000     6.6500     6.1490  -999.2500  -999.2500  -999.2500  -999.2500  -999.2500
  524.5000    98.7520   -43.9140   -72.0650     6.9860     6.7260     6.1590  -999.2500  -999.2500  -999.2500  -999.2500  -999.2500
  525.0000    98.3450   -43.6270   -72.3210     6.9720     6.7150     6.1680  -999.2500  -999.2500  -999.2500  -999.2500  -999.2500
  525.5000    99.1100   -43.3390   -72.5770     6.9580     6.7010     6.1770  -999.2500  -999.2500  -999.2500  -999.2500  -999.2500
  526.0000    99.8490   -43.0510   -72.8330     6.9440     6.6880     6.1870  -999.2500  -999.2500  -999.2500  -999.2500  -999.2500
  526.5000   100.5250   -42.7640   -73.0890     6.9290     6.6740     6.1960  -999.2500  -999.2500  -999.2500  -999.2500  -999.2500
  527.0000    98.6120   -42.5370   -73.3450     6.9150     6.6600     6.1960  -999.2500  -999.2500  -999.2500  -999.2500  -999.2500
  527.5000    96.3320   -42.4100   -73.6010     6.9010     6.6460     6.1960  -999.2500  -999.2500  -999.2500  -999.2500  -999.2500
  528.0000    95.9460   -42.2810   -73.8570     6.8870     6.6330     6.1960  -999.2500  -999.2500  -999.2500  -999.2500  -999.2500
  528.5000    96.9480   -42.1530   -74.1130     6.8730     6.6190     6.0990  -999.2500  -999.2500  -999.2500  -999.2500  -999.2500
  529.0000    94.6000   -42.0230   -74.3690     6.8590     6.6050     6.0670  -999.2500  -999.2500  -999.2500  -999.2500  -999.2500
  529.5000    92.0290   -42.1140   -74.6250     6.8450     6.5920     6.0460  -999.2500  -999.2500  -999.2500  -999.2500  -999.2500
  530.0000    89.4250   -42.3070   -74.8810     6.8300     6.5780     6.0240  -999.2500  -999.2500  -999.2500  -999.2500  -999.2500
  530.5000    88.6070   -42.5040   -75.1370     6.8160     6.5640     6.0030  -999.2500  -999.2500  -999.2500  -999.2500  -999.2500
  531.0000    90.4630   -42.4410   -75.3930     6.8020     6.5490     5.9810  -999.2500  -999.2500  -999.2500  -999.2500  -999.2500
  531.5000    92.3120   -42.2010   -75.6490     6.7880     6.4990     5.9590  -999.2500  -999.2500  -999.2500  -999.2500  -999.2500
  532.0000    92.0350   -42.0620   -75.9050     6.7020     6.4200     5.9380  -999.2500  -999.2500  -999.2500  -999.2500  -999.2500
  532.5000    92.0140   -42.5090   -76.1610     6.6370     6.3410     5.9130  -999.2500  -999.2500  -999.2500  -999.2500  -999.2500
  533.0000    92.8630   -42.9490   -76.4170     6.5730     6.2610     5.8700  -999.2500  -999.2500  -999.2500  -999.2500  -999.2500
  533.5000    96.2940   -43.3880   -76.6730     6.5190     6.1820     5.8280  -999.2500  -999.2500  -999.2500  -999.2500  -999.2500
  534.0000    99.6900   -43.6880   -76.5460     6.4730     6.1030     5.7860  -999.2500  -999.2500  -999.2500  -999.2500  -999.2500
  534.5000    99.8850   -43.8850   -76.3020     6.4280     6.0840     5.7430  -999.2500  -999.2500  -999.2500  -999.2500  -999.2500
  535.0000    97.6600   -43.8810   -76.0590     6.3820     6.0840     5.7070  -999.2500  -999.2500  -999.2500  -999.2500  -999.2500
  535.5000    95.4630   -43.7260   -75.8150     6.3370     6.0840     5.7000  -999.2500  -999.2500  -999.2500  -999.2500  -999.2500
  536.0000    93.2670   -43.5700   -75.5710     6.2910     6.0840     5.6920  -999.2500  -999.2500  -999.2500  -999.2500  -999.2500
  536.5000    92.5310   -43.4130   -75.3280     6.2530     6.0840     5.6850  -999.2500  -999.2500  -999.2500  -999.2500  -999.2500
  537.0000    92.9230   -43.2550   -75.0840     6.3100     6.0840     5.6780  -999.2500  -999.2500  -999.2500  -999.2500  -999.2500
  537.5000    93.7050   -43.0980   -74.8410     6.3550     6.0840     5.6710  -999.2500  -999.2500  -999.2500  -999.2500  -999.2500
  538.0000    94.4880   -42.9410   -74.5970     6.4030     6.0830     5.6640  -999.2500  -999.2500  -999.2500  -999.2500  -999.2500
  538.5000    92.9990   -42.7840   -74.3530     6.4500     6.1000     5.6560  -999.2500  -999.2500  -999.2500  -999.2500  -999.2500
  539.0000    91.5390   -42.6260   -74.1100     6.4970     6.1270     5.7190  -999.2500  -999.2500  -999.2500  -999.2500  -999.2500
  539.5000    90.0980   -42.4690   -73.8660     6.5450     6.1550     5.7850  -999.2500  -999.2500  -999.2500  -999.2500  -999.2500
  540.0000    89.1850   -42.3120   -73.6220     6.6050     6.1830     5.8510  -999.2500  -999.2500  -999.2500  -999.2500  -999.2500
  540.5000    89.4320   -42.1550   -73.3790     6.4960     6.2250     5.9170  -999.2500  -999.2500  -999.2500  -999.2500  -999.2500
  541.0000    90.2360   -41.9980   -73.1350     6.3500     6.2790     5.9740  -999.2500  -999.2500  -999.2500  -999.2500  -999.2500
  541.5000    91.1220   -41.8370   -72.8910     6.2530     6.3320     6.0290  -999.2500  -999.2500  -999.2500  -999.2500  -999.2500
  542.0000    91.1050   -41.8260   -72.6480     6.4780     6.3860     6.1020  -999.2500  -999.2500  -999.2500  -999.2500  -999.2500
  542.5000    91.4520   -41.8740   -72.4040     6.6270     6.4400     6.1800  -999.2500  -999.2500  -999.2500  -999.2500  -999.2500
  543.0000    94.0680   -41.9250   -72.1600     6.7790     6.4930     6.2580  -999.2500  -999.2500  -999.2500  -999.2500  -999.2500
  543.5000    96.7540   -41.9750   -71.9170     6.9400     6.5470     6.3360  -999.2500  -999.2500  -999.2500  -999.2500  -999.2500
  544.0000    98.3330   -42.3000   -71.6730     7.1010     6.6050     6.4140  -999.2500  -999.2500  -999.2500  -999.2500  -999.2500
  544.5000    97.6530   -42.8680   -71.4290     7.2620     7.0110     6.4920  -999.2500  -999.2500  -999.2500  -999.2500  -999.2500
  545.0000    96.3560   -43.4360   -71.1860     7.4360     7.4520     6.7450  -999.2500  -999.2500  -999.2500  -999.2500  -999.2500
  545.5000    95.0530   -44.0230   -70.9420     7.7800     7.8920     7.3690  -999.2500  -999.2500  -999.2500  -999.2500  -999.2500
  546.0000    92.6370   -44.0490   -70.6980     8.1550     8.3320     7.9930  -999.2500  -999.2500  -999.2500  -999.2500  -999.2500
  546.5000    90.1910   -43.8300   -70.4550     8.5300     8.7720     8.6170  -999.2500  -999.2500  -999.2500  -999.2500  -999.2500
  547.0000    88.4640   -43.6070   -70.2110     8.9050     9.2130     9.2410  -999.2500  -999.2500  -999.2500  -999.2500  -999.2500
  547.5000    86.7550   -43.3820   -69.9670     9.0880     9.6440    10.1390  -999.2500  -999.2500  -999.2500  -999.2500  -999.2500
  548.0000    85.3640   -43.1330   -69.7240     9.0720    10.0710    10.0460  -999.2500  -999.2500  -999.2500  -999.2500  -999.2500
  548.5000    84.9430   -42.6970   -69.4800     9.0580    10.4980     9.7750  -999.2500  -999.2500  -999.2500  -999.2500  -999.2500
