~VERSION INFORMATION
 VERS.                2.0:   CWLS LOG ASCII STANDARD - VERSION 2.0
 WRAP.                 NO:   ONE LINE PER DEPTH STEP
~WELL INFORMATION
#MNEM.UNIT      DATA TYPE    INFORMATION
#----------   ------------   ------------------------------
 STRT.F            0.0000:   START DEPTH
 STOP.F         3083.0000:   STOP DEPTH
 STEP.F            0.5000:   STEP LENGTH
 NULL.          -999.2500:   NO VALUE
 COMP. LAWRENCE & ALLISON & ASSOCIATES:   COMPANY
 WELL. LAWRENCE 71 "AX" #3-29:   WELL
 FLD .              N P R:   FIELD
 LOC .      S29 T38N R78W:   LOCATION
 CNTY.            NATRONA:   COUNTY
 STAT.            WYOMING:   STATE
 CTRY. UNITED STATES OF AMERICA:   COUNTRY
 SRVC.      DRESSER ATLAS:   SERVICE COMPANY
 DATE.        12-MAR-1985:   LOGDATE
 API .     49025110160000:   API NUMBER
~CURVE INFORMATION
#MNEM.UNIT       API CODE    CURVE DESCRIPTION
#----------   ------------   ------------------------------
 DEPT.F                  :   
 GRR .GAPI   07 310 01 00:   GAMMA RAY FROM RESISTIVITY
 SPR .MV     07 010 01 00:   SPONTANEOUS POTENTIAL
 TENR.LBS    07 635 01 00:   TENSION FROM RESISTIVITY
 RFOC.OHMM   07 220 04 00:   RESISTIVITY FOCUSED LOG RES.
 RILD.OHMM   07 120 46 00:   DEEP INDUCTION RESISTIVITY
 RILM.OHMM   07 120 44 00:   INDUCTION LOG MEDIUM RESISTIVITY
 TEND.LBS    45 635 01 00:   TENSION FROM DENSITY LOG
 DEN .G/C3   45 350 01 00:   BULK DENSITY
 CORR.G/C3   45 356 01 00:   DENSITY CORRECTION
 CNC .DEC    42 890 01 00:   NEUTRON PORISITY LIMESTONE
 CALD.IN     45 280 60 00:   CALIPER FROM DENSITY LOG
~PARAMETER INFORMATION
#MNEM.UNIT          VALUE    DESCRIPTION
#----------   ------------   ------------------------------
 EKB .F         4983.0000:   Kelly bushing
 EGL .F         4971.0000:   Ground level
 TD  .F         3082.0000:   Total depth
 DATE.        12-MAR-1985:   Date logged
 CLNT.            A2DTECH:   Client Code
 SL  . 568' FNL AND 829' FEL:   Surface Location
 PD  .                 GL:   Permanent Datum
 EPD .F              4971:   Elevation Permanent Datum
 LMF .                 KB:   Log Measured From
 DMF .                 KB:   Drilling Measured From
 DD  .F              3080:   Depth driller
 DL  .F              3082:   Depth logger
 BLI .F              3080:   Bottom log interval
 TLI .F              2100:   Top log interval
 CS1 .IN            8.625:   Casing size
 CBD1.      8.625" @ 311':   Casing driller 1
 BS1 .IN            7.875:   Bit size
 DFT .            KCL GEL:   Type fluid in hole
 DFD .                9.1:   Density
 DFV .                 38:   Viscosity
 DFPH.                  8:   pH
 DFL .               10.4:   Fluid loss
 MSS .           FLOWLINE:   Source of sample
 RMS .OHMM            .47:   Rm
 MST .F                60:   Rm Meas. temp.
 RMF .OHMM            .35:   Rmf
 MFST.F                61:   Rmf Meas. temp.
 RMC .OHMM            .53:   Rmc
 MCST.F                61:   Rmc Meas. temp.
 MFSS.               CLAC:   Source Rmf.
 RMB .OHMM           .209:   Rm. at BHT
 BHT .F               134:   BHT.
 TCS .HRS               3:   Time Circ. stopped
 MRT .F               134:   Maximum recorded temp.
 LUN .               6234:   Logging unit number
 LUL .               CLTE:   Logging unit location
 ENGI.      MACK/ EDWARDS:   Recorded By
 WITN.             STRONG:   Witnessed by
 PWI .                  -:   Primary Well Identifier
 ORIG.           5" PRINT:   Origin of data
 UWI .     49025110160000:   Unique Well ID
 DICO. A2D TECHNOLOGIES, INC.:   Digitizing Company
 DAPD.F                12:   Feet Above Permanent Datum
 BSD1.F              3080:   Depth drilled with bit1
 MCSS.               CALC:   Source Rmc.
~OTHER INFORMATION
~A    DEPT      GRR       SPR       TENR       RFOC       RILD       RILM       TEND        DEN       CORR        CNC       CALD   
# ...
  884.5000    93.2420   -47.7350   -75.8460     7.8180     7.4600     7.1310  -999.2500  -999.2500  -999.2500  -999.2500  -999.2500
  885.0000    91.5750   -47.6730   -75.4100     7.8020     7.5180     7.1440  -999.2500  -999.2500  -999.2500  -999.2500  -999.2500
  885.5000    92.1190   -47.6030   -74.9730     7.7850     7.5760     7.1570  -999.2500  -999.2500  -999.2500  -999.2500  -999.2500
  886.0000    92.9740   -47.5280   -74.5370     7.7830     7.6340     7.1690  -999.2500  -999.2500  -999.2500  -999.2500  -999.2500
  886.5000    94.6990   -47.3260   -74.1010     7.8130     7.6920     7.2510  -999.2500  -999.2500  -999.2500  -999.2500  -999.2500
  887.0000    95.5290   -47.1130   -73.6640     7.8390     7.7500     7.3310  -999.2500  -999.2500  -999.2500  -999.2500  -999.2500
  887.5000    94.5040   -46.8990   -73.2280     7.8980     7.8080     7.4120  -999.2500  -999.2500  -999.2500  -999.2500  -999.2500
  888.0000    93.5140   -46.6860   -72.7920     8.0080     7.8650     7.4920  -999.2500  -999.2500  -999.2500  -999.2500  -999.2500
  888.5000    93.7310   -46.4730   -72.3550     8.1180     7.9230     7.5730  -999.2500  -999.2500  -999.2500  -999.2500  -999.2500
  889.0000    93.4360   -46.2600   -71.9190     8.2280     7.9810     7.6540  -999.2500  -999.2500  -999.2500  -999.2500  -999.2500
  889.5000    93.5130   -46.0470   -71.4830     8.3070     8.0390     7.7340  -999.2500  -999.2500  -999.2500  -999.2500  -999.2500
  890.0000    96.4550   -45.9680   -71.0460     8.3360     8.0970     7.8150  -999.2500  -999.2500  -999.2500  -999.2500  -999.2500
  890.5000    98.6240   -46.0020   -70.6100     8.3650     8.1550     7.8950  -999.2500  -999.2500  -999.2500  -999.2500  -999.2500
  891.0000    95.8470   -46.0350   -70.1730     8.4360     8.2130     7.9760  -999.2500  -999.2500  -999.2500  -999.2500  -999.2500
  891.5000    92.9780   -46.0690   -69.7370     8.5470     8.2710     8.0560  -999.2500  -999.2500  -999.2500  -999.2500  -999.2500
  892.0000    91.9870   -46.1030   -69.3010     8.6590     8.3690     8.1370  -999.2500  -999.2500  -999.2500  -999.2500  -999.2500
  892.5000    91.5020   -46.1350   -68.8640     8.7700     8.4990     8.2200  -999.2500  -999.2500  -999.2500  -999.2500  -999.2500
  893.0000    90.4700   -46.2740   -68.4280     8.8810     8.6290     8.3190  -999.2500  -999.2500  -999.2500  -999.2500  -999.2500
  893.5000    88.6340   -46.4460   -67.9920     8.9930     8.7590     8.4220  -999.2500  -999.2500  -999.2500  -999.2500  -999.2500
  894.0000    86.7930   -46.6240   -67.5550     9.1300     8.8880     8.5250  -999.2500  -999.2500  -999.2500  -999.2500  -999.2500
  894.5000    85.3000   -46.8610   -67.1190     9.4160     9.0180     8.6280  -999.2500  -999.2500  -999.2500  -999.2500  -999.2500
  895.0000    86.1890   -47.2870   -66.8320     9.7010     9.1480     8.7300  -999.2500  -999.2500  -999.2500  -999.2500  -999.2500
  895.5000    87.1120   -47.6960   -66.8320     9.8120     9.2780     8.8330  -999.2500  -999.2500  -999.2500  -999.2500  -999.2500
  896.0000    87.5330   -48.3170   -66.8320     9.8620     9.4080     8.9360  -999.2500  -999.2500  -999.2500  -999.2500  -999.2500
  896.5000    86.4010   -49.1220   -66.8320     9.9120     9.5370     9.0390  -999.2500  -999.2500  -999.2500  -999.2500  -999.2500
  897.0000    85.1190   -49.9340   -66.8320     9.9550     9.6380     9.1700  -999.2500  -999.2500  -999.2500  -999.2500  -999.2500
  897.5000    84.6150   -50.7460   -66.8320     9.9550     9.7120     9.3250  -999.2500  -999.2500  -999.2500  -999.2500  -999.2500
  898.0000    84.0980   -51.5590   -66.8320    10.2320     9.7870     9.4810  -999.2500  -999.2500  -999.2500  -999.2500  -999.2500
  898.5000    81.7410   -52.3800   -66.8320    10.2220     9.8610     9.6370  -999.2500  -999.2500  -999.2500  -999.2500  -999.2500
  899.0000    82.2700   -53.2210   -67.1510    10.2040     9.9350     9.7740  -999.2500  -999.2500  -999.2500  -999.2500  -999.2500
  899.5000    82.6740   -53.0130   -67.7770    10.1860    10.0470     9.7640  -999.2500  -999.2500  -999.2500  -999.2500  -999.2500
  900.0000    81.4770   -52.7260   -68.4040    10.1680    10.0250     9.7530  -999.2500  -999.2500  -999.2500  -999.2500  -999.2500
  900.5000    80.6220   -52.4430   -69.0300    10.1500     9.9820     9.7420  -999.2500  -999.2500  -999.2500  -999.2500  -999.2500
  901.0000    84.4630   -52.1610   -69.6560    10.1320     9.9390     9.7310  -999.2500  -999.2500  -999.2500  -999.2500  -999.2500
  901.5000    87.0540   -51.8780   -70.2820    10.1140     9.8950     9.7200  -999.2500  -999.2500  -999.2500  -999.2500  -999.2500
  902.0000    86.2670   -51.5850   -70.9090    10.0950     9.8650     9.7100  -999.2500  -999.2500  -999.2500  -999.2500  -999.2500
  902.5000    83.8730   -51.2360   -71.5350    10.0770     9.8830     9.6990  -999.2500  -999.2500  -999.2500  -999.2500  -999.2500
  903.0000    81.5220   -50.8940   -72.1610    10.0590     9.8980     9.6870  -999.2500  -999.2500  -999.2500  -999.2500  -999.2500
  903.5000    80.6670   -50.5510   -72.7870    10.0470     9.9120     9.6960  -999.2500  -999.2500  -999.2500  -999.2500  -999.2500
  904.0000    81.5070   -50.1980   -73.4140    10.0660     9.9260     9.7070  -999.2500  -999.2500  -999.2500  -999.2500  -999.2500
  904.5000    82.3330   -50.0110   -74.0400    10.0810     9.9400     9.7180  -999.2500  -999.2500  -999.2500  -999.2500  -999.2500
  905.0000    83.1630   -49.8770   -74.6660    10.0960     9.9550     9.7290  -999.2500  -999.2500  -999.2500  -999.2500  -999.2500
  905.5000    83.7390   -49.7450   -75.2920    10.1100     9.9620     9.7400  -999.2500  -999.2500  -999.2500  -999.2500  -999.2500
  906.0000    83.5840   -49.4790   -75.9190    10.1250     9.9750     9.7510  -999.2500  -999.2500  -999.2500  -999.2500  -999.2500
  906.5000    81.8890   -49.1550   -76.5450    10.1370     9.9890     9.7610  -999.2500  -999.2500  -999.2500  -999.2500  -999.2500
  907.0000    80.2480   -48.9680   -76.3790    10.0470    10.0020     9.7720  -999.2500  -999.2500  -999.2500  -999.2500  -999.2500
  907.5000    79.6600   -49.2290   -75.8740    10.2320    10.0160     9.8280  -999.2500  -999.2500  -999.2500  -999.2500  -999.2500
  908.0000    79.9970   -49.4720   -75.3690    10.5530    10.0290     9.9040  -999.2500  -999.2500  -999.2500  -999.2500  -999.2500
  908.5000    82.1690   -48.9930   -74.8640    10.9110    10.0430     9.9790  -999.2500  -999.2500  -999.2500  -999.2500  -999.2500
  909.0000    84.2560   -48.6490   -74.3580    11.2690    10.2480    10.0470  -999.2500  -999.2500  -999.2500  -999.2500  -999.2500
  909.5000    82.9700   -48.3400   -73.8530    11.5190    10.5350    10.5480  -999.2500  -999.2500  -999.2500  -999.2500  -999.2500
  910.0000    77.7310   -48.0340   -73.3480    11.7140    10.8230    11.0040  -999.2500  -999.2500  -999.2500  -999.2500  -999.2500
  910.5000    72.3270   -47.7270   -72.8430    12.3640    11.1100    11.4150  -999.2500  -999.2500  -999.2500  -999.2500  -999.2500
  911.0000    72.5400   -47.4200   -72.3380    13.0130    11.4150    11.0420  -999.2500  -999.2500  -999.2500  -999.2500  -999.2500
  911.5000    74.9520   -47.1130   -71.8330    13.2080    11.3050    10.6270  -999.2500  -999.2500  -999.2500  -999.2500  -999.2500
  912.0000    78.2710   -46.8060   -71.3280    11.9070    11.1470    10.2960  -999.2500  -999.2500  -999.2500  -999.2500  -999.2500
  912.5000    81.7390   -46.4990   -70.8220    11.0060    11.0060    10.0480  -999.2500  -999.2500  -999.2500  -999.2500  -999.2500
  913.0000    85.1940   -46.1960   -70.3170    10.6760    10.6680     9.7750  -999.2500  -999.2500  -999.2500  -999.2500  -999.2500
  913.5000    87.8220   -46.0410   -69.8120    10.4200    10.3600     9.7120  -999.2500  -999.2500  -999.2500  -999.2500  -999.2500
  914.0000    88.3680   -45.9190   -69.3070    10.2850    10.0520     9.6420  -999.2500  -999.2500  -999.2500  -999.2500  -999.2500
  914.5000    87.5900   -45.7940   -68.8020    10.1630     9.7750     9.5720  -999.2500  -999.2500  -999.2500  -999.2500  -999.2500
