~VERSION INFORMATION
 VERS.                2.0:   CWLS LOG ASCII STANDARD - VERSION 2.0
 WRAP.                 NO:   ONE LINE PER DEPTH STEP
~WELL INFORMATION
#MNEM.UNIT      DATA TYPE    INFORMATION
#----------   ------------   ------------------------------
 STRT.F            0.5000:   START DEPTH
 STOP.F         4128.0000:   STOP DEPTH
 STEP.F            0.5000:   STEP LENGTH
 NULL.          -999.2500:   NO VALUE
 COMP. LAWRENCE ALLISON ASSOC WEST:   COMPANY
 WELL. LAWRENCE NPR "AX" #12-33:   WELL
 FLD .      NPR - WILDCAT:   FIELD
 LOC .      S33 T39N R78W:   LOCATION
 CNTY.            NATRONA:   COUNTY
 STAT.            WYOMING:   STATE
 CTRY. UNITED STATES OF AMERICA:   COUNTRY
 SRVC.      DRESSER ATLAS:   SERVICE COMPANY
 DATE.        04-AUG-1984:   LOGDATE
 API .     49025109720000:   API NUMBER
~CURVE INFORMATION
#MNEM.UNIT       API CODE    CURVE DESCRIPTION
#----------   ------------   ------------------------------
 DEPT.F                  :   
 CORR.G/C3   45 356 01 00:   DENSITY CORRECTION
 TEND.LBS    45 635 01 00:   TENSION FROM DENSITY LOG
 RHOB.G/C3   45 350 01 00:   BULK DENSITY
 GRR .GAPI   07 310 01 00:   GAMMA RAY FROM RESISTIVITY
 SPR .MV     07 010 01 00:   SPONTANEOUS POTENTIAL
 RFOC.OHMM   07 220 04 00:   RESISTIVITY FOCUSED LOG RES.
 RILM.OHMM   07 120 44 00:   RESISTIVITY INDUCTION LOG MEDIUM
 RILD.OHMM   07 120 46 00:   RESISTIVITY INDUCTION LOG MEDIUM
 TENR.LBS    07 635 01 00:   TENSION FROM RESISTIVITY
 CALR.IN     07 280 01 00:   CALIPER FROM RESISTIVITY
 DT  .US/F   60 520 00 00:   DELTA TIME
 TENS.LBS    60 635 01 00:   TENSION FROM SONIC
 SPHI.DEC    60 890 00 00:   SONIC POROSITY
~PARAMETER INFORMATION
#MNEM.UNIT          VALUE    DESCRIPTION
#----------   ------------   ------------------------------
 EKB .F         5170.0000:   Kelly bushing
 EGL .F         5157.0000:   Ground level
 EDF .F            0.0000:   Drilling floor
 TD  .F         4121.0000:   Total depth
 DATE.        04-AUG-1984:   Date logged
 CLNT.            A2DTECH:   Client Code
 SL  . 857' FNL & 751' FWL:   Surface Location
 PD  .                 GL:   Permanent Datum
 EPD .F              5157:   Elevation Permanent Datum
 LMF .                 KB:   Log Measured From
 DMF .                 KB:   Drilling Measured From
 DAPD.F                13:   Feet Above Permanent Datum
 DD  .F              4120:   Depth driller
 DL  .F              4121:   Depth logger
 BLI .F              4119:   Bottom log interval
 CS1 .IN            8.625:   Casing size
 CBD1.      8.625" @ 625':   Casing driller 1
 CBL1.F               624:   Casing logger 1
 BS1 .IN            7.875:   Bit size
 BSD1.F              4120:   Depth drilled with bit1
 DFT .            GEL/KCL:   Type fluid in hole
 DFD .                9.1:   Density
 DFV .                 40:   Viscosity
 DFPH.                8.5:   pH
 DFL .                 11:   Fluid loss
 MSS .               TANK:   Source of sample
 RMS .OHMM           .302:   Rm
 MST .F                84:   Rm Meas. temp.
 RMF .OHMM            .22:   Rmf
 MFST.F                84:   Rmf Meas. temp.
 RMC .OHMM            .38:   Rmc
 MCST.F                84:   Rmc Meas. temp.
 MFSS.               CALC:   Source Rmf.
 MCSS.               CALC:   Source Rmc.
 RMB .OHMM            .19:   Rm. at BHT
 BHT .F               132:   BHT.
 TCS .HRS               4:   Time Circ. stopped
 MRT .F               132:   Maximum recorded temp.
 LUN .               6307:   Logging unit number
 LUL .               GLTE:   Logging unit location
 ENGI.           FAHLSING:   Recorded By
 WITN.       ROBERT SCOTT:   Witnessed by
 ORIG.           5" PRINT:   Origin of data
 UWI .     49025109720000:   Unique Well ID
 DICO. A2D TECHNOLOGIES, INC.:   Digitizing Company
~OTHER INFORMATION
~A    DEPT    CORR       TEND       RHOB         GRR       SPR       RFOC       RILM       RILD       TENR       CALR         DT       TENS       SPHI   
# ...
 1560.5000  -999.2500  -999.2500  -999.2500   106.1790   -44.7920     7.9120     7.4000     6.9310   -25.2250     8.0350  -999.2500  -999.2500  -999.2500
 1561.0000  -999.2500  -999.2500  -999.2500   102.8620   -44.4980     7.7700     7.2990     6.9220   -25.2250     8.0370  -999.2500  -999.2500  -999.2500
 1561.5000  -999.2500  -999.2500  -999.2500   101.0040   -44.2030     7.6270     7.1980     6.9130   -25.2250     8.0400  -999.2500  -999.2500  -999.2500
 1562.0000  -999.2500  -999.2500  -999.2500   100.7070   -43.9070     7.4720     7.1360     6.9050   -25.2250     8.0420  -999.2500  -999.2500  -999.2500
 1562.5000  -999.2500  -999.2500  -999.2500   104.0480   -43.6110     7.5730     7.2070     6.8960   -25.2250     8.0450  -999.2500  -999.2500  -999.2500
 1563.0000  -999.2500  -999.2500  -999.2500   107.7660   -43.3230     7.8240     7.2950     6.8870   -25.2250     8.0470  -999.2500  -999.2500  -999.2500
 1563.5000  -999.2500  -999.2500  -999.2500   107.2190   -42.8990     7.8960     7.3840     6.8790   -25.2250     8.0490  -999.2500  -999.2500  -999.2500
 1564.0000  -999.2500  -999.2500  -999.2500   105.7620   -42.7690     7.8290     7.4720     6.8950   -25.2250     8.0520  -999.2500  -999.2500  -999.2500
 1564.5000  -999.2500  -999.2500  -999.2500   106.1090   -42.6860     7.7460     7.5600     6.9120   -25.2250     8.0540  -999.2500  -999.2500  -999.2500
 1565.0000  -999.2500  -999.2500  -999.2500   106.4260   -42.5390     7.6810     7.6490     6.9280   -25.2250     8.0560  -999.2500  -999.2500  -999.2500
 1565.5000  -999.2500  -999.2500  -999.2500   105.6060   -42.5320     7.7700     7.7520     6.9450   -25.2250     8.0590  -999.2500  -999.2500  -999.2500
 1566.0000  -999.2500  -999.2500  -999.2500   102.8470   -42.5310     7.8780     7.7460     6.9620   -25.2250     8.0610  -999.2500  -999.2500  -999.2500
 1566.5000  -999.2500  -999.2500  -999.2500    97.9220   -42.5810     7.9690     7.7310     6.9780   -25.2250     8.0640  -999.2500  -999.2500  -999.2500
 1567.0000  -999.2500  -999.2500  -999.2500    95.5410   -42.7250     7.9690     7.7160     6.9950   -25.2250     8.0660  -999.2500  -999.2500  -999.2500
 1567.5000  -999.2500  -999.2500  -999.2500    97.8710   -42.8680     7.9690     7.7010     7.0110   -25.2250     8.0680  -999.2500  -999.2500  -999.2500
 1568.0000  -999.2500  -999.2500  -999.2500   101.5650   -43.0110     7.9500     7.6860     7.0280   -25.2250     8.0710  -999.2500  -999.2500  -999.2500
 1568.5000  -999.2500  -999.2500  -999.2500   100.4580   -43.1520     7.9080     7.6710     7.0450   -25.2250     8.0730  -999.2500  -999.2500  -999.2500
 1569.0000  -999.2500  -999.2500  -999.2500    99.6580   -43.2860     7.8650     7.6550     7.0610   -25.2250     8.0750  -999.2500  -999.2500  -999.2500
 1569.5000  -999.2500  -999.2500  -999.2500   101.4280   -43.7180     7.8240     7.6400     7.0780   -25.2250     8.0780  -999.2500  -999.2500  -999.2500
 1570.0000  -999.2500  -999.2500  -999.2500   101.9370   -44.2130     7.8250     7.6250     7.0940   -25.2250     8.0800  -999.2500  -999.2500  -999.2500
 1570.5000  -999.2500  -999.2500  -999.2500   102.1140   -44.7120     7.8240     7.6110     7.1110   -25.2250     8.0880  -999.2500  -999.2500  -999.2500
 1571.0000  -999.2500  -999.2500  -999.2500   103.5590   -45.2160     7.8230     7.7760     7.1270   -25.2250     8.1050  -999.2500  -999.2500  -999.2500
 1571.5000  -999.2500  -999.2500  -999.2500   105.0110   -45.3140     7.8240     7.9310     7.1440   -25.2250     8.1260  -999.2500  -999.2500  -999.2500
 1572.0000  -999.2500  -999.2500  -999.2500   104.9220   -45.3180     8.0840     8.1170     7.1610   -25.2250     8.1210  -999.2500  -999.2500  -999.2500
 1572.5000  -999.2500  -999.2500  -999.2500   103.2890   -45.3190     8.3260     7.9360     7.1770   -25.2250     8.0970  -999.2500  -999.2500  -999.2500
 1573.0000  -999.2500  -999.2500  -999.2500   101.5880   -45.3010     8.5000     7.7300     7.1940   -25.2250     8.0720  -999.2500  -999.2500  -999.2500
 1573.5000  -999.2500  -999.2500  -999.2500    99.8870   -44.7820     8.5000     7.5410     7.2020   -25.2250     8.0470  -999.2500  -999.2500  -999.2500
 1574.0000  -999.2500  -999.2500  -999.2500    98.1540   -44.2390     8.3220     7.6010     7.2020   -25.2250     8.0220  -999.2500  -999.2500  -999.2500
 1574.5000  -999.2500  -999.2500  -999.2500    99.5420   -43.6970     8.1580     7.6670     7.2020   -25.2250     7.9970  -999.2500  -999.2500  -999.2500
 1575.0000  -999.2500  -999.2500  -999.2500   102.3230   -43.1560     8.0430     7.7340     7.2020   -25.2250     7.9830  -999.2500  -999.2500  -999.2500
 1575.5000  -999.2500  -999.2500  -999.2500   105.1240   -42.6140     8.0430     7.8010     7.2020   -25.2250     8.0040  -999.2500  -999.2500  -999.2500
 1576.0000  -999.2500  -999.2500  -999.2500   107.8460   -42.0770     8.0430     7.8680     7.2020   -25.2250     8.0250  -999.2500  -999.2500  -999.2500
 1576.5000  -999.2500  -999.2500  -999.2500   104.2470   -41.5710     8.0810     7.9340     7.2020   -25.2250     8.0430  -999.2500  -999.2500  -999.2500
 1577.0000  -999.2500  -999.2500  -999.2500    99.9710   -41.3290     8.2050     8.0010     7.2020   -25.2250     8.0480  -999.2500  -999.2500  -999.2500
 1577.5000  -999.2500  -999.2500  -999.2500    95.7210   -41.3610     8.3280     8.0680     7.2020   -25.2250     8.0530  -999.2500  -999.2500  -999.2500
 1578.0000  -999.2500  -999.2500  -999.2500    92.9440   -41.9790     8.4520     8.1340     7.2020   -25.2250     8.0590  -999.2500  -999.2500  -999.2500
 1578.5000  -999.2500  -999.2500  -999.2500    97.0700   -42.6160     8.5750     8.1840     7.2020   -25.2250     8.0600  -999.2500  -999.2500  -999.2500
 1579.0000  -999.2500  -999.2500  -999.2500   100.9070   -43.2540     8.6580     8.0930     7.2020   -25.2250     8.0540  -999.2500  -999.2500  -999.2500
 1579.5000  -999.2500  -999.2500  -999.2500   101.3370   -43.8910     8.4980     8.0050     7.2020   -25.2250     8.0490  -999.2500  -999.2500  -999.2500
 1580.0000  -999.2500  -999.2500  -999.2500   101.0140   -44.5280     8.1990     7.9160     7.2020   -25.2250     8.0440  -999.2500  -999.2500  -999.2500
 1580.5000  -999.2500  -999.2500  -999.2500   100.5530   -45.1670     7.9000     7.8280     7.2020   -25.2250     8.0250  -999.2500  -999.2500  -999.2500
 1581.0000  -999.2500  -999.2500  -999.2500   100.2980   -45.8060     7.8240     7.7520     7.2020   -25.2250     7.9980  -999.2500  -999.2500  -999.2500
 1581.5000  -999.2500  -999.2500  -999.2500   103.2450   -45.9110     7.8510     7.8480     7.2020   -25.2250     7.9810  -999.2500  -999.2500  -999.2500
 1582.0000  -999.2500  -999.2500  -999.2500   106.1960   -45.9140     8.0270     7.9480     7.2020   -25.2250     8.0190  -999.2500  -999.2500  -999.2500
 1582.5000  -999.2500  -999.2500  -999.2500   104.4100   -45.9170     8.2040     8.0490     7.2020   -25.2250     8.0440  -999.2500  -999.2500  -999.2500
 1583.0000  -999.2500  -999.2500  -999.2500   101.0570   -45.9280     8.3800     8.1490     7.2020   -25.2250     8.0660  -999.2500  -999.2500  -999.2500
 1583.5000  -999.2500  -999.2500  -999.2500    97.8910   -45.5150     8.4220     8.1930     7.2020   -25.2250     8.0800  -999.2500  -999.2500  -999.2500
 1584.0000  -999.2500  -999.2500  -999.2500    97.5110   -45.0460     8.5780     8.2680     7.2020   -25.2250     8.0340  -999.2500  -999.2500  -999.2500
 1584.5000  -999.2500  -999.2500  -999.2500    98.7570   -44.5700     8.5340     8.2490     7.2020   -25.2250     8.0140  -999.2500  -999.2500  -999.2500
 1585.0000  -999.2500  -999.2500  -999.2500   101.8540   -44.0860     8.4180     8.2170     7.2020   -25.2250     7.9950  -999.2500  -999.2500  -999.2500
 1585.5000  -999.2500  -999.2500  -999.2500   104.9270   -43.7910     8.3010     8.1840     7.2020   -25.2250     7.9760  -999.2500  -999.2500  -999.2500
 1586.0000  -999.2500  -999.2500  -999.2500   107.9980   -43.5230     8.1840     8.1510     7.2020   -25.2250     7.9560  -999.2500  -999.2500  -999.2500
