~VERSION INFORMATION
 VERS.                2.0:   CWLS LOG ASCII STANDARD - VERSION 2.0
 WRAP.                 NO:   ONE LINE PER DEPTH STEP
~WELL INFORMATION
#MNEM.UNIT      DATA TYPE    INFORMATION
#----------   ------------   ------------------------------
 STRT.F          700.5000:   START DEPTH
 STOP.F         3060.0000:   STOP DEPTH
 STEP.F            0.5000:   STEP LENGTH
 NULL.          -999.2500:   NO VALUE
 COMP.    FENIX & SCISSON:   COMPANY
 WELL.   FENIX "A" #23-34:   WELL
 FLD .           N P R #3:   FIELD
 LOC .      S34 T39N R78W:   LOCATION
 CNTY.            NATRONA:   COUNTY
 STAT.            WYOMING:   STATE
 CTRY. UNITED STATES OF AMERICA:   COUNTRY
 SRVC.       SCHLUMBERGER:   SERVICE COMPANY
 DATE.        23-APR-1977:   LOGDATE
 API .     49025103590000:   API NUMBER
~CURVE INFORMATION
#MNEM.UNIT       API CODE    CURVE DESCRIPTION
#----------   ------------   ------------------------------
 DEPT.F                  :   
 ILD .OHMM   07 120 46 00:   DEEP INDUCTION RESISTIVITY
 ILM .OHMM   07 120 44 00:   INDUCTION LOG MEDIUM RESISTIVITY
 LL8 .OHMM   07 220 08 00:   LATEROLOG-8 RES.
 SPR .MV     07 010 01 00:   SPONTANEOUS POTENTIAL
 GRD .GAPI   45 310 01 00:   GAMMA RAY FROM DENSITY LOG
 CALD.IN     45 280 60 00:   CALIPER FROM DENSITY LOG
 RHOB.G/C3   45 350 01 00:   BULK DENSITY
 CORR.G/C3   45 356 01 00:   DENSITY CORRECTION
~PARAMETER INFORMATION
#MNEM.UNIT          VALUE    DESCRIPTION
#----------   ------------   ------------------------------
 EKB .F         5094.0000:   Kelly bushing
 EGL .F         5082.0000:   Ground level
 EDF .F            0.0000:   Drilling floor
 EPD .F            0.0000:   Permanent datum
 TD  .F         3051.0000:   Total depth
 DATE.        23-APR-1977:   Date logged
 CLNT.            A2DTECH:   Client Code
 SL  . 990' FWL & 1650' FNL:   Surface Location
 PD  .                 GL:   Permanent Datum
 DD  .F              3050:   Depth driller
 DL  .F              3051:   Depth logger
 BLI .F              3045:   Bottom log interval
 CS1 .IN            8.625:   Casing size
 CBD1.      8.625" @ 718':   Casing driller 1
 CBL1.F               717:   Casing logger 1
 BS1 .IN            7.875:   Bit size
 DFT .                FGM:   Type fluid in hole
 DFD .                8.8:   Density
 DFV .                 34:   Viscosity
 DFPH.                8.5:   pH
 DFL .                8.2:   Fluid loss
 MSS .           FLOWLINE:   Source of sample
 RMS .OHMM           .155:   Rm
 MST .F                66:   Rm Meas. temp.
 RMF .OHMM           .152:   Rmf
 MFST.F                66:   Rmf Meas. temp.
 MFSS.               MEAS:   Source Rmf.
 RMB .OHMM           .085:   Rm. at BHT
 BHT .F               120:   BHT.
 TCS .HRS            0230:   Time Circ. stopped
 MRT .F               120:   Maximum recorded temp.
 LUN .               5642:   Logging unit number
 LUL .               CSPR:   Logging unit location
 ENGI.             TAYLOR:   Recorded By
 WITN.         HARRINGTON:   Witnessed by
 ORIG.           5" PRINT:   Origin of data
 UWI .     49025103590000:   Unique Well ID
 DICO. A2D TECHNOLOGIES, INC.:   Digitizing Company
 DAPD.                 12:   Feet Above Permanent Datum
 BSD1.               3050:   Depth drilled with bit1
 TLI .                717:   Top log interval
 TLAB.               0530:   Time logger at bottom
~OTHER INFORMATION
~A   DEPT      ILD        ILM        LL8        SPR         GRD      CALD       RHOB       CORR   
# ...
 1146.0000     9.3460     7.9030    10.0520   -72.2460   111.1730     9.8310     2.4830     0.0210
 1146.5000     9.2780     7.7680     9.9330   -72.4830   113.3630     9.7960     2.4990     0.0300
 1147.0000     9.2090     7.6210     9.7680   -72.7210   115.0020     9.7620     2.5090     0.0380
 1147.5000     9.1410     7.6090     9.6030   -72.9570   116.6550     9.7270     2.5210     0.0470
 1148.0000     9.0730     7.5700     9.4230   -73.1940   117.1590     9.7180     2.5100     0.0500
 1148.5000     9.0040     7.5510     9.4230   -73.1700   117.7520     9.7180     2.4890     0.0270
 1149.0000     8.9360     7.5810     9.4230   -72.8930   119.3060     9.7180     2.4690     0.0120
 1149.5000     8.8330     7.6080     9.5100   -72.6170   120.0590     9.7160     2.4660     0.0120
 1150.0000     8.8330     7.6920     9.5100   -72.3410   119.6060     9.7140     2.4700     0.0140
 1150.5000     8.9160     7.6410     9.4540   -72.0630   118.7400     9.7120     2.4640     0.0200
 1151.0000     8.9800     7.5390     9.3420   -71.9260   117.8590     9.7100     2.4790     0.0280
 1151.5000     8.9980     7.4370     9.2300   -71.9250   117.0700     9.7080     2.4900     0.0320
 1152.0000     8.8120     7.3350     9.1180   -71.9250   118.4270     9.7060     2.4850     0.0200
 1152.5000     8.7180     7.2340     9.0060   -71.9240   119.6680     9.7040     2.4910     0.0270
 1153.0000     8.6250     7.1320     8.8950   -71.9240   119.4360     9.7020     2.4960     0.0200
 1153.5000     8.5320     7.0300     8.7830   -71.9280   116.6160     9.7000     2.4850     0.0190
 1154.0000     8.4380     6.9280     8.7520   -72.0330   113.8940     9.6980     2.4740     0.0190
 1154.5000     8.2810     6.8270     8.7520   -72.4130   115.9410     9.7070     2.4630     0.0110
 1155.0000     8.2810     6.7590     8.7520   -72.7790   116.8330     9.7180     2.4650     0.0080
 1155.5000     8.2920     6.7720     8.7520   -73.1480   117.0470     9.7290     2.4820     0.0140
 1156.0000     8.3120     6.7860     8.6920   -73.3580   119.7820     9.7400     2.5080     0.0340
 1156.5000     8.3330     6.7990     8.6120   -73.5140   121.0880     9.7510     2.5400     0.0560
 1157.0000     8.3530     6.8120     8.5920   -73.6640   119.9210     9.7580     2.5470     0.0740
 1157.5000     8.3730     6.8260     8.6100   -73.8120   118.5010     9.7580     2.5340     0.0510
 1158.0000     8.3940     6.8390     8.6580   -73.8820   117.0910     9.7580     2.5130     0.0380
 1158.5000     8.4140     6.8530     8.7060   -73.8020   114.9780     9.7580     2.5020     0.0340
 1159.0000     8.4350     6.8660     8.7550   -73.7240   112.2870     9.7580     2.4970     0.0290
 1159.5000     8.4350     6.8800     8.8280   -73.6460   110.5510     9.7580     2.4930     0.0270
 1160.0000     8.3360     6.8850     8.7890   -73.5680   111.9040     9.7570     2.5010     0.0290
 1160.5000     8.2170     6.8480     8.6700   -73.4900   114.7280     9.7560     2.5110     0.0370
 1161.0000     8.0970     6.7490     8.5520   -73.4120   117.5350     9.7770     2.5010     0.0310
 1161.5000     7.9780     6.6510     8.4330   -73.3330   119.4870     9.7810     2.4920     0.0180
 1162.0000     7.8590     6.5530     8.3150   -73.2550   120.2020     9.7970     2.4930     0.0240
 1162.5000     7.7630     6.4540     8.1960   -73.1790   120.6020     9.8000     2.5030     0.0310
 1163.0000     7.8330     6.3950     8.0550   -73.1660   120.7120     9.8030     2.5000     0.0260
 1163.5000     7.8920     6.3950     8.1570   -73.4450   120.4460     9.8050     2.4910     0.0220
 1164.0000     7.9500     6.4550     8.2850   -73.7210   120.1810     9.8080     2.4840     0.0250
 1164.5000     8.0090     6.5170     8.4350   -73.9950   119.4340     9.8120     2.4910     0.0300
 1165.0000     8.0550     6.5780     8.3920   -74.2690   117.2350     9.8140     2.4870     0.0240
 1165.5000     7.9190     6.6390     8.2900   -74.5410   114.8820     9.8160     2.4830     0.0290
 1166.0000     7.7860     6.7000     8.1880   -74.7540   113.7640     9.8790     2.4890     0.0340
 1166.5000     7.7630     6.7590     8.1290   -74.8880   113.2050     9.9540     2.4960     0.0390
 1167.0000     7.8240     6.7870     8.3280   -74.6620   113.9510     9.9570     2.4950     0.0330
 1167.5000     7.9650     6.8130     8.4900   -74.3810   115.3220     9.9430     2.4800     0.0220
 1168.0000     8.1050     6.8390     8.6510   -74.0950   116.7240     9.9030     2.4730     0.0130
 1168.5000     8.2460     6.8660     8.8130   -73.7980   117.7230     9.8640     2.4860     0.0210
 1169.0000     8.3860     6.8850     8.9740   -73.6570   119.3560     9.8250     2.4800     0.0230
 1169.5000     8.4350     6.8360     8.9980   -73.5290   118.3960     9.7970     2.4890     0.0200
 1170.0000     8.4180     6.7970     8.8370   -73.4050   117.2400     9.8020     2.5130     0.0490
 1170.5000     8.4010     6.7580     8.6850   -73.2810   116.0750     9.8160     2.5070     0.0510
 1171.0000     8.3850     6.7190     8.5150   -73.1560   114.2290     9.8370     2.4950     0.0400
 1171.5000     8.3680     6.6800     8.5280   -73.0300   114.9870     9.8620     2.4880     0.0370
 1172.0000     8.3520     6.6360     8.5440   -72.9280   116.2920     9.8860     2.5430     0.0680
 1172.5000     8.3350     6.7510     8.5610   -73.1560   116.8280     9.9080     2.5370     0.0820
 1173.0000     8.3190     6.9200     8.5770   -73.3830   115.4270     9.9290     2.5270     0.0670
 1173.5000     8.3020     7.0900     8.5920   -73.6080   113.5710     9.9500     2.4980     0.0560
 1174.0000     8.2810     7.2590     8.7050   -73.8330   113.3820     9.9710     2.5040     0.0480
 1174.5000     8.3240     7.4130     8.8090   -74.0610   113.5480     9.9910     2.5050     0.0400
 1175.0000     8.4110     7.3030     8.9130   -74.2930   113.5930    10.0130     2.5020     0.0320
 1175.5000     8.4980     7.1800     9.0160   -74.1480   113.2830    10.0170     2.4950     0.0290
 1176.0000     8.5850     7.1440     9.1200   -73.9700   113.6500    10.0170     2.4780     0.0190
 1176.5000     8.6720     7.2980     9.2240   -73.7930   114.0540     9.9960     2.4980     0.0200
 1177.0000     8.7580     7.4820     9.3360   -73.6160   114.4230     9.9690     2.4930     0.0260
 1177.5000     8.8450     7.4470     9.3560   -73.4400   113.0660     9.9430     2.4850     0.0180
 1178.0000     8.9320     7.3980     9.3780   -73.2630   110.6630     9.9160     2.5150     0.0340
 1178.5000     9.0190     7.3500     9.4000   -73.0860   108.1830     9.8900     2.5210     0.0480
 1179.0000     9.1060     7.3010     9.4230   -72.9090   107.5630     9.8550     2.5180     0.0250
 1179.5000     9.1930     7.2520     9.0990   -72.7330   107.0630     9.8570     2.5150     0.0330
 1180.0000     9.2510     7.2100     8.5920   -72.5560   108.3450     9.8570     2.5120     0.0290
 1180.5000     9.1980     7.2100     8.6010   -72.3810   110.0990     9.8570     2.5130     0.0400
 1181.0000     9.1270     7.2530     8.6160   -72.2040   111.8430     9.8570     2.5230     0.0430
 1181.5000     9.0550     7.3090     8.6310   -72.2740   112.3800     9.8590     2.5360     0.0630
 1182.0000     8.9840     7.3660     8.6470   -72.5390   112.4670     9.8610     2.5470     0.0470
 1182.5000     8.9130     7.4230     8.6700   -72.8040   112.9290     9.8630     2.5320     0.0500
 1183.0000     8.8420     7.4820     8.6540   -73.0720   114.0480     9.8660     2.5390     0.0560
 1183.5000     8.7710     7.4820     8.6040   -73.3390   115.6900     9.8680     2.5240     0.0520
 1184.0000     8.7000     7.2840     8.4330   -73.6060   117.0150     9.8700     2.5080     0.0420
 1184.5000     8.6280     7.1440     8.2250   -73.8730   116.8410     9.8720     2.4920     0.0390
 1185.0000     8.5570     7.2220     8.0550   -74.1380   116.5680     9.8740     2.4930     0.0480
 1185.5000     8.5130     7.8350     8.3430   -74.2380   119.4430     9.8760     2.5110     0.0440
 1186.0000     8.6190     7.7620     8.5870   -74.0510   121.3900     9.8760     2.5260     0.0470
