~VERSION INFORMATION
 VERS.                2.0:   CWLS LOG ASCII STANDARD - VERSION 2.0
 WRAP.                 NO:   ONE LINE PER DEPTH STEP
~WELL INFORMATION
#MNEM.UNIT      DATA TYPE    INFORMATION
#----------   ------------   ------------------------------
 STRT.F            4.0000:   START DEPTH
 STOP.F         5696.0000:   STOP DEPTH
 STEP.F            0.5000:   STEP LENGTH
 NULL.          -999.2500:   NO VALUE
 COMP.       FLUOR DANIEL:   COMPANY
 WELL.   FLUOR "X" #72-10:   WELL
 FLD .             NPR #3:   FIELD
 LOC .      S10 T38N R78W:   LOCATION
 CNTY.            NATRONA:   COUNTY
 STAT.            WYOMING:   STATE
 CTRY. UNITED STATES OF AMERICA:   COUNTRY
 SRVC.      WESTERN ATLAS:   SERVICE COMPANY
 DATE.        26-SEP-1996:   LOGDATE
 API .     49025228080000:   API NUMBER
~CURVE INFORMATION
#MNEM.UNIT       API CODE    CURVE DESCRIPTION
#----------   ------------   ------------------------------
 DEPT.F                  :   
 GRR .GAPI   07 310 01 00:   GAMMA RAY FROM RESISTIVITY
 SPR .MV     07 010 01 00:   SPONTANEOUS POTENTIAL
 CALR.IN     07 280 01 00:   CALIPER FROM RESISTIVITY
 RD  .OHMM   07 220 10 00:   RESISTIVITY DEEP
 RS  .OHMM   07 220 09 00:   RESISTIVITY SHALLOW
 TENR.LBS    07 635 01 00:   TENSION FROM RESISTIVITY
~PARAMETER INFORMATION
#MNEM.UNIT          VALUE    DESCRIPTION
#----------   ------------   ------------------------------
 EKB .F         5178.0000:   Kelly bushing
 EGL .F         5168.0000:   Ground level
 EDF .F         5177.0000:   Drilling floor
 TD  .F         5698.0000:   Total depth
 CLNT.            A2DTECH:   Client Code
 SL  . 687' FNL & 1002' FEL:   Surface Location
 PD  .                 GL:   Permanent Datum
 EPD .F              5168:   Elevation Permanent Datum
 LMF .                 KB:   Log Measured From
 DMF .                 KB:   Drilling Measured From
 DAPD.F                10:   Feet Above Permanent Datum
 DATE.        26-SEP-1996:   Date Logged [DD-MMM-YYYY]
 DD  .F              5698:   Depth driller
 DL  .F              5697:   Depth logger
 BLI .F              5685:   Bottom log interval
 CS1 .IN            9.625:   Casing size
 CBD1.      9.625" @ 526':   Casing driller 1
 CBL1.F               526:   Casing logger 1
 BS1 .IN             8.75:   Bit size
 BSD1.F              5698:   Depth drilled with bit1
 DFT .               CHEM:   Type fluid in hole
 DFD .                9.1:   Density
 DFV .                 60:   Viscosity
 DFPH.                9.5:   pH
 DFL .                7.6:   Fluid loss
 MSS .               CIRC:   Source of sample
 RMS .OHMM           0.82:   Rm
 MST .F                64:   Rm Meas. temp.
 RMF .OHMM           0.64:   Rmf
 MFST.F                64:   Rmf Meas. temp.
 MFSS.               CALC:   Source Rmf.
 RMC .OHMM           1.08:   Rmc
 MCST.F                64:   Rmc Meas. temp.
 MCSS.               CALC:   Source Rmc.
 RMB .OHMM           0.29:   Rm. at BHT
 BHT .F               183:   BHT.
 TCS .HRS               5:   Time Circ. stopped
 MRT .F               183:   Maximum recorded temp.
 LUN .            HL-6530:   Logging unit number
 LUL .             CASPER:   Logging unit location
 ENGI.           BROWNLOW:   Recorded By
 ORIG.        2" 5" PRINT:   Origin of data
 UWI .     49025228080000:   Unique Well ID
 WITN.              HARDY:   Witnessed by
 DICO. A2D TECHNOLOGIES, INC.:   Digitizing Company
~OTHER INFORMATION
~A  DEPTH      GRR        SPR       CALR         RD         RS       TENR
# ...
 3592.0000   199.5587   -59.2752     8.9760     7.5082     7.2075   -78.7754
 3592.5000   197.7907   -59.1104     8.9925     7.9374     7.7794   -63.7129
 3593.0000   196.0089   -58.9457     8.9939     8.2187     8.1104   -48.6504
 3593.5000   190.0102   -58.6268     9.0715     7.3953     7.7804   -26.0743
 3594.0000   181.6818   -58.4656     9.2547     5.1562     5.4251   -33.5181
 3594.5000   172.8923   -58.7527     9.7107     3.0563     3.9435   -48.4406
 3595.0000   176.5385   -59.0363     9.9394     2.5699     2.8665   -48.3508
 3595.5000   180.7807   -59.0186     9.8654     2.6244     2.6378   -25.7769
 3596.0000   179.9089   -59.1586     9.3517     3.5110     3.0516   -10.7145
 3596.5000   175.4162   -59.1409     9.1410     5.2353     4.3168    -3.1483
 3597.0000   172.4295   -59.1265     9.0969     7.0693     5.8983   -40.5421
 3597.5000   173.0573   -59.1091     9.0987     7.2693     7.2664   -62.9609
 3598.0000   184.8361   -58.9444     9.1153     6.2002     7.3650   -85.3797
 3598.5000   190.8855   -58.9303     9.1319     5.7465     6.3673   -84.2566
 3599.0000   188.8025   -58.7651     9.1658     5.9094     5.9000   -62.7336
 3599.5000   181.1099   -58.4467     9.1957     6.2907     5.9889   -55.1674
 3600.0000   168.3777   -58.2820     9.2122     6.6044     6.5934   -47.6012
 3600.5000   163.5775   -57.9666     9.2137     6.8384     6.9218   -40.0175
 3601.0000   169.6333   -57.9490     9.1999     6.6932     6.6873   -54.9401
 3601.5000   174.5218   -57.9348     9.2017     6.5177     6.3714   -69.8651
 3602.0000   173.9073   -57.6195     9.2031     6.4290     6.2842   -62.2789
 3602.5000   170.9207   -57.4548     9.2046     6.3859     6.2416   -54.7127
 3603.0000   169.7410   -56.9853     9.2215     6.3686     6.1995   -54.6428
 3603.5000   171.5802   -56.5194     9.2532     6.3198     6.2005   -62.1160
 3604.0000   171.9005   -56.3546     9.2698     6.2374     6.2444   -69.4954
 3604.5000   161.5551   -56.1898     9.2791     6.3686     6.3766   -76.9217
 3605.0000   147.6207   -56.1722     9.3033     6.5025     6.5568   -84.3328
 3605.5000   137.1177   -56.1581     9.3199     6.4971     6.0342   -91.7568
 3606.0000   135.0328   -56.2981     9.3213     6.1515     5.6306   -91.6694
 3606.5000   140.1924   -56.2801     9.3227     5.6212     5.3644   -91.5994
 3607.0000   140.8262   -56.4169     9.3090     5.3548     5.2185   -91.5292
 3607.5000   138.6084   -56.3993     9.2952     5.3178     5.2192   -83.9458
 3608.0000   134.5714   -56.0839     9.2970     5.3178     5.2562   -83.8758
 3608.5000   134.6027   -55.7467     9.2985     5.2810     5.2569   -68.8134
 3609.0000   137.3449   -55.5823     9.3002     5.2810     5.2577   -53.7334
 3609.5000   143.4453   -55.3558     9.3016     5.2810     5.2584   -52.7006
 3610.0000   149.4636   -55.1292     9.3031     5.2810     5.2591   -50.9217
 3610.5000   152.2057   -55.3427     9.3048     5.1723     5.2234   -49.1741
 3611.0000   155.2491   -55.3163     9.3366     4.9960     5.0813   -49.2624
 3611.5000   158.5937   -54.8524     9.3531     4.5024     4.6438   -49.3331
 3612.0000   162.2473   -54.6847     9.4606     3.5076     4.0215   -49.4038
 3612.5000   161.9775   -54.8182     9.8109     3.0322     3.3271   -49.1500
 3613.0000   159.5992   -54.9518     9.9638     2.7137     2.6771   -34.5527
 3613.5000   151.9286   -54.9304     9.8268     3.0533     2.7532   -19.6486
 3614.0000   142.7547   -54.7627     9.5252     3.6821     3.1857   -12.2054
 3614.5000   135.2858   -54.7456     9.4513     4.5652     4.0622   -19.8523
 3615.0000   124.4939   -54.7285     9.4077     4.7923     4.3551   -57.3596
 3615.5000   110.9711   -54.8620     9.4095     4.5970     4.2665   -79.9190
 3616.0000   110.0910   -54.9912     9.4725     3.9192     3.8997   -64.9972
 3616.5000   117.3590   -55.1290     9.5652     3.7077     3.3722   -57.5712
 3617.0000   121.4454   -55.2625     9.6126     3.6062     3.2133   -35.1536
 3617.5000   125.2608   -55.3918     9.6296     3.6313     3.1260   -27.7280
 3618.0000   127.4006   -55.5253     9.6319     3.7335     3.1270   -27.8164
 3618.5000   128.3356   -55.9557     9.6186     3.8921     3.2609   -35.3833
 3619.0000   127.7215   -56.2441     9.5750     4.0857     3.5449   -42.9680
 3619.5000   122.3820   -56.5241     9.5466     4.7263     3.8803   -50.5349
 3620.0000   119.1000   -56.6532     9.4878     5.0658     4.1601   -58.1018
 3620.5000   117.6253   -56.6361     9.4594     5.1010     4.1904   -65.6688
 3621.0000   118.2591   -56.7696     9.4314     5.1010     4.1338   -73.2357
 3621.5000   120.4067   -56.7525     9.4333     5.0307     4.0497   -65.8102
 3622.0000   122.5464   -56.7349     9.4188     4.9614     3.9399   -50.9060
 3622.5000   121.6742   -56.8690     9.3920     4.8257     3.7544   -43.4782
 3623.0000   117.1874   -56.9982     9.3782     4.5024     3.5527   -35.1742
 3623.5000   116.0139   -57.1317     9.3351     3.9192     3.2248   -13.6545
 3624.0000   127.4989   -57.2652     9.3542     3.0533     2.8079   -13.7252
 3624.5000   133.5543   -57.5451     9.6878     2.6578     2.1283   -36.2847
 3625.0000   135.9953   -57.6786     9.9927     2.6031     2.0705   -43.8531
 3625.5000   128.3099   -57.8164    10.7066     2.6394     2.1294   -36.4261
 3626.0000   105.0417   -57.7950    11.9964     2.7707     2.3800   -36.5144
 3626.5000    94.2296   -57.1712    12.6043     3.0112     2.6054   -36.5851
 3627.0000    91.5423   -57.1541    12.3036     3.1836     2.7739   -29.1595
 3627.5000    98.8104   -56.9865    11.9721     3.4116     2.9329   -21.7340
 3628.0000   110.2953   -56.8188    11.3679     3.5566     3.0162   -29.3186
 3628.5000   112.7363   -56.6506    11.9005     3.4833     2.8942   -51.8780
 3629.0000   110.6592   -56.3285    12.0994     3.2257     2.6638   -59.5694
 3629.5000   105.5700   -56.1608    12.2376     2.9288     2.5207   -74.5259
 3630.0000   102.8511   -56.1437    12.6182     2.7707     2.3040   -74.5966
 3630.5000   104.4357   -56.4321    13.1447     2.6394     2.1207   -82.1635
 3631.0000   105.0616   -56.8583    13.5770     2.5851     2.0207   -74.7379
 3631.5000   103.2935   -57.1467    13.9728     2.5672     1.9388   -59.8161
 3632.0000   105.4823   -57.2802    14.0348     2.5495     1.9126   -29.9018
 3632.5000   108.4845   -57.1082    13.9144     2.5495     1.9133    22.4836
 3633.0000   109.1183   -56.9363    13.7212     2.5504     1.9004    59.8942
 3633.5000   108.8406   -56.7686    13.3898     2.5851     1.9143    22.3245
 3634.0000   109.7833   -56.9063    12.7553     2.6394     1.9415   -15.2274
 3634.5000   110.7261   -56.8850    12.3783     2.7326     2.0388   -22.7767
 3635.0000   111.9623   -57.0185    11.3958     2.9533     2.2010   -15.3673
 3635.5000   112.5960   -57.1520    10.9734     3.2275     2.3433   -15.4571
 3636.0000   119.8563   -57.1306    10.7329     3.2725     2.3277   -15.5278
 3636.5000   123.6524   -57.1136    10.6884     3.0959     2.1425   -38.0873
 3637.0000   131.0713   -57.0964    11.0704     2.6505     1.8916   -53.1505
 3637.5000   138.3316   -57.0751    11.3450     2.1887     1.6243   -53.2234
 3638.0000   161.8569   -57.3635    11.5893     1.9185     1.3852   -53.3096
 3638.5000   170.1256   -57.6476    11.5305     1.8531     1.3108   -53.3802
 3639.0000   181.5057   -57.9275    11.2691     2.0501     1.4550   -45.9520
 3639.5000   188.7659   -58.0610    11.1251     2.5851     1.6952   -38.5291
 3640.0000   184.2792   -58.0396    11.9911     2.8290     1.8947   -31.1036
 3640.5000   164.2040   -58.0225    12.3263     2.8319     1.9758   -23.6957
 3641.0000   140.3712   -58.0054    12.6357     2.7900     1.9223   -23.7663
 3641.5000   121.4266   -57.9879    12.7542     2.7326     1.8702   -31.3343
 3642.0000   103.6869   -57.8164    12.4232     2.7326     1.8577   -46.4142
 3642.5000   104.9308   -57.6487    11.9403     2.7707     1.9239   -53.9811
 3643.0000   106.1670   -57.4853    11.5479     2.7684     1.9378   -61.5481
 3643.5000   107.1019   -57.6145    11.4747     2.6578     1.9248   -61.6192
