~VERSION INFORMATION
 VERS.                2.0:   CWLS LOG ASCII STANDARD - VERSION 2.0
 WRAP.                 NO:   ONE LINE PER DEPTH STEP
~WELL INFORMATION
#MNEM.UNIT      DATA TYPE    INFORMATION
#----------   ------------   ------------------------------
 STRT.F           58.0000:   START DEPTH
 STOP.F         5662.0000:   STOP DEPTH
 STEP.F            0.5000:   STEP LENGTH
 NULL.          -999.2500:   NO VALUE
 COMP. DEPARTMENT OF ENERGY:   COMPANY
 WELL. DEPARTMENT NPR 3 67 "X" #1-10:   WELL
 FLD .              NPR 3:   FIELD
 LOC .      S10 T38N R78W:   LOCATION
 CNTY.            NATRONA:   COUNTY
 STAT.            WYOMING:   STATE
 CTRY. UNITED STATES OF AMERICA:   COUNTRY
 SRVC.       SCHLUMBERGER:   SERVICE COMPANY
 DATE.        05-FEB-2002:   LOGDATE
 API .     49025230400000:   API NUMBER
~CURVE INFORMATION
#MNEM.UNIT       API CODE    CURVE DESCRIPTION
#----------   ------------   ------------------------------
 DEPT.F                  :   
 TEND.LBS    45 635 01 00:   TENSION FROM DENSITY LOG
 PEFZ.B/E    45 358 01 00:   HILT PHOTOELECTRIC FACTOR
 HDRA.G/C3   45 356 01 00:   DELTA RHO HIP TOOL
 NPHI.DEC    42 890 03 00:   NEUTRON POROSITY SANDSTONE
 TENS.LBS    60 635 01 00:   TENSION
 DT  .US/F   60 520 00 00:   DELTA TIME
 TENR.LBS    07 635 01 00:   TENSION FROM RESISTIVITY
 CALR.IN     07 280 01 00:   CALIPER FROM RESISTIVITY
 GRR .GAPI   07 310 01 00:   GAMMA RAY FROM RESISTIVITY
 RXOZ.OHMM   11 270 04 00:   STD. RES. INVADED ZONE RESISTIVITY
 HLLD.OHMM   11 220 10 00:   LATEROLOG DEEP RES.
 HLLS.OHMM   11 220 09 00:   LATEROLOG SHALLOW RES.
 HRLD.OHMM   11 120 46 00:   HIGH RESOULATION DEEP RESISTIVITY
 RHOZ.G/C3   45 350 01 00:   HILT BULK DENSITY
~PARAMETER INFORMATION
#MNEM.UNIT          VALUE    DESCRIPTION
#----------   ------------   ------------------------------
 EKB .F         5205.7000:   Kelly bushing
 EGL .F         5195.7000:   Ground level
 EDF .F            0.0000:   Drilling floor
 EPD .F         5195.7000:   Permanent datum
 TD  .F         5654.0000:   Total depth
 DATE.        05-FEB-2002:   Date logged
 CLNT.            A2DTECH:   Client Code
 SL  . 1503' FEL & 721' FSL:   Surface Location
 PD  .                 GL:   Permanent Datum
 DAPD.F                10:   Feet Above Permanent Datum
 DD  .F              5650:   Depth driller
 DL  .F              5654:   Depth logger
 BLI .F              5646:   Bottom log interval
 TLI .F               499:   Top log interval
 CS1 .IN            9.625:   Casing size
 CBD1.      9.625" @ 505':   Casing driller 1
 CBL1.F               499:   Casing logger 1
 BS1 .IN            8.875:   Bit size
 BSD1.F              5650:   Depth drilled with bit1
 DFT .           GEL/CHEM:   Type fluid in hole
 DFD .                9.2:   Density
 DFV .                 52:   Viscosity
 DFPH.                8.5:   pH
 DFL .                6.8:   Fluid loss
 MSS .           FLOWLINE:   Source of sample
 RMS .OHMM           .954:   Rm
 MST .F                57:   Rm Meas. temp.
 RMF .OHMM           .734:   Rmf
 MFST.F                57:   Rmf Meas. temp.
 MFSS.              PRESS:   Source Rmf.
 RMB .OHMM           .403:   Rm. at BHT
 BHT .F               143:   BHT.
 TLAB.HRS            1208:   Time logger at bottom
 MRT .F               143:   Maximum recorded temp.
 LUN .               2211:   Logging unit number
 LUL .             CASPER:   Logging unit location
 ENGI.           R. SROUR:   Recorded By
 WITN.        M. MILLIKEN:   Witnessed by
 ORIG.           5" PRINT:   Origin of data
 UWI .     49025230400000:   Unique Well ID
 DICO. A2D TECHNOLOGIES, INC.:   Digitizing Company
 RMC .               1.24:   Rmc
 MCST.                 57:   Rmc Meas. temp.
 MCSS.              PRESS:   Source Rmc.
 TCS .                200:   Time Circ. stopped
~OTHER INFORMATION
~A   DEPT     TEND       PEFZ       HDRA       NPHI       TENS         DT       TENR       CALR         GRR      RXOZ       HLLD       HLLS       HRLD       RHOZ   
# ...
 5276.5000  2530.3750     4.1770    -0.0020     0.0960  1962.3719    58.2590  2529.5220     9.4200    74.8370    72.7860   106.2470   143.9840    76.3370     2.8000
 5277.0000  2529.9270     4.4600    -0.0020     0.0760  1962.8840    58.0310  2515.3640     9.4500    60.5760    82.5510   144.7890   199.0120    88.0220     2.8360
 5277.5000  2529.4790     4.7440    -0.0020     0.0560  1963.3970    58.2790  2516.4360     9.4800    46.1050   140.3160   267.3280   280.0060   211.3550     2.8740
 5278.0000  2529.0300     4.7960    -0.0030     0.0360  1963.9091    58.9440  2521.5190     9.5100    32.1960   232.2340   389.8680   814.7030   364.0850     2.9200
 5278.5000  2528.5820     4.5200    -0.0030     0.0200  1964.4220    59.8060  2526.6011     9.5390    29.5120  1361.6740  1307.1429  1640.1760   579.1590     2.9060
 5279.0000  2528.1340     4.1290    -0.0020     0.0300  1964.9351    60.6690  2531.6831     9.5950    43.8100  1527.0389  1527.0389  1901.8790   343.6980     2.8650
 5279.5000  2527.6851     3.8020     0.0030     0.0500  1965.4470    61.5310  2536.7661     9.5560    62.4060   102.9400   946.0180  1181.7791   104.1150     2.8150
 5280.0000  2527.2371     3.5840     0.0050     0.0770  1965.9600    62.3940  2541.8479     9.5180    80.8200    48.1240    64.4870    68.1250    58.3150     2.7820
 5280.5000  2526.7891     3.4780     0.0070     0.0950  1966.4720    63.2340  2546.9299     9.4810    99.4420    51.2240    66.2000    65.6770    61.3900     2.7610
 5281.0000  2526.3401     3.4130     0.0080     0.0930  1966.9850    62.7090  2552.1350     9.4500   102.0440    58.8500    69.1570    71.9870    66.7000     2.7410
 5281.5000  2525.8921     3.4130     0.0070     0.0860  1967.4980    60.2590  2549.2849     9.4560   100.0600    54.6340    72.1150    75.4860    70.4230     2.7300
 5282.0000  2525.4441     3.4020     0.0070     0.0870  1968.0100    57.5830  2544.3301     9.4610    99.1060    48.5660    73.9110    76.7260    71.3120     2.7260
 5282.5000  2524.9951     3.3170     0.0060     0.0900  1968.5229    55.8710  2539.3740     9.4650    98.3130    52.6060    73.3140    76.0710    71.0590     2.7350
 5283.0000  2524.5471     3.2300     0.0050     0.0890  1969.0360    56.2700  2534.4189     9.4700    98.1410    59.6800    72.6290    74.9250    70.8430     2.7330
 5283.5000  2524.0991     3.1430     0.0040     0.0820  1969.5480    57.9550  2560.3770     9.4740    94.8860    62.9520    74.5520    73.9700    70.6630     2.7290
 5284.0000  2523.6499     3.0570     0.0030     0.0760  1970.0610    59.1860  2581.4800     9.4790    90.8700    63.6710    84.8960    83.1860    84.4210     2.7250
 5284.5000  2523.2019     2.9990     0.0020     0.0690  1970.5730    58.4380  2587.5669     9.4830    86.8250    72.0430   100.5880    91.0890    96.2180     2.7270
 5285.0000  2522.7539     3.0390     0.0010     0.0700  1971.0861    56.1370  2561.1389     9.4880    85.1970    79.5850   109.5650    92.9730   102.5810     2.7340
 5285.5000  2522.3049     3.1340     0.0000     0.0750  1971.5990    53.8370  2534.7100     9.4930    86.0130    73.3090    97.6650    87.4030    89.2880     2.7370
 5286.0000  2521.8569     3.2250    -0.0010     0.0840  1972.1110    51.6920  2512.4131     9.4970    89.5610    65.6770    89.0060    80.0680    80.3160     2.7340
 5286.5000  2521.4089     3.2870    -0.0010     0.0890  1972.6240    52.6620  2512.4131     9.5020    95.4540    65.0790    86.4130    74.6460    84.8470     2.7280
 5287.0000  2520.9600     3.2580    -0.0020     0.0880  1973.1360    54.9270  2515.9651     9.5060    99.1070    71.7650    84.0970    72.7030    82.4540     2.7220
 5287.5000  2520.5120     3.3570    -0.0030     0.0910  1973.6490    57.1930  2539.2839     9.5110    99.9370    74.6490    79.9090    70.6630    77.8610     2.7230
 5288.0000  2520.0640     3.4560    -0.0040     0.0970  1974.1620    59.0830  2562.6030     9.5110   100.7650    73.8060    75.4170    66.1900    73.2670     2.7250
 5288.5000  2519.6150     3.5290    -0.0030     0.1050  1974.6740    60.1360  2585.9221     9.5110   103.1530    70.3810    70.8220    62.1700    68.6730     2.7200
 5289.0000  2519.1670     3.5030    -0.0020     0.1090  1975.1870    60.0650  2577.0801     9.5110   104.4090    66.0970    67.3760    62.1700    66.2810     2.7270
 5289.5000  2518.7190     3.4790     0.0010     0.1060  1975.6990    60.2730  2557.2590     9.5110   104.0720    63.7970    71.9430    63.3180    70.0320     2.7360
 5290.0000  2518.2700     3.4560     0.0010     0.1020  1976.2120    60.6540  2552.1350     9.5110   104.5410    57.3600    74.6490    60.2550    71.3120     2.7440
 5290.5000  2517.8220     3.4340     0.0010     0.1150  1976.7250    61.0450  2552.1350     9.5150   110.2240    47.4160    60.5450    54.5940    60.6050     2.7320
 5291.0000  2517.3740     3.4840     0.0130     0.1300  1977.2371    60.4810  2552.1350     9.5310   121.7420    38.5660    55.3610    50.0850    53.3070     2.7240
 5291.5000  2516.9250     3.6100     0.0380     0.1400  1977.7500    59.2020  2549.3240     9.5340   132.9270    30.6100    52.0750    47.8480    50.3720     2.7290
 5292.0000  2516.4771     3.7340     0.0630     0.1450  1978.2620    57.7150  2546.3210     9.5370   138.9520    21.2950    48.5660    44.9420    47.4380     2.7580
 5292.5000  2516.0291     3.8210     0.0780     0.1480  1978.7750    56.9650  2543.3181     9.5390   140.2530    17.8840    45.6320    41.5720    44.5030     2.7840
 5293.0000  2515.5801     3.8450     0.0720     0.1470  1979.2880    57.6700  2540.3149     9.5410   139.2830    17.5960    43.5180    41.5720    43.1220     2.7870
 5293.5000  2515.1321     3.7840     0.0500     0.1470  1979.8000    58.9910  2537.3120     9.5430   137.8860    23.6660    45.8360    41.7860    44.6430     2.7710
 5294.0000  2514.6841     3.6720     0.0280     0.1460  1980.3130    60.4480  2534.3081     9.5460   135.1800    31.5630    47.5810    43.4750    45.5540     2.7530
 5294.5000  2514.2351     3.5560     0.0300     0.1410  1980.8260    59.8710  2545.9780     9.5480   128.6600    38.6390    49.4630    45.1640    45.8210     2.7350
 5295.0000  2513.7871     3.5660     0.0380     0.1280  1981.3380    58.2990  2591.8569     9.5500   122.3090    36.1050    50.5690    47.8560    48.0090     2.7390
 5295.5000  2513.3391     3.6150     0.0580     0.1130  1981.8510    56.0860  2566.9951     9.5510   116.6260    29.2990    57.0630    51.4720    50.3760     2.7470
 5296.0000  2512.8899     3.6810     0.0740     0.1120  1982.3630    53.8730  2539.9661     9.5510   119.5720    22.4930    73.2960    57.2570    60.7820     2.7620
 5296.5000  2512.4419     3.6820     0.0630     0.1210  1982.8760    52.0850  2532.2739     9.5500   127.6160    20.5560    65.8590    56.3140    68.1250     2.7780
 5297.0000  2511.9939     3.6290     0.0470     0.1620  1983.3890    51.0950  2533.5100     9.5480   133.2270    28.0870    51.4190    54.4810    56.7850     2.7720
 5297.5000  2511.5449     3.5740     0.0170     0.1490  1983.9010    51.6020  2544.5220     9.5460   127.2490    49.4550    46.8210    53.2180    49.0120     2.7480
 5298.0000  2511.0969     3.5350     0.0090     0.1210  1984.4139    52.5870  2546.7729     9.5450   107.8400    75.4340    92.1270    65.8070    72.3250     2.7130
 5298.5000  2510.6489     3.4940     0.0040     0.0930  1984.9260    54.4620  2547.2971     9.5430    93.9970    92.2190   121.2140   111.6360    90.1130     2.7200
 5299.0000  2510.2000     3.4990     0.0060     0.0770  1985.4390    56.5110  2568.5349     9.5410    88.9220   110.6190   152.5220   137.1800   109.6120     2.7330
 5299.5000  2509.7520     3.5080     0.0090     0.0780  1985.9520    58.7560  2591.8569     9.5390    89.2640   110.6190   200.4580   168.4810   112.6610     2.7550
 5300.0000  2509.3040     3.5830     0.0110     0.0850  1986.4640    59.2040  2562.1399     9.5380    91.0770    75.6040   169.9940   150.0300    87.3030     2.7580
 5300.5000  2508.8550     3.6850     0.0140     0.0910  1986.9771    59.4050  2529.1880     9.5360    92.9070    40.4470   136.2130   116.2620    62.4090     2.7540
