~VERSION INFORMATION
 VERS.                2.0:   CWLS LOG ASCII STANDARD - VERSION 2.0
 WRAP.                 NO:   ONE LINE PER DEPTH STEP
~WELL INFORMATION
#MNEM.UNIT      DATA TYPE    INFORMATION
#----------   ------------   ------------------------------
 STRT.F           11.0000:   START DEPTH
 STOP.F         3368.0000:   STOP DEPTH
 STEP.F            0.5000:   STEP LENGTH
 NULL.          -999.2500:   NO VALUE
 COMP. LAWRENCE ALLISON AND ASSOC.:   COMPANY
 WELL. LAWRENCE NPR "AX" #3-11:   WELL
 FLD .                NPR:   FIELD
 LOC .      S11 T38N R78W:   LOCATION
 CNTY.            NATRONA:   COUNTY
 STAT.            WYOMING:   STATE
 CTRY. UNITED STATES OF AMERICA:   COUNTRY
 SRVC.      DRESSER ATLAS:   SERVICE COMPANY
 DATE.        17-JAN-1986:   LOGDATE
 API .     49025110540000:   API NUMBER
~CURVE INFORMATION
#MNEM.UNIT       API CODE    CURVE DESCRIPTION
#----------   ------------   ------------------------------
 DEPT.F                  :   
 TEND.LBS    45 635 01 00:   TENSION FROM DENSITY LOG
 DEN .G/C3   45 350 01 00:   BULK DENSITY
 CORR.G/C3   45 356 01 00:   DENSITY CORRECTION
 CNC .DEC    42 890 03 00:   NEUTRON PORISITY SANDSTONE
 TENR.LBS    07 635 01 00:   TENSION FROM RESISTIVITY
 CALR.IN     07 280 01 00:   CALIPER FROM RESISTIVITY
 SPR .MV     07 010 01 00:   SPONTANEOUS POTENTIAL
 GRR .GAPI   07 310 01 00:   GAMMA RAY FROM RESISTIVITY
 RFOC.OHMM   07 220 04 00:   RESISTIVITY FOCUSED LOG RES.
 RILD.OHMM   07 120 46 00:   INDUCTION LOG DEEP RESISTIVITY
 RILM.OHMM   07 120 44 00:   INDUCTION LOG MEDIUM RESISTIVITY
 TENS.LBS    60 635 01 00:   TENSION FROM SONIC
 AC  .US/F   60 250 00 00:   ACCOUSTIC
~PARAMETER INFORMATION
#MNEM.UNIT          VALUE    DESCRIPTION
#----------   ------------   ------------------------------
 EKB .F         5195.5000:   Kelly bushing
 EGL .F         5183.2000:   Ground level
 EDF .F         5194.5000:   Drilling floor
 TD  .F         3360.0000:   Total depth
 DATE.        17-JAN-1986:   Date logged
 CLNT.            A2DTECH:   Client Code
 SL  . 2389' FSL & 461'FWL:   Surface Location
 PD  .                 GL:   Permanent Datum
 EPD .F            5183.2:   Elevation Permanent Datum
 LMF .                 KB:   Log Measured From
 DMF .                 KB:   Drilling Measured From
 DAPD.F              12.3:   Feet Above Permanent Datum
 DD  .F              3360:   Depth driller
 DL  .F              3358:   Depth logger
 BLI .F              3356:   Bottom log interval
 TLI .F               575:   Top log interval
 CS1 .IN            8.625:   Casing size
 CBD1.      8.625" @ 575':   Casing driller 1
 CBL1.F               575:   Casing logger 1
 BS1 .IN            7.875:   Bit size
 BSD1.F              3360:   Depth drilled with bit1
 DFT .        POLYMER-KCL:   Type fluid in hole
 DFD .                  9:   Density
 DFV .                 36:   Viscosity
 DFPH.                  9:   pH
 DFL .                9.5:   Fluid loss
 MSS .           FLOWLINE:   Source of sample
 RMS .OHMM           .633:   Rm
 MST .F                68:   Rm Meas. temp.
 RMF .OHMM           .475:   Rmf
 MFST.F                68:   Rmf Meas. temp.
 RMC .OHMM           .791:   Rmc
 MCST.F                68:   Rmc Meas. temp.
 RMB .OHMM            .44:   Rm. at BHT
 BHT .F                98:   BHT.
 TCS .HRS               4:   Time Circ. stopped
 MRT .F                98:   Maximum recorded temp.
 LUN .               6264:   Logging unit number
 LUL .               GLTE:   Logging unit location
 ENGI.             MILLER:   Recorded By
 WITN.             STRONG:   Witnessed by
 ORIG.        2" 5" PRINT:   Origin of data
 UWI .     49025110540000:   Unique Well ID
 DICO. A2D TECHNOLOGIES, INC.:   Digitizing Company
~OTHER INFORMATION
~A   DEPT     TEND        DEN       CORR        CNC       TENR       CALR        SPR         GRR      RFOC       RILD       RILM       TENS         AC   
# ...
 1857.0000  -999.2500  -999.2500  -999.2500  -999.2500  -105.5110     9.4690   -47.1070   119.3270     7.1740     6.0980     6.2650  -101.4360    93.5730
 1857.5000  -999.2500  -999.2500  -999.2500  -999.2500   -97.2780     9.4590   -46.6030   119.8150     7.2800     6.1100     6.2770  -103.0810    93.6110
 1858.0000  -999.2500  -999.2500  -999.2500  -999.2500   -98.2540     9.4500   -46.1850   118.8530     7.2470     6.1230     6.2860  -104.7260    93.5370
 1858.5000  -999.2500  -999.2500  -999.2500  -999.2500  -103.4540     9.4440   -45.8580   111.5510     7.1790     6.1350     6.2920  -106.3710    93.4630
 1859.0000  -999.2500  -999.2500  -999.2500  -999.2500  -108.6540     9.4530   -45.5380   109.5170     7.1100     6.1480     6.2990  -108.0160    93.3890
 1859.5000  -999.2500  -999.2500  -999.2500  -999.2500  -113.8540     9.4620   -45.3370   110.3740     7.0160     6.1600     6.3060  -109.6610    93.3970
 1860.0000  -999.2500  -999.2500  -999.2500  -999.2500  -114.7290     9.4710   -45.1460   110.8150     7.0420     6.1730     6.3130  -111.3060    93.4950
 1860.5000  -999.2500  -999.2500  -999.2500  -999.2500  -114.7290     9.4800   -45.1390   110.5320     7.1010     6.1850     6.3200  -112.9510    93.5930
 1861.0000  -999.2500  -999.2500  -999.2500  -999.2500  -114.7290     9.4880   -45.1400   110.2660     7.1600     6.1980     6.3270  -114.7290    93.6190
 1861.5000  -999.2500  -999.2500  -999.2500  -999.2500  -114.7290     9.4970   -45.1270   110.7760     7.2190     6.2100     6.3330  -107.4750    93.5450
 1862.0000  -999.2500  -999.2500  -999.2500  -999.2500  -114.7290     9.5060   -45.6700   113.4990     7.2800     6.2230     6.3390   -99.5790    93.4710
 1862.5000  -999.2500  -999.2500  -999.2500  -999.2500  -114.7290     9.5150   -46.3260   117.7160     7.2290     6.1450     6.2730   -94.5890    93.3970
 1863.0000  -999.2500  -999.2500  -999.2500  -999.2500  -114.7290     9.5230   -46.7620   119.8250     7.1620     6.1170     6.2160   -94.3260    93.4360
 1863.5000  -999.2500  -999.2500  -999.2500  -999.2500  -114.7290     9.5320   -46.8380   119.5830     7.0940     5.9610     6.1400   -94.0630    93.6730
 1864.0000  -999.2500  -999.2500  -999.2500  -999.2500  -114.7290     9.5410   -46.9200   117.3180     7.0270     5.7580     5.9280   -93.8000    93.9500
 1864.5000  -999.2500  -999.2500  -999.2500  -999.2500  -114.7290     9.5500   -46.9980   114.1430     6.9590     5.5550     5.7170   -93.5360    94.1130
 1865.0000  -999.2500  -999.2500  -999.2500  -999.2500  -114.7290     9.5590   -47.0750   113.6070     6.7850     5.3520     5.5050   -93.2730    94.3100
 1865.5000  -999.2500  -999.2500  -999.2500  -999.2500  -114.7290     9.5670   -47.0770   113.1650     6.5560     5.1490     5.2940   -93.0100    94.4780
 1866.0000  -999.2500  -999.2500  -999.2500  -999.2500  -114.7290     9.5760   -46.9630   112.4390     6.0240     4.9970     5.1320   -92.7470    94.5770
 1866.5000  -999.2500  -999.2500  -999.2500  -999.2500  -114.7290     9.5850   -46.8510   111.2630     5.4910     4.8730     4.9960   -92.4840    94.6500
 1867.0000  -999.2500  -999.2500  -999.2500  -999.2500  -114.7290     9.5940   -46.7390   110.1260     5.0800     4.7480     4.8610   -92.2200    95.4770
 1867.5000  -999.2500  -999.2500  -999.2500  -999.2500  -114.7290     9.6020   -46.6260   110.0860     5.6240     4.6240     4.7250   -91.9570    96.1330
 1868.0000  -999.2500  -999.2500  -999.2500  -999.2500  -110.7410     9.6050   -46.4760   113.3200     6.2890     4.4990     4.5890   -91.6940    96.6500
 1868.5000  -999.2500  -999.2500  -999.2500  -999.2500  -105.8020     9.6080   -46.0790   116.4780     6.1550     4.4340     4.5170   -91.4310    96.2330
 1869.0000  -999.2500  -999.2500  -999.2500  -999.2500  -100.8620     9.6110   -45.6790   119.0810     5.6810     4.5350     4.6190   -91.1680    95.6420
 1869.5000  -999.2500  -999.2500  -999.2500  -999.2500   -95.9220     9.6150   -45.2790   120.0660     5.2060     4.6160     4.7020   -90.9040    95.1500
 1870.0000  -999.2500  -999.2500  -999.2500  -999.2500   -99.7450     9.6180   -44.8720   120.7450     4.8960     4.6970     4.7840   -90.6410    96.3380
 1870.5000  -999.2500  -999.2500  -999.2500  -999.2500  -106.4810     9.6210   -44.2620   122.8090     5.7850     4.8000     4.8660   -90.3780    97.3560
 1871.0000  -999.2500  -999.2500  -999.2500  -999.2500  -113.2170     9.6340   -43.5340   125.0930     6.4450     4.8720     4.9480   -90.1150    98.2500
 1871.5000  -999.2500  -999.2500  -999.2500  -999.2500  -119.9540     9.6470   -42.9050   127.3820     6.7000     4.9440     5.0300   -89.8520    97.6640
 1872.0000  -999.2500  -999.2500  -999.2500  -999.2500  -124.0880     9.6590   -42.8790   130.1390     6.4050     5.0160     5.1130   -89.5890    96.5480
 1872.5000  -999.2500  -999.2500  -999.2500  -999.2500  -121.7900     9.6720   -43.5530   132.4080     6.1430     5.0880     5.1950   -89.3250    95.4320
 1873.0000  -999.2500  -999.2500  -999.2500  -999.2500  -119.4920     9.6840   -44.2160   133.8640     6.0600     5.1320     5.2420   -89.0620    95.2450
 1873.5000  -999.2500  -999.2500  -999.2500  -999.2500  -117.1950     9.6970   -44.8770   134.0130     5.9980     5.1430     5.2700   -88.7990    95.7650
 1874.0000  -999.2500  -999.2500  -999.2500  -999.2500  -114.8970     9.7090   -45.5370   131.8680     6.0910     5.1540     5.2990   -88.5360    96.2840
 1874.5000  -999.2500  -999.2500  -999.2500  -999.2500  -112.6000     9.7230   -46.1990   125.0820     6.1810     5.1650     5.3280   -88.2730    96.8030
 1875.0000  -999.2500  -999.2500  -999.2500  -999.2500  -110.3020     9.7450   -46.5250   122.5640     6.2710     5.1740     5.3690   -88.0090    97.3230
 1875.5000  -999.2500  -999.2500  -999.2500  -999.2500  -108.0040     9.7680   -46.4490   121.2900     6.3980     5.1360     5.3140   -87.7460    97.8500
 1876.0000  -999.2500  -999.2500  -999.2500  -999.2500  -105.7070     9.7900   -46.3430   123.3430     6.3270     5.0720     5.2220   -87.4830    97.6560
 1876.5000  -999.2500  -999.2500  -999.2500  -999.2500  -104.7090     9.8130   -46.2350   124.3280     6.1390     5.0090     5.1300   -87.2200    97.4590
 1877.0000  -999.2500  -999.2500  -999.2500  -999.2500  -104.7090     9.8360   -46.1270   122.6580     5.9520     4.9410     5.0330   -86.9570    97.2620
 1877.5000  -999.2500  -999.2500  -999.2500  -999.2500  -104.7090     9.8580   -46.0180   119.8150     5.7640     4.7460     4.8620   -86.6930    97.0650
 1878.0000  -999.2500  -999.2500  -999.2500  -999.2500  -104.7090     9.8810   -45.8660   114.8090     5.6640     4.5390     4.6810   -86.4300    96.8500
 1878.5000  -999.2500  -999.2500  -999.2500  -999.2500  -104.7090     9.9030   -45.5400   111.3520     5.6440     4.3310     4.4990   -86.1670    96.7780
 1879.0000  -999.2500  -999.2500  -999.2500  -999.2500  -104.7090     9.9260   -45.2140   110.3300     5.6250     4.1660     4.3180   -85.9040    96.7000
 1879.5000  -999.2500  -999.2500  -999.2500  -999.2500  -104.7090     9.9480   -44.8890   110.9550     5.3440     4.0700     4.2240   -85.6410    96.8690
 1880.0000  -999.2500  -999.2500  -999.2500  -999.2500  -104.7090     9.9560   -44.5630   111.5900     4.9380     4.1300     4.2950   -85.3770    97.4600
 1880.5000  -999.2500  -999.2500  -999.2500  -999.2500  -104.7090     9.9520   -44.2380   110.9800     4.3020     4.2580     4.4490   -85.1140    98.0510
 1881.0000  -999.2500  -999.2500  -999.2500  -999.2500  -104.7090     9.9480   -43.9220   109.9190     4.5930     4.3820     4.6020   -84.8510    98.6420
 1881.5000  -999.2500  -999.2500  -999.2500  -999.2500  -104.7090     9.9450   -43.6770   112.4850     5.2570     4.5340     4.7560   -84.9000    99.2330
 1882.0000  -999.2500  -999.2500  -999.2500  -999.2500  -104.7090     9.9410   -43.4330   115.6160     5.9210     4.7160     4.9090   -85.6450    99.9500
 1882.5000  -999.2500  -999.2500  -999.2500  -999.2500  -104.7090     9.9470   -43.1900   115.3880     6.0530     4.8990     5.0330   -86.3900    98.5290
