~VERSION INFORMATION
 VERS.                2.0:   CWLS LOG ASCII STANDARD - VERSION 2.0
 WRAP.                 NO:   ONE LINE PER DEPTH STEP
~WELL INFORMATION
#MNEM.UNIT      DATA TYPE    INFORMATION
#----------   ------------   ------------------------------
 STRT.F            6.0000:   START DEPTH
 STOP.F         3190.0000:   STOP DEPTH
 STEP.F            0.5000:   STEP LENGTH
 NULL.          -999.2500:   NO VALUE
 COMP. LAWRENCE ALLISON & ASSOCIATES:   COMPANY
 WELL. LAWRENCE N. P. R. 73AX #3-3:   WELL
 FLD .              N P R:   FIELD
 LOC .       S3 T38N R78W:   LOCATION
 CNTY.            NATRONA:   COUNTY
 STAT.            WYOMING:   STATE
 CTRY. UNITED STATES OF AMERICA:   COUNTRY
 SRVC.      DRESSER ATLAS:   SERVICE COMPANY
 DATE.        04-JUN-1986:   LOGDATE
 API .     49025110910000:   API NUMBER
~CURVE INFORMATION
#MNEM.UNIT       API CODE    CURVE DESCRIPTION
#----------   ------------   ------------------------------
 DEPT.F                  :   
 CALD.IN     45 280 60 00:   CALIPER FROM DENSITY LOG
 DEN .LBS    45 635 01 00:   BUCK DENSITY
 CORR.G/C3   45 356 01 00:   DENSITY CORRECTION
 TEND.LBS    45 635 01 00:   TENSION FROM DENSITY LOG
 SPR .MV     07 010 01 00:   SPONTANEOUS POTENTIAL
 GRR .GAPI   07 310 01 00:   GAMMA RAY FROM RESISTIVITY
 SFLU.OHMM   07 220 01 00:   SPHERICALLY FOCUSED LOG UNAVERAGED RESISTIVITY
 ILD .OHMM   07 120 46 00:   DEEP INDUCTION RESISTIVITY
 ILM .OHMM   07 120 44 00:   INDUCTION LOG MEDIUM RESISTIVITY
 TENR.LBS    07 635 01 00:   TENSION FROM RESISTIVITY
 CNC .DEC    42 890 01 00:   NEUTRON PORISITY LIMESTONE
~PARAMETER INFORMATION
#MNEM.UNIT          VALUE    DESCRIPTION
#----------   ------------   ------------------------------
 EKB .F         5173.0000:   Kelly bushing
 EGL .F         5161.0000:   Ground level
 TD  .F         3170.0000:   Total depth
 DATE.        04-JUN-1986:   Date logged
 CLNT.            A2DTECH:   Client Code
 PD  .                 GL:   Permanent Datum
 EPD .F              5161:   Elevation Permanent Datum
 LMF .                 KB:   Log Measured From
 DMF .                 KB:   Drilling Measured From
 DAPD.F                12:   Feet Above Permanent Datum
 DD  .F              3170:   Depth driller
 DL  .F              3168:   Depth logger
 BLI .F               8.9:   Bottom log interval
 TLI .F                38:   Top log interval
 CS1 .IN            8.625:   Casing size
 CBD1.      8.625" @ 603':   Casing driller 1
 CBL1.F               602:   Casing logger 1
 BS1 .IN            7.875:   Bit size
 BSD1.F              3170:   Depth drilled with bit1
 DFT .        KCL/POLYMER:   Type fluid in hole
 DFD .                8.9:   Density
 DFV .                 38:   Viscosity
 DFPH.                9.0:   pH
 DFL .               13.2:   Fluid loss
 MSS .           FLOWLINE:   Source of sample
 RMS .OHMM           .446:   Rm
 MST .F                64:   Rm Meas. temp.
 RMF .OHMM           .361:   Rmf
 MFST.F                64:   Rmf Meas. temp.
 RMC .OHMM            .56:   Rmc
 MCST.F                64:   Rmc Meas. temp.
 MFSS.               MEAS:   Source Rmf.
 MCSS.               CALC:   Source Rmc.
 RMB .OHMM           .242:   Rm. at BHT
 BHT .F               118:   BHT.
 TCS .HRS               3:   Time Circ. stopped
 MRT .F               118:   Maximum recorded temp.
 LUN .               6274:   Logging unit number
 LUL .           GILLETTE:   Logging unit location
 WITN.             STRONG:   Witnessed by
 ORIG.           5" PRINT:   Origin of data
 UWI .     49025110910000:   Unique Well ID
 DICO. A2D TECHNOLOGIES, INC.:   Digitizing Company
~OTHER INFORMATION
~A    DEPT    CALD        DEN       CORR       TEND        SPR         GRR      SFLU        ILD        ILM       TENR        CNC   
# ...
 2141.0000    10.4167     2.4717     0.0259   -69.1240   -57.3080   100.6976    10.6662     9.9048     9.2812   -60.6361     0.3000
 2141.5000    10.4170     2.4667     0.0279   -38.9972   -57.3093   100.6951    10.7644     9.9962     9.3668   -50.4817     0.2961
 2142.0000    10.4174     2.4587     0.0179     1.1718   -57.1080   100.6926    10.9646     9.9954     9.5411   -10.1591     0.2776
 2142.5000    10.3978     2.4577    -0.0002    11.2096   -57.3118   101.0927    11.4831    10.1814     9.8991    -0.0050     0.2788
 2143.0000    10.3982     2.4577     0.0139    -8.8817   -57.3131   105.5231    11.6967    10.2753     9.9909    20.2050     0.2856
 2143.5000    10.4185     2.4547     0.0200   -28.9725   -57.3144   111.1627    11.9141    10.1797     9.8974     0.1909     0.2844
 2144.0000    10.3586     2.4497     0.0220   -28.9773   -57.9204   113.9812    12.0240     9.9923     9.7142   -19.8231     0.2828
 2144.5000    10.3388     2.4497     0.0240   -49.0669   -57.5187   113.9788    11.9123     9.9915     9.7135   -29.7809     0.2884
 2145.0000    10.3190     2.4477     0.0200   -49.0713   -57.5200   113.1704    11.6930    10.0837     9.8036   -39.7386     0.3020
 2145.5000    10.3392     2.4366     0.0099   -49.0765   -57.5213   112.3619    11.0606     9.9900     9.7120   -39.6405     0.3081
 2146.0000    10.3198     2.4326    -0.0001   -49.0809   -57.5225   112.7625    10.3660     9.9893     9.7113   -39.5424     0.3068
 2146.5000    10.3000     2.4357     0.0019   -49.0853   -57.3213   113.5661    10.5590     9.9890     9.7110   -39.4246     0.3020
 2147.0000    10.2800     2.4276    -0.0001   -49.0897   -57.3236   113.5637    11.2643     9.8046     9.5309   -39.3265     0.2928
 2147.5000    10.2530     2.4256    -0.0101   -49.0941   -57.3249   112.7553    11.5809     9.7136     9.4419   -49.2840     0.2904
 2148.0000    10.2406     2.4196    -0.0141   -39.0575   -57.1246   112.3498    11.6876     9.6234     9.3538   -39.1303     0.2884
 2148.5000    10.1803     2.4196    -0.0201   -29.0213   -56.9244   112.3474    11.7954     9.6227     9.3531   -39.0518     0.2875
 2149.0000    10.1809     2.4176    -0.0121   -29.0261   -56.9257   113.5535    11.7945     9.3585     9.0950   -28.8786     0.2883
 2149.5000    10.1810     2.4187    -0.0080   -39.0712   -56.9270   113.9541    11.2604     9.1862     8.6077   -38.8359     0.2895
 2150.0000    10.1396     2.4277    -0.0301     1.0849   -56.9283   113.5487    10.4561     9.1012     8.5280   -18.6272     0.2903
 2150.5000    10.0983     2.4347    -0.0221   -37.5776   -57.1310   111.9342     8.8511     8.9334     8.6070   -38.6397     0.2875
 2151.0000    10.0497     2.4448    -0.0100   -49.2966   -57.1323   107.9014     8.9328     8.9328     8.5267   -28.4864     0.2629
 2151.5000    10.0404     2.4528     0.0081   -49.3938   -57.5369   104.2717     9.8890     9.0151     8.7595   -38.4435     0.2561
 2152.0000    10.0203     2.4558     0.0161   -19.3701   -57.5382    99.8359    10.5498     9.2681     9.0066   -38.3454     0.2674
 2152.5000    10.0204     2.4588     0.0262   -39.5478   -57.3379    99.4304    11.2547     9.4405     9.1750   -48.3023     0.2661
 2153.0000    10.0205     2.4568     0.0322   -39.6643   -57.1377    99.8309    11.5710     9.8868     9.6111   -48.2042     0.2633
 2153.5000    10.0004     2.4579     0.0302   -39.7615   -57.1390   100.6345    11.7863    10.0707     9.7909   -48.1060     0.2633
 2154.0000     9.9802     2.4619     0.0101   -39.8586   -57.1403   101.8411    12.1167     9.9772     9.4361   -37.9333     0.2839
 2154.5000     9.9803     2.4679     0.0042   -49.9965   -57.1408   101.0326    12.1162     9.8846     9.1770   -37.8352     0.2891
 2155.0000     9.9804     2.4719     0.0062   -50.0938   -57.1429   103.8514    11.7836     9.7026     8.9251   -37.7371     0.3031
 2155.5000     9.9805     2.4699     0.0162   -50.1910   -57.1441   107.4764    10.6424     9.6125     8.9245   -37.6390     0.3245
 2156.0000    10.0008     2.4639     0.0504   -50.2882   -57.3469   111.5044     9.5233     9.5233     8.9238   -29.6132     0.3241
 2156.5000     9.9806     2.4599     0.0484   -50.3855   -57.3482   115.9350     9.4349     9.6111     9.0061   -29.5397     0.3116
 2157.0000    10.0413     2.4539     0.0343   -50.4827   -57.3495   116.3357    10.6399     9.6104     9.0054   -39.4495     0.2705
 2157.5000    10.0212     2.4499     0.0223   -50.5799   -57.5523   115.5272    11.4563     9.6097     9.3403   -37.2466     0.2645
 2158.0000    10.0213     2.4479     0.0043   -40.6356   -57.3520   113.5095    11.8877     9.6983     9.4269   -37.1485     0.2625
 2158.5000    10.0416     2.4428    -0.0058   -40.7327   -57.1518   111.0887    12.1088     9.6975     9.4262   -37.0504     0.2625
 2159.0000    10.0619     2.4418    -0.0018   -40.8299   -57.0269   107.0556    11.9964     9.7870     9.5136   -36.9523     0.2665
 2159.5000    10.0821     2.4479    -0.0037   -40.9270   -56.9531   105.8450    11.5594     9.9690     9.6915   -36.8542     0.2745
 2160.0000    10.1025     2.4579    -0.0077   -41.0242   -56.7523   102.6170    11.1386     9.9681     9.4275   -56.8647     0.2822
 2160.5000    10.1227     2.4649    -0.0037   -41.1213   -56.8048   103.0176    11.0352     9.7846     9.2544   -46.7122     0.2903
 2161.0000    10.1430     2.4599    -0.0017   -51.2606   -56.8574   107.8520    10.9327     9.5161     9.0019   -46.6141     0.2998
 2161.5000    10.1633     2.4399     0.0003   -61.4001   -56.9099   113.0890    10.6327     9.3409     8.6721   -56.5701     0.3075
 2162.0000    10.1836     2.4399    -0.0237   -41.4128   -56.9625   113.8932    10.1512     9.2539     8.5918   -56.4523     0.3067
 2162.5000    10.2039     2.4449    -0.0217   -61.6143   -57.0150   113.8908     9.8723     9.2536     8.6711   -66.4474     0.2983
 2163.0000    10.2242     2.4529     0.0004   -61.7116   -57.0675   113.0822     9.8719     9.2651     8.6704   -46.2019     0.2975
 2163.5000    10.2403     2.4539     0.0426   -51.7663   -57.1201   110.6613    10.0560     9.2765     8.7504   -46.1038     0.2971
 2164.0000    10.2648     2.4539     0.0466   -41.8208   -57.3677   106.2249    10.6672     9.2880     8.7497   -46.0056     0.2938
 2164.5000    10.2649     2.4590     0.0205   -62.0037   -57.1671   102.9978    11.3389     9.2995     8.8304   -55.9613     0.2914
 2165.0000    10.3256     2.4610     0.0085   -52.0581   -57.1687   102.5922    11.2336     9.3110     8.8297   -55.8632     0.2874
 2165.5000    10.3687     2.4630     0.0005   -52.1554   -56.9684   102.1862    10.9253     9.3225     8.6672   -45.7112     0.2676
 2166.0000    10.4269     2.4710    -0.0035   -52.2526   -56.9697   102.9894    10.7242     9.3345     8.5077   -55.6668     0.2624
 2166.5000    10.4270     2.4750    -0.0055   -62.3932   -56.9710   103.7936     9.9584     9.2483     8.3511   -57.2320     0.2580
 2167.0000    10.4472     2.4801    -0.0055   -72.5339   -57.1735   104.5973     9.8660     8.9821     8.1219   -55.2777     0.2543
 2167.5000    10.4878     2.4801    -0.0015   -52.5445   -57.3212   102.1763     9.7740     8.7235     7.9724   -53.3234     0.2535
 2168.0000    10.4879     2.4821     0.0086   -52.6417   -57.1766    99.7552     9.6835     8.4724     7.8256   -51.3692     0.2596
 2168.5000    10.5082     2.4861     0.0327   -62.7826   -57.1779    98.9465     9.5936     8.2286     7.6108   -49.4149     0.2664
 2169.0000    10.5440     2.4911     0.0347   -52.8363   -57.3807    99.7502     9.4171     7.9917     7.5402   -47.4606     0.2668
 2169.5000    10.5690     2.5002     0.0327   -52.9336   -57.3820   102.9726     9.3297     7.6822     7.4702   -46.4165     0.2708
 2170.0000    10.5893     2.5062     0.0267   -53.0308   -57.1817   104.1794     9.2431     7.6821     7.4009   -44.8084     0.2745
 2170.5000    10.6096     2.5012     0.0267   -53.1281   -57.3846   106.5956     9.1573     7.7095     7.4003   -54.7635     0.2837
 2171.0000    10.6915     2.4952     0.0247   -43.1813   -57.3856   108.6087     9.2417     7.7370     7.5114   -44.6122     0.2946
