~VERSION INFORMATION
 VERS.                2.0:   CWLS LOG ASCII STANDARD - VERSION 2.0
 WRAP.                 NO:   ONE LINE PER DEPTH STEP
~WELL INFORMATION
#MNEM.UNIT      DATA TYPE    INFORMATION
#----------   ------------   ------------------------------
 STRT.F           16.0000:   START DEPTH
 STOP.F         2860.0000:   STOP DEPTH
 STEP.F            0.5000:   STEP LENGTH
 NULL.          -999.2500:   NO VALUE
 COMP.    FENIX & SCISSON:   COMPANY
 WELL. FENIX NPR 3 "AX" #22-21:   WELL
 FLD .  TEAPOT DOME - NPR:   FIELD
 LOC .      S21 T39N R78W:   LOCATION
 CNTY.            NATRONA:   COUNTY
 STAT.            WYOMING:   STATE
 CTRY. UNITED STATES OF AMERICA:   COUNTRY
 SRVC.      DRESSER ATLAS:   SERVICE COMPANY
 DATE.        07-AUG-1978:   LOGDATE
 API .     49025106790000:   API NUMBER
~CURVE INFORMATION
#MNEM.UNIT       API CODE    CURVE DESCRIPTION
#----------   ------------   ------------------------------
 DEPT.F                  :   
 CALD.IN     45 280 60 00:   CALIPER FROM DENSITY LOG
 GRD .GAPI   45 310 01 00:   GAMMA RAY FROM DENSITY LOG
 CORR.G/C3   45 356 01 00:   DENSITY CORRECTION
 RHOB.G/C3   45 350 01 00:   BULK DENSITY
 SPR .MV     05 010 01 00:   SPONTANEOUS POTENTIAL
 ILD .OHMM   05 120 46 00:   DEEP INDUCTION RESISTIVITY
 SN  .OHMM   05 040 00 00:   SHORT NORMAL
~PARAMETER INFORMATION
#MNEM.UNIT          VALUE    DESCRIPTION
#----------   ------------   ------------------------------
 EKB .F         4989.0000:   Kelly bushing
 EGL .F         4979.0000:   Ground level
 EDF .F            0.0000:   Drilling floor
 TD  .F         2847.0000:   Total depth
 DATE.        07-AUG-1978:   Date logged
 CLNT.            A2DTECH:   Client Code
 SL  . 880' FNL & 660' FWL:   Surface Location
 PD  .                 GL:   Permanent Datum
 DD  .F              2845:   Depth driller
 DL  .F              2847:   Depth logger
 BLI .F              2841:   Bottom log interval
 CS1 .IN            8.625:   Casing size
 CBD1.      8.625" @ 240':   Casing driller 1
 CBL1.F               240:   Casing logger 1
 BS1 .IN            7.875:   Bit size
 DFT .                KCL:   Type fluid in hole
 DFD .                9.2:   Density
 DFV .                 31:   Viscosity
 DFPH.               10.5:   pH
 MSS .           FLOWLINE:   Source of sample
 RMS .OHMM           1.25:   Rm
 MST .F                74:   Rm Meas. temp.
 RMF .OHMM            1.8:   Rmf
 MFST.F                76:   Rmf Meas. temp.
 RMC .OHMM              3:   Rmc
 MCST.F                78:   Rmc Meas. temp.
 MFSS.               MEAS:   Source Rmf.
 TCS .HRS               4:   Time Circ. stopped
 LUN .               3006:   Logging unit number
 LUL .               CASP:   Logging unit location
 ENGI.             MILLER:   Recorded By
 WITN.           MCGINLEY:   Witnessed by
 ORIG.           5" PRINT:   Origin of data
 UWI .     49025106790000:   Unique Well ID
 DICO. A2D TECHNOLOGIES, INC.:   Digitizing Company
 DAPD.                 10:   Feet Above Permanent Datum
 BSD1.F              2845:   Depth drilled with bit1
 EPD .F              4970:   Elevation Permanent Datum
 LMF .                 KB:   Log Measured From
 DMF .                 KB:   Drilling Measured From
 TLI .                240:   Top log interval
~OTHER INFORMATION
~A   DEPT     CALD         GRD      CORR       RHOB        SPR        ILD         SN   
# ...
 1790.5000     7.8000   124.0940     0.0010     2.4550    -7.5060     7.5240    11.8810
 1791.0000     7.7980   124.8140     0.0010     2.4490    -7.3340     7.5040    11.9150
 1791.5000     7.7970   125.4980     0.0010     2.4430    -7.1580     7.4890    11.9540
 1792.0000     7.7980   126.3090     0.0020     2.4420    -6.9740     7.4730    11.9920
 1792.5000     7.7980   127.1140     0.0030     2.4470    -6.9570     7.4550    12.0310
 1793.0000     7.7980   128.0270     0.0040     2.4520    -7.0420     7.4360    12.0690
 1793.5000     7.7980   128.9530     0.0060     2.4560    -7.1200     7.4190    12.1000
 1794.0000     7.7970   130.7800     0.0070     2.4600    -7.1850     7.4030    12.1260
 1794.5000     7.8030   136.2530     0.0080     2.4550    -7.2720     7.3890    12.1580
 1795.0000     7.8140   144.4750     0.0090     2.4490    -7.3540     7.4290    12.1900
 1795.5000     7.8240   152.9890     0.0110     2.4470    -7.8640     7.4620    12.2230
 1796.0000     7.8340   158.8440     0.0120     2.4500    -8.4500     7.4950    12.2550
 1796.5000     7.8440   154.2330     0.0130     2.4530    -8.4960     7.5290    12.2870
 1797.0000     7.8550   147.0940     0.0130     2.4540    -8.5040     7.5630    12.3230
 1797.5000     7.8650   140.8920     0.0140     2.4500    -8.4920     7.5960    12.6370
 1798.0000     7.8760   134.6610     0.0150     2.4460    -8.5010     7.6290    12.9880
 1798.5000     7.8770   128.0280     0.0150     2.4420    -8.5060     7.6600    13.3400
 1799.0000     7.8770   126.8970     0.0160     2.4380    -8.6360     7.7030    13.7510
 1799.5000     7.8770   129.1150     0.0160     2.4340    -8.7620     7.7670    13.6980
 1800.0000     7.8770   131.0470     0.0170     2.4310    -8.8980     7.8310    13.6340
 1800.5000     7.8770   133.0660     0.0180     2.4270    -9.0190     7.8950    13.5700
 1801.0000     7.8770   128.0830     0.0180     2.4250    -9.1570     7.9480    13.5050
 1801.5000     7.8770   122.2810     0.0190     2.4320    -9.2860     7.8450    13.4410
 1802.0000     7.8760   119.9850     0.0190     2.4420    -9.2040     7.7580    13.3770
 1802.5000     7.8580   117.5820     0.0200     2.4470    -8.8370     7.6700    13.3130
 1803.0000     7.8410   115.2750     0.0210     2.4480    -8.5670     7.5830    13.2570
 1803.5000     7.8230   112.8960     0.0160     2.4490    -8.1920     7.3870    13.1470
 1804.0000     7.8050   111.8770     0.0070     2.4450    -7.8400     7.4580    13.0490
 1804.5000     7.7970   118.4250    -0.0010     2.4350    -7.4780     7.5960    12.9510
 1805.0000     7.7980   125.3760    -0.0030     2.4260    -7.3000     7.7350    12.8040
 1805.5000     7.7980   132.6500    -0.0040     2.4220    -7.6080     7.8730    12.8210
 1806.0000     7.7980   139.6500    -0.0040     2.4160    -8.0240     8.0430    12.9670
 1806.5000     7.7980   146.6690    -0.0050     2.4060    -8.4350     8.2490    13.2570
 1807.0000     7.7980   150.9070    -0.0060     2.4050    -8.8480     8.4560    14.1030
 1807.5000     7.7980   156.2860    -0.0060     2.4060    -9.2570     8.6620    15.1060
 1808.0000     7.7980   154.8580    -0.0070     2.4020    -9.6750     8.8690    16.5080
 1808.5000     7.7980   144.2750    -0.0050     2.3960   -10.0820     9.0750    16.4200
 1809.0000     7.7980   134.2120    -0.0030     2.3910   -10.4500     9.2810    16.2730
 1809.5000     7.7980   125.6830    -0.0010     2.3850   -10.4270     9.3680    16.1270
 1810.0000     7.7980   122.5860     0.0010     2.3810   -10.3970     9.3240    15.9160
 1810.5000     7.7980   113.1190     0.0040     2.3890   -10.3510     9.2860    16.1050
 1811.0000     7.7980   110.2950     0.0050     2.3980   -10.3150     9.2470    16.4470
 1811.5000     7.7980   111.8080     0.0030     2.4080   -10.2750     9.2090    16.7890
 1812.0000     7.7950   113.3390     0.0020     2.4110   -10.2360     9.1990    17.1310
 1812.5000     7.7870   113.7820     0.0000     2.4030   -10.1960     9.1990    17.4380
 1813.0000     7.7780   113.1370    -0.0010     2.3950   -10.1590     9.1630    16.9280
 1813.5000     7.7690   112.6300    -0.0030     2.3910   -10.1190     9.1300    16.1960
 1814.0000     7.7610   115.6280    -0.0020     2.3910   -10.0690     9.0970    15.4640
 1814.5000     7.7500   119.0250     0.0000     2.3900    -9.8660     9.0640    15.0670
 1815.0000     7.7370   122.3420     0.0020     2.3900    -9.6540     9.0320    15.0670
 1815.5000     7.7260   125.1990     0.0040     2.3920    -9.4120     8.9990    15.0670
 1816.0000     7.7140   125.6230     0.0060     2.3940    -9.3070     8.9660    15.0670
 1816.5000     7.7010   121.3210     0.0080     2.4030    -9.4140     8.9330    15.0670
 1817.0000     7.6900   116.7030     0.0090     2.4140    -9.4990     8.9010    15.1130
 1817.5000     7.6790   112.1070     0.0080     2.4260    -9.5820     8.8680    15.1580
 1818.0000     7.6850   107.6970     0.0080     2.4260    -9.6810     8.8350    15.2040
 1818.5000     7.7000   103.3650     0.0080     2.4260    -9.6770     8.8020    15.2500
 1819.0000     7.7080   107.6110     0.0080     2.4260    -9.7870     8.7700    15.2960
 1819.5000     7.7510   111.6940     0.0070     2.4250   -10.0560     8.7370    15.3440
 1820.0000     7.7660   116.9020     0.0070     2.4260    -9.7590     8.7080    14.9590
 1820.5000     7.7760   117.4610     0.0070     2.4300    -9.4430     8.6360    14.5450
 1821.0000     7.7830   115.2600     0.0070     2.4340    -9.1760     8.5720    14.1320
 1821.5000     7.7930   113.5820     0.0060     2.4380    -8.9230     8.5070    13.5020
 1822.0000     7.7980   112.4380     0.0060     2.4420    -8.6300     8.4420    13.5840
 1822.5000     7.7970   111.7970     0.0060     2.4460    -8.4870     8.3940    13.7540
 1823.0000     7.7980   109.9030     0.0060     2.4470    -8.5030     8.3940    13.9250
 1823.5000     7.7980   106.0740     0.0050     2.4440    -8.4990     8.4390    14.0960
 1824.0000     7.7980   102.7060     0.0050     2.4420    -8.4790     8.5100    14.2630
 1824.5000     7.7980   100.6220     0.0050     2.4390    -8.3990     8.5800    14.3180
 1825.0000     7.7980    99.2600     0.0050     2.4370    -8.3170     8.6510    14.3720
 1825.5000     7.7980   102.1040     0.0040     2.4340    -8.2350     8.7080    14.4270
 1826.0000     7.7980   105.5340     0.0040     2.4320    -8.1530     8.7080    14.4810
 1826.5000     7.7980   110.1500     0.0040     2.4300    -8.0720     8.7080    14.5260
 1827.0000     7.7980   114.5060     0.0040     2.4270    -7.9900     8.7080    14.5260
 1827.5000     7.7980   116.3530     0.0030     2.4250    -7.9080     8.7080    14.5260
 1828.0000     7.7980   116.5020     0.0030     2.4220    -7.8280     8.7080    14.5260
 1828.5000     7.7980   114.9690     0.0030     2.4220    -7.7420     8.7080    14.5260
 1829.0000     7.8060   111.9780     0.0030     2.4240    -7.7050     8.7090    14.5260
 1829.5000     7.8120   110.5970     0.0020     2.4260    -7.7100     8.7090    14.5150
 1830.0000     7.8200   110.4690     0.0020     2.4270    -7.7370     8.7100    14.2400
 1830.5000     7.8260   110.1730     0.0020     2.4290    -7.7680     8.6800    14.0080
 1831.0000     7.8330   109.8850     0.0020     2.4310    -7.8010     8.6140    13.9670
 1831.5000     7.8400   109.6980     0.0010     2.4300    -7.8320     8.5480    13.9240
 1832.0000     7.8470   109.7100     0.0010     2.4290    -7.8630     8.4850    13.8830
 1832.5000     7.8540   110.7450     0.0010     2.4280    -7.8950     8.4230    13.8440
 1833.0000     7.8610   111.9310     0.0010     2.4270    -7.9270     8.3410    13.8070
 1833.5000     7.8670   112.8470     0.0000     2.4280    -7.9580     8.2470    13.7670
 1834.0000     7.8750   111.6780     0.0000     2.4290    -7.9900     8.1540    13.6910
 1834.5000     7.8750   110.8910     0.0000     2.4290    -8.0210     8.0620    13.5890
 1835.0000     7.8710   110.1140     0.0000     2.4300    -8.0520     7.9540    13.4880
 1835.5000     7.8680   108.6160    -0.0010     2.4310    -8.0880     7.9650    13.3860
