~VERSION INFORMATION
 VERS.                2.0:   CWLS LOG ASCII STANDARD - VERSION 2.0
 WRAP.                 NO:   ONE LINE PER DEPTH STEP
~WELL INFORMATION
#MNEM.UNIT      DATA TYPE    INFORMATION
#----------   ------------   ------------------------------
 STRT.F            0.0000:   START DEPTH
 STOP.F          678.0000:   STOP DEPTH
 STEP.F            0.5000:   STEP LENGTH
 NULL.          -999.2500:   NO VALUE
 COMP.       FLUOR DANIEL:   COMPANY
 WELL. FLUOR DANIEL "X" #23-2:   WELL
 FLD .          N.P.R. #3:   FIELD
 LOC .       S2 T38N R78W:   LOCATION
 CNTY.            NATRONA:   COUNTY
 STAT.            WYOMING:   STATE
 CTRY. UNITED STATES OF AMERICA:   COUNTRY
 SRVC.      WESTERN ATLAS:   SERVICE COMPANY
 DATE.        12-AUG-1994:   LOGDATE
 API .     49025226420000:   API NUMBER
~CURVE INFORMATION
#MNEM.UNIT       API CODE    CURVE DESCRIPTION
#----------   ------------   ------------------------------
 DEPT.F                  :   
 GR  .GAPI   07 310 01 00:   GAMMA RAY
 ILD .OHMM   07 120 46 00:   DEEP INDUCTION RESISTIVITY
 ILM .OHMM   07 120 44 00:   INDUCTION LOG MEDIUM RESISTIVITY
 TENR.LBS    07 635 01 00:   TENSION FROM RESISTIVITY
~PARAMETER INFORMATION
#MNEM.UNIT          VALUE    DESCRIPTION
#----------   ------------   ------------------------------
 EKB .F         5110.0000:   Kelly bushing
 EGL .F         5100.0000:   Ground level
 EDF .F         5109.0000:   Drilling floor
 EPD .F         5100.0000:   Permanent datum
 TD  .F          677.0000:   Total depth
 CLNT.            A2DTECH:   Client Code
 SL  . 1896' FNL & 744' FWL:   Surface Location
 PD  .                 GL:   Permanent Datum
 DAPD.F                10:   Feet Above Permanent Datum
 DATE.        12-AUG-1994:   Date Logged [DD-MMM-YYYY]
 DD  .F               670:   Depth driller
 DL  .F               677:   Depth logger
 BLI .F               664:   Bottom log interval
 TLI .F                 0:   Top log interval
 CS1 .              9.625:   Casing size
 CBD1.       9.625" @ 72':   Casing driller 1
 CBL1.IN               79:   Casing logger 1
 BS1 .IN             8.75:   Bit size
 BSD1.F               670:   Depth drilled with bit1
 DFT .                AIR:   Type fluid in hole
 LUN .            HL 6530:   Logging unit number
 LUL .             CASPER:   Logging unit location
 ENGI.      PAT RASMUSSEN:   Recorded By
 WITN.        GARY STRONG:   Witnessed by
 ORIG.         2.5" PRINT:   Origin of data
 UWI .     49025226420000:   Unique Well ID
 DICO. A2D TECHNOLOGIES, INC.:   Digitizing Company
~OTHER INFORMATION
~A    DEPT       GR       ILD        ILM       TENR   
# ...
  584.0000    93.9979    15.2164    15.0583   101.7442
  584.5000    92.8068    15.4180    15.0532   116.6424
  585.0000    91.0273    15.6222    15.0482   117.0058
  585.5000    89.2479    15.6172    15.0431   117.3691
  586.0000    90.4097    15.6130    15.0381   117.7325
  586.5000    99.2185    15.6088    15.0331   114.5582
  587.0000   103.3214    15.1332    14.7625   100.3378
  587.5000   104.4853    14.4755    14.2397    86.1201
  588.0000   102.7037    14.1424    13.9834    75.5355
  588.5000   102.6890    13.5801    13.6094    75.9448
  589.0000   105.0272    13.3952    13.3044    80.0867
  589.5000   104.4243    12.8626    12.8912    91.2064
  590.0000   103.2331    12.6873    12.7721    91.5698
  590.5000   102.6301    12.5145    12.5981    91.9332
  591.0000   102.6154    12.3440    12.2611    92.2965
  591.5000   101.9648    12.1759    12.0940    88.6361
  592.0000    99.6155    12.0593    12.0899    78.4376
  592.5000    97.8676    12.0560    11.9252    78.8518
  593.0000    97.8529    11.8921    11.9212    75.0456
  593.5000    97.2122    11.8889    11.9172    64.9910
  594.0000    93.0706    11.8857    11.7548    65.4070
  594.5000    88.9745    11.7240    11.7509    65.7704
  595.0000    91.3928    11.6714    11.5908    66.1337
  595.5000    97.8232    11.5614    11.5869    66.4971
  596.0000   101.8984    11.5090    11.4290    66.8604
  596.5000   102.4560    11.4011    11.4252    67.2239
  597.0000   100.0823    11.3981    11.4213    67.5872
  597.5000    98.8971    11.3950    11.3669    67.9505
  598.0000   100.0626    11.3920    11.2619    82.8489
  598.5000   102.9943    11.3889    11.2582    83.2122
  599.0000   105.3235    11.3858    11.1047    88.3221
  599.5000   105.3078    11.3828    11.0518    98.4739
  600.0000   102.3529    11.3487    10.9497   113.4069
  600.5000    99.3970    11.1596    10.8975   113.9796
  601.0000    99.3823    10.9705    10.7969   114.5523
  601.5000    99.3676    10.7804    10.7932   115.1250
  602.0000    99.9529    10.6352    10.7896   115.6977
  602.5000   104.0588    10.6337    10.7860   116.2790
  603.0000   106.4000    10.6323    10.7824   102.3256
  603.5000   106.9765    10.6309    10.8273    88.3721
  604.0000   105.2000    10.6294    10.9210    88.9535
  604.5000    99.8941    10.6280    10.9168    89.5349
  605.0000   101.0588    10.6266    10.9131    90.1163
  605.5000   102.8118    10.6251    10.9095    90.6976
  606.0000   102.2118    10.6237    10.9058    91.2791
  606.5000    99.2588    10.6223    10.9022    91.8605
  607.0000   100.4235    10.6209    10.8985    77.9069
  607.5000   104.5294    10.6194    10.8949    78.4884
  608.0000   106.2824    10.6180    10.9138    79.0698
  608.5000   106.8588    10.6166    10.9248    79.6511
  609.0000   106.8471    10.6152    10.7779    80.2325
  609.5000   106.8353    10.6137    10.7765    95.3488
  610.0000   103.2941    10.6123    10.7750    95.9303
  610.5000   100.3412    10.6109    10.6303    96.5116
  611.0000   104.4471    10.4680    10.6289    97.0930
  611.5000   110.9059    10.4665    10.6274   112.2093
  612.0000   113.8353    10.4651    10.6260   112.7907
  612.5000   113.8235    10.4637    10.4833   127.9070
  613.0000   112.0471    10.4623    10.4819   128.4884
  613.5000   111.4471    10.4609    10.4805   129.0697
  614.0000   111.4353    10.4595    10.4790   144.1861
  614.5000   109.0706    10.4581    10.4776   144.7675
  615.0000   106.7059    10.3172    10.4765   145.3488
  615.5000   106.6941    10.3159    10.4751   145.9302
  616.0000   113.7412    10.3145    10.4737   146.5117
  616.5000   116.0824    10.3131    10.4723   147.0930
  617.0000   116.6588    10.1742    10.4709   147.6744
  617.5000   116.0588    10.1728    10.4695   148.2558
  618.0000   116.0471    10.1714    10.3288   163.3721
  618.5000   115.4471    10.1701    10.3275   163.9535
  619.0000   111.9059    10.0331    10.1888   164.5349
  619.5000   107.1882    10.0317    10.1875   165.1163
  620.0000   103.6471    10.0304    10.1861   165.6977
  620.5000   101.8706    10.0290    10.0493   166.2791
  621.0000   102.4471    10.0277    10.0479   166.8604
  621.5000   104.2000     9.8926     9.9896   152.9070
  622.0000   104.7765     9.8913     9.8572   153.4884
  622.5000   106.5294     9.7343     9.7785   154.0697
  623.0000   109.4588     9.4984     9.7269   154.6512
  623.5000   112.3882     9.4971     9.6459   155.2326
  624.0000   113.5529     9.3692     9.6446   155.8139
  624.5000   114.1294     9.2221     9.6434   156.3953
  625.0000   115.2941     8.9969     9.5993   156.9768
  625.5000   114.6941     8.9761     9.3461   157.5581
  626.0000   114.0941     8.8556     9.1369   158.1395
  626.5000   114.6706     8.6202     8.9101   158.7209
  627.0000   115.2471     8.5044     8.6259   159.3024
  627.5000   115.8235     8.1680     8.1766   159.8837
  628.0000   116.4000     8.0274     7.8550   160.4651
  628.5000   118.7412     7.5061     7.5998   161.0465
  629.0000   121.0824     6.8328     7.2064   161.6279
  629.5000   122.8353     6.1262     6.5463   176.7442
  630.0000   122.8235     5.5961     5.8849   177.3256
  630.5000   121.0471     5.2415     5.3289   177.9070
  631.0000   129.2686     5.1022     5.1884   178.4884
  631.5000   138.6686     4.9748     5.1305   179.0698
  632.0000   143.9510     5.0578     5.2092   179.6512
  632.5000   142.1745     5.2645     5.3489   180.2326
  633.0000   137.4569     5.5624     5.6694   180.8140
  633.5000   129.2098     6.0182     6.4858   181.3953
  634.0000   122.7274     6.5410     7.2893   181.9767
  634.5000   118.0098     7.2804     7.8936   197.0930
  635.0000   118.5863     8.0698     8.5324   197.6744
  635.5000   119.7510     8.4000     8.6510   198.2558
  636.0000   120.9157     8.5228     8.9961   198.8372
  636.5000   120.9039     8.8496     9.1112   199.4186
  637.0000   120.8922     8.9680     9.1100   200.0000
  637.5000   122.0569     9.0880     9.1088   200.5814
  638.0000   122.6333     9.2195     9.2303   201.1628
  638.5000   122.4275     9.4589     9.3534   201.7442
  639.0000   120.6510     9.4670     9.4782   202.3256
  639.5000   118.2862     9.8544     9.6047   202.9070
  640.0000   117.0980     9.9858     9.7328   203.4884
  640.5000   116.1059    10.2557     9.9956   218.6047
  641.0000   117.4666    10.5244    10.1290   219.1860
  641.5000   119.8078    10.6652    10.4024   219.7674
  642.0000   122.3453    10.9618    10.6833   220.3488
  642.5000   124.4902    11.1006    10.7586   220.9302
  643.0000   124.8726    11.2491    11.0471   221.5116
  643.5000   121.3297    11.2476    11.2664   222.0930
  644.0000   116.2196    11.3981    11.3398   222.6744
  644.5000   115.4235    11.3966    11.4152   223.2558
  645.0000   115.4117    11.3950    11.4854   223.8372
  645.5000   115.4000    11.3935    11.5659   224.4186
  646.0000   115.3882    11.3920    11.4106   225.0000
  646.5000   114.7902    11.5444    11.4091   225.5814
  647.0000   116.1491    11.5429    11.4076   226.1628
  647.5000   117.7078    11.5413    11.4060   226.7442
  648.0000   117.8902    11.5397    11.4045   227.3256
  648.5000   118.6627    11.5382    11.4030   227.9070
  649.0000   119.6315    11.5366    11.4014   228.4884
  649.5000   120.0137    11.3813    11.2483   229.0698
  650.0000   119.8040    11.3292    11.2468   229.6512
  650.5000   118.6157    11.1771    11.2453   230.2325
  651.0000   118.0157    11.0753    11.2438   230.8139
  651.5000   117.6117    11.0260    11.2423   231.3954
  652.0000   117.6000    10.8780    11.2408   246.5116
  652.5000   117.5882    10.7320    11.1995   247.0930
  653.0000   117.5765    10.6323    11.0883   247.6744
  653.5000   118.5451    10.4891    10.9045   248.2558
  654.0000   120.1020    10.4877    10.7600   248.8372
  654.5000   120.4843    10.3046    10.6173   263.9535
  655.0000   119.8823    10.0710    10.3373   264.5349
  655.5000   119.8706     9.9353    10.2003   265.1163
  656.0000   119.8549     9.8015    10.0652   265.6977
  656.5000  -999.2500     9.6321     9.9317   266.2790
