~VERSION INFORMATION
 VERS.                2.0:   CWLS LOG ASCII STANDARD - VERSION 2.0
 WRAP.                 NO:   ONE LINE PER DEPTH STEP
~WELL INFORMATION
#MNEM.UNIT      DATA TYPE    INFORMATION
#----------   ------------   ------------------------------
 STRT.F          748.0000:   START DEPTH
 STOP.F         2734.0000:   STOP DEPTH
 STEP.F            0.5000:   STEP LENGTH
 NULL.          -999.2500:   NO VALUE
 COMP.    FENIX & SCISSON:   COMPANY
 WELL. FENIX NPR 3 "SHX" #84-4:   WELL
 FLD .             TEAPOT:   FIELD
 LOC .       S4 T38N R78W:   LOCATION
 CNTY.            NATRONA:   COUNTY
 STAT.            WYOMING:   STATE
 CTRY. UNITED STATES OF AMERICA:   COUNTRY
 SRVC.              WELEX:   SERVICE COMPANY
 DATE.        08-MAY-1980:   LOGDATE
 API .     49025108050000:   API NUMBER
~CURVE INFORMATION
#MNEM.UNIT       API CODE    CURVE DESCRIPTION
#----------   ------------   ------------------------------
 DEPT.F                  :   
 CALD.IN     45 280 60 00:   CALIPER FROM DENSITY LOG
 GRD .GAPI   45 310 01 00:   GAMMA RAY FROM DENSITY LOG
 RHOB.G/C3   45 350 01 00:   BULK DENSITY
 CORR.G/C3   45 356 01 00:   DENSITY CORRECTION
~PARAMETER INFORMATION
#MNEM.UNIT          VALUE    DESCRIPTION
#----------   ------------   ------------------------------
 EKB .F         5244.0000:   Kelly bushing
 EGL .F         5234.0000:   Ground level
 EDF .F            0.0000:   Drilling floor
 TD  .F         2733.0000:   Total depth
 DATE.        08-MAY-1980:   Date logged
 CLNT.            A2DTECH:   Client Code
 SL  . 7461' FNL & 383' FEL:   Surface Location
 PD  .                 GL:   Permanent Datum
 EPD .F              5234:   Elevation Permanent Datum
 LMF .                 KB:   Log Measured From
 DMF .                 KB:   Drilling Measured From
 DAPD.F                10:   Feet Above Permanent Datum
 DD  .F              2700:   Depth driller
 DL  .F              2733:   Depth logger
 BLI .F              2731:   Bottom log interval
 TLI .F               752:   Top log interval
 CS1 .IN            9.625:   Casing size
 CBD1.      9.625" @ 260':   Casing driller 1
 BS1 .IN              8.5:   Bit size
 BSD1.F              2700:   Depth drilled with bit1
 DFT .                AIR:   Type fluid in hole
 MRT .F               118:   Maximum recorded temp.
 LUN .                  2:   Logging unit number
 ENGI.           TORTILLE:   Recorded By
 WITN.              AMEND:   Witnessed by
 ORIG.           5" PRINT:   Origin of data
 UWI .     49025108050000:   Unique Well ID
 DICO. A2D TECHNOLOGIES, INC.:   Digitizing Company
~OTHER INFORMATION
~A   DEPT       CALD       GRD        RHOB       CORR 
# ...
 2135.0000     8.8600   109.0050     2.4720     0.0640
 2135.5000     8.8600   108.9150     2.4630     0.0540
 2136.0000     8.8600   109.0520     2.4550     0.0480
 2136.5000     8.8600   109.1700     2.4500     0.0440
 2137.0000     8.8600   109.3010     2.4490     0.0490
 2137.5000     8.8600   109.4240     2.4550     0.0570
 2138.0000     8.8620   109.5530     2.4680     0.0650
 2138.5000     8.8640   109.6760     2.4790     0.0730
 2139.0000     8.8660   109.8020     2.4750     0.0810
 2139.5000     8.8680   109.9380     2.4680     0.0740
 2140.0000     8.8700   110.0260     2.4620     0.0650
 2140.5000     8.8720   110.4200     2.4600     0.0680
 2141.0000     8.8750   111.0080     2.4700     0.0780
 2141.5000     8.8770   111.5530     2.4810     0.0880
 2142.0000     8.8790   112.1100     2.4890     0.0990
 2142.5000     8.8810   112.5000     2.4920     0.1050
 2143.0000     8.8830   112.4930     2.4820     0.0860
 2143.5000     8.8850   112.5020     2.4590     0.0670
 2144.0000     8.8870   112.4990     2.4360     0.0440
 2144.5000     8.8890   112.5000     2.4220     0.0310
 2145.0000     8.8910   112.5000     2.4230     0.0300
 2145.5000     8.8930   112.4990     2.4380     0.0380
 2146.0000     8.8950   112.5010     2.4410     0.0440
 2146.5000     8.8970   112.4950     2.4510     0.0530
 2147.0000     8.8990   112.5060     2.4480     0.0490
 2147.5000     8.9000   112.4960     2.4400     0.0420
 2148.0000     8.9000   112.4580     2.4290     0.0350
 2148.5000     8.9000   111.9610     2.4190     0.0270
 2149.0000     8.9000   111.5250     2.4080     0.0210
 2149.5000     8.9000   111.0540     2.4020     0.0130
 2150.0000     8.9000   110.7120     2.4150     0.0220
 2150.5000     8.9000   110.6980     2.4270     0.0400
 2151.0000     8.9000   110.7790     2.4330     0.0530
 2151.5000     8.9000   110.9680     2.4310     0.0520
 2152.0000     8.9000   111.1190     2.4280     0.0490
 2152.5000     8.9000   111.2700     2.4600     0.0620
 2153.0000     8.9000   111.0030     2.4560     0.0770
 2153.5000     8.9000   110.6780     2.4510     0.0810
 2154.0000     8.9000   110.3120     2.4450     0.0710
 2154.5000     8.9000   110.4670     2.4460     0.0580
 2155.0000     8.9000   111.8390     2.4530     0.0570
 2155.5000     8.9000   113.1590     2.4600     0.0590
 2156.0000     8.9000   114.5630     2.4670     0.0690
 2156.5000     8.9000   115.8850     2.4740     0.0680
 2157.0000     8.9000   117.2070     2.4680     0.0620
 2157.5000     8.9000   117.3130     2.4570     0.0570
 2158.0000     8.9000   116.9550     2.4510     0.0600
 2158.5000     8.9000   115.8550     2.4600     0.0710
 2159.0000     8.9000   114.8290     2.4640     0.0780
 2159.5000     8.9000   113.7640     2.4580     0.0740
 2160.0000     8.9000   112.7250     2.4500     0.0730
 2160.5000     8.9000   111.6520     2.4580     0.0770
 2161.0000     8.9000   111.2740     2.4640     0.0810
 2161.5000     8.9000   111.3060     2.4510     0.0820
 2162.0000     8.9000   111.3030     2.4370     0.0730
 2162.5000     8.9000   111.2980     2.4230     0.0570
 2163.0000     8.9000   111.3020     2.4220     0.0450
 2163.5000     8.9000   111.3000     2.4250     0.0420
 2164.0000     8.9000   111.3000     2.4420     0.0530
 2164.5000     8.9000   111.3000     2.4540     0.0660
 2165.0000     8.9000   111.3010     2.4540     0.0770
 2165.5000     8.9000   111.2960     2.4530     0.0770
 2166.0000     8.9000   111.3420     2.4510     0.0780
 2166.5000     8.9000   111.4390     2.4400     0.0730
 2167.0000     8.9000   111.5300     2.4300     0.0640
 2167.5000     8.9000   111.6220     2.4210     0.0580
 2168.0000     8.9000   111.7150     2.4320     0.0480
 2168.5000     8.9000   111.8070     2.4480     0.0650
 2169.0000     8.9000   111.8990     2.4510     0.0690
 2169.5000     8.9000   111.9910     2.4520     0.0690
 2170.0000     8.9000   112.0840     2.4520     0.0670
 2170.5000     8.9010   112.1760     2.4470     0.0660
 2171.0000     8.9020   112.2680     2.4420     0.0650
 2171.5000     8.9030   112.3610     2.4380     0.0660
 2172.0000     8.9040   112.4530     2.4400     0.0710
 2172.5000     8.9050   112.5450     2.4380     0.0750
 2173.0000     8.9060   112.6370     2.4320     0.0810
 2173.5000     8.9070   112.7290     2.4300     0.0850
 2174.0000     8.9080   112.8210     2.4320     0.0890
 2174.5000     8.9090   112.9150     2.4340     0.0870
 2175.0000     8.9110   113.0020     2.4380     0.0820
 2175.5000     8.9120   113.1040     2.4400     0.0780
 2176.0000     8.9130   112.9940     2.4370     0.0740
 2176.5000     8.9140   112.7810     2.4320     0.0670
 2177.0000     8.9150   112.5810     2.4280     0.0600
 2177.5000     8.9160   112.3800     2.4270     0.0540
 2178.0000     8.9170   112.1800     2.4510     0.0470
 2178.5000     8.9180   111.9770     2.4500     0.0650
 2179.0000     8.9190   111.7750     2.4460     0.0700
 2179.5000     8.9200   111.5850     2.4400     0.0740
 2180.0000     8.9210   111.3510     2.4370     0.0650
 2180.5000     8.9220   111.5050     2.4270     0.0570
 2181.0000     8.9230   111.9110     2.4160     0.0480
 2181.5000     8.9240   112.2690     2.3990     0.0410
 2182.0000     8.9250   112.6470     2.4070     0.0420
 2182.5000     8.9260   113.0020     2.4290     0.0560
 2183.0000     8.9270   113.3760     2.4240     0.0690
 2183.5000     8.9290   113.8030     2.4290     0.0690
 2184.0000     8.9300   114.3660     2.4320     0.0690
 2184.5000     8.9310   114.1700     2.4260     0.0670
 2185.0000     8.9320   113.9620     2.4220     0.0630
 2185.5000     8.9330   113.7370     2.4260     0.0590
 2186.0000     8.9340   113.4960     2.4330     0.0610
 2186.5000     8.9350   113.2870     2.4420     0.0760
 2187.0000     8.9360   113.1240     2.4360     0.0690
 2187.5000     8.9370   113.8940     2.4390     0.0640
 2188.0000     8.9380   114.8820     2.4450     0.0710
 2188.5000     8.9390   115.8730     2.4480     0.0740
 2189.0000     8.9400   116.8510     2.4390     0.0700
 2189.5000     8.9380   117.8360     2.4340     0.0620
 2190.0000     8.9370   118.8210     2.4350     0.0560
 2190.5000     8.9350   119.8050     2.4240     0.0480
 2191.0000     8.9340   120.7770     2.4130     0.0440
 2191.5000     8.9330   121.7910     2.4140     0.0470
 2192.0000     8.9310   122.7240     2.4330     0.0420
 2192.5000     8.9300   123.8110     2.4550     0.0800
 2193.0000     8.9280   123.9040     2.4460     0.0700
 2193.5000     8.9270   123.6350     2.4260     0.0540
 2194.0000     8.9250   122.3800     2.4230     0.0380
 2194.5000     8.9240   121.2030     2.4330     0.0500
 2195.0000     8.9230   119.9340     2.4440     0.0620
 2195.5000     8.9210   118.6910     2.4560     0.0750
 2196.0000     8.9200   117.3540     2.4670     0.0880
 2196.5000     8.9180   117.4270     2.4660     0.0820
 2197.0000     8.9170   117.5040     2.4470     0.0760
 2197.5000     8.9150   117.6410     2.4360     0.0690
 2198.0000     8.9140   117.7420     2.4440     0.0690
 2198.5000     8.9130   117.8660     2.4340     0.0610
 2199.0000     8.9110   117.8310     2.4150     0.0530
 2199.5000     8.9100   117.5270     2.3980     0.0440
 2200.0000     8.9080   117.3100     2.3770     0.0330
 2200.5000     8.9070   117.2590     2.3760     0.0290
 2201.0000     8.9050   117.1300     2.3820     0.0430
 2201.5000     8.9040   117.0240     2.3860     0.0500
 2202.0000     8.9030   116.9050     2.3800     0.0490
 2202.5000     8.9010   116.7720     2.3740     0.0470
 2203.0000     8.8990   116.7390     2.3760     0.0450
 2203.5000     8.8960   116.2210     2.3810     0.0460
 2204.0000     8.8940   114.9480     2.3980     0.0600
 2204.5000     8.8910   113.8550     2.4130     0.0720
 2205.0000     8.8880   112.6000     2.4140     0.0810
 2205.5000     8.8850   112.3940     2.4060     0.0750
 2206.0000     8.8830   111.7570     2.4020     0.0650
 2206.5000     8.8800   111.6370     2.4040     0.0660
 2207.0000     8.8770   111.3460     2.4070     0.0710
 2207.5000     8.8740   111.1480     2.4100     0.0760
