~VERSION INFORMATION
 VERS.                2.0:   CWLS LOG ASCII STANDARD - VERSION 2.0
 WRAP.                 NO:   ONE LINE PER DEPTH STEP
~WELL INFORMATION
#MNEM.UNIT      DATA TYPE    INFORMATION
#----------   ------------   ------------------------------
 STRT.F          176.0000:   START DEPTH
 STOP.F         3442.0000:   STOP DEPTH
 STEP.F            0.5000:   STEP LENGTH
 NULL.          -999.2500:   NO VALUE
 COMP.  FENIX AND SCISSON:   COMPANY
 WELL.  FENIX "AX" #65-15:   WELL
 FLD . NAVAL PETROLEUM RESERVE #3:   FIELD
 LOC .      S15 T38N R78W:   LOCATION
 CNTY.            NATRONA:   COUNTY
 STAT.            WYOMING:   STATE
 CTRY. UNITED STATES OF AMERICA:   COUNTRY
 SRVC.       SCHLUMBERGER:   SERVICE COMPANY
 DATE.        09-APR-1981:   LOGDATE
 API .     49025108710000:   API NUMBER
~CURVE INFORMATION
#MNEM.UNIT       API CODE    CURVE DESCRIPTION
#----------   ------------   ------------------------------
 DEPT.F                  :   
 TENR.LBS    07 635 01 00:   TENSION
 SPR .MV     07 010 01 00:   SPONTANEOUS POTENTIAL
 ILD .OHMM   07 120 46 00:   INDUCTION LOG DEEP RESISTIVITY
 ILM .OHMM   07 120 44 00:   INDUCTION LOG MEDIUM RESISTIVITY
 SFL .OHMM   07 220 01 00:   SHALLOW FOCUSED LOG RESISTIVITY
 TEND.LBS    45 635 01 00:   TENSION FROM DENSITY LOG
 CALD.IN     45 280 60 00:   CALIPER FROM DENSITY LOG
 GRD .GAPI   45 310 01 00:   GAMMA RAY FROM DENSITY LOG
 RHOB.G/C3   45 350 01 00:   BULK DENSITY
 CORR.G/C3   45 356 01 00:   DENSITY CORRECTION
~PARAMETER INFORMATION
#MNEM.UNIT          VALUE    DESCRIPTION
#----------   ------------   ------------------------------
 EKB .F         5287.0000:   Kelly bushing
 EGL .F         5277.0000:   Ground level
 EDF .F            0.0000:   Drilling floor
 TD  .F         5476.0000:   Total depth
 DATE.        09-APR-1981:   Date logged
 CLNT.            A2DTECH:   Client Code
 SL  . 1945' FSL & 1161' FEL:   Surface Location
 PD  .                 GL:   Permanent Datum
 EPD .F              5277:   Elevation Permanent Datum
 LMF .                 KB:   Log Measured From
 DMF .                 KB:   Drilling Measured From
 DAPD.F                10:   Feet Above Permanent Datum
 DD  .F              5476:   Depth driller
 DL  .F              5436:   Depth logger
 BLI .F              5430:   Bottom log interval
 TLI .F               190:   Top log interval
 CS1 .IN            8.625:   Casing size
 CBD1.      8.625" @ 190':   Casing driller 1
 CBL1.F               190:   Casing logger 1
 BS1 .IN            7.875:   Bit size
 BSD1.F              5476:   Depth drilled with bit1
 DFT .           CHEM GEL:   Type fluid in hole
 DFD .                9.1:   Density
 DFV .                 42:   Viscosity
 DFPH.                9.5:   pH
 DFL .                  8:   Fluid loss
 MSS .            MUDTANK:   Source of sample
 RMS .OHMM           1.62:   Rm
 MST .F                71:   Rm Meas. temp.
 RMF .OHMM           1.45:   Rmf
 MFST.F                71:   Rmf Meas. temp.
 MFSS.               MEAS:   Source Rmf.
 RMB .OHMM           1.02:   Rm. at BHT
 BHT .F               116:   BHT.
 TCS .HRS            1600:   Time Circ. stopped
 TLAB.HRS            1830:   Time logger at bottom
 MRT .F               116:   Maximum recorded temp.
 LUN .               8035:   Logging unit number
 LUL .               CSPR:   Logging unit location
 ENGI.            BEATTIE:   Recorded By
 WITN.              EIVAS:   Witnessed by
 ORIG.           5" PRINT:   Origin of data
 UWI .     49025108710000:   Unique Well ID
 DICO. A2D TECHNOLOGIES, INC.:   Digitizing Company
~OTHER INFORMATION
~A   DEPT     TENR        SPR        ILD        ILM        SFL       TEND       CALD         GRD      RHOB       CORR   
# ...
 1449.0000   432.8320   -20.9800     9.7450     9.0610    10.0540   454.7080     8.7320   110.1230     2.5190     0.0400
 1449.5000   433.3540   -20.9800     9.7450     9.0610    10.0680   455.1350     8.7330   108.8470     2.5380     0.0480
 1450.0000   433.8760   -20.9810     9.7450     9.0610    10.0810   455.5620     8.6830   109.2150     2.5440     0.0540
 1450.5000   434.3980   -20.9780     9.7450     9.1620    10.0960   455.9890     8.6130   109.8500     2.5350     0.0290
 1451.0000   434.9190   -20.9820     9.9080     9.2270    10.1750   456.4150     8.5580   108.2080     2.5210     0.0140
 1451.5000   435.4410   -20.9920    10.1700     9.2270    10.4770   456.8420     8.5360   105.4140     2.5190     0.0030
 1452.0000   435.9630   -21.1890    10.4320     9.4910    10.7780   457.2690     8.5170   103.4840     2.5300     0.0040
 1452.5000   436.4850   -21.3820    10.6950     9.7440    11.0800   457.6960     8.4980   104.0130     2.5370     0.0040
 1453.0000   437.0070   -21.5830    10.9570     9.9960    11.3810   458.1220     8.4780   105.0220     2.5440     0.0040
 1453.5000   437.5290   -21.7830    11.2190    10.2490    11.6830   458.5490     8.4780   104.7900     2.5530     0.0090
 1454.0000   438.0510   -21.9800    11.4810    10.5010    11.9840   458.9760     8.4810   104.3380     2.5610     0.0160
 1454.5000   438.5730   -22.1500    11.7440    10.7530    12.2860   459.4030     8.4850   103.9840     2.5610     0.0220
 1455.0000   439.0950   -22.1560    12.0060    11.0060    12.5880   459.8290     8.4880   103.9890     2.5590     0.0240
 1455.5000   439.6170   -22.1460    12.2680    11.2580    12.8890   460.2560     8.4920   103.3700     2.5540     0.0230
 1456.0000   440.1390   -22.1150    12.5300    11.5100    13.1910   460.6830     8.4950   102.5010     2.5420     0.0150
 1456.5000   440.6610   -22.0900    12.7930    11.7630    13.4920   461.1100     8.5040   101.9550     2.5310     0.0080
 1457.0000   441.1830   -22.0630    13.0550    12.0150    13.7940   461.5360     8.5180   102.5380     2.5200     0.0040
 1457.5000   441.7050   -22.0350    13.3170    12.2680    14.0240   461.9630     8.5340   103.1900     2.5150     0.0090
 1458.0000   442.2270   -22.0090    13.5790    12.5200    14.0750   462.3900     8.5490   103.8010     2.5090     0.0160
 1458.5000   442.7490   -21.9820    13.7710    12.8040    14.1350   462.8170     8.5640   104.2160     2.5080     0.0300
 1459.0000   443.2710   -21.9550    13.7710    12.8040    14.1950   463.2440     8.5790   103.3570     2.5050     0.0430
 1459.5000   443.7930   -21.9280    13.7710    13.2260    14.2550   463.6700     8.5940   101.8100     2.5030     0.0420
 1460.0000   444.3150   -21.9010    13.7710    13.5230    14.3150   464.0720     8.6090   100.5710     2.5010     0.0340
 1460.5000   444.6640   -21.8750    13.7710    13.5230    14.3750   463.1780     8.6130    99.3760     2.5060     0.0270
 1461.0000   444.6640   -21.8480    13.7710    13.5230    14.4350   462.1410     8.6130    98.1760     2.5150     0.0240
 1461.5000   444.6640   -21.8200    13.7710    13.5230    14.4950   461.1040     8.6180    97.0000     2.5230     0.0200
 1462.0000   444.7320   -21.7950    13.7710    13.5230    14.5440   460.0680     8.6270    96.0660     2.5220     0.0120
 1462.5000   444.8490   -21.7630    13.7710    13.3710    14.3490   459.0310     8.6350    97.5760     2.5200     0.0030
 1463.0000   444.9670   -21.7980    13.6000    13.1780    14.1840   457.9940     8.6440    98.9870     2.5220     0.0060
 1463.5000   445.0840   -21.8720    13.4280    12.9840    14.0240   456.9580     8.6520    99.9820     2.5280     0.0100
 1464.0000   445.2020   -21.9420    13.2570    12.7910    13.8040   455.9210     8.6610   100.9750     2.5330     0.0140
 1464.5000   445.3200   -22.0140    13.0850    12.5980    13.5910   454.8840     8.6690   102.4080     2.5380     0.0150
 1465.0000   445.4370   -22.0830    12.9140    12.4050    13.3780   454.0920     8.6780   103.4770     2.5420     0.0150
 1465.5000   445.5550   -22.1530    12.7420    12.2120    13.1650   454.0920     8.6870   105.5210     2.5450     0.0170
 1466.0000   445.6720   -22.1590    12.5700    12.0190    12.9520   454.0920     8.6900   107.4580     2.5480     0.0250
 1466.5000   445.7900   -22.1510    12.3990    11.8250    12.7390   454.0920     8.6820   108.7380     2.5480     0.0290
 1467.0000   445.9070   -22.1670    12.2270    11.6320    12.5260   454.0920     8.6740   107.3580     2.5380     0.0230
 1467.5000   446.0250   -22.1570    12.0560    11.4390    12.3460   454.0920     8.6670   105.0470     2.5270     0.0120
 1468.0000   446.1430   -22.0840    11.8840    11.2460    12.5710   454.0920     8.6590   104.1080     2.5230     0.0060
 1468.5000   446.2600   -21.7170    11.7130    11.0530    12.7650   454.0920     8.6520   104.9170     2.5340     0.0200
 1469.0000   446.3780   -21.5920    11.5410    10.8600    12.8040   459.5480     8.6290   105.6580     2.5470     0.0320
 1469.5000   446.4950   -21.4690    11.3700    10.6660    12.6530   465.1920     8.6060   105.0930     2.5530     0.0290
 1470.0000   446.6130   -20.9740    11.2440    10.4810    12.4060   470.8360     8.5940   103.5560     2.5470     0.0190
 1470.5000   446.7310   -20.6440    11.1800    10.4180    12.1240   474.0520     8.5930   102.7970     2.5370     0.0050
 1471.0000   446.8480   -20.3670    11.1150    10.3580    12.1240   464.0720     8.5920   103.4170     2.5320     0.0080
 1471.5000   446.9660   -20.1200    11.0510    10.2980    12.1240   464.0720     8.5910   104.9540     2.5400     0.0180
 1472.0000   447.0830   -19.8480    10.9860    10.2380    12.1240   464.0720     8.5890   105.7730     2.5490     0.0280
 1472.5000   447.2010   -19.5670    10.9210    10.1780    11.8550   464.0720     8.5880   107.1270     2.5460     0.0310
 1473.0000   447.3180   -19.3880    10.8570    10.1180    11.6120   464.0720     8.5870   109.7490     2.5390     0.0310
 1473.5000   447.4360   -19.4770    10.7920    10.0580    11.3680   464.0720     8.5860   110.9120     2.5350     0.0350
 1474.0000   447.5540   -19.5740    10.7270     9.9980    11.1250   464.0720     8.5850   110.5450     2.5310     0.0360
 1474.5000   447.6710   -19.6940    10.6630     9.9380    11.0690   464.0720     8.5840   109.3470     2.5300     0.0320
 1475.0000   447.7890   -19.8710    10.5980     9.8780    11.1080   464.0720     8.5830   107.3510     2.5380     0.0270
 1475.5000   447.9060   -20.2300    10.5340     9.8180    11.1730   464.0720     8.5820   105.5920     2.5460     0.0250
 1476.0000   448.0240   -20.2000    10.4690     9.7570    11.2380   464.0720     8.5810   103.2120     2.5550     0.0270
 1476.5000   448.1420   -20.1570    10.4040     9.6970    11.3030   464.0720     8.5800   101.8450     2.5640     0.0340
 1477.0000   448.2590   -20.5120    10.3400     9.6370    11.3680   464.0720     8.5780   102.7860     2.5720     0.0500
 1477.5000   448.3770   -20.6020    10.2750     9.5770    11.4660   464.0720     8.5770   103.8700     2.5800     0.0670
 1478.0000   448.4940   -20.5590    10.2100     9.5170    11.4620   464.0720     8.5760   104.5910     2.5770     0.0730
 1478.5000   448.6120   -20.8980    10.1460     9.4570    11.4040   464.0720     8.5750   105.4920     2.5590     0.0570
 1479.0000   448.7290   -20.9840    10.0810     9.3970    11.3460   464.2840     8.5740   108.6360     2.5440     0.0360
 1479.5000   448.8470   -20.9890    10.0170     9.3370    11.2870   464.6810     8.5740   111.0240     2.5350     0.0320
 1480.0000   448.9650   -20.9660     9.9520     9.2770    11.3930   465.0780     8.5740   112.6080     2.5370     0.0310
 1480.5000   449.0820   -20.8760     9.9040     9.2270    11.5530   465.4750     8.5800   111.2910     2.5480     0.0340
 1481.0000   449.2000   -20.7820     9.8680     9.2110    11.7140   465.8710     8.6040   109.8510     2.5580     0.0370
 1481.5000   449.3170   -20.6850     9.8330     9.1980    11.9050   466.2680     8.6260   108.4310     2.5640     0.0390
 1482.0000   449.4350   -20.5920     9.7980     9.1850    11.4300   466.6650     8.6490   107.0860     2.5590     0.0370
