~VERSION INFORMATION
 VERS.                2.0:   CWLS LOG ASCII STANDARD - VERSION 2.0
 WRAP.                 NO:   ONE LINE PER DEPTH STEP
~WELL INFORMATION
#MNEM.UNIT      DATA TYPE    INFORMATION
#----------   ------------   ------------------------------
 STRT.F          224.0000:   START DEPTH
 STOP.F         2912.0000:   STOP DEPTH
 STEP.F            0.5000:   STEP LENGTH
 NULL.          -999.2500:   NO VALUE
 COMP.    FENIX & SCISSON:   COMPANY
 WELL. FENIX & SCISSON NPR 34 "A" #3-21:   WELL
 FLD .             NPR #3:   FIELD
 LOC .      S21 T39N R78W:   LOCATION
 CNTY.            NATRONA:   COUNTY
 STAT.            WYOMING:   STATE
 CTRY. UNITED STATES OF AMERICA:   COUNTRY
 SRVC.              WELEX:   SERVICE COMPANY
 DATE.        15-JUL-1977:   LOGDATE
 API .     49025103970000:   API NUMBER
~CURVE INFORMATION
#MNEM.UNIT       API CODE    CURVE DESCRIPTION
#----------   ------------   ------------------------------
 DEPT.F                  :   
 CALD.IN     45 280 60 00:   CALIPER FROM DENSITY LOG
 CORR.G/C3   45 356 01 00:   DENSITY CORRECTION
 RHOB.G/C3   45 350 01 00:   BULK DENSITY
 GRD .GAPI   45 310 01 00:   GAMMA RAY FROM DENSITY LOG
 SPR .MV     07 010 01 00:   SPONTANEOUS POTENTIAL
 ILD .OHMM   07 120 46 00:   DEEP INDUCTION RESISTIVITY
 ILM .OHMM   07 120 44 00:   INDUCTION LOG MEDIUM RESISTIVITY
 SGRD.OHMM   07 220 05 00:   SHALLOW SHORT GUARD RESISTIVITY
~PARAMETER INFORMATION
#MNEM.UNIT          VALUE    DESCRIPTION
#----------   ------------   ------------------------------
 EKB .F         4921.0000:   Kelly bushing
 EGL .F         4911.0000:   Ground level
 TD  .F         2914.0000:   Total depth
 CLNT.            A2DTECH:   Client Code
 SL  . 2310' FNL & 1650' FWL:   Surface Location
 DATE.        15-JUL-1977:   Date Logged [DD-MMM-YYYY]
 DD  .F              2900:   Depth driller
 DL  .F              2914:   Depth logger
 BLI .F              2912:   Bottom log interval
 TLI .F               218:   Top log interval
 CS1 .              8.625:   Casing size
 CBD1.      8.625" @ 230':   Casing driller 1
 CBL1.IN              226:   Casing logger 1
 BS1 .IN            7.875:   Bit size
 BSD1.F              2900:   Depth drilled with bit1
 DFT .                KCL:   Type fluid in hole
 DFD .                8.9:   Density
 DFV .               1.42:   Viscosity
 DFPH.                7.5:   pH
 DFL .               19.6:   Fluid loss
 MSS .            MUD PIT:   Source of sample
 RMS .OHMM           3.75:   Rm
 MST .F                83:   Rm Meas. temp.
 RMF .OHMM           3.40:   Rmf
 MFST.F                83:   Rmf Meas. temp.
 MFSS.           MEASURED:   Source Rmf.
 RMC .OHMM            9.0:   Rmc
 MCST.F                83:   Rmc Meas. temp.
 MCSS.           MEASURED:   Source Rmc.
 RMB .OHMM           2.80:   Rm. at BHT
 BHT .F               111:   BHT.
 TCS .HRS               3:   Time Circ. stopped
 MRT .F               111:   Maximum recorded temp.
 LUN .               8766:   Logging unit number
 LUL .             CASPER:   Logging unit location
 ENGI.          T. JOYNER:   Recorded By
 WITN.     MR. PETTINGILL:   Witnessed by
 ORIG.           5" PRINT:   Origin of data
 UWI .     49025103970000:   Unique Well ID
 DICO. A2D TECHNOLOGIES, INC.:   Digitizing Company
 PD  .                 GL:   Permanent Datum
 EPD .F              4911:   Elevation Permanent Datum
 LMF .                 KB:   Log Measured From
 DMF .                 KB:   Drilling Measured From
 DAPD.F                10:   Feet Above Permanent Datum
~OTHER INFORMATION
~A   DEPT      CALD        CORR       RHOB       GRD       SPR        ILD        ILM       SGRD   
# ...
 2330.0000     8.3543     0.0084     2.4931   145.0817   -55.7079     6.0536     6.9537     7.4383
 2330.5000     8.3561     0.0085     2.4888   145.4291   -55.7049     6.0134     6.9064     7.4907
 2331.0000     8.3579     0.0116     2.4889   147.8273   -55.7019     5.9731     6.8593     7.5434
 2331.5000     8.3596     0.0147     2.4949   146.4534   -55.6990     5.8516     6.8125     7.4916
 2332.0000     8.3614     0.0207     2.5024   148.7352   -55.6960     5.7326     6.7660     7.4402
 2332.5000     8.3632     0.0253     2.5092   149.9444   -55.5440     5.5772     6.6736     7.3382
 2333.0000     8.3649     0.0314     2.5160   147.8847   -55.5404     5.4261     6.6281     7.1874
 2333.5000     8.3667     0.0345     2.5236   144.3391   -55.3884     5.3157     6.5377     6.9425
 2334.0000     8.3685     0.0361     2.5184   139.6049   -55.3854     5.2076     6.4930     6.7060
 2334.5000     8.3702     0.0332     2.5035   143.1915   -55.3825     5.1370     6.4487     6.5227
 2335.0000     8.3720     0.0288     2.4902   145.5895   -55.3795     5.1024     6.4048     6.4779
 2335.5000     8.3738     0.0258     2.4827   146.5016   -55.3765     5.1748     6.4053     6.8486
 2336.0000     8.3756     0.0244     2.4866   146.2249   -55.3736     5.2480     6.4502     7.2405
 2336.5000     8.3624     0.0230     2.4874   143.5709   -55.3706     5.3592     6.4506     7.8159
 2337.0000     8.3646     0.0186     2.4800   146.2660   -55.3677     5.4350     6.6318     8.3207
 2337.5000     8.3515     0.0127     2.4711   146.8758   -55.0666     5.5119     6.7712     8.6153
 2338.0000     8.3533     0.0083     2.4741   141.8495   -54.9146     5.6678     6.9614     8.9204
 2338.5000     8.3402     0.0054     2.4802   143.3559   -54.9117     5.7879     7.1570     9.1089
 2339.0000     8.3419     0.0115     2.4840   140.9990   -54.9087     5.9107     7.3581     9.2369
 2339.5000     8.3437     0.0176     2.4863   138.0478   -54.9057     6.0357     7.6173     9.2376
 2340.0000     8.3455     0.0237     2.4887   136.2853   -54.9028     6.1636     7.8313     9.2382
 2340.5000     8.3472     0.0252     2.4977   133.8993   -55.0496     6.2985     7.9958     9.2389
 2341.0000     8.3490     0.0179     2.4966   131.2744   -55.1957     6.4332     8.0517     9.2395
 2341.5000     8.3508     0.0090     2.4868   132.5290   -55.3417     6.5185     7.9417     9.1762
 2342.0000     8.3372     0.0030     2.4765   132.8065   -55.4878     6.6108     7.8334     8.9253
 2342.5000     8.3543     0.0001     2.4710   132.5247   -55.4841     6.6583     7.7263     8.6213
 2343.0000     8.3410    -0.0013     2.4718   134.9278   -55.4811     6.6137     7.5684     8.3276
 2343.5000     8.3429     0.0018     2.4779   136.4342   -55.4782     6.5691     7.4650     7.9882
 2344.0000     8.3447     0.0064     2.4861   137.0491   -55.4752     6.4805     7.4141     7.8239
 2344.5000     8.3464     0.0095     2.4944   137.3669   -55.4722     6.4368     7.4147     7.6632
 2345.0000     8.3486     0.0096     2.4967   137.6846   -55.4693     6.3500     7.4152     7.6637
 2345.5000     8.3503     0.0082     2.4833   138.2995   -55.4663     6.3075     7.4671     7.8802
 2346.0000     8.3368     0.0038     2.4819   138.6172   -55.4633     6.3088     7.5194     8.5658
 2346.5000     8.3390     0.0039     2.4887   137.4491   -55.4604     6.2663     7.6775     8.9932
 2347.0000     8.3556     0.0055     2.4970   134.2006   -55.3084     6.2679     7.8931     9.1196
 2347.5000     8.3574     0.0100     2.5038   130.6551   -55.3054     6.3127     8.0590     9.2478
 2348.0000     8.3592     0.0161     2.5098   128.2982   -55.1534     6.4020     8.1717     9.2484
 2348.5000     8.3609     0.0222     2.5151   130.3990   -55.1505     6.5376     8.1160     9.2491
 2349.0000     8.3627     0.0268     2.5189   133.3913   -55.2965     6.6301     7.8932     9.1857
 2349.5000     8.3645     0.0284     2.5205   131.3316   -55.1445     6.7706     7.8457     8.9969
 2350.0000     8.3505     0.0314     2.5178   134.6211   -55.1416     6.7691     7.7985     8.5085
 2350.5000     8.3482     0.0315     2.5149   138.5049   -54.9896     6.7754     7.6453     8.2864
 2351.0000     8.3459     0.0286     2.5102   136.0887   -54.9866     6.5958     7.4458     8.0686
 2351.5000     8.3436     0.0241     2.5058   134.9799   -55.1327     6.4228     7.3999     7.8579
 2352.0000     8.3426     0.0152     2.4947   135.3028   -55.2788     6.2966     7.2556     7.6557
 2352.5000     8.3293     0.0092     2.4828   136.5084   -55.2757     6.2576     7.2109     7.6095
 2353.0000     8.3314     0.0048     2.4769   135.6378   -55.2727     6.1354     7.1202     7.4649
 2353.5000     8.3332     0.0048     2.4747   133.2812   -55.3203     6.0982     7.0763     7.4733
 2354.0000     8.3347     0.0049     2.4778   134.4908   -55.3683     5.9784     7.0834     7.4289
 2354.5000     8.3363     0.0079     2.4831   135.1060   -55.3373     5.9847     7.0895     7.4400
 2355.0000     8.3379     0.0109     2.4817   133.3438   -55.0504     5.9476     7.0459     7.4484
 2355.5000     8.3396     0.0155     2.4855   131.5816   -54.8925     5.9532     7.0540     7.5083
 2356.0000     8.3414     0.0203     2.4931   133.3855   -54.7347     5.8773     6.9623     7.5168
 2356.5000     8.3429     0.0262     2.5036   134.0388   -54.7259     5.8401     6.9204     7.6311
 2357.0000     8.3445     0.0323     2.5149   133.4272   -54.5680     5.8462     6.9283     7.6925
 2357.5000     8.3610     0.0383     2.5202   132.2593   -54.1121     5.8100     6.8856     7.7545
 2358.0000     8.3627     0.0411     2.5232   130.7943   -53.9542     5.7763     6.8925     7.7632
 2358.5000     8.3792     0.0429     2.5255   131.7067   -53.7964     5.7004     6.8985     7.7171
 2359.0000     8.3808     0.0442     2.5286   133.2134   -53.6385     5.6666     6.7640     7.3631
 2359.5000     8.3825     0.0428     2.5309   133.5314   -53.4807     5.6718     6.7698     7.1723
 2360.0000     8.3841     0.0398     2.5168   132.3636   -53.4718     5.5596     6.7281     7.1297
 2360.5000     8.3857     0.0384     2.5176   132.3844   -53.3140     5.5259     6.6876     7.1403
 2361.0000     8.3874     0.0430     2.5222   133.2968   -53.0071     5.4938     6.6016     7.1484
 2361.5000     8.3890     0.0474     2.5260   134.5064   -52.7002     5.4224     6.5628     7.2059
 2362.0000     8.3906     0.0460     2.5164   133.6357   -52.0953     5.3895     6.4794     7.3142
 2362.5000     8.3923     0.0385     2.5060   131.2740   -51.4903     5.2836     6.3952     7.4254
 2363.0000     8.3786     0.0311     2.4986   133.3803   -51.3244     5.2169     6.2696     7.5370
 2363.5000     8.3654     0.0282     2.4972   131.0237   -51.0254     5.1144     6.2327     7.4407
 2364.0000     8.3674     0.0282     2.4987   130.1478   -50.8435     5.0827     6.1952     7.2479
 2364.5000     8.3538     0.0312     2.5011   131.3626   -50.1115     4.9835     6.1156     7.2048
 2365.0000     8.3405     0.0343     2.5026   131.3834   -49.2085     4.9540     6.0796     7.2156
 2365.5000     8.3426     0.0328     2.5020   131.1019   -47.8584     4.8560     6.0857     7.2737
 2366.0000     8.3444     0.0314     2.5020   130.2364   -46.6573     4.7941     6.0910     7.6433
 2366.5000     8.3457     0.0359     2.5058   129.6629   -45.3072     4.7644     6.0962     7.8658
 2367.0000     8.3417     0.0464     2.5164   128.7870   -43.3610     4.7694     6.1446     8.1509
 2367.5000     8.3340     0.0540     2.5239   126.7329   -41.7128     4.7732     6.2785     8.5046
 2368.0000     8.3360     0.0585     2.5270   124.6735   -40.3627     4.8766     6.4597     8.8754
 2368.5000     8.3373     0.0600     2.5173   122.0198   -39.0126     5.0519     6.6922     9.2606
 2369.0000     8.3393     0.0601     2.5077   119.0688   -36.3212     5.3053     7.0304     9.6626
 2369.5000     8.3410     0.0601     2.5025   116.1179   -34.2260     5.6876     7.4357    10.5077
 2370.0000     8.3423     0.0647     2.5064   113.4642   -31.9817     6.1395     7.8644    12.0770
