~VERSION INFORMATION
 VERS.                2.0:   CWLS LOG ASCII STANDARD - VERSION 2.0
 WRAP.                 NO:   ONE LINE PER DEPTH STEP
~WELL INFORMATION
#MNEM.UNIT      DATA TYPE    INFORMATION
#----------   ------------   ------------------------------
 STRT.F           36.0000:   START DEPTH
 STOP.F         3488.0000:   STOP DEPTH
 STEP.F            0.5000:   STEP LENGTH
 NULL.          -999.2500:   NO VALUE
 COMP. LAWRENCE - ALLISON  & ASSOCIATE:   COMPANY
 WELL. LAWRENCE "STX" #76-23:   WELL
 FLD .              NPR 3:   FIELD
 LOC .      S23 T38N R78W:   LOCATION
 CNTY.            NATRONA:   COUNTY
 STAT.            WYOMING:   STATE
 CTRY. UNITED STATES OF AMERICA:   COUNTRY
 SRVC.       SCHLUMBERGER:   SERVICE COMPANY
 DATE.        07-MAY-1982:   LOGDATE
 API .     49025108920000:   API NUMBER
~CURVE INFORMATION
#MNEM.UNIT       API CODE    CURVE DESCRIPTION
#----------   ------------   ------------------------------
 DEPT.F                  :   
 CORR.G/C3   45 356 01 00:   DENSITY CORRECTION
 CALD.IN     45 280 60 00:   CALIPER FROM DENSITY LOG
 GRD .GAPI   45 310 01 00:   GAMMA RAY FROM DENSITY LOG
 RHOB.G/C3   45 350 01 00:   BULK DENSITY
 SFL .OHMM   07 220 01 00:   SHALLOW FOCUSED LOG RESISTIVITY
 ILD .OHMM   07 120 46 00:   DEEP INDUCTION RESISTIVITY
 ILM .OHMM   07 120 44 00:   INDUCTION LOG MEDIUM RESISTIVITY
 TENR.LBS    07 635 01 00:   TENSION
 SPR .MV     07 010 01 00:   SPONTANEOUS POTENTIAL
 NPHI.DEC    42 890 03 00:   NEUTRON POROSITY SANDSTONE
 TEND.LBS    45 635 01 00:   TENSION FROM DENSITY LOG
~PARAMETER INFORMATION
#MNEM.UNIT          VALUE    DESCRIPTION
#----------   ------------   ------------------------------
 EKB .F         5441.0000:   Kelly bushing
 EGL .F         5431.0000:   Ground level
 EDF .F            0.0000:   Drilling floor
 EPD .F            0.0000:   Permanent datum
 TD  .F         3788.0000:   Total depth
 DATE.        07-MAY-1982:   Date logged
 CLNT.            A2DTECH:   Client Code
 SL  . 1327' FSL & 1190' FEL:   Surface Location
 PD  .                 GL:   Permanent Datum
 DAPD.F                10:   Feet Above Permanent Datum
 DD  .F              3788:   Depth driller
 DL  .F              3478:   Depth logger
 BLI .F              3471:   Bottom log interval
 TLI .F              1615:   Top log interval
 CS1 .IN            9.625:   Casing size
 CBD1.     9.625" @ 1603':   Casing driller 1
 CBL1.F              1615:   Casing logger 1
 BS1 .IN            7.875:   Bit size
 BSD1.F              3788:   Depth drilled with bit1
 DFT .                AIR:   Type fluid in hole
 TCS .HRS            1230:   Time Circ. stopped
 TLAB.HRS            1500:   Time logger at bottom
 MRT .F               125:   Maximum recorded temp.
 LUN .               8035:   Logging unit number
 LUL .               CSPR:   Logging unit location
 ENGI.              PENNY:   Recorded By
 WITN.    JENNINGS/STRONG:   Witnessed by
 ORIG.       2.5"5" PRINT:   Origin of data
 UWI .     49025108920000:   Unique Well ID
 DICO. A2D TECHNOLOGIES, INC.:   Digitizing Company
~OTHER INFORMATION
~A   DEPT       CORR     CALD        GRD         RHOB      SFL        ILD        ILM       TENR        SPR        NPHI      TEND   
# ...
  951.0000     0.0080    12.6300    85.6770     2.4270     4.8180     4.8320     4.8320   843.7250    -7.7170     0.3330  1245.6050
  951.5000     0.0060    12.6380    84.4660     2.4290     5.2040     4.7430     4.7430   843.9670    -7.5700     0.3360  1245.6050
  952.0000     0.0070    12.6460    86.3940     2.4310     5.1640     4.4860     4.4860   844.2080    -7.4200     0.3400  1245.6050
  952.5000     0.0230    12.6540    88.0680     2.4290     5.0090     4.3660     4.3220   844.4500    -7.2710     0.3320  1245.6050
  953.0000     0.0500    12.6610    87.9580     2.4100     4.8540     4.0680     3.9560   844.6920    -7.1190     0.3280  1245.6050
  953.5000     0.1260    12.6700    87.7860     2.3800     4.6990     3.6980     3.6160   844.9330    -6.9710     0.3540  1243.4780
  954.0000     0.2010    12.7770    89.5490     2.3250     4.1620     3.3270     3.2760   845.1750    -6.8230     0.3750  1236.6890
  954.5000     0.2520    13.5170    93.6860     2.2610     3.4740     2.9560     2.9360   845.4160    -6.6560     0.3950  1229.9000
  955.0000     0.2450    14.2610    98.0880     2.2000     2.7850     2.7170     2.6370   845.6580    -6.6210     0.4150  1223.1110
  955.5000     0.1830    14.7880    99.6320     2.1380     2.0970     2.6180     2.4110   845.9000    -6.7970     0.4610  1216.3220
  956.0000     0.1030    14.3380    95.5030     2.1100     1.8740     2.5700     2.0950   846.1410    -6.9540     0.5110  1209.5330
  956.5000     0.0210    13.6340    89.2430     2.2210     2.2110     2.5700     2.2460   846.3830    -7.1160     0.5150  1226.9780
  957.0000     0.0070    12.9500    85.9020     2.3170     2.7730     2.7070     2.5000   846.6250    -7.2800     0.4450  1266.3540
  957.5000     0.0130    12.6090    86.0610     2.3770     3.3350     2.8750     2.7530   846.8660    -7.4400     0.3850  1305.7290
  958.0000     0.0180    12.6580    87.3600     2.4060     3.8670     3.0440     3.0060   847.1080    -7.6030     0.3520  1320.1460
  958.5000     0.0110    12.7390    89.8650     2.4000     3.8670     3.2130     3.2590   847.3490    -7.7650     0.3540  1289.3840
  959.0000     0.0040    12.7630    92.4050     2.3940     3.8670     3.3820     3.5900   847.5910    -7.9240     0.3580  1258.6219
  959.5000    -0.0040    12.7450    94.9560     2.4010     3.8670     3.5510     3.5130   847.8330    -8.0980     0.3610  1225.9570
  960.0000    -0.0040    12.7260    95.5580     2.4150     3.9600     3.7190     3.6920   848.0740    -8.1340     0.3650  1224.3910
  960.5000     0.0060    12.7070    93.9420     2.4290     4.1420     3.8880     3.8710   848.3160    -8.0370     0.3660  1222.7230
  961.0000     0.0170    12.6880    91.4380     2.4400     4.3240     4.0570     4.0500   848.5580    -7.9560     0.3590  1221.0540
  961.5000     0.0340    12.6760    90.4920     2.4440     4.5060     4.1650     4.1650   848.7990    -7.8720     0.3520  1219.3860
  962.0000     0.0520    12.6770    91.7420     2.4280     4.6550     4.2430     4.2430   849.0410    -7.7860     0.3460  1217.7180
  962.5000     0.0700    12.6900    94.3480     2.4130     4.8320     4.2430     4.2430   849.2820    -7.7030     0.3560  1216.0490
  963.0000     0.0970    12.7650    96.9160     2.4090     4.7570     4.1650     4.1650   849.5240    -7.6180     0.3670  1214.3810
  963.5000     0.1390    12.9190    99.2850     2.4110     4.4070     4.1650     4.1650   849.7660    -7.5340     0.3780  1212.7120
  964.0000     0.1660    13.1830    97.7600     2.3880     3.8670     3.9360     3.9360   850.0070    -7.4490     0.3880  1211.0439
  964.5000     0.1420    13.4730    95.3030     2.3360     3.8810     3.7140     3.7140   850.2490    -7.3650     0.3970  1209.3750
  965.0000     0.1160    13.3380    92.8360     2.3140     3.9110     3.4920     3.4920   850.4910    -7.2800     0.4020  1207.7070
  965.5000     0.1450    12.9910    91.1720     2.2580     3.9390     3.2710     3.2710   850.7320    -7.1970     0.3900  1206.9280
  966.0000     0.1930    12.7680    91.0330     2.1010     3.4590     3.0490     3.0490   850.9740    -7.1130     0.3800  1210.7640
  966.5000     0.1900    13.7230    91.4870     1.9830     3.0210     2.8270     2.8270   851.2150    -7.0230     0.4020  1214.5990
  967.0000     0.1230    14.5970    91.8370     2.0090     2.5830     2.7680     2.7680   851.4570    -6.9560     0.4300  1218.4340
  967.5000     0.0590    15.1170    90.0490     2.0090     2.3420     2.7230     2.7230   851.6990    -6.9270     0.4460  1222.2690
  968.0000     0.0350    14.4080    88.2280     2.0750     2.8890     2.6750     2.6750   851.9400    -6.8900     0.4240  1226.1050
  968.5000     0.1100    13.8620    86.7600     2.2240     3.3620     2.6280     2.6280   852.1820    -6.8550     0.4010  1229.9399
  969.0000     0.1850    13.5630    85.7330     2.2500     3.5240     2.5700     2.5700   852.4240    -6.8210     0.4080  1233.7750
  969.5000     0.2210    14.0170    84.6860     2.1900     3.3220     2.5480     2.5370   852.6650    -6.7860     0.4260  1237.6100
  970.0000     0.2290    15.7220    85.7660     2.1260     2.9940     2.4480     2.3880   852.9070    -6.7510     0.4430  1241.4460
  970.5000     0.2170    16.9860    87.5700     2.0690     2.6660     2.3490     2.2380   853.1480    -6.7160     0.4480  1245.2810
  971.0000     0.2170    16.8480    89.2620     2.0080     2.3380     2.2490     2.0890   853.3900    -6.6820     0.4560  1249.1160
  971.5000     0.2180    16.8610    89.9030     1.9470     2.0090     2.1490     1.9400   853.6320    -6.6450     0.4710  1252.9510
  972.0000     0.1580    16.9580    90.4120     1.8620     1.6810     2.0500     1.8060   853.8730    -6.6120     0.4970  1256.7870
  972.5000     0.0900    16.9460    89.8320     1.8190     1.5280     1.9820     1.8750   854.1150    -6.5780     0.5260  1260.6219
  973.0000     0.0280    16.6950    88.9900     1.9250     1.4720     1.9820     2.0960   854.3570    -6.6150     0.5320  1264.4570
  973.5000    -0.0040    15.9310    88.1810     2.0340     2.1350     2.2470     2.3170   854.5980    -6.6580     0.5210  1262.6730
  974.0000     0.0140    14.4900    87.1240     2.2240     3.0300     2.4820     2.5380   854.8400    -6.7030     0.4500  1256.1100
  974.5000     0.0430    13.1860    86.9150     2.3800     4.0130     2.7160     2.7590   855.0810    -6.7460     0.3790  1249.5480
  975.0000     0.0710    12.7390    86.6560     2.4620     3.9530     2.9510     2.9800   855.3230    -6.7900     0.3290  1246.3750
  975.5000     0.0930    12.7500    87.7390     2.4500     3.8530     3.1860     3.2010   855.5650    -6.8330     0.3400  1248.3060
  976.0000     0.0970    12.7520    89.3110     2.4250     3.7520     3.4590     3.4590   855.8060    -6.8800     0.3590  1250.2360
  976.5000     0.0930    12.7310    90.9660     2.3980     3.6520     3.5240     3.5240   856.0480    -6.9200     0.3880  1252.1660
  977.0000     0.0780    12.7090    91.3930     2.3890     3.5510     3.5900     3.5900   856.2900    -6.9650     0.3850  1254.0959
  977.5000     0.0850    12.6880    90.9540     2.3900     3.4590     3.5010     3.5010   856.5310    -6.8580     0.3770  1256.0260
  978.0000     0.0970    12.6900    90.5260     2.3990     3.4590     3.3140     3.3140   856.7730    -6.7270     0.3770  1257.9561
  978.5000     0.1150    12.7690    90.2910     2.4020     3.3330     3.1270     3.1270   857.0140    -6.5930     0.3890  1259.8870
  979.0000     0.1200    13.0070    91.3640     2.3960     3.2090     2.9270     2.9270   857.2560    -6.4620     0.4020  1261.8170
  979.5000     0.1340    13.2510    92.4510     2.3880     3.0970     2.7320     2.7230   857.4980    -6.3290     0.4110  1263.7469
  980.0000     0.1820    13.4600    93.5340     2.3640     2.9810     2.5220     2.5040   857.7390    -6.2000     0.4210  1265.2531
  980.5000     0.2270    13.6770    94.6200     2.2270     2.6860     2.3120     2.2850   857.9810    -6.0600     0.4310  1265.2531
  981.0000     0.2500    14.5120    95.6910     2.0910     2.3790     2.1030     2.0660   858.2230    -5.9420     0.4400  1265.2531
