~VERSION INFORMATION
 VERS.                2.0:   CWLS LOG ASCII STANDARD - VERSION 2.0
 WRAP.                 NO:   ONE LINE PER DEPTH STEP
~WELL INFORMATION
#MNEM.UNIT      DATA TYPE    INFORMATION
#----------   ------------   ------------------------------
 STRT.F           11.5000:   START DEPTH
 STOP.F         1726.0000:   STOP DEPTH
 STEP.F            0.5000:   STEP LENGTH
 NULL.          -999.2500:   NO VALUE
 COMP. LAWRENCE ALLISON & ASSOC WEST:   COMPANY
 WELL. LAWRENCE NPR 3 "X" #51-26:   WELL
 FLD .                NPR:   FIELD
 LOC .      S26 T38N R78W:   LOCATION
 CNTY.            NATRONA:   COUNTY
 STAT.            WYOMING:   STATE
 CTRY. UNITED STATES OF AMERICA:   COUNTRY
 SRVC.      DRESSER ATLAS:   SERVICE COMPANY
 DATE.        13-AUG-1983:   LOGDATE
 API .     49025109270000:   API NUMBER
~CURVE INFORMATION
#MNEM.UNIT       API CODE    CURVE DESCRIPTION
#----------   ------------   ------------------------------
 DEPT.F                  :   
 CALD.IN     45 280 60 00:   CALIPER FROM DENSITY LOG
 RHOB.G/C3   45 350 01 00:   BULK DENSITY
 CORR.G/C3   45 356 01 00:   DENSITY CORRECTION
 TEND.LBS    45 635 01 00:   TENSION FROM DENSITY LOG
 GRR .GAPI   07 310 01 00:   GAMMA RAY FROM RESISTIVITY
 RILD.OHMM   07 120 46 00:   INDUCTION LOG DEEP RESISTIVITY
 RILM.OHMM   07 120 44 00:   INDUCTION LOG MEDIUM RESISTIVITY
 TENR.LBS    07 635 01 00:   TENSION
~PARAMETER INFORMATION
#MNEM.UNIT          VALUE    DESCRIPTION
#----------   ------------   ------------------------------
 EKB .F         5455.0000:   Kelly bushing
 EGL .F         5444.0000:   Ground level
 EDF .F            0.0000:   Drilling floor
 EPD .F         5444.0000:   Permanent datum
 TD  .F         1726.0000:   Total depth
 DATE.        13-AUG-1983:   Date logged
 CLNT.            A2DTECH:   Client Code
 PD  .                 GL:   Permanent Datum
 LMF .                 KB:   Log Measured From
 DMF .                 KB:   Drilling Measured From
 DAPD.F                11:   Feet Above Permanent Datum
 DD  .F              1726:   Depth driller
 DL  .F              1724:   Depth logger
 BLI .F              1718:   Bottom log interval
 CBD1.F                47:   Casing driller 1
 CBL1.F                48:   Casing logger 1
 BS1 .IN            12.25:   Bit size
 BSD1.F              1726:   Depth drilled with bit1
 DFT .           AIR/FOAM:   Type fluid in hole
 TCS .HRS               1:   Time Circ. stopped
 MRT .F                85:   Maximum recorded temp.
 LUN .               6270:   Logging unit number
 LUL .              WLSTN:   Logging unit location
 ENGI.            QUICKEL:   Recorded By
 WITN.           JENNINGS:   Witnessed by
 ORIG.           5" PRINT:   Origin of data
 UWI .     49025109270000:   Unique Well ID
 DICO. A2D TECHNOLOGIES, INC.:   Digitizing Company
~OTHER INFORMATION
~A   DEPT     CALD       RHOB       CORR       TEND         GRR      RILD       RILM       TENR   
# ...
  497.5000    13.1560     2.3920     0.0390   -66.7670   126.6580     6.0180     6.1120   -81.9960
  498.0000    13.1560     2.3880     0.0160   -66.7670   128.2310     6.0180     6.1050   -81.9960
  498.5000    13.1570     2.3900    -0.0020   -66.7670   124.6930     6.0180     6.0980   -81.9960
  499.0000    13.1570     2.3960     0.0020   -66.7670   121.1720     6.0180     6.0910   -81.9960
  499.5000    13.1570     2.3970     0.0100   -66.7670   118.8660     6.0180     6.0840   -81.9960
  500.0000    13.1580     2.3940     0.0190   -66.7670   117.0410     6.0180     6.0730   -81.9960
  500.5000    13.1580     2.3890     0.0270   -66.7670   119.5510     6.0180     6.1850   -81.9960
  501.0000    13.1580     2.3890     0.0360   -66.7670   122.3480     6.2050     6.4030   -81.9960
  501.5000    13.1590     2.3880     0.0430   -66.7670   124.4540     6.4080     6.6200   -81.9960
  502.0000    13.1590     2.3880     0.0490   -66.7670   121.0500     6.6100     6.8380   -81.9960
  502.5000    13.1590     2.3850     0.0510   -58.0540   116.4210     6.8130     7.0560   -81.9960
  503.0000    13.1600     2.3820     0.0300   -46.6870   112.1050     7.0160     7.2740   -81.9960
  503.5000    13.1600     2.3830    -0.0030   -49.7390   109.4510     7.2190     7.4860   -81.9960
  504.0000    13.1600     2.3890    -0.0240   -52.6990   109.9590     7.4220     7.6800   -81.9960
  504.5000    13.1610     2.3940    -0.0080   -55.6590   112.5960     7.6250     7.8730   -81.9960
  505.0000    13.1610     2.4000     0.0070   -58.6190   116.8600     7.7400     8.0140   -81.9960
  505.5000    13.1610     2.4060     0.0190   -61.7470   117.7950     7.7670     8.0140   -81.9960
  506.0000    13.1620     2.4120     0.0230   -56.0840   115.8740     7.7950     8.0140   -81.9960
  506.5000    13.1620     2.4190     0.0280   -45.8230   114.4710     7.7950     8.0140   -81.9960
  507.0000    13.1620     2.4200     0.0330   -42.6270   114.2430     7.6490     7.8260   -81.9960
  507.5000    13.1630     2.4170     0.0480   -45.0320   113.5450     7.4530     7.6240   -81.9960
  508.0000    13.1630     2.4140     0.0630   -47.4370   113.1410     7.2560     7.4230   -81.9960
  508.5000    13.1640     2.4110     0.0800   -49.8420   114.6010     7.0590     7.2220   -81.9960
  509.0000    13.1640     2.4090     0.1030   -52.2460   116.0370     6.8630     7.0210   -81.9960
  509.5000    13.1640     2.3970     0.0790   -54.6510   117.5730     6.6660     6.8190   -81.9960
  510.0000    13.1650     2.3870     0.0530   -56.7270   121.8320     6.4690     6.6180   -81.9960
  510.5000    13.1650     2.3800     0.0270   -56.9010   126.6530     6.2720     6.4170   -81.9960
  511.0000    13.1650     2.3730     0.0230   -57.0850   124.7840     6.0760     6.2160   -81.9960
  511.5000    13.1660     2.3650     0.0250   -57.2700   120.7690     5.8790     6.0150   -81.9960
  512.0000    13.1660     2.3700     0.0280   -57.4540   117.6600     5.7380     5.8000   -81.9960
  512.5000    13.1660     2.3750     0.0330   -57.6390   121.3190     5.6940     5.8470   -81.9960
  513.0000    13.1670     2.3800     0.0500   -57.8230   125.2500     5.6940     5.7530   -81.9960
  513.5000    13.1670     2.3840     0.0610   -58.0080   123.4110     5.6940     5.8310   -81.9960
  514.0000    13.1670     2.3860     0.0500   -58.1920   119.7230     5.7490     5.8940   -81.9960
  514.5000    13.1670     2.3860     0.0400   -58.3770   115.9960     5.8200     5.9560   -81.9640
  515.0000    13.1680     2.3860     0.0330   -58.5620   115.5580     5.8900     6.0180   -81.9330
  515.5000    13.1680     2.3860     0.0400   -58.7460   116.3200     5.9610     6.0810   -81.9020
  516.0000    13.1680     2.3850     0.0480   -58.9310   117.0780     6.0310     6.1430   -81.8700
  516.5000    13.1680     2.3850     0.0560   -59.1150   117.8410     6.1020     6.1870   -81.8390
  517.0000    13.1690     2.3850     0.0390   -59.3000   118.6270     6.1720     6.2870   -81.8070
  517.5000    13.1690     2.3820     0.0020   -59.4840   119.6330     6.2420     6.3480   -81.7760
  518.0000    13.1690     2.3800    -0.0250   -59.6690   121.5100     6.3030     6.4090   -81.7440
  518.5000    13.1690     2.3800    -0.0070   -59.8530   124.2700     6.3390     6.4700   -81.7130
  519.0000    13.1690     2.3830     0.0120   -60.0380   125.3400     6.3770     6.5310   -81.6820
  519.5000    13.1700     2.3860     0.0300   -60.2230   124.7100     6.4140     6.5920   -81.6500
  520.0000    13.1700     2.3800     0.0450   -60.4070   119.4950     6.4520     6.6530   -81.6190
  520.5000    13.1700     2.3730     0.0370   -60.5920   113.7850     6.4900     6.7140   -81.5870
  521.0000    13.1700     2.3680     0.0250   -60.7760   108.0750     6.5280     6.7240   -81.5560
  521.5000    13.1710     2.3680     0.0260   -60.9610   105.7520     6.5660     6.7240   -81.5240
  522.0000    13.1710     2.3690     0.0230   -61.1450   106.0240     6.6010     6.7680   -81.4930
  522.5000    13.1710     2.3690     0.0060   -61.3300   107.0300     6.6970     6.9240   -81.4620
  523.0000    13.1710     2.3670    -0.0020   -61.5140   108.0210     6.8040     7.0800   -81.4300
  523.5000    13.1720     2.3650     0.0010   -61.6990   107.8720     6.9110     7.2360   -81.3990
  524.0000    13.1720     2.3640     0.0040   -58.5840   106.2380     7.0190     7.3920   -81.3670
  524.5000    13.1720     2.3740     0.0070   -54.3090   104.6480     7.1070     7.5820   -81.3360
  525.0000    13.1720     2.3830     0.0210   -50.0330   105.2250     7.1070     7.5110   -81.3040
  525.5000    13.1720     2.3930     0.0500   -47.6560   105.9580     7.1070     7.4200   -81.2730
  526.0000    13.1730     2.4020     0.0720   -52.1170   109.8630     7.1070     7.3300   -81.2420
  526.5000    13.1730     2.3990     0.0370   -56.5780   114.8220     7.1070     7.2390   -81.2100
  527.0000    13.1730     2.3960     0.0340   -61.0400   117.0400     7.1070     7.1730   -81.1790
  527.5000    13.1730     2.3900     0.0350   -65.5010   115.7120     7.1990     7.2760   -81.1470
  528.0000    13.1740     2.3850     0.0370   -58.7550   116.3500     7.2890     7.3720   -81.1160
  528.5000    13.1740     2.3800     0.0380   -43.3630   117.6810     7.3800     7.4670   -81.0840
  529.0000    13.1740     2.3790     0.0430   -37.6320   117.2270     7.4700     7.5630   -81.0530
  529.5000    13.1740     2.3810     0.0530   -39.3810   115.0220     7.5610     7.6590   -81.0220
  530.0000    13.1750     2.3830     0.0630   -41.1300   112.7970     7.5820     7.7550   -80.9900
  530.5000    13.1750     2.3850     0.0700   -42.8790   111.0010     7.5630     7.8670   -80.9590
  531.0000    13.1750     2.3830     0.0630   -44.6290   110.5010     7.4670     7.7980   -80.9270
  531.5000    13.1750     2.3820     0.0350   -46.3780   110.7780     7.3720     7.6830   -80.8960
  532.0000    13.1760     2.3790     0.0030   -48.1270   112.6130     7.2760     7.5680   -80.8640
  532.5000    13.1760     2.3740    -0.0080   -49.8760   114.6440     7.1800     7.4540   -80.8330
  533.0000    13.1760     2.3690    -0.0120   -51.6250   115.0240     7.0840     7.3390   -80.8020
  533.5000    13.1760     2.3710    -0.0160   -53.3740   114.3180     6.9890     7.2240   -80.7700
  534.0000    13.1760     2.3790    -0.0100   -55.1230   114.8690     6.8930     7.1100   -80.7390
  534.5000    13.1770     2.3870     0.0010   -56.8720   117.9980     6.7970     6.9950   -80.7070
  535.0000    13.1770     2.3950     0.0230   -58.6210   120.8700     6.7010     6.8800   -80.6760
  535.5000    13.1770     2.3980     0.0490   -60.3700   123.2100     6.6060     6.7650   -80.6450
  536.0000    13.1770     2.3960     0.0620   -62.1190   124.7420     6.5100     6.6510   -80.6130
  536.5000    13.1780     2.3900     0.0680   -63.8680   126.1790     6.4140     6.5360   -80.5820
  537.0000    13.1780     2.3830     0.0530   -65.6170   126.4340     6.3180     6.4210   -80.5500
  537.5000    13.1780     2.3780     0.0380   -67.1410   124.9870     6.2580     6.3070   -80.5190
