~VERSION INFORMATION
 VERS.                2.0:   CWLS LOG ASCII STANDARD - VERSION 2.0
 WRAP.                 NO:   ONE LINE PER DEPTH STEP
~WELL INFORMATION
#MNEM.UNIT      DATA TYPE    INFORMATION
#----------   ------------   ------------------------------
 STRT.F           85.5000:   START DEPTH
 STOP.F         2750.0000:   STOP DEPTH
 STEP.F            0.5000:   STEP LENGTH
 NULL.          -999.2500:   NO VALUE
 COMP.          INTEX OIL:   COMPANY
 WELL. INTEX NPR 3 "AX" #74-20:   WELL
 FLD .             TEAPOT:   FIELD
 LOC .      S20 T39N R78W:   LOCATION
 CNTY.            NATRONA:   COUNTY
 STAT.            WYOMING:   STATE
 CTRY. UNITED STATES OF AMERICA:   COUNTRY
 SRVC.       SCHLUMBERGER:   SERVICE COMPANY
 DATE.        08-MAY-1966:   LOGDATE
 API .     49025095210000:   API NUMBER
~CURVE INFORMATION
#MNEM.UNIT       API CODE    CURVE DESCRIPTION
#----------   ------------   ------------------------------
 DEPT.F                  :   
 CALD.IN     45 280 60 00:   CALIPER FROM DENSITY LOG
 GRD .GAPI   45 310 01 00:   GAMMA RAY FROM DENSITY LOG
 RHOB.G/C3   45 350 01 00:   BULK DENSITY
 CORR.G/C3   45 356 01 00:   DENSITY CORRECTION
 SPR .MV     05 010 01 00:   SPONTANEOUS POTENTIAL FROM RES.
 ILD .OHMM   05 120 46 00:   INDUCTION LOG DEEP
 SN  .OHMM   05 040 00 00:   SHORT NORMAL
~PARAMETER INFORMATION
#MNEM.UNIT          VALUE    DESCRIPTION
#----------   ------------   ------------------------------
 EKB .F         5018.3000:   Kelly bushing
 EGL .F         5008.0000:   Ground level
 EDF .F            0.0000:   Drilling floor
 EPD .F         5008.0000:   Permanent datum
 TD  .F         2750.0000:   Total depth
 DATE.        08-MAY-1966:   Date logged
 CLNT.            A2DTECH:   Client Code
 DAPD.F              10.3:   Feet Above Permanent Datum
 DD  .F              2750:   Depth driller
 DL  .F              2749:   Depth logger
 BLI .F              2748:   Bottom log interval
 TLI .F                87:   Top log interval
 CS1 .IN            10.75:   Casing size
 CBD1.       10.75" @ 30':   Casing driller 1
 BS1 .IN            7.875:   Bit size
 BSD1.F              2750:   Depth drilled with bit1
 DFT .           OIL EMUL:   Type fluid in hole
 DFD .               10.1:   Density
 DFV .                 54:   Viscosity
 MSS .         CIRCULATED:   Source of sample
 RMS .OHMM           1.90:   Rm
 MST .F                72:   Rm Meas. temp.
 RMF .OHMM           1.15:   Rmf
 MFST.F                72:   Rmf Meas. temp.
 MFSS.                 FP:   Source Rmf.
 RMB .OHMM           1.23:   Rm. at BHT
 BHT .F               111:   BHT.
 TCS .HRS             1.5:   Time Circ. stopped
 MRT .F               111:   Maximum recorded temp.
 LUN .               4507:   Logging unit number
 LUL .               CSPR:   Logging unit location
 ENGI.               HAUG:   Recorded By
 WITN.             TUTTLE:   Witnessed by
 ORIG.        2" 5" PRINT:   Origin of data
 UWI .     49025095210000:   Unique Well ID
 DICO. A2D TECHNOLOGIES, INC.:   Digitizing Company
~OTHER INFORMATION
~A   DEPT     CALD        GRD       RHOB       CORR        SPR        ILD         SN   
# ...
 2269.5000     8.7750   106.4040     2.5550     0.0350   -50.4580     5.6930     8.8590
 2270.0000     8.7590   104.4070     2.5630     0.0370   -50.7000     6.2800     9.2370
 2270.5000     8.7400   104.4710     2.5510     0.0400   -50.9470     7.2760     9.9180
 2271.0000     8.7290   101.6160     2.5360     0.0410   -51.1840     8.5320    10.9320
 2271.5000     8.6280    96.7120     2.5210     0.0550   -51.5480    10.2990    12.0190
 2272.0000     8.5190    96.1650     2.5110     0.0680   -52.2920    12.1080    15.7430
 2272.5000     8.4060    88.2300     2.4660     0.0820   -53.0080    16.3250    20.5640
 2273.0000     8.3300    73.1550     2.4260     0.0630   -53.6890    21.9250    25.0970
 2273.5000     8.2650    62.2710     2.3870     0.0420   -53.6330    27.0870    30.2750
 2274.0000     8.1990    57.0960     2.3940     0.0370   -53.5460    32.0620    32.3220
 2274.5000     8.1340    54.2260     2.4060     0.0540   -53.4370    33.4040    32.7440
 2275.0000     8.0720    55.2760     2.4150     0.0500   -53.3550    32.4920    32.8950
 2275.5000     8.0730    56.1360     2.4550     0.0610   -53.3730    30.3180    33.0790
 2276.0000     8.0770    53.7460     2.4470     0.0740   -53.4030    29.5780    33.0000
 2276.5000     8.0830    55.9010     2.4310     0.0630   -53.4340    28.9080    32.8630
 2277.0000     8.0870    58.1820     2.4130     0.0430   -53.4620    28.7530    32.7090
 2277.5000     8.0920    60.6010     2.4040     0.0390   -53.4910    28.7700    32.6010
 2278.0000     8.0970    62.6220     2.4080     0.0530   -53.5200    28.6160    32.4930
 2278.5000     8.1020    61.9530     2.4440     0.0740   -53.5490    28.2010    32.3730
 2279.0000     8.1040    59.8970     2.4540     0.0690   -53.5770    27.8070    32.2910
 2279.5000     8.1260    55.3500     2.4270     0.0600   -53.6070    27.3970    32.0500
 2280.0000     8.1650    50.6680     2.4310     0.0500   -53.6360    27.0120    31.7840
 2280.5000     8.1990    52.2930     2.4880     0.0600   -53.6660    27.0410    31.4760
 2281.0000     8.2350    54.2480     2.4780     0.0920   -53.6940    27.6780    31.3780
 2281.5000     8.2690    53.7880     2.4510     0.0870   -53.7230    28.2570    31.5900
 2282.0000     8.3030    53.1210     2.4340     0.0750   -53.7970    28.8620    31.7710
 2282.5000     8.2770    52.3720     2.4460     0.0680   -53.9660    29.4480    31.9590
 2283.0000     8.2290    52.1740     2.4510     0.0710   -54.1480    30.0440    32.1530
 2283.5000     8.1860    51.0860     2.4560     0.0560   -54.6270    30.6350    32.3310
 2284.0000     8.1490    50.5540     2.4480     0.0610   -55.1560    31.2310    32.6340
 2284.5000     8.1570    52.7110     2.4350     0.0460   -55.6750    31.8180    32.9080
 2285.0000     8.1660    51.9090     2.4370     0.0350   -56.2240    32.4210    33.1880
 2285.5000     8.1760    51.9990     2.4390     0.0280   -56.6930    32.9040    33.4790
 2286.0000     8.1850    52.7550     2.4360     0.0290   -57.1880    33.2420    33.7310
 2286.5000     8.1850    54.3790     2.4330     0.0360   -56.8790    33.4250    34.0860
 2287.0000     8.1850    53.3430     2.4400     0.0420   -56.4320    33.2950    33.7800
 2287.5000     8.1850    51.7450     2.4520     0.0480   -55.9820    33.0930    33.2390
 2288.0000     8.1850    51.8150     2.4280     0.0290   -55.5310    32.8550    32.7540
 2288.5000     8.1850    53.9130     2.4320     0.0340   -55.2320    31.7420    32.2650
 2289.0000     8.1850    52.7270     2.4660     0.0590   -55.1120    30.4410    31.7690
 2289.5000     8.1850    52.9310     2.4730     0.0670   -54.9720    29.1390    31.2830
 2290.0000     8.1860    55.1310     2.4530     0.0540   -54.8240    27.8500    30.7760
 2290.5000     8.1840    57.2240     2.4290     0.0430   -54.6950    26.5510    30.3340
 2291.0000     8.1980    59.3560     2.4420     0.0410   -54.5620    25.2560    29.7060
 2291.5000     8.2270    59.9680     2.4760     0.0600   -54.9480    23.9630    28.9510
 2292.0000     8.2530    60.2450     2.5080     0.0760   -55.4500    22.6620    28.1790
 2292.5000     8.2810    63.6550     2.5260     0.0900   -55.9260    21.4240    27.0580
 2293.0000     8.3070    70.2060     2.5150     0.0870   -56.4440    20.2270    25.6630
 2293.5000     8.3650    77.5010     2.5210     0.0700   -56.4990    19.1090    24.7550
 2294.0000     8.4180    82.8750     2.5000     0.0500   -56.4020    18.2750    24.3660
 2294.5000     8.4720    80.7170     2.4920     0.0570   -56.0260    17.5940    23.8910
 2295.0000     8.5250    78.0280     2.4990     0.0800   -55.6700    16.9460    23.4540
 2295.5000     8.5360    80.4570     2.4950     0.0780   -55.3030    16.3440    22.9910
 2296.0000     8.5300    82.2580     2.4920     0.0730   -54.9280    16.2490    22.8190
 2296.5000     8.5250    82.2970     2.4970     0.0680   -54.5760    16.1850    22.8350
 2297.0000     8.5210    81.2500     2.5060     0.0710   -54.1720    16.1100    22.8280
 2297.5000     8.5160    80.6190     2.4940     0.0690   -54.2040    16.2370    22.8450
 2298.0000     8.5110    82.5400     2.4890     0.0430   -54.2730    16.5790    23.0410
 2298.5000     8.5060    84.4040     2.5090     0.0470   -54.3740    16.8990    23.2490
 2299.0000     8.5010    85.6100     2.5360     0.0550   -54.4380    17.2260    23.4670
 2299.5000     8.5160    85.4150     2.5250     0.0430   -54.4830    17.5570    23.9050
 2300.0000     8.5370    79.6450     2.4970     0.0220   -53.8960    17.6850    24.3680
 2300.5000     8.5570    75.2100     2.5150     0.0120   -53.2800    17.3200    24.2570
 2301.0000     8.5770    78.6830     2.5100     0.0150   -52.6570    16.8590    23.8490
 2301.5000     8.5980    80.9390     2.5040     0.0370   -52.0210    16.4000    23.4550
 2302.0000     8.6180    79.6400     2.5130     0.0380   -51.7270    15.9480    23.0630
 2302.5000     8.6380    81.8820     2.5040     0.0300   -51.7060    15.4790    22.6740
 2303.0000     8.6590    85.0280     2.4930     0.0250   -51.6520    15.1170    22.2500
 2303.5000     8.6790    88.0340     2.4990     0.0370   -51.6080    14.9540    22.0180
 2304.0000     8.6990    91.0640     2.5180     0.0480   -51.5600    14.8040    22.0470
 2304.5000     8.7220    89.3760     2.5200     0.0360   -51.5150    14.7350    22.0320
 2305.0000     8.7170    86.2880     2.5020     0.0490   -51.4640    14.9780    22.0450
 2305.5000     8.6870    83.1840     2.5020     0.0450   -51.4190    15.2160    22.0200
 2306.0000     8.6700    79.9290     2.5070     0.0300   -51.4020    15.4670    22.2400
 2306.5000     8.6490    78.1810     2.4640     0.0190   -51.6450    15.7140    22.6930
 2307.0000     8.6300    79.5090     2.4740     0.0370   -51.8590    15.9090    22.7350
 2307.5000     8.6110    80.8010     2.4960     0.0540   -52.0950    15.9700    22.5270
 2308.0000     8.5900    80.3430     2.4860     0.0430   -52.3110    16.0230    22.3270
 2308.5000     8.5800    78.2660     2.4680     0.0260   -52.5410    16.0750    22.2990
 2309.0000     8.6080    77.7110     2.4900     0.0320   -52.5490    16.1260    22.5240
 2309.5000     8.6360    77.4910     2.4850     0.0270   -52.5750    16.1810    22.6230
 2310.0000     8.6660    79.5170     2.4790     0.0270   -52.3850    16.2290    22.3380
 2310.5000     8.6940    83.2770     2.4850     0.0350   -52.0120    16.2850    22.0660
 2311.0000     8.7230    85.6030     2.5040     0.0410   -51.6590    16.3180    21.8770
 2311.5000     8.7530    83.1580     2.5110     0.0520   -51.3010    16.4550    22.2220
 2312.0000     8.7750    82.4530     2.4990     0.0480   -51.0010    16.5710    22.5290
 2312.5000     8.7710    84.4200     2.4910     0.0410   -50.9660    16.6990    22.8350
 2313.0000     8.7600    87.5170     2.4860     0.0330   -50.9200    16.8260    23.1880
 2313.5000     8.7490    87.8400     2.5010     0.0250   -50.8900    16.8840    23.2230
 2314.0000     8.7380    84.3350     2.4930     0.0120   -50.8500    16.6210    23.1620
 2314.5000     8.7270    81.2740     2.5170     0.0050   -50.8150    16.3600    22.6210
