~VERSION INFORMATION
 VERS.                2.0:   CWLS LOG ASCII STANDARD - VERSION 2.0
 WRAP.                 NO:   ONE LINE PER DEPTH STEP
~WELL INFORMATION
#MNEM.UNIT      DATA TYPE    INFORMATION
#----------   ------------   ------------------------------
 STRT.F          590.0000:   START DEPTH
 STOP.F         3428.0000:   STOP DEPTH
 STEP.F            0.5000:   STEP LENGTH
 NULL.          -999.2500:   NO VALUE
 COMP.    FENIX & SCISSON:   COMPANY
 WELL. FENIX NPR 3 "AX" #25-27:   WELL
 FLD .                NPR:   FIELD
 LOC .      S27 T39N R78W:   LOCATION
 CNTY.            NATRONA:   COUNTY
 STAT.            WYOMING:   STATE
 CTRY. UNITED STATES OF AMERICA:   COUNTRY
 SRVC.       SCHLUMBERGER:   SERVICE COMPANY
 DATE.        13-AUG-1981:   LOGDATE
 API .     49025108780000:   API NUMBER
~CURVE INFORMATION
#MNEM.UNIT       API CODE    CURVE DESCRIPTION
#----------   ------------   ------------------------------
 DEPT.F                  :   
 CALD.IN     45 280 60 00:   CALIPER FROM DENSITY LOG
 GRD .GAPI   45 310 01 00:   GAMMA RAY FROM DENSITY LOG
 CORR.G/C3   45 356 01 00:   DENSITY CORRECTION
 RHOB.G/C3   45 350 01 00:   BULK DENSITY
 NPHI.DEC    42 890 03 00:   NEUTRON POROSITY SANDSTONE
 TENR.LBS    07 635 01 00:   TENSION
 SPR .MV     07 010 01 00:   SPONTANEOUS POTENTIAL
 ILD .OHMM   07 120 46 00:   INDUCTION LOG DEEP RESISTIVITY
 ILM .OHMM   07 120 44 00:   INDUCTION LOG MEDIUM RESISTIVITY
 SFL .OHMM   07 220 01 00:   SHALLOW FOCUSED LOG RESISTIVITY
 TEND.LBS    45 635 01 00:   TENSION FROM DENSITY LOG
~PARAMETER INFORMATION
#MNEM.UNIT          VALUE    DESCRIPTION
#----------   ------------   ------------------------------
 EKB .F         5057.0000:   Kelly bushing
 EGL .F         5047.0000:   Ground level
 EDF .F            0.0000:   Drilling floor
 TD  .F         3415.0000:   Total depth
 DATE.        13-AUG-1981:   Date logged
 CLNT.            A2DTECH:   Client Code
 SL  . 2100' FSL & 1050' FWL:   Surface Location
 PD  .                 GL:   Permanent Datum
 EPD .F              5047:   Elevation Permanent Datum
 LMF .                 KB:   Log Measured From
 DMF .                 KB:   Drilling Measured From
 DAPD.F                10:   Feet Above Permanent Datum
 DD  .F              3400:   Depth driller
 DL  .F              3415:   Depth logger
 BLI .F              3409:   Bottom log interval
 TLI .F               603:   Top log interval
 CS1 .IN            9.625:   Casing size
 CBD1.      9.625" @ 607':   Casing driller 1
 CBL1.F               603:   Casing logger 1
 BS1 .IN            7.875:   Bit size
 BSD1.F              3400:   Depth drilled with bit1
 DFT .                FGM:   Type fluid in hole
 DFD .                8.7:   Density
 DFV .                 36:   Viscosity
 DFPH.                  9:   pH
 DFL .                 13:   Fluid loss
 MSS .           MUD/TANK:   Source of sample
 RMS .OHMM           1.69:   Rm
 MST .F                75:   Rm Meas. temp.
 RMF .OHMM           1.34:   Rmf
 MFST.F                75:   Rmf Meas. temp.
 MFSS.               MEAS:   Source Rmf.
 RMB .OHMM           1.09:   Rm. at BHT
 BHT .F               120:   BHT.
 TCS .HRS            2145:   Time Circ. stopped
 TLAB.HRS            0200:   Time logger at bottom
 MRT .F               120:   Maximum recorded temp.
 LUN .               8039:   Logging unit number
 LUL .               CSPR:   Logging unit location
 ENGI.            PURPICH:   Recorded By
 WITN.              FIVAS:   Witnessed by
 ORIG.           5" PRINT:   Origin of data
 UWI .     49025108780000:   Unique Well ID
 DICO. A2D TECHNOLOGIES, INC.:   Digitizing Company
~OTHER INFORMATION
~A   DEPT     CALD         GRD      CORR       RHOB         NPHI     TENR        SPR        ILD        ILM        SFL       TEND   
# ...
  773.0000     8.8640   110.3140     0.0740     2.4980     0.2970   577.0250   -92.9500     7.8830     6.5350     8.1880   639.8810
  773.5000     8.8680   112.3220     0.0780     2.4900     0.2920   577.2310   -93.1200     7.8830     6.5610     8.2510   639.8810
  774.0000     8.8710   114.3260     0.0820     2.4840     0.2900   577.4370   -93.1080     7.7400     6.5870     8.0550   639.8810
  774.5000     8.8730   116.4060     0.0720     2.4750     0.2990   577.6430   -93.0510     7.8150     6.6130     7.9550   639.8810
  775.0000     8.8600   116.1260     0.0610     2.4720     0.3140   577.8490   -92.9930     7.9910     6.6390     8.1100   639.8810
  775.5000     8.8430   115.0000     0.0510     2.4850     0.3270   578.0550   -92.9850     8.0280     6.6650     8.2280   639.8810
  776.0000     8.8260   115.2140     0.0500     2.5000     0.3270   578.2610   -93.0570     7.9510     6.6850     8.4030   639.8810
  776.5000     8.8400   115.5140     0.0790     2.5220     0.3230   578.4670   -93.1330     7.8660     6.6570     8.2790   639.8810
  777.0000     8.9450   115.4580     0.1320     2.5560     0.3190   578.6730   -92.8990     7.7400     6.6270     8.0470   639.8810
  777.5000     9.0450   114.4260     0.1850     2.5890     0.3200   578.8790   -92.4850     7.4620     6.4480     7.8140   639.8810
  778.0000     9.2450   113.7980     0.2360     2.6160     0.3270   579.0840   -92.2710     7.1950     6.2170     7.5810   639.8810
  778.5000     9.5300   114.0480     0.2520     2.5840     0.3380   579.2900   -92.1590     7.0160     6.0150     7.3480   639.8810
  779.0000     9.7010   115.0610     0.2490     2.5330     0.3500   579.4960   -92.1620     6.8320     5.8580     7.1150   639.8810
  779.5000     9.8610   116.7700     0.2500     2.5030     0.3600   579.7020   -92.1630     6.6480     5.7020     6.8820   639.8810
  780.0000    10.0280   118.5690     0.2510     2.4890     0.3740   580.5500   -92.1620     6.4640     5.5460     6.6490   639.8810
  780.5000    10.1650   117.1780     0.2520     2.4850     0.3900   581.8040   -92.1620     6.2800     5.3900     6.4160   639.8810
  781.0000    10.2980   116.0410     0.2520     2.4800     0.3970   583.0570   -92.0580     6.0950     5.2340     6.2710   639.8810
  781.5000    10.4290   115.7570     0.2520     2.4710     0.3870   584.3110   -91.8570     5.9790     5.0860     6.2620   639.8810
  782.0000    10.5300   116.2480     0.2520     2.4550     0.3700   585.5650   -91.6130     5.9160     5.0410     6.2540   639.8810
  782.5000    10.4640   115.2980     0.2480     2.4360     0.3530   586.8190   -91.3440     5.8540     4.9880     6.2450   639.8810
  783.0000    10.4230   114.7140     0.2360     2.4190     0.3420   588.0720   -91.2530     5.7920     4.9350     6.2370   639.8810
  783.5000    10.4450   114.3060     0.2310     2.4320     0.3350   589.3260   -91.1750     5.7300     4.8830     6.2280   639.8810
  784.0000    10.4830   114.0900     0.2430     2.4600     0.3500   583.7790   -91.4680     5.6630     4.8300     6.2200   639.8810
  784.5000    10.4800   111.2560     0.2520     2.4330     0.3740   575.4210   -91.7770     5.5720     4.7520     6.0780   639.8810
  785.0000    11.2210   108.5130     0.2520     2.3800     0.3820   570.3390   -92.0020     5.3950     4.6500     5.8100   639.8810
  785.5000    12.1150   106.7200     0.2520     2.2120     0.3900   571.7320   -92.0910     5.2040     4.5040     5.5430   639.8810
  786.0000    12.8460   106.0980     0.2510     2.0970     0.4040   573.1250   -92.1350     5.0140     4.3590     5.2750   639.8810
  786.5000    13.3070   105.1790     0.2110     2.0470     0.4170   574.5180   -91.9790     4.8230     4.2130     5.0080   639.8810
  787.0000    13.6000   104.2640     0.1850     2.0960     0.4220   575.9110   -92.1920     4.5370     4.1370     4.9040   639.8810
  787.5000    12.8520   103.3230     0.1970     2.2030     0.4020   577.3040   -92.4730     4.6090     4.2640     5.0870   639.8810
  788.0000    10.9370   105.1960     0.2120     2.3000     0.3800   578.6970   -92.6590     4.8410     4.3660     5.3950   639.8810
  788.5000    10.5240   108.8170     0.1860     2.3300     0.3610   579.7820   -92.8190     5.0730     4.4680     5.7030   639.8810
  789.0000    10.2730   112.4570     0.0880     2.3460     0.3570   580.2220   -92.9360     5.3050     4.5700     5.9500   639.8810
  789.5000    10.0730   116.0630     0.1000     2.3950     0.3620   580.9210   -92.4880     5.5370     4.6720     5.9910   639.8810
  790.0000    10.0320   118.8840     0.1180     2.4350     0.3740   581.6210   -92.0430     5.6610     4.7710     6.0330   639.8810
  790.5000    10.4110   118.2080     0.1430     2.4540     0.3870   582.3210   -91.5830     5.7440     4.8460     6.0750   639.8810
  791.0000    10.7810   118.2730     0.1130     2.3910     0.3930   583.0210   -91.1740     5.8270     4.9160     6.1050   639.8810
  791.5000    10.6680   120.9960     0.0830     2.3840     0.3780   583.7200   -90.8720     5.9400     4.9870     6.2070   639.8810
  792.0000    10.4030   123.6840     0.0740     2.4370     0.3600   584.4200   -90.6790     5.9260     5.0400     6.3320   639.8810
  792.5000    10.1310   126.2630     0.1140     2.5230     0.3480   585.1200   -90.4850     5.9070     5.0180     6.3220   639.8810
  793.0000    10.2000   120.8970     0.1810     2.5560     0.3450   585.8190   -90.2930     5.8860     5.0020     6.3110   639.8810
  793.5000    10.3520   114.8180     0.2080     2.5330     0.3410   586.5190   -90.1020     5.8980     4.9940     6.3000   639.8810
  794.0000    10.7350   109.6750     0.1900     2.4770     0.3390   587.2190   -90.0770     5.9150     5.0130     6.2900   639.8810
  794.5000    11.0100   109.3710     0.1470     2.4220     0.3440   587.9180   -90.3480     5.9310     5.0270     6.2790   639.8810
  795.0000    10.9200   109.3540     0.0900     2.4320     0.3650   588.6180   -90.6140     5.9480     5.0410     6.2740   639.8420
  795.5000    11.0950   109.3670     0.1040     2.4550     0.3850   589.3180   -90.9580     5.9650     5.0550     6.3080   639.7570
  796.0000    11.5160   112.0600     0.1270     2.4730     0.4050   590.0180   -91.4240     5.9810     5.0690     6.3420   639.6720
  796.5000    11.7510   114.8920     0.1480     2.4750     0.4080   590.7170   -91.8800     6.0490     5.0830     6.3770   639.5880
  797.0000    11.2370   115.1300     0.1330     2.4560     0.3840   591.4170   -92.2160     6.1250     5.1800     6.4480   639.5030
  797.5000    10.7290   115.4300     0.1010     2.4390     0.3620   592.1170   -92.5150     6.1730     5.1920     6.5660   639.4180
  798.0000    10.2550   117.6390     0.0910     2.4440     0.3570   592.8160   -92.5590     6.2200     5.2040     6.7070   639.3330
  798.5000    10.0370   119.7760     0.0860     2.4530     0.3790   593.5160   -92.5590     6.2680     5.2160     6.8740   639.2480
  799.0000    10.0700   121.0250     0.0770     2.4540     0.3980   594.2160   -92.5650     6.3320     5.2750     6.9370   639.1630
  799.5000    10.1020   119.7210     0.0700     2.4430     0.3880   594.9160   -92.6850     6.2630     5.2470     6.7540   639.0780
  800.0000    10.1540   116.7580     0.0630     2.4190     0.3770   595.6150   -92.8040     6.1980     5.2050     6.6110   638.9940
  800.5000    10.2670   113.0830     0.1590     2.3850     0.3650   596.3150   -92.9290     6.1340     5.1630     6.4680   638.9090
  801.0000    10.9360   109.3230     0.2540     2.2720     0.3570   597.0150   -92.7630     6.0700     5.1210     6.3240   638.8240
  801.5000    11.6770   104.8750     0.2520     2.0880     0.3670   597.7140   -92.4950     6.0060     5.0790     6.1810   638.7390
  802.0000    12.2050   102.8900     0.1780     1.9490     0.3740   598.4140   -92.1780     5.9420     5.0370     5.9940   638.6540
  802.5000    12.3700   102.0520     0.0950     1.8550     0.3780   599.1140   -91.8150     5.8770     4.9950     6.0220   638.5690
  803.0000    12.1100   104.5920     0.1260     2.0460     0.3670   599.6630   -91.4780     5.8320     4.9490     6.0790   638.4840
