~VERSION INFORMATION
 VERS.                2.0:   CWLS LOG ASCII STANDARD - VERSION 2.0
 WRAP.                 NO:   ONE LINE PER DEPTH STEP
~WELL INFORMATION
#MNEM.UNIT      DATA TYPE    INFORMATION
#----------   ------------   ------------------------------
 STRT.F           31.0000:   START DEPTH
 STOP.F         2926.0000:   STOP DEPTH
 STEP.F            0.5000:   STEP LENGTH
 NULL.          -999.2500:   NO VALUE
 COMP. LAWERNCE ALLISON AND ASSOCIATES:   COMPANY
 WELL.   FENIX "X" #17-21:   WELL
 FLD .             NPR #3:   FIELD
 LOC .      S21 T39N R78W:   LOCATION
 CNTY.            NATRONA:   COUNTY
 STAT.            WYOMING:   STATE
 CTRY. UNITED STATES OF AMERICA:   COUNTRY
 SRVC.      WESTERN ATLAS:   SERVICE COMPANY
 DATE.        02-NOV-1987:   LOGDATE
 API .     49025111960000:   API NUMBER
~CURVE INFORMATION
#MNEM.UNIT       API CODE    CURVE DESCRIPTION
#----------   ------------   ------------------------------
 DEPT.F                  :   
 CALD.IN     45 280 60 00:   CALIPER FROM DENSITY LOG
 TEND.LBS    45 635 01 00:   TENSION FROM DENSITY LOG
 CORR.G/C3   45 356 01 00:   DENSITY CORRECTION
 RHOB.G/C3   45 350 01 00:   BULK DENSITY
 CNC .DEC    42 890 03 00:   NEUTRON POROSITY SANDSTONE
 SPR .MV     07 010 01 00:   SPONTANEOUS POTENTIAL
 GRR .GAPI   07 310 01 00:   GAMMA RAY FROM RESISTIVITY
 TENR.LBS    07 635 01 00:   TENSION FROM RESISTIVITY
 RFOC.OHMM   07 220 04 00:   RESISTIVITY FOCUSED LOG RES.
 RILD.OHMM   07 120 46 00:   DEEP INDUCTION RESISTIVITY
 RILM.OHMM   07 120 44 00:   INDUCTION LOG MEDIUM RESISTIVITY
~PARAMETER INFORMATION
#MNEM.UNIT          VALUE    DESCRIPTION
#----------   ------------   ------------------------------
 EKB .F         5006.0000:   Kelly bushing
 EGL .F         4995.0000:   Ground level
 EDF .F            0.0000:   Drilling floor
 TD  .F         2915.0000:   Total depth
 DATE.        02-NOV-1987:   Date logged
 CLNT.            A2DTECH:   Client Code
 SL  . 1824' FSL & 399' FWL:   Surface Location
 PD  .                 GL:   Permanent Datum
 DD  .F              2911:   Depth driller
 DL  .F              2915:   Depth logger
 BLI .F              2913:   Bottom log interval
 CS1 .IN            8.625:   Casing size
 CBD1.      8.625" @ 350':   Casing driller 1
 CBL1.F               350:   Casing logger 1
 BS1 .IN            7.875:   Bit size
 DFT .        KCL-POLYMER:   Type fluid in hole
 DFD .                8.8:   Density
 DFV .                 42:   Viscosity
 DFPH.                9.5:   pH
 DFL .                 11:   Fluid loss
 MSS .           FLOWLINE:   Source of sample
 RMS .OHMM           0.41:   Rm
 MST .F                78:   Rm Meas. temp.
 RMF .OHMM           0.29:   Rmf
 MFST.F                78:   Rmf Meas. temp.
 RMC .OHMM           0.51:   Rmc
 MCST.F                78:   Rmc Meas. temp.
 MFSS.               MEAS:   Source Rmf.
 RMB .OHMM           0.29:   Rm. at BHT
 BHT .F               108:   BHT.
 TCS .HRS               5:   Time Circ. stopped
 MRT .F               108:   Maximum recorded temp.
 LUN .            HL-6274:   Logging unit number
 LUL .           GILLETTE:   Logging unit location
 WITN.             STRONG:   Witnessed by
 ORIG.           5" PRINT:   Origin of data
 UWI .     49025111960000:   Unique Well ID
 DICO. A2D TECHNOLOGIES, INC.:   Digitizing Company
 DAPD.                 11:   Feet Above Permanent Datum
 BSD1.               2911:   Depth drilled with bit1
 MCSS.               CALC:   Source Rmc.
 EPD .               4995:   Elevation Permanent Datum
 LMF .                 KB:   Log Measured From
 DMF .                 KB:   Drilling Measured From
 TLI .                 11:   Top log interval
~OTHER INFORMATION
~A   DEPT     CALD       TEND       CORR       RHOB        CNC        SPR         GRR      TENR       RFOC       RILD       RILM   
# ...
  366.5000  -999.2500  -999.2500  -999.2500  -999.2500  -999.2500   -32.1140    87.6700   -73.0900     3.5810     3.8250     3.7320
  367.0000  -999.2500  -999.2500  -999.2500  -999.2500  -999.2500   -31.8710    87.5810   -73.2940     3.3170     3.0460     3.1940
  367.5000  -999.2500  -999.2500  -999.2500  -999.2500  -999.2500   -31.3970    87.5030   -73.4980     3.0530     2.2970     2.4680
  368.0000  -999.2500  -999.2500  -999.2500  -999.2500  -999.2500   -31.3320    87.6410   -73.7020     2.6510     2.4750     2.5450
  368.5000  -999.2500  -999.2500  -999.2500  -999.2500  -999.2500   -31.3030    86.2480   -73.9060     2.7520     2.6460     2.6640
  369.0000  -999.2500  -999.2500  -999.2500  -999.2500  -999.2500   -31.3820    83.0400   -74.1090     3.2420     2.7110     2.7970
  369.5000  -999.2500  -999.2500  -999.2500  -999.2500  -999.2500   -30.6720    82.1500   -74.3130     4.2200     2.7470     3.1660
  370.0000  -999.2500  -999.2500  -999.2500  -999.2500  -999.2500   -29.1760    84.2450   -74.5170     8.5090     3.4880     3.5690
  370.5000  -999.2500  -999.2500  -999.2500  -999.2500  -999.2500   -28.1430    87.3510   -74.7210    10.5060     4.1410     3.9730
  371.0000  -999.2500  -999.2500  -999.2500  -999.2500  -999.2500   -27.8720    90.1510   -74.9240     9.0310     4.7950     4.3740
  371.5000  -999.2500  -999.2500  -999.2500  -999.2500  -999.2500   -27.1770    93.4890   -75.1280     7.7810     5.4490     5.2110
  372.0000  -999.2500  -999.2500  -999.2500  -999.2500  -999.2500   -26.9000    96.7080   -75.3320     6.5990     6.1030     5.9040
  372.5000  -999.2500  -999.2500  -999.2500  -999.2500  -999.2500   -27.2500    99.5190   -75.5360     6.7140     6.7560     6.5980
  373.0000  -999.2500  -999.2500  -999.2500  -999.2500  -999.2500   -28.0550   100.3680   -75.7390     6.8870     7.2160     7.2910
  373.5000  -999.2500  -999.2500  -999.2500  -999.2500  -999.2500   -28.7870    99.0810   -75.9430     7.0610     7.8420     8.0340
  374.0000  -999.2500  -999.2500  -999.2500  -999.2500  -999.2500   -29.5460    96.2580   -76.1470     7.2340     8.3260     8.1030
  374.5000  -999.2500  -999.2500  -999.2500  -999.2500  -999.2500   -30.0960    93.3420   -76.3510     7.4790     8.5050     8.1790
  375.0000  -999.2500  -999.2500  -999.2500  -999.2500  -999.2500   -30.3510    92.2300   -76.5540     7.4740     8.5840     8.3430
  375.5000  -999.2500  -999.2500  -999.2500  -999.2500  -999.2500   -30.6170    95.0080   -76.7580     7.4660     8.6290     8.6220
  376.0000  -999.2500  -999.2500  -999.2500  -999.2500  -999.2500   -30.9700    98.9200   -76.9620     7.4580     8.9440     8.9440
  376.5000  -999.2500  -999.2500  -999.2500  -999.2500  -999.2500   -30.9290    98.9650   -77.1660     7.4490     8.8110     9.1050
  377.0000  -999.2500  -999.2500  -999.2500  -999.2500  -999.2500   -30.9420    95.9250   -77.3690     7.4410     8.6560     8.9620
  377.5000  -999.2500  -999.2500  -999.2500  -999.2500  -999.2500   -30.9270    94.7470   -77.5730     7.4330     8.5010     8.7510
  378.0000  -999.2500  -999.2500  -999.2500  -999.2500  -999.2500   -30.9600    99.1830   -77.7770     7.4250     8.3450     8.5400
  378.5000  -999.2500  -999.2500  -999.2500  -999.2500  -999.2500   -30.9220   102.7380   -77.9810     7.4160     8.1900     8.3290
  379.0000  -999.2500  -999.2500  -999.2500  -999.2500  -999.2500   -31.2140   106.4640   -78.1840     7.4080     8.0340     8.1180
  379.5000  -999.2500  -999.2500  -999.2500  -999.2500  -999.2500   -29.9990   103.7500   -78.3880     7.4000     8.1790     8.0110
  380.0000  -999.2500  -999.2500  -999.2500  -999.2500  -999.2500   -28.6920   101.0970   -78.5920     7.3910     8.1790     7.9060
  380.5000  -999.2500  -999.2500  -999.2500  -999.2500  -999.2500   -27.2850    99.4130   -78.7960     7.3840     8.4180     7.8010
  381.0000  -999.2500  -999.2500  -999.2500  -999.2500  -999.2500   -26.7370   100.7030   -78.9990     7.3750     8.6290     7.6950
  381.5000  -999.2500  -999.2500  -999.2500  -999.2500  -999.2500   -28.6630   101.7220   -79.2030     7.3660     8.6290     7.5900
  382.0000  -999.2500  -999.2500  -999.2500  -999.2500  -999.2500   -29.9950   102.7830   -79.4070     7.3610     8.5860     7.4840
  382.5000  -999.2500  -999.2500  -999.2500  -999.2500  -999.2500   -29.6780   103.8000   -79.6110     7.3500     8.5040     7.3790
  383.0000  -999.2500  -999.2500  -999.2500  -999.2500  -999.2500   -28.9700   102.9370   -79.8150     7.3460     8.4210     7.2730
  383.5000  -999.2500  -999.2500  -999.2500  -999.2500  -999.2500   -28.0720   101.8430   -80.0180     7.1740     8.3390     7.1680
  384.0000  -999.2500  -999.2500  -999.2500  -999.2500  -999.2500   -27.4530   102.3550   -80.2220     7.0280     8.2570     7.0630
  384.5000  -999.2500  -999.2500  -999.2500  -999.2500  -999.2500   -27.4150   103.8390   -80.4260     6.8810     8.1790     6.9570
  385.0000  -999.2500  -999.2500  -999.2500  -999.2500  -999.2500   -27.6720   105.2120   -80.6300     6.7180     8.1790     6.8390
  385.5000  -999.2500  -999.2500  -999.2500  -999.2500  -999.2500   -27.3240   104.6670   -80.8330     6.8250     8.1790     6.8390
  386.0000  -999.2500  -999.2500  -999.2500  -999.2500  -999.2500   -27.2260   105.0940   -81.0370     7.0410     8.1790     7.0140
  386.5000  -999.2500  -999.2500  -999.2500  -999.2500  -999.2500   -27.4990   105.3560   -81.2410     7.2580     8.2420     7.1720
  387.0000  -999.2500  -999.2500  -999.2500  -999.2500  -999.2500   -27.8190   104.7540   -81.4450     7.4790     8.3100     7.3310
  387.5000  -999.2500  -999.2500  -999.2500  -999.2500  -999.2500   -28.0300   103.2860   -81.6480     7.5080     8.3780     7.4890
  388.0000  -999.2500  -999.2500  -999.2500  -999.2500  -999.2500   -28.0410   102.3170   -81.8520     7.5570     8.4450     7.6470
  388.5000  -999.2500  -999.2500  -999.2500  -999.2500  -999.2500   -24.8110   101.2760   -82.0560     7.6140     8.5130     7.8060
  389.0000  -999.2500  -999.2500  -999.2500  -999.2500  -999.2500   -21.6100   100.7060   -82.2600     7.5190     8.5810     7.8910
  389.5000  -999.2500  -999.2500  -999.2500  -999.2500  -999.2500   -18.7340   100.8060   -82.4630     7.4060     8.6290     7.7510
  390.0000  -999.2500  -999.2500  -999.2500  -999.2500  -999.2500   -18.0440   100.7800   -82.6670     7.2940     8.6290     7.7160
  390.5000  -999.2500  -999.2500  -999.2500  -999.2500  -999.2500   -18.2010   100.9230   -82.8710     7.1820     8.4970     7.6470
  391.0000  -999.2500  -999.2500  -999.2500  -999.2500  -999.2500   -19.7900   103.7540   -83.0750     7.0880     8.3790     7.5780
  391.5000  -999.2500  -999.2500  -999.2500  -999.2500  -999.2500   -21.2320   107.2890   -83.2780     7.0880     8.2610     7.5090
  392.0000  -999.2500  -999.2500  -999.2500  -999.2500  -999.2500   -21.6470   107.5420   -83.4820     7.0880     8.1430     7.4400
  392.5000  -999.2500  -999.2500  -999.2500  -999.2500  -999.2500   -22.6240   106.7420   -83.6860     7.0880     8.0250     7.3710
  393.0000  -999.2500  -999.2500  -999.2500  -999.2500  -999.2500   -24.1710   104.7460   -83.8900     7.0880     7.8910     7.3460
  393.5000  -999.2500  -999.2500  -999.2500  -999.2500  -999.2500   -25.6930   104.0410   -84.0930     6.9960     7.6620     7.2160
  394.0000  -999.2500  -999.2500  -999.2500  -999.2500  -999.2500   -27.2400   104.8100   -84.2970     6.8010     7.3970     6.9880
  394.5000  -999.2500  -999.2500  -999.2500  -999.2500  -999.2500   -28.7210   105.7010   -84.5010     6.6060     7.1320     6.7780
  395.0000  -999.2500  -999.2500  -999.2500  -999.2500  -999.2500   -30.3280   106.3650   -84.7050     6.4110     6.8670     6.5690
  395.5000  -999.2500  -999.2500  -999.2500  -999.2500  -999.2500   -31.1360   105.2740   -84.9080     6.2170     6.6020     6.3590
  396.0000  -999.2500  -999.2500  -999.2500  -999.2500  -999.2500   -31.7900   103.6690   -84.9510     6.0220     6.3380     6.1490
  396.5000  -999.2500  -999.2500  -999.2500  -999.2500  -999.2500   -31.6830   101.5260   -84.9510     5.8270     6.0730     5.9390
