~VERSION INFORMATION
 VERS.                2.0:   CWLS LOG ASCII STANDARD - VERSION 2.0
 WRAP.                 NO:   ONE LINE PER DEPTH STEP
~WELL INFORMATION
#MNEM.UNIT      DATA TYPE    INFORMATION
#----------   ------------   ------------------------------
 STRT.F           53.0000:   START DEPTH
 STOP.F         3110.0000:   STOP DEPTH
 STEP.F            0.5000:   STEP LENGTH
 NULL.          -999.2500:   NO VALUE
 COMP. LAWRENCE ALLISON & ASSOCIATES W:   COMPANY
 WELL. LAWRENCE NPR 3 "AX" #31-34:   WELL
 FLD .      NPR - WILDCAT:   FIELD
 LOC .      S34 T39N R78W:   LOCATION
 CNTY.            NATRONA:   COUNTY
 STAT.            WYOMING:   STATE
 CTRY. UNITED STATES OF AMERICA:   COUNTRY
 SRVC.      DRESSER ATLAS:   SERVICE COMPANY
 DATE.        11-JUL-1986:   LOGDATE
 API .     49025111020000:   API NUMBER
~CURVE INFORMATION
#MNEM.UNIT       API CODE    CURVE DESCRIPTION
#----------   ------------   ------------------------------
 DEPT.F                  :   
 DEN .G/C3   45 350 01 00:   BULK DENSITY
 TEND.LBS    45 635 01 00:   TENSION FROM DENSITY LOG
 CORR.G/C3   45 356 01 00:   DENSITY CORRECTION
 NPHI.DEC    42 890 03 00:   NEUTRON POROSITY SANDSTONE
 SPR .MV     07 010 01 00:   SPONTANEOUS POTENTIAL
 RILM.OHMM   07 120 44 00:   INDUCTION LOG MEDIUM RESISTIVITY
 RILD.OHMM   07 120 46 00:   DEEP INDUCTION RESISTIVITY
 RFOC.OHMM   07 220 04 00:   RESISTIVITY FOCUSED LOG RES.
 TENR.LBS    07 635 01 00:   TENSION FROM RESISTIVITY
 GRR .GAPI   07 310 01 00:   GAMMA RAY FROM RESISTIVITY
 CALR.IN     07 280 01 00:   CALIPER FROM RESISTIVITY
~PARAMETER INFORMATION
#MNEM.UNIT          VALUE    DESCRIPTION
#----------   ------------   ------------------------------
 EKB .F          5074.800:   Kelly bushing
 EGL .F          5063.000:   Ground level
 EDF .F            0.0000:   Drilling floor
 EPD .F            0.0000:   Permanent datum
 TD  .F         3108.0000:   Total depth
 DATE.        11-JUL-1986:   Date logged
 CLNT.            A2DTECH:   Client Code
 SL  . 1796' FWL & 318' FNL:   Surface Location
 PD  .                 GL:   Permanent Datum
 DAPD.F                11:   Feet Above Permanent Datum
 DD  .F              3103:   Depth driller
 DL  .F              3108:   Depth logger
 BLI .F              3106:   Bottom log interval
 CS1 .IN            8.625:   Casing size
 CBD1.      8.625" @ 602':   Casing driller 1
 CBL1.F               596:   Casing logger 1
 BS1 .IN            7.875:   Bit size
 BSD1.F              3103:   Depth drilled with bit1
 DFT .            KCL/GEL:   Type fluid in hole
 DFD .                  9:   Density
 DFV .                 42:   Viscosity
 MSS .           MUD/TANK:   Source of sample
 RMS .OHMM           .352:   Rm
 MST .F                82:   Rm Meas. temp.
 RMF .OHMM           .264:   Rmf
 MFST.F                82:   Rmf Meas. temp.
 RMC .OHMM            .44:   Rmc
 MCST.F                82:   Rmc Meas. temp.
 MFSS.               CALC:   Source Rmf.
 MCSS.               CALC:   Source Rmc.
 RMB .OHMM            .23:   Rm. at BHT
 BHT .F               115:   BHT.
 TCS .HRS               3:   Time Circ. stopped
 MRT .F               115:   Maximum recorded temp.
 LUN .            HL-6264:   Logging unit number
 LUL .           GILLETTE:   Logging unit location
 ENGI.     P. M. FASHSING:   Recorded By
 WITN.             STRONG:   Witnessed by
 ORIG.           5" PRINT:   Origin of data
 UWI .     49025111020000:   Unique Well ID
 DICO. A2D TECHNOLOGIES, INC.:   Digitizing Company
~OTHER INFORMATION
~A   DEPT      DEN       TEND       CORR       NPHI        SPR       RILM       RILD       RFOC       TENR         GRR      CALR   
# ...
  754.5000  -999.2500  -999.2500  -999.2500  -999.2500   -85.6320     4.9690     5.5640     5.7740   -88.9640   104.7500    11.7300
  755.0000  -999.2500  -999.2500  -999.2500  -999.2500   -85.9540     4.9820     5.6010     5.8180   -88.9640   104.3260    11.7360
  755.5000  -999.2500  -999.2500  -999.2500  -999.2500   -86.2730     4.9950     5.6370     5.8610   -88.9640   103.8930    11.7410
  756.0000  -999.2500  -999.2500  -999.2500  -999.2500   -86.3790     5.0080     5.6700     5.9050   -88.9640   103.4470    11.7470
  756.5000  -999.2500  -999.2500  -999.2500  -999.2500   -86.2340     5.0270     5.7000     5.9490   -88.9640   103.0460    11.7530
  757.0000  -999.2500  -999.2500  -999.2500  -999.2500   -86.0900     5.0570     5.7300     5.9800   -88.9640   105.6140    11.7590
  757.5000  -999.2500  -999.2500  -999.2500  -999.2500   -85.9450     5.0860     5.7590     5.9890   -88.9640   108.4700    11.7650
  758.0000  -999.2500  -999.2500  -999.2500  -999.2500   -85.8010     5.1160     5.7890     5.9980   -88.9640   110.2890    11.7690
  758.5000  -999.2500  -999.2500  -999.2500  -999.2500   -85.6570     5.1460     5.8190     6.0060   -88.9640   107.5270    11.7610
  759.0000  -999.2500  -999.2500  -999.2500  -999.2500   -85.5120     5.1760     5.8480     6.0150   -88.9640   104.2630    11.7530
  759.5000  -999.2500  -999.2500  -999.2500  -999.2500   -85.3680     5.2060     5.8780     6.0240   -88.9640   102.8010    11.7450
  760.0000  -999.2500  -999.2500  -999.2500  -999.2500   -85.2240     5.2360     5.9080     6.0320   -88.9640   104.6890    11.7370
  760.5000  -999.2500  -999.2500  -999.2500  -999.2500   -85.0800     5.2930     5.9370     6.0790   -88.9640   106.6550    11.7290
  761.0000  -999.2500  -999.2500  -999.2500  -999.2500   -84.9350     5.3920     5.9670     6.1370   -88.9640   105.8110    11.7220
  761.5000  -999.2500  -999.2500  -999.2500  -999.2500   -84.7910     5.4900     6.0700     6.1960   -88.9640   103.7790    11.7140
  762.0000  -999.2500  -999.2500  -999.2500  -999.2500   -84.6470     5.7500     6.2110     6.2590   -88.9640   101.6980    11.7060
  762.5000  -999.2500  -999.2500  -999.2500  -999.2500   -84.5020     6.0320     6.3520     6.5500   -88.9640    99.5860    11.6980
  763.0000  -999.2500  -999.2500  -999.2500  -999.2500   -84.3570     6.3170     6.4940     6.8660   -88.9640    95.0130    11.6900
  763.5000  -999.2500  -999.2500  -999.2500  -999.2500   -84.2370     6.4810     6.7190     7.1830   -88.9640    91.5400    11.6920
  764.0000  -999.2500  -999.2500  -999.2500  -999.2500   -84.4280     6.6470     7.0020     7.4990   -88.9640    89.7000    11.6950
  764.5000  -999.2500  -999.2500  -999.2500  -999.2500   -84.6280     6.8130     7.2850     7.6760   -88.9640    89.5390    11.6980
  765.0000  -999.2500  -999.2500  -999.2500  -999.2500   -84.8280     6.9000     7.5680     7.6970   -88.9640    89.6220    11.7000
  765.5000  -999.2500  -999.2500  -999.2500  -999.2500   -85.0290     6.9710     7.8760     7.7170   -88.9640    91.5200    11.7030
  766.0000  -999.2500  -999.2500  -999.2500  -999.2500   -85.2310     7.0420     8.3300     7.7370   -88.9640    94.2840    11.7050
  766.5000  -999.2500  -999.2500  -999.2500  -999.2500   -85.1320     7.0850     8.4430     7.7570   -88.9640    96.5230    11.7080
  767.0000  -999.2500  -999.2500  -999.2500  -999.2500   -85.0110     7.1200     8.4880     7.7770   -88.9640    94.1260    11.7100
  767.5000  -999.2500  -999.2500  -999.2500  -999.2500   -84.8910     7.1560     8.5330     7.7980   -88.9640    90.1620    11.7130
  768.0000  -999.2500  -999.2500  -999.2500  -999.2500   -84.7700     7.1950     8.5780     7.8180   -88.9640    89.4520    11.7150
  768.5000  -999.2500  -999.2500  -999.2500  -999.2500   -84.6570     7.2590     8.6230     7.8380   -88.9640    90.9790    11.7180
  769.0000  -999.2500  -999.2500  -999.2500  -999.2500   -84.3940     7.3220     8.6680     7.8580   -88.9640    92.5300    11.7200
  769.5000  -999.2500  -999.2500  -999.2500  -999.2500   -84.2870     7.3860     8.7130     7.8780   -88.9640    91.7640    11.7230
  770.0000  -999.2500  -999.2500  -999.2500  -999.2500   -84.3690     7.4490     8.7580     7.9260   -88.9640    90.1550    11.7250
  770.5000  -999.2500  -999.2500  -999.2500  -999.2500   -84.4040     7.4770     8.8030     7.9780   -88.9640    88.6820    11.7270
  771.0000  -999.2500  -999.2500  -999.2500  -999.2500   -84.2040     7.4990     8.8480     8.0310   -88.9640    89.8890    11.7300
  771.5000  -999.2500  -999.2500  -999.2500  -999.2500   -84.0090     7.5220     8.8930     8.0840   -88.9640    90.6400    11.7320
  772.0000  -999.2500  -999.2500  -999.2500  -999.2500   -83.8250     7.5390     8.9380     8.1370   -88.9640    89.2830    11.7350
  772.5000  -999.2500  -999.2500  -999.2500  -999.2500   -83.7870     7.5560     8.9830     8.1780   -88.9640    87.7270    11.7370
  773.0000  -999.2500  -999.2500  -999.2500  -999.2500   -83.7440     7.5720     9.0280     8.1520   -88.9640    87.5880    11.7400
  773.5000  -999.2500  -999.2500  -999.2500  -999.2500   -83.7010     7.5880     9.0730     8.1310   -88.9640    87.9460    11.7420
  774.0000  -999.2500  -999.2500  -999.2500  -999.2500   -83.6600     7.6220     9.1180     8.1110   -88.9640    89.1900    11.7440
  774.5000  -999.2500  -999.2500  -999.2500  -999.2500   -83.7680     7.6710     9.1630     8.0900   -88.9640    90.5270    11.7470
  775.0000  -999.2500  -999.2500  -999.2500  -999.2500   -84.0660     7.7210     9.2080     8.0690   -88.9640    91.0060    11.7490
  775.5000  -999.2500  -999.2500  -999.2500  -999.2500   -84.3610     7.7700     9.2530     8.0480   -88.9640    90.9920    11.7470
  776.0000  -999.2500  -999.2500  -999.2500  -999.2500   -84.6550     7.8190     9.2980     8.0300   -88.9640    90.1130    11.7420
  776.5000  -999.2500  -999.2500  -999.2500  -999.2500   -84.8410     7.8690     9.3430     8.0970   -88.9640    89.1660    11.7380
  777.0000  -999.2500  -999.2500  -999.2500  -999.2500   -84.8410     7.9180     9.3910     8.1610   -88.9640    88.5830    11.7340
  777.5000  -999.2500  -999.2500  -999.2500  -999.2500   -84.8460     7.9680     9.4950     8.2260   -88.9640    89.5530    11.7450
  778.0000  -999.2500  -999.2500  -999.2500  -999.2500   -84.9920     8.0170     9.6070     8.2900   -88.9640    90.7240    11.7490
  778.5000  -999.2500  -999.2500  -999.2500  -999.2500   -84.7110     8.0660     9.7190     8.3540   -88.9640    91.1590    11.7480
  779.0000  -999.2500  -999.2500  -999.2500  -999.2500   -84.4480     8.1030     9.8300     8.4190   -92.6490    91.5970    11.7460
  779.5000  -999.2500  -999.2500  -999.2500  -999.2500   -84.1900     8.0360     9.9420     8.4830  -100.7230    92.0300    11.7450
  780.0000  -999.2500  -999.2500  -999.2500  -999.2500   -83.9300     7.9730    10.0170     8.5640  -108.7960    91.8530    11.7440
  780.5000  -999.2500  -999.2500  -999.2500  -999.2500   -83.6730     7.9100     9.9420     8.5230  -116.8690    90.0220    11.7430
  781.0000  -999.2500  -999.2500  -999.2500  -999.2500   -83.5360     7.8480     9.8060     8.4490  -124.9420    89.9250    11.7420
  781.5000  -999.2500  -999.2500  -999.2500  -999.2500   -83.4210     7.7850     9.6700     8.3510  -122.7820    92.7080    11.7400
  782.0000  -999.2500  -999.2500  -999.2500  -999.2500   -83.3060     7.7220     9.5350     8.2200  -114.3720    95.4800    11.7390
  782.5000  -999.2500  -999.2500  -999.2500  -999.2500   -83.1910     7.6600     9.3990     8.1000  -105.9620    98.0250    11.7380
  783.0000  -999.2500  -999.2500  -999.2500  -999.2500   -83.0740     7.5970     9.2640     8.0730   -98.6980    94.7820    11.7370
  783.5000  -999.2500  -999.2500  -999.2500  -999.2500   -83.0320     7.5340     9.1280     8.0450   -98.5120    92.1170    11.7360
  784.0000  -999.2500  -999.2500  -999.2500  -999.2500   -83.0310     7.4720     8.9920     8.0180   -98.3270    89.4380    11.7350
  784.5000  -999.2500  -999.2500  -999.2500  -999.2500   -83.0340     7.4090     8.9520     7.9910   -98.1420    86.7310    11.7330
