~VERSION INFORMATION
 VERS.                2.0:   CWLS LOG ASCII STANDARD - VERSION 2.0
 WRAP.                 NO:   ONE LINE PER DEPTH STEP
~WELL INFORMATION
#MNEM.UNIT      DATA TYPE    INFORMATION
#----------   ------------   ------------------------------
 STRT.F           60.0000:   START DEPTH
 STOP.F         3178.0000:   STOP DEPTH
 STEP.F            0.5000:   STEP LENGTH
 NULL.          -999.2500:   NO VALUE
 COMP. LAWRENCE-ALLISON & ASSOSCIATES:   COMPANY
 WELL. LAWRENCE "AX" #46-21:   WELL
 FLD .             NPR #3:   FIELD
 LOC .      S21 T39N R78W:   LOCATION
 CNTY.            NATRONA:   COUNTY
 STAT.            WYOMING:   STATE
 CTRY. UNITED STATES OF AMERICA:   COUNTRY
 SRVC.       SCHLUMBERGER:   SERVICE COMPANY
 DATE.        03-JUN-1982:   LOGDATE
 API .     49025108890000:   API NUMBER
~CURVE INFORMATION
#MNEM.UNIT       API CODE    CURVE DESCRIPTION
#----------   ------------   ------------------------------
 DEPT.F                  :   
 TEND.LBS    45 635 01 00:   TENSION FORM DENSITY LOG
 CALD.IN     45 280 60 00:   CALIPER FROM DENSITY LOG
 CORR.G/C3   45 356 01 00:   DENSITY CORRECTION
 RHOB.G/C3   45 350 01 00:   BULK DENSITY
 NPHI.DEC    42 890 03 00:   NEUTRON POROSITY SANDSTONE
 GRR .GAPI   07 310 01 00:   GAMMA RAY FROM RESISTIVITY
 SPR .MV     07 010 01 00:   SPONTANEOUS POTENTIAL
 SFL .OHMM   07 220 01 00:   SHALLOW FOCUSED LOG RESISTIVITY
 ILD .OHMM   07 120 46 00:   DEEP INDUCTION RESISTIVITY
 ILM .OHMM   07 120 44 00:   INDUCTION LOG MEDIUM RESISTIVITY
 TENR.LBS    07 635 01 00:   TENSION FROM RESISTIVITY
~PARAMETER INFORMATION
#MNEM.UNIT          VALUE    DESCRIPTION
#----------   ------------   ------------------------------
 EKB .F         5008.0000:   Kelly bushing
 EGL .F         4998.0000:   Ground level
 EDF .F         5007.0000:   Drilling floor
 TD  .F         3230.0000:   Total depth
 CLNT.            A2DTECH:   Client Code
 SL  . 1864' FSL & 2484' FWL:   Surface Location
 PD  .                 GL:   Permanent Datum
 EPD .F              4998:   Elevation Permanent Datum
 LMF .                 KB:   Log Measured From
 DMF .                 KB:   Drilling Measured From
 DAPD.F                10:   Feet Above Permanent Datum
 DATE.        03-JUN-1982:   Date Logged [DD-MMM-YYYY]
 DD  .F              3230:   Depth driller
 DL  .F              3200:   Depth logger
 BLI .F              3190:   Bottom log interval
 TLI .F               475:   Top log interval
 CS1 .IN            9.625:   Casing size
 CBD1.      9.625" @ 465':   Casing driller 1
 CBL1.F               475:   Casing logger 1
 BS1 .IN             8.75:   Bit size
 BSD1.F              3230:   Depth drilled with bit1
 DFT .   FORM WATER / AIR:   Type fluid in hole
 TCS .HRS            1530:   Time Circ. stopped
 TLAB.HRS            1900:   Time logger at bottom
 MRT .F               135:   Maximum recorded temp.
 LUN .               8035:   Logging unit number
 LUL .               CSPR:   Logging unit location
 ENGI.              PENNY:   Recorded By
 WITN.           JENNINGS:   Witnessed by
 ORIG.      2.5" 5" PRINT:   Origin of data
 UWI .     49025108890000:   Unique Well ID
 DICO. A2D TECHNOLOGIES, INC.:   Digitizing Company
~OTHER INFORMATION
~A   DEPT     TEND       CALD       CORR       RHOB       NPHI        GRR        SPR        SFL        ILD        ILM       TENR   
# ...
  487.0000  1215.3804    10.0712     0.0205     2.4142  -999.2500   176.1363  -999.2500  -999.2500     7.9797     8.5829  1194.8743
  487.5000  1229.4165    10.0873     0.0147     2.4015  -999.2500   173.7147  -999.2500  -999.2500     8.2683     8.5853  1194.3907
  488.0000  1228.6874    10.1181     0.0020     2.3768  -999.2500   173.2727  -999.2500  -999.2500     8.6444     8.8315  1193.9071
  488.5000  1213.0045    10.1341    -0.0017     2.3745  -999.2500   172.8333  -999.2500  -999.2500     9.0059     9.0842  1193.4236
  489.0000  1212.2571    10.1353     0.0029     2.3851  -999.2500   171.0309  -999.2500  -999.2500     9.2615     9.2143  1223.2430
  489.5000  1211.3700    10.1365     0.0067     2.3934  -999.2500   169.2122  -999.2500  -999.2500     9.2615     9.3463  1192.4242
  490.0000  1195.6931    10.1378     0.0045     2.3935  -999.2500   167.8780  -999.2500  -999.2500     9.2615     9.3484  1191.9192
  490.5000  1180.0162    10.1393     0.0038     2.3943  -999.2500   172.6515  -999.2500  -999.2500     9.2615     9.2205  1191.4142
  491.0000  1179.2871    10.1405     0.0101     2.3996  -999.2500   179.6818  -999.2500  -999.2500     9.2615     9.2227  1190.9091
  491.5000  1178.5580    10.1418     0.0183     2.4071  -999.2500   181.7399  -999.2500  -999.2500     9.2615     9.2249  1190.4039
  492.0000  1177.8289    10.1430     0.0229     2.4177  -999.2500   182.4848  -999.2500  -999.2500     9.2615     9.2270  1189.8989
  492.5000  1207.0254    10.1590     0.0305     2.4215  -999.2500   183.4121  -999.2500  -999.2500     9.2615     9.2292  1189.3134
  493.0000  1221.2256    10.1750     0.0185     2.4147  -999.2500   184.3357  -999.2500  -999.2500     9.3921     9.2318  1188.8298
  493.5000  1220.4783    10.1910     0.0118     2.4048  -999.2500   185.2592  -999.2500  -999.2500     9.3921     9.3640  1188.3462
  494.0000  1219.7310    10.2071     0.0089     2.3999  -999.2500   188.0010  -999.2500  -999.2500     9.5245     9.3660  1187.8627
  494.5000  1218.8438    10.2234     0.0203     2.4270  -999.2500   189.8336  -999.2500  -999.2500     9.5245     9.3681  1187.3738
  495.0000  1218.1146    10.2095     0.0489     2.4548  -999.2500   191.2373  -999.2500  -999.2500     9.6587     9.5023  1186.8687
  495.5000  1217.3855    10.3294     0.0694     2.4639  -999.2500   192.2046  -999.2500  -999.2500     9.7949     9.5045  1186.3636
  496.0000  1201.7086    10.4785     0.0762     2.4662  -999.2500   193.1717  -999.2500  -999.2500     9.7949     9.6407  1185.8586
  496.5000  1200.9795    10.5389     0.0650     2.4512  -999.2500   193.9824  -999.2500  -999.2500     9.9330     9.6430  1185.3535
  497.0000  1170.3550    10.5698     0.0515     2.4325  -999.2500   191.8484  -999.2500  -999.2500     9.9330     9.6996  1184.8485
  497.5000  1169.6259    10.6018     0.0418     2.4212  -999.2500   187.6011  -999.2500  -999.2500    10.0730     9.7835  1184.3435
  498.0000  1168.8966    10.6317     0.0343     2.4184  -999.2500   184.9421  -999.2500  -999.2500    10.0730     9.9241  1183.7524
  498.5000  1168.1675    10.6178     0.0306     2.4124  -999.2500   185.4111  -999.2500  -999.2500    10.2150    10.0663  1213.6364
  499.0000  1182.3860    10.6193     0.0246     2.4042  -999.2500   186.3347  -999.2500  -999.2500    10.2853    10.2104  1213.0883
  499.5000  1196.6046    10.6354     0.0165     2.3990  -999.2500   186.3492  -999.2500  -999.2500    10.3589    10.3566  1242.9078
  500.0000  1225.5885    10.6836     0.0098     2.4017  -999.2500   183.6364  -999.2500  -999.2500    10.5050    10.5050  1242.4243
  500.5000  1245.3369    10.6854     0.0174     2.4123  -999.2500   178.8484  -999.2500  -999.2500    10.5050    10.6706  1241.2047
  501.0000  1270.4539    10.6871     0.0243     2.4251  -999.2500   173.6059  -999.2500  -999.2500    10.6885    10.8083  1223.9049
  501.5000  1296.4982    10.6740     0.0311     2.4343  -999.2500   169.9167  -999.2500  -999.2500    10.7763    10.9632  1211.6390
  502.0000  1279.9044    10.6610     0.0319     2.4388  -999.2500   169.0286  -999.2500  -999.2500    10.8641    10.9657  1211.4944
  502.5000  1278.5876    10.6333     0.0267     2.4359  -999.2500   168.3623  -999.2500  -999.2500    10.9519    10.9683  1211.3497
  503.0000  1277.4290    10.6351     0.0222     2.4300  -999.2500   167.6606  -999.2500  -999.2500    11.0397    11.1638  1241.5150
  503.5000  1275.9542    10.6220     0.0186     2.4263  -999.2500   166.4257  -999.2500  -999.2500    11.1276    11.2525  1241.3635
  504.0000  1289.9144    10.6089     0.0157     2.4309  -999.2500   171.3152  -999.2500  -999.2500    11.2154    11.3412  1271.5220
  504.5000  1303.2161    10.5959     0.0293     2.4408  -999.2500   176.1121  -999.2500  -999.2500    11.2949    11.4216  1271.3636
  505.0000  1316.8469    10.5686     0.0339     2.4498  -999.2500   172.8196  -999.2500  -999.2500    11.3459    11.4730  1279.7982
  505.5000  1315.5455    10.5408     0.0249     2.4424  -999.2500   168.2828  -999.2500  -999.2500    11.5246    11.6534  1301.3910
  506.0000  1306.4281    10.5278     0.0003     2.4313  -999.2500   167.3212  -999.2500  -999.2500    11.6254    11.7550  1315.5558
  506.5000  1282.9596    10.4985     0.0012     2.4261  -999.2500   170.1183  -999.2500  -999.2500    11.6293    11.7589  1331.3636
  507.0000  1266.4077    10.4724     0.0073     2.4269  -999.2500   171.4906  -999.2500  -999.2500    11.6324    11.7621  1331.1879
  507.5000  1250.1433    10.4598     0.0157     2.4300  -999.2500   169.9848  -999.2500  -999.2500    11.6355    11.7652  1331.0432
  508.0000  1264.1034    10.4463     0.0240     2.4294  -999.2500   168.3261  -999.2500  -999.2500    11.6386    11.7683  1330.8986
  508.5000  1277.7344    10.4333     0.0234     2.4238  -999.2500   168.3364  -999.2500  -999.2500    11.6417    11.7715  1300.4508
  509.0000  1291.0360    10.4203     0.0196     2.4115  -999.2500   168.3455  -999.2500  -999.2500    11.6449    11.7747  1298.9894
  509.5000  1289.8356    10.4224     0.0123     2.4071  -999.2500   168.6121  -999.2500  -999.2500    11.6482    11.7780  1239.5454
  510.0000  1283.0094    10.4094     0.0124     2.4080  -999.2500   168.3636  -999.2500  -999.2500    11.6514    11.7813  1232.3219
  510.5000  1265.3960    10.4115     0.0124     2.4088  -999.2500   168.3737  -999.2500  -999.2500    11.6547    11.7846  1208.9395
  511.0000  1240.9259    10.4132     0.0125     2.4096  -999.2500   168.3824  -999.2500  -999.2500    11.6580    11.7879  1178.4849
  511.5000  1224.6614    10.4297     0.0186     2.4128  -999.2500   167.9364  -999.2500  -999.2500    11.6612    11.7912  1178.3334
  512.0000  1208.3970    10.4314     0.0286     2.4339  -999.2500   167.0061  -999.2500  -999.2500    11.8295    11.9609  1208.4569
  512.5000  1236.9757    10.4331     0.0373     2.4572  -999.2500   166.0605  -999.2500  -999.2500    11.9994    12.1324  1208.3123
  513.0000  1235.6589    10.4348     0.0460     2.4641  -999.2500   165.1152  -999.2500  -999.2500    12.0026    12.1356  1238.4847
  513.5000  1249.2898    10.4365     0.0476     2.4596  -999.2500   164.7893  -999.2500  -999.2500    12.1751    12.3096  1238.3259
  514.0000  1247.6439    10.4383     0.0364     2.4447  -999.2500   164.8000  -999.2500  -999.2500    12.3500    12.4861  1238.1813
  514.5000  1246.4873    10.4404     0.0267     2.4275  -999.2500   164.5516  -999.2500  -999.2500    12.5276    12.6653  1238.0303
  515.0000  1249.6238    10.4421     0.0178     2.4246  -999.2500   163.4560  -999.2500  -999.2500    12.5723    12.7104  1243.4355
  515.5000  1258.7445    10.4438     0.0194     2.4322  -999.2500   162.5556  -999.2500  -999.2500    12.7113    12.8506  1268.0504
  516.0000  1272.6014    10.4455     0.0247     2.4353  -999.2500   161.6551  -999.2500  -999.2500    12.8941    13.0350  1279.1940
  516.5000  1300.8970    10.4472     0.0286     2.4369  -999.2500   161.2091  -999.2500  -999.2500    13.0795    13.2220  1298.0303
  517.0000  1306.8259    10.4489     0.0302     2.4363  -999.2500   160.3088  -999.2500  -999.2500    13.0839    13.2264  1297.8788
