~VERSION INFORMATION
 VERS.                2.0:   CWLS LOG ASCII STANDARD - VERSION 2.0
 WRAP.                 NO:   ONE LINE PER DEPTH STEP
~WELL INFORMATION
#MNEM.UNIT      DATA TYPE    INFORMATION
#----------   ------------   ------------------------------
 STRT.F          176.5000:   START DEPTH
 STOP.F         3010.0000:   STOP DEPTH
 STEP.F            0.5000:   STEP LENGTH
 NULL.          -999.2500:   NO VALUE
 COMP.    FENIX & SCISSON:   COMPANY
 WELL.   FENIX "A" #36-28:   WELL
 FLD .              NPR 3:   FIELD
 LOC .      S28 T39N R78W:   LOCATION
 CNTY.            NATRONA:   COUNTY
 STAT.            WYOMING:   STATE
 CTRY. UNITED STATES OF AMERICA:   COUNTRY
 SRVC.       SCHLUMBERGER:   SERVICE COMPANY
 DATE.        19-AUG-1977:   LOGDATE
 API .     49025104150000:   API NUMBER
~CURVE INFORMATION
#MNEM.UNIT       API CODE    CURVE DESCRIPTION
#----------   ------------   ------------------------------
 DEPT.F                  :   
 SPR .MV     07 010 01 00:   SPONTANEOUS POTENTIAL
 ILM .OHMM   07 120 44 00:   INDUCTION LOG MEDIUM RESISTIVITY
 ILD .OHMM   07 120 46 00:   INDUCTION LOG DEEP RESISTIVITY
 LL8 .OHMM   07 220 08 00:   LATEROLOG-8 RESISTIVITY
 GRD .GAPI   45 310 01 00:   GAMMA RAY FROM DENSITY LOG
 CALD.IN     45 280 60 00:   CALIPER FROM DENSITY LOG
 RHOB.G/C3   45 350 01 00:   BULK DENSITY
 DCOR.G/C3   45 356 01 00:   DENSITY CORRECTION
~PARAMETER INFORMATION
#MNEM.UNIT          VALUE    DESCRIPTION
#----------   ------------   ------------------------------
 EKB .F         5107.0000:   Kelly bushing
 EGL .F         5097.0000:   Ground level
 EDF .F            0.0000:   Drilling floor
 TD  .F         3012.0000:   Total depth
 DATE.        19-AUG-1977:   Date logged
 CLNT.            A2DTECH:   Client Code
 SL  . 1650' FSL & 1650' FWL:   Surface Location
 PD  .                 GL:   Permanent Datum
 EPD .F              5097:   Elevation Permanent Datum
 LMF .                 KB:   Log Measured From
 DMF .                 KB:   Drilling Measured From
 DAPD.F                10:   Feet Above Permanent Datum
 DD  .F              3010:   Depth driller
 DL  .F              3011:   Depth logger
 BLI .F              3005:   Bottom log interval
 TLI .F               215:   Top log interval
 CS1 .IN            8.625:   Casing size
 CBD1.      8.625" @ 205':   Casing driller 1
 CBL1.F               215:   Casing logger 1
 BS1 .IN            7.875:   Bit size
 BSD1.F              3010:   Depth drilled with bit1
 DFT .                FGM:   Type fluid in hole
 DFD .                8.8:   Density
 DFV .                 33:   Viscosity
 DFPH.               10.5:   pH
 DFL .               10.6:   Fluid loss
 MSS .            MUD PIT:   Source of sample
 RMS .OHMM            .19:   Rm
 MST .F                76:   Rm Meas. temp.
 RMF .OHMM            .17:   Rmf
 MFST.F                78:   Rmf Meas. temp.
 MFSS.               MEAS:   Source Rmf.
 RMB .OHMM            .13:   Rm. at BHT
 BHT .F               112:   BHT.
 TCS .HRS            0700:   Time Circ. stopped
 TLAB.HRS            1400:   Time logger at bottom
 MRT .F               112:   Maximum recorded temp.
 LUN .               5642:   Logging unit number
 ENGI.          CHALUPSKY:   Recorded By
 WITN.     WES PETTINGILL:   Witnessed by
 ORIG.           5" PRINT:   Origin of data
 UWI .     49025104150000:   Unique Well ID
 DICO. A2D TECHNOLOGIES, INC.:   Digitizing Company
 LUL .               CSPR:   Logging unit location
~OTHER INFORMATION
~A   DEPT      SPR        ILM        ILD        LL8        GRD       CALD       RHOB       DCOR   
# ...
 2242.0000   -26.5140     3.9810     3.7890     5.6890   142.4260     8.4760     2.4520     0.0440
 2242.5000   -26.5900     4.1030     3.9090     5.2920   140.1670     8.4900     2.4420     0.0360
 2243.0000   -26.6540     4.2250     4.0280     4.8940   142.4810     8.5030     2.4520     0.0510
 2243.5000   -26.4440     4.3480     4.1480     4.6910   144.1810     8.5170     2.4700     0.0570
 2244.0000   -26.2260     4.4700     4.2680     4.9960   145.2360     8.5300     2.4710     0.0460
 2244.5000   -26.0100     4.5830     4.3700     5.2950   143.5550     8.5440     2.4670     0.0380
 2245.0000   -25.7960     4.6660     4.4170     5.5820   141.3850     8.5570     2.4700     0.0340
 2245.5000   -25.7840     4.7770     4.4810     5.6910   138.2010     8.5710     2.4830     0.0410
 2246.0000   -26.0330     4.7740     4.4740     5.7910   135.0350     8.5790     2.4680     0.0300
 2246.5000   -25.9680     4.7690     4.4630     5.6940   133.5050     8.5810     2.4770     0.0440
 2247.0000   -25.8510     4.7640     4.4510     5.6030   134.0010     8.5830     2.4890     0.0510
 2247.5000   -25.7330     4.7590     4.4400     5.4810   135.2370     8.5850     2.4720     0.0340
 2248.0000   -25.4830     4.7540     4.4290     5.5890   136.4970     8.5870     2.4820     0.0480
 2248.5000   -25.0850     4.7490     4.4180     5.8170   136.0010     8.5890     2.4950     0.0440
 2249.0000   -24.7370     4.7440     4.4070     5.6510   133.9640     8.5920     2.5080     0.0550
 2249.5000   -24.4420     4.7380     4.3990     5.4320   131.5600     8.5940     2.4980     0.0680
 2250.0000   -24.1480     4.7340     4.4770     5.2360   132.9780     8.5960     2.4860     0.0760
 2250.5000   -23.8710     4.8190     4.5370     5.4850   134.8730     8.5980     2.4740     0.0460
 2251.0000   -23.7270     4.8970     4.5970     5.7020   136.7690     8.6000     2.4610     0.0610
 2251.5000   -23.5850     4.9750     4.6570     5.8440   138.6670     8.6020     2.4490     0.0400
 2252.0000   -23.6380     5.0530     4.7170     5.6640   139.5830     8.6040     2.4360     0.0260
 2252.5000   -24.0600     5.1300     4.7770     5.6340   138.2920     8.6060     2.4240     0.0340
 2253.0000   -24.4770     5.2080     4.8370     6.0640   136.8200     8.6080     2.4340     0.0400
 2253.5000   -24.8670     5.2840     4.8970     6.2880   136.0940     8.6100     2.4470     0.0450
 2254.0000   -24.8060     5.2250     4.9570     6.1310   135.6520     8.6120     2.4590     0.0350
 2254.5000   -24.7300     5.1690     5.0010     5.9520   136.5100     8.6140     2.4670     0.0440
 2255.0000   -24.6550     5.1120     4.8220     6.0360   138.1540     8.6160     2.4490     0.0540
 2255.5000   -24.5820     5.0540     4.6350     6.1740   139.5720     8.6180     2.4350     0.0370
 2256.0000   -24.5080     4.9950     4.4270     6.1740   137.4620     8.6210     2.4260     0.0230
 2256.5000   -24.4340     4.8720     4.2190     5.5690   134.1260     8.6240     2.4650     0.0410
 2257.0000   -24.3620     4.6180     4.0120     5.0250   133.0030     8.6270     2.4330     0.0490
 2257.5000   -24.2780     4.3630     3.8040     4.3590   136.2930     8.6300     2.4470     0.0290
 2258.0000   -23.8980     4.1090     3.5960     4.4900   138.8700     8.6330     2.4190     0.0430
 2258.5000   -23.4780     3.8550     3.3880     4.6910   141.4780     8.6360     2.4310     0.0250
 2259.0000   -22.4750     3.6000     3.1810     4.6480   144.3810     8.6390     2.4550     0.0390
 2259.5000   -20.9150     3.3460     3.0090     4.2460   148.2260     8.6420     2.4780     0.0540
 2260.0000   -19.8680     3.1060     2.9510     3.7990   150.4200     8.6450     2.4540     0.0640
 2260.5000   -19.0490     3.0740     2.8940     3.3530   152.3320     8.6480     2.4260     0.0510
 2261.0000   -18.8030     3.0430     2.8440     2.9060   150.6120     8.6510     2.4160     0.0430
 2261.5000   -18.7380     3.0220     2.7950     3.3710   149.5380     8.6540     2.4130     0.0540
 2262.0000   -19.0000     3.0860     2.7330     3.9780   151.4000     8.6570     2.4220     0.0400
 2262.5000   -19.5030     3.1350     2.7800     4.1640   148.9890     8.6600     2.4450     0.0190
 2263.0000   -20.0060     3.1840     2.8540     3.9880   146.4920     8.6630     2.4690     0.0350
 2263.5000   -20.6400     3.2330     2.9740     3.8560   145.1320     8.6660     2.4630     0.0520
 2264.0000   -21.7990     3.2820     3.0220     3.7250   146.3370     8.6690     2.4560     0.0670
 2264.5000   -24.2150     3.2220     3.0220     3.5970   147.4570     8.6720     2.4520     0.0610
 2265.0000   -26.2160     3.2520     3.0220     4.0170   146.1340     8.6750     2.4570     0.0520
 2265.5000   -28.0250     3.2810     3.0220     4.1080   145.4640     8.6760     2.4500     0.0420
 2266.0000   -28.2930     3.3100     3.0600     3.9830   148.6140     8.6740     2.4410     0.0400
 2266.5000   -28.4240     3.3390     3.1040     3.8170   152.1590     8.6720     2.4370     0.0440
 2267.0000   -28.3100     3.3680     3.1350     3.9220   150.9820     8.6700     2.4360     0.0300
 2267.5000   -28.2050     3.4040     3.0420     4.0140   148.8110     8.6690     2.4330     0.0330
 2268.0000   -28.0990     3.3950     2.9950     3.9280   144.4720     8.6670     2.4190     0.0230
 2268.5000   -28.1460     3.3830     3.0530     3.8350   138.5700     8.6650     2.4200     0.0190
 2269.0000   -28.3130     3.3710     3.1060     3.8840   133.8330     8.6630     2.4240     0.0310
 2269.5000   -28.4820     3.3590     3.0840     3.9700   136.1430     8.6610     2.4280     0.0420
 2270.0000   -28.6370     3.3440     3.0500     4.0780   139.2480     8.6590     2.4410     0.0390
 2270.5000   -28.5100     3.3520     3.0820     3.9850   142.3810     8.6570     2.4560     0.0390
 2271.0000   -28.3740     3.3680     3.1210     3.8210   144.0110     8.6580     2.4660     0.0570
 2271.5000   -28.2390     3.3840     3.1610     3.7650   140.8730     8.6600     2.4520     0.0460
 2272.0000   -28.1040     3.4000     3.2000     3.9180   138.3820     8.6620     2.4370     0.0270
 2272.5000   -27.9700     3.4770     3.2390     4.0890   136.4420     8.6640     2.4540     0.0420
 2273.0000   -27.8960     3.5810     3.2780     3.9260   137.1670     8.6660     2.4660     0.0490
 2273.5000   -28.2330     3.6860     3.3370     3.8150   138.9770     8.6680     2.4480     0.0320
 2274.0000   -28.7720     3.8350     3.3130     4.5770   141.4270     8.6700     2.4390     0.0410
 2274.5000   -29.7050     3.7590     3.2320     5.1880   139.7010     8.6720     2.4770     0.0570
 2275.0000   -30.6210     3.6110     3.1500     4.9580   136.6590     8.6740     2.5200     0.0730
 2275.5000   -31.3010     3.4590     3.0690     4.5360   133.8410     8.6760     2.5090     0.0580
 2276.0000   -31.9780     3.3070     2.8870     3.9920   137.3720     8.6790     2.4890     0.0890
 2276.5000   -32.3180     3.1870     2.8090     3.4480   142.0080     8.6830     2.4680     0.0750
 2277.0000   -32.4950     3.1090     2.7340     2.9670   146.6770     8.6870     2.4480     0.0630
 2277.5000   -32.8400     3.0310     2.6590     3.1600   148.2030     8.6900     2.4290     0.0490
 2278.0000   -33.7580     2.9750     2.5840     3.6390   145.7040     8.6940     2.4500     0.0420
 2278.5000   -33.9150     2.9220     2.5630     3.9060   143.3370     8.6980     2.4710     0.0580
 2279.0000   -33.3870     2.8690     2.5630     3.5270   146.5210     8.7020     2.4490     0.0480
 2279.5000   -32.8600     2.8420     2.6160     3.0220   149.9200     8.7050     2.4220     0.0410
 2280.0000   -32.3260     2.9270     2.7120     3.2750   153.6760     8.7090     2.4420     0.0510
 2280.5000   -32.0800     2.9960     2.7920     3.8000   151.6780     8.7130     2.4360     0.0420
 2281.0000   -32.1990     3.0830     2.8670     3.7930   146.6050     8.7160     2.4280     0.0340
 2281.5000   -32.5110     3.2390     2.9400     3.7650   149.3260     8.7200     2.4500     0.0480
 2282.0000   -32.1630     3.3950     3.1300     3.8360   146.7720     8.7240     2.4690     0.0580
