~VERSION INFORMATION
 VERS.                2.0:   CWLS LOG ASCII STANDARD - VERSION 2.0
 WRAP.                 NO:   ONE LINE PER DEPTH STEP
~WELL INFORMATION
#MNEM.UNIT      DATA TYPE    INFORMATION
#----------   ------------   ------------------------------
 STRT.F           61.5000:   START DEPTH
 STOP.F         4220.0000:   STOP DEPTH
 STEP.F            0.5000:   STEP LENGTH
 NULL.          -999.2500:   NO VALUE
 COMP.   LAWRENCE ALLISON:   COMPANY
 WELL. ALLISON NPR 3 "LX" #28-34:   WELL
 FLD .                NPR:   FIELD
 LOC .      S34 T39N R78W:   LOCATION
 CNTY.            NATRONA:   COUNTY
 STAT.            WYOMING:   STATE
 CTRY. UNITED STATES OF AMERICA:   COUNTRY
 SRVC.       DRESER ATLAS:   SERVICE COMPANY
 DATE.        23-MAR-1983:   LOGDATE
 API .     49025109190000:   API NUMBER
~CURVE INFORMATION
#MNEM.UNIT       API CODE    CURVE DESCRIPTION
#----------   ------------   ------------------------------
 DEPT.F                  :   
 TEND.LBS    45 635 01 00:   TENSION FROM DENSITY LOG
 CORR.G/C3   45 356 01 00:   DENSITY CORRECTION
 RHOB.G/C3   45 350 01 00:   BULK DENSITY
 CN  .DEC    42 890 00 00:   Neutron Porosity
 SPR .MV     07 010 01 00:   SPONTANEOUS POTENTIAL
 GRR .GAPI   07 310 01 00:   GAMMA RAY FROM RESISTIVITY
 TENR.LBS    07 635 01 00:   TENSION FROM RESISTIVITY
 RILD.OHMM   07 120 46 00:   DEEP INDUCTION RESISTIVITY
 RILM.OHMM   07 120 44 00:   INDUCTION LOG MEDIUM RESISTIVITY
 RFOC.OHMM   07 220 01 00:   RESISTIVITY FOCUSED LOG RES.
 TENS.LBS    60 635 01 00:   TENSION FROM SONIC LOG
 DT  .US/F   60 520 00 00:   DELTA TIME
 CALS.IN     60 280 50 00:   CALIPER FROM SONIC LOG
~PARAMETER INFORMATION
#MNEM.UNIT          VALUE    DESCRIPTION
#----------   ------------   ------------------------------
 EKB .F         5184.0000:   Kelly bushing
 EGL .F         5174.0000:   Ground level
 EDF .F            0.0000:   Drilling floor
 TD  .F         4397.0000:   Total depth
 DATE.        23-MAR-1983:   Date logged
 CLNT.            A2DTECH:   Client Code
 SL  . 942' FWL & 645' FSL:   Surface Location
 PD  .                 GL:   Permanent Datum
 EPD .F              5174:   Elevation Permanent Datum
 LMF .                 KB:   Log Measured From
 DMF .                 KB:   Drilling Measured From
 DAPD.F                10:   Feet Above Permanent Datum
 DD  .F              4397:   Depth driller
 DL  .F              4203:   Depth logger
 BLI .F              4201:   Bottom log interval
 CS1 .IN            9.625:   Casing size
 CBD1.      9.625" @ 659':   Casing driller 1
 CBL1.F               658:   Casing logger 1
 BS1 .IN             8.75:   Bit size
 BSD1.F              4397:   Depth drilled with bit1
 DFT .   GEL/DRISPACK/KCL:   Type fluid in hole
 DFD .                8.6:   Density
 DFV .                 36:   Viscosity
 DFPH.                8.5:   pH
 DFL .                 18:   Fluid loss
 MSS .               TANK:   Source of sample
 RMS .OHMM           0.55:   Rm
 MST .F                74:   Rm Meas. temp.
 RMF .OHMM           0.43:   Rmf
 MFST.F                66:   Rmf Meas. temp.
 RMC .OHMM           0.69:   Rmc
 MCST.F                74:   Rmc Meas. temp.
 MFSS.               MEAS:   Source Rmf.
 MCSS.               CALC:   Source Rmc.
 RMB .OHMM           0.33:   Rm. at BHT
 BHT .F               122:   BHT.
 TCS .HRS             5.5:   Time Circ. stopped
 MRT .F               122:   Maximum recorded temp.
 LUN .               6270:   Logging unit number
 LUL .              WLSTN:   Logging unit location
 ENGI.             REEVES:   Recorded By
 WITN.             STRONG:   Witnessed by
 ORIG.           5" PRINT:   Origin of data
 UWI .     49025109190000:   Unique Well ID
 DICO. A2D TECHNOLOGIES, INC.:   Digitizing Company
~OTHER INFORMATION
~A   DEPT     TEND       CORR       RHOB         CN        SPR         GRR      TENR       RILD       RILM       RFOC       TENS         DT       CALS   
# ...
 2765.5000   -36.1330     0.0340     2.4880     0.1900   -55.5540    95.2310   -72.1880    11.5600    12.1130    13.5740   -69.9130    73.2480    13.6380
 2766.0000   -36.8350     0.0440     2.4870     0.1920   -55.7520    96.0240   -70.6040    11.4960    12.1440    13.0290   -61.5130    72.6310    13.6800
 2766.5000   -37.5360     0.0290     2.4800     0.1910   -55.5790    95.9240   -69.0190    11.5990    12.1670    11.7100   -54.2170    72.7430    13.7170
 2767.0000   -38.2380     0.0210     2.4740     0.1870   -55.2860    94.4560   -67.4350    11.6860    12.2070    12.1270   -72.6910    72.9550    13.7560
 2767.5000   -38.9390     0.0100     2.4740     0.1810   -54.9930    92.5630   -65.8500    11.7730    12.2480    12.8210   -80.4650    73.1670    13.7970
 2768.0000   -39.6400     0.0010     2.4740     0.1860   -54.7070    95.7020   -61.5300    11.8610    12.2890    13.0820   -73.2640    73.3800    13.8210
 2768.5000   -40.3420     0.0100     2.4780     0.1910   -54.4160    98.9900   -48.0090    11.9480    12.3300    13.0820   -66.0640    73.5920    13.7980
 2769.0000   -41.0430     0.0220     2.4860     0.1930   -54.1270    98.2770   -34.4890    12.0350    12.3770    12.8310   -51.6730    73.8040    13.7770
 2769.5000   -41.7450     0.0320     2.5010     0.1770   -53.8380    98.2850   -20.9690    12.1220    12.7330    12.3770   -34.8730    74.0160    13.7530
 2770.0000   -42.4460     0.0420     2.5150     0.1610   -53.5480    95.8940    -7.4480    12.1510    13.1480    12.8860   -18.0720    74.2370    13.7380
 2770.5000   -43.1470     0.0380     2.5290     0.1540   -53.2480    92.2110     6.0720    12.3260    13.5640    14.7260    -4.0160    73.7410    13.7380
 2771.0000   -43.8490     0.0310     2.5300     0.1630   -52.9370    88.7140    14.0080    12.6860    13.9790    16.5660    -4.0160    72.8310    13.7350
 2771.5000   -44.5890     0.0280     2.5110     0.1740   -52.6260    89.6920     8.9380    13.0460    14.3460    18.9230     4.1160    71.2700    13.7330
 2772.0000   -42.6140     0.0240     2.4910     0.1850   -52.3140    92.7750    -4.7600    13.5740    13.7720    18.2370   -20.7580    69.6180    13.7320
 2772.5000   -39.0070     0.0080     2.4770     0.1970   -52.0030    97.0080   -36.4480    13.4540    13.2570    16.3200   -55.4090    69.2490    13.7300
 2773.0000   -35.3990    -0.0090     2.4650     0.2030   -51.6920    99.7820   -68.1360    13.2290    12.7420    14.2560   -90.0600    69.8190    13.7280
 2773.5000   -34.5690    -0.0310     2.4570     0.2080   -51.3790   102.2300   -94.6890    13.0050    12.2270    12.1920   -88.0190    71.8030    13.7260
 2774.0000   -34.5690    -0.0400     2.4510     0.2070   -51.0690   101.8540   -50.5010    12.7800    11.4960    11.7100   -60.0180    73.8190    13.7240
 2774.5000   -34.5690    -0.0360     2.4440     0.2020   -50.7560   100.6320   -12.4750    12.5560    11.6880    11.7100   -32.0170    75.8350    13.7220
 2775.0000   -44.5890    -0.0280     2.4460     0.2030   -50.4430    96.7570   -37.9090    12.3310    12.0190    11.7100    -4.0160    75.6430    13.7200
 2775.5000   -43.4540    -0.0130     2.4480     0.2060   -50.1870    91.6260   -80.1600    12.1070    12.3490    11.7100   -74.5780    75.1390    13.7180
 2776.0000   -40.6480    -0.0090     2.4500     0.2100   -50.1150    89.6690  -122.4110    11.8820    12.6800    12.4370  -144.5780    74.6350    13.7160
 2776.5000   -37.8420    -0.0140     2.4500     0.2100   -50.0370    91.7950  -125.2510    11.7360    13.0100    13.3250  -113.8550    74.1310    13.7140
 2777.0000   -34.5690    -0.0140     2.4500     0.2100   -49.9670    93.4280   -54.6090    11.8490    13.3250    13.1080   -64.2570    73.6270    13.7120
 2777.5000   -36.2750    -0.0100     2.4510     0.2080   -49.8990    95.2750   -62.1960    11.9610    13.3760    12.8480   -67.3690    73.5120    13.7100
 2778.0000   -38.3230    -0.0070     2.4520     0.2040   -49.8110    93.8710   -69.4390    12.0740    13.4240    12.3770   -72.4100    73.6380    13.7080
 2778.5000   -40.3700     0.0160     2.4540     0.2000   -49.9080    92.2760   -74.6490    12.1860    13.4730    12.4890   -70.7200    73.7640    13.7070
 2779.0000   -42.4170     0.0210     2.4520     0.1960   -50.1100    93.9230   -57.1920    12.2990    13.5210    12.8890   -54.9700    73.8900    13.7050
 2779.5000   -44.4650     0.0040     2.4490     0.1940   -50.2930    94.3520   -37.4750    12.3770    13.5740    13.3250   -39.2190    74.0160    13.7030
 2780.0000   -46.5120    -0.0140     2.4520     0.1930   -50.4750    92.5960   -17.7580    12.3570    13.3400    13.2470   -24.0960    74.1420    13.7010
 2780.5000   -48.5590    -0.0070     2.4680     0.1930   -50.6620    91.0300    -6.8850    12.3190    13.0830    13.0940   -24.0960    74.2680    13.6960
 2781.0000   -50.6070     0.0120     2.4840     0.1920   -50.8430    93.0820   -14.1280    12.2810    12.8250    12.9410   -24.0960    74.3940    13.6890
 2781.5000   -52.6540     0.0140     2.4960     0.1970   -51.0320    95.4770   -21.3710    12.2430    12.5680    12.6800   -24.0960    74.8470    13.6820
 2782.0000   -54.7010     0.0160     2.4980     0.2020   -51.2100    97.9190   -24.5490    12.2050    12.3110    12.2170   -24.0960    75.4770    13.6750
 2782.5000   -56.7490     0.0170     2.4980     0.2060   -51.3860   100.2370   -39.2030    12.1660    12.1510    11.9280   -34.0360    76.1070    13.6680
 2783.0000   -58.7960     0.0230     2.4910     0.2090   -51.3150    99.9690   -58.2160    12.1510    12.3600    12.1510   -49.1570    76.4460    13.6610
 2783.5000   -60.8430     0.0360     2.4830     0.2100   -51.2370    99.6530   -77.2290    12.3110    12.5740    12.6560   -64.2770    76.4460    13.6540
 2784.0000   -62.8910     0.0140     2.4750     0.2080   -51.1470    99.1630   -84.6690    12.4460    12.7870    13.3250   -79.3980    76.3360    13.6470
 2784.5000   -64.6290     0.0050     2.4680     0.2050   -51.0630    98.7350   -69.8540    12.5810    13.0010    13.2600   -77.2670    76.2100    13.6400
 2785.0000   -58.7710     0.0140     2.4700     0.2010   -51.0120    96.9360   -51.7460    12.7170    13.2150    13.0820   -66.7670    76.0840    13.6330
 2785.5000   -51.0020     0.0240     2.4750     0.1980   -51.0570    95.2670   -34.5690    12.8520    13.4280    13.0820   -56.2670    75.8480    13.6270
 2786.0000   -43.2330     0.0220     2.4830     0.1940   -51.1010    93.3210   -31.4330    12.9870    13.6420    14.6140   -45.7660    75.5600    13.6220
 2786.5000   -35.4630     0.0140     2.4980     0.1930   -51.1470    93.0040   -28.4510    13.1220    13.8560    14.4690   -34.1370    75.2410    13.6420
 2787.0000   -27.6940     0.0070     2.5080     0.1930   -51.1920    92.7070   -25.4690    13.2570    14.0690    14.3010   -34.6780    74.6220    13.6620
 2787.5000   -27.0540    -0.0020     2.4970     0.1920   -51.2370    92.4590   -22.4860    13.3250    14.2830    14.1340   -35.7740    73.9290    13.6820
 2788.0000   -31.2630    -0.0010     2.4800     0.1910   -51.2830    92.1610   -19.5040    13.0480    13.9870    14.3460   -36.8690    73.2360    13.7020
 2788.5000   -35.4710     0.0050     2.4730     0.1930   -51.3280    91.7000   -16.5210    12.6540    13.4750    13.8030   -37.9650    73.2690    13.7220
 2789.0000   -39.6790     0.0120     2.4720     0.1940   -51.3730    93.2240   -17.3350    12.2600    12.9640    13.2070   -39.0610    73.6050    13.7390
 2789.5000   -44.5890     0.0150     2.4720     0.1940   -51.4190    95.9120   -25.7850    11.8660    12.4530    12.6110   -40.1560    74.1530    13.7380
 2790.0000   -41.9590     0.0050     2.4720     0.1930   -51.4640    96.4010   -34.2350    11.4720    11.9420    12.0160   -41.2520    75.1610    13.7360
 2790.5000   -38.8030     0.0080     2.4720     0.1980   -51.5090    93.1340   -42.6850    11.0780    11.4300    11.4200   -42.3480    76.1690    13.7340
 2791.0000   -35.6460     0.0180     2.4770     0.2040   -51.5550    91.3290   -39.6790    10.6780    10.9190    11.1670   -43.4430    77.1770    13.7320
