~VERSION INFORMATION
 VERS.                2.0:   CWLS LOG ASCII STANDARD - VERSION 2.0
 WRAP.                 NO:   ONE LINE PER DEPTH STEP
~WELL INFORMATION
#MNEM.UNIT      DATA TYPE    INFORMATION
#----------   ------------   ------------------------------
 STRT.F          204.0000:   START DEPTH
 STOP.F         3104.0000:   STOP DEPTH
 STEP.F            0.5000:   STEP LENGTH
 NULL.          -999.2500:   NO VALUE
 COMP.    FENIX & SCISSON:   COMPANY
 WELL. FENIX NPR 83 "AX" #3-10:   WELL
 FLD .                NPR:   FIELD
 LOC .      S10 T38N R78W:   LOCATION
 CNTY.            NATRONA:   COUNTY
 STAT.            WYOMING:   STATE
 CTRY. UNITED STATES OF AMERICA:   COUNTRY
 SRVC.              WELEX:   SERVICE COMPANY
 DATE.        14-JUL-1977:   LOGDATE
 API .     49025103980000:   API NUMBER
~CURVE INFORMATION
#MNEM.UNIT       API CODE    CURVE DESCRIPTION
#----------   ------------   ------------------------------
 DEPT.F                  :   
 ILD .OHMM   07 120 46 00:   DEEP INDUCTION RESISTIVITY
 GURD.OHMM   07 220 05 00:   GUARD LOG RESISTIVITY
 ILM .OHMM   07 120 44 00:   INDUCTION LOG MEDIUM RESISTIVITY
 SPR .MV     07 010 01 00:   SPONTANEOUS POTENTIAL
 CALD.IN     45 280 60 00:   CALIPER FROM DENSITY LOG
 GRD .GAPI   45 310 01 00:   GAMMA RAY FROM DENSITY LOG
 RHOB.G/C3   45 350 01 00:   BULK DENSITY
 CORR.G/C3   45 356 01 00:   DENSITY CORRECTION
 NPHI.DEC    42 890 03 00:   NEUTRON POROSITY SANDSTONE
~PARAMETER INFORMATION
#MNEM.UNIT          VALUE    DESCRIPTION
#----------   ------------   ------------------------------
 EKB .F         5176.0000:   Kelly bushing
 EGL .F         5166.0000:   Ground level
 TD  .F         3105.0000:   Total depth
 DATE.        14-JUL-1977:   Date logged
 CLNT.            A2DTECH:   Client Code
 SL  . 1650' FNL & 100' FEL:   Surface Location
 PD  .                 GL:   Permanent Datum
 DD  .F              3094:   Depth driller
 DL  .F              3105:   Depth logger
 BLI .F              3103:   Bottom log interval
 CS1 .IN            8.625:   Casing size
 CBD1.      8.625" @ 218':   Casing driller 1
 CBL1.F               220:   Casing logger 1
 BS1 .IN            7.875:   Bit size
 DFT .            KCL/GEL:   Type fluid in hole
 DFD .                9.4:   Density
 DFV .                 36:   Viscosity
 DFPH.                  8:   pH
 DFL .                 12:   Fluid loss
 MSS .           FLOWLINE:   Source of sample
 RMS .OHMM           1.54:   Rm
 MST .F               100:   Rm Meas. temp.
 RMF .OHMM            1.5:   Rmf
 MFST.F               100:   Rmf Meas. temp.
 RMC .OHMM           3.47:   Rmc
 MCST.F               100:   Rmc Meas. temp.
 MFSS.               FANN:   Source Rmf.
 RMB .OHMM           1.36:   Rm. at BHT
 BHT .F               113:   BHT.
 TCS .HRS             2.5:   Time Circ. stopped
 MRT .F               113:   Maximum recorded temp.
 LUN .               8766:   Logging unit number
 LUL .             CASPER:   Logging unit location
 ENGI. G. BENTSEN/T. JOYNER:   Recorded By
 WITN.      B. HARRINGTON:   Witnessed by
 ORIG.           5" PRINT:   Origin of data
 UWI .     49025103980000:   Unique Well ID
 DICO. A2D TECHNOLOGIES, INC.:   Digitizing Company
 DAPD.F                10:   Feet Above Permanent Datum
 BSD1.F              3094:   Depth drilled with bit1
 MCSS.                KIT:   Source Rmc.
 TLI .F               210:   Top log interval
 EPD .F              5166:   Elevation Permanent Datum
 LMF .                 KB:   Log Measured From
 DMF .                 KB:   Drilling Measured From
~OTHER INFORMATION
~A   DEPT      ILD       GURD        ILM        SPR       CALD        GRD       RHOB       CORR       NPHI   
# ...
 1518.0000     6.8920     7.9670     6.1430   -61.4740     9.9080   108.4610     2.5170     0.0400     0.3960
 1518.5000     6.5400     8.0160     6.1590   -61.4720     9.8940   108.8400     2.5270     0.0400     0.3950
 1519.0000     6.6270     8.0650     6.1750   -61.4700     9.8800   108.3100     2.5270     0.0430     0.3940
 1519.5000     6.8210     8.1150     6.1910   -61.4680     9.8740   107.6850     2.5220     0.0440     0.3940
 1520.0000     7.0150     8.1640     6.2070   -61.4660     9.8780   107.2040     2.5170     0.0440     0.3970
 1520.5000     7.1210     8.2390     6.2230   -61.4640     9.8830   108.7330     2.5120     0.0400     0.4000
 1521.0000     7.2130     8.2260     6.2390   -61.4620     9.8870   110.6370     2.5070     0.0360     0.4010
 1521.5000     7.3050     8.1990     6.2530   -61.4600     9.8920   112.5050     2.5020     0.0330     0.4000
 1522.0000     7.3970     8.1720     6.2830   -61.4580     9.8960   113.1590     2.4970     0.0320     0.3990
 1522.5000     7.4890     8.1440     6.3130   -61.4560     9.9010   112.3220     2.4930     0.0330     0.3970
 1523.0000     7.5810     8.1170     6.3440   -61.4540     9.9050   111.9600     2.5010     0.0340     0.3960
 1523.5000     7.6730     8.0900     6.3740   -61.4510     9.9090   112.5230     2.5100     0.0350     0.3940
 1524.0000     7.7650     8.0630     6.4040   -61.4490     9.9040   113.4010     2.5190     0.0360     0.3910
 1524.5000     7.8670     8.0350     6.4340   -61.4470     9.8890   114.2850     2.5210     0.0360     0.3890
 1525.0000     7.6930     8.0080     6.4800   -61.4450     9.8740   114.2990     2.5240     0.0320     0.3870
 1525.5000     7.4440     7.9810     6.4710   -61.4430     9.8590   113.5310     2.5210     0.0340     0.3870
 1526.0000     7.1940     7.9400     6.4540   -61.4410     9.8440   112.7370     2.5230     0.0360     0.3880
 1526.5000     6.9440     8.0040     6.4370   -61.4390     9.8570   111.9440     2.5260     0.0370     0.3900
 1527.0000     6.7240     8.1300     6.4200   -61.4370     9.8800   111.1440     2.5250     0.0370     0.3920
 1527.5000     6.7710     8.2550     6.4030   -61.4350     9.9040   110.4550     2.5220     0.0370     0.3920
 1528.0000     6.8220     8.3150     6.3860   -61.4330     9.9020   111.7530     2.5180     0.0360     0.3900
 1528.5000     6.8740     8.1900     6.3690   -61.4310     9.8870   113.1060     2.5180     0.0360     0.3880
 1529.0000     6.9250     8.0960     6.3520   -61.4290     9.8710   114.4410     2.5190     0.0360     0.3880
 1529.5000     6.9770     8.0180     6.3340   -61.4270     9.8550   115.7830     2.5200     0.0350     0.3870
 1530.0000     7.0280     8.0520     6.3170   -61.4250     9.8530   115.8470     2.5190     0.0360     0.3850
 1530.5000     7.0510     8.0880     6.3030   -61.4230     9.8530   115.5770     2.5160     0.0380     0.3870
 1531.0000     7.0780     8.0710     6.2840   -61.4200     9.8530   114.3180     2.5130     0.0400     0.3850
 1531.5000     7.1070     8.0400     6.2640   -61.4180     9.8530   113.1010     2.5110     0.0430     0.3840
 1532.0000     7.0890     8.0140     6.2430   -61.4160     9.8530   111.8990     2.5150     0.0450     0.3820
 1532.5000     7.0650     8.0710     6.2230   -61.4140     9.8530   110.6950     2.5190     0.0470     0.3820
 1533.0000     7.0400     8.1460     6.2030   -61.4120     9.8700   111.5580     2.5230     0.0490     0.3810
 1533.5000     7.0160     8.2390     6.1830   -61.4100     9.9030   113.7040     2.5270     0.0480     0.3810
 1534.0000     6.9920     8.1880     6.1630   -61.4080     9.9350   115.9270     2.5310     0.0450     0.3830
 1534.5000     6.9770     8.1210     6.1430   -61.4060     9.9680   115.4500     2.5400     0.0420     0.3850
 1535.0000     6.9950     8.0550     6.1230   -61.4040    10.0020   113.5680     2.5520     0.0410     0.3860
 1535.5000     7.0440     8.0140     6.1020   -61.4020     9.9990   113.2540     2.5530     0.0420     0.3860
 1536.0000     7.0930     8.0580     6.0740   -61.4000     9.9800   114.0220     2.5490     0.0440     0.3850
 1536.5000     7.1420     8.1140     6.0820   -61.3980     9.9610   114.8000     2.5440     0.0450     0.3820
 1537.0000     7.1900     8.1700     6.1030   -61.3960     9.9420   115.4900     2.5460     0.0470     0.3800
 1537.5000     7.2390     8.2260     6.1240   -61.3940     9.9230   114.9170     2.5500     0.0470     0.3800
 1538.0000     7.2880     8.2820     6.1450   -61.3920     9.9040   113.8220     2.5490     0.0440     0.3810
 1538.5000     7.3360     8.3150     6.1660   -61.3890     9.8850   112.7160     2.5440     0.0420     0.3840
 1539.0000     7.3850     8.1120     6.1870   -61.3870     9.8660   112.3570     2.5480     0.0390     0.3860
 1539.5000     7.4430     8.0140     6.2070   -61.3850     9.8460   112.3510     2.5560     0.0360     0.3880
 1540.0000     7.3310     8.1390     6.2280   -61.3830     9.8270   112.3550     2.5640     0.0400     0.3870
 1540.5000     7.1500     8.2630     6.2490   -61.3810     9.8080   112.3800     2.5730     0.0430     0.3860
 1541.0000     6.9690     8.3860     6.2700   -61.3790     9.7970   111.3940     2.5720     0.0450     0.3850
 1541.5000     6.7880     8.5090     6.2910   -61.3770     9.8130   110.2400     2.5570     0.0400     0.3830
 1542.0000     6.6070     8.6280     6.3030   -61.3750     9.8280   109.0760     2.5420     0.0350     0.3790
 1542.5000     6.4260     8.3930     6.3030   -61.3730     9.8430   108.2260     2.5270     0.0290     0.3740
 1543.0000     6.3610     8.1660     6.3030   -61.3710     9.8580   107.7160     2.5130     0.0240     0.3710
 1543.5000     6.4390     7.9390     6.3030   -61.3690     9.8730   107.2090     2.5050     0.0190     0.3690
 1544.0000     6.6140     7.7230     6.3030   -61.3670     9.8880   106.8560     2.5030     0.0160     0.3670
 1544.5000     6.7890     7.8850     6.3030   -61.3650     9.9030   106.8690     2.5080     0.0180     0.3670
 1545.0000     6.9640     8.1320     6.3030   -61.3630     9.9170   107.2410     2.5180     0.0210     0.3700
 1545.5000     7.1400     8.3790     6.3030   -61.3610     9.9330   108.1610     2.5250     0.0230     0.3720
 1546.0000     7.3150     8.7090     6.3030   -61.3580     9.9620   109.0770     2.5280     0.0260     0.3730
 1546.5000     7.5050     8.5960     6.3030   -61.3560     9.9900   109.9570     2.5310     0.0280     0.3760
 1547.0000     7.4660     8.3560     6.3030   -61.3540    10.0190   109.3000     2.5300     0.0270     0.3790
 1547.5000     7.4120     8.0880     6.3030   -61.3520    10.0470   107.8200     2.5210     0.0260     0.3830
 1548.0000     7.3590     8.1160     6.3030   -61.3500    10.0750   107.7520     2.5120     0.0240     0.3870
 1548.5000     7.3060     8.1730     6.3030   -61.3480    10.1040   108.7250     2.5080     0.0230     0.3900
 1549.0000     7.2530     8.2300     6.3030   -61.3460    10.1320   109.7100     2.5070     0.0230     0.3900
 1549.5000     7.2000     8.2870     6.3030   -61.3440    10.1600   110.6920     2.5060     0.0260     0.3900
 1550.0000     7.1730     8.3150     6.3030   -61.3420    10.1890   111.5670     2.5070     0.0290     0.3880
 1550.5000     7.4970     8.2270     6.3030   -61.3400    10.2170   111.4470     2.5230     0.0320     0.3840
 1551.0000     7.9400     8.1280     6.3030   -61.3380    10.2450   110.5330     2.5290     0.0350     0.3810
 1551.5000     7.8640     8.0290     6.3030   -61.3360    10.2740   109.6080     2.5270     0.0350     0.3770
 1552.0000     7.7120     7.9400     6.3030   -61.3340    10.3020   108.4940     2.5250     0.0340     0.3730
 1552.5000     7.5590     8.0700     6.3030   -61.3320    10.2700   108.4490     2.5280     0.0330     0.3730
 1553.0000     7.4070     8.1510     6.3030   -61.3300    10.2340   109.6920     2.5330     0.0350     0.3730
 1553.5000     7.2390     8.2390     6.3030   -61.3280    10.1970   111.0060     2.5390     0.0370     0.3760
 1554.0000     7.3140     8.4340     6.3030   -61.3250    10.1600   112.3030     2.5450     0.0390     0.3790
