~VERSION INFORMATION
 VERS.                2.0:   CWLS LOG ASCII STANDARD - VERSION 2.0
 WRAP.                 NO:   ONE LINE PER DEPTH STEP
~WELL INFORMATION
#MNEM.UNIT      DATA TYPE    INFORMATION
#----------   ------------   ------------------------------
 STRT.F          200.0000:   START DEPTH
 STOP.F         3038.0000:   STOP DEPTH
 STEP.F            0.5000:   STEP LENGTH
 NULL.          -999.2500:   NO VALUE
 COMP.    FENIX & SCISSON:   COMPANY
 WELL. FENIX NPR 3 "A" #63-28:   WELL
 FLD .            WILDCAT:   FIELD
 LOC .      S28 T39N R78W:   LOCATION
 CNTY.            NATRONA:   COUNTY
 STAT.            WYOMING:   STATE
 CTRY. UNITED STATES OF AMERICA:   COUNTRY
 SRVC.              WELEX:   SERVICE COMPANY
 DATE.        29-MAY-1977:   LOGDATE
 API .     49025103740000:   API NUMBER
~CURVE INFORMATION
#MNEM.UNIT       API CODE    CURVE DESCRIPTION
#----------   ------------   ------------------------------
 DEPT.F                  :   
 SPR .MV     07 010 01 00:   SPONTANEOUS POTENTIAL
 ILM .OHMM   07 120 44 00:   INDUCTION LOG MEDIUM RESISTIVITY
 ILD .OHMM   07 120 46 00:   DEEP INDUCTION RESISTIVITY
 SGRD.OHMM   07 220 05 00:   SHALLOW SHORT GUARD RESISTIVITY
 GRD .GAPI   45 310 01 00:   GAMMA RAY FROM DENSITY LOG
 CALD.IN     45 280 60 00:   CALIPER FROM DENSITY LOG
 RHOB.G/C3   45 350 01 00:   BULK DENSITY
 CORR.G/C3   45 356 01 00:   DENSITY CORRECTION
~PARAMETER INFORMATION
#MNEM.UNIT          VALUE    DESCRIPTION
#----------   ------------   ------------------------------
 EKB .F         5040.0000:   Kelly bushing
 EGL .F         5029.0000:   Ground level
 EDF .F            0.0000:   Drilling floor
 EPD .F         5029.0000:   Permanent datum
 TD  .F         3040.0000:   Total depth
 DATE.        29-MAY-1977:   Date logged
 CLNT.            A2DTECH:   Client Code
 SL  . 1650' FNL & 1650' FEL:   Surface Location
 PD  .                 GL:   Permanent Datum
 LMF .                 KB:   Log Measured From
 DMF .                 KB:   Drilling Measured From
 DD  .F              3040:   Depth driller
 DL  .F              3038:   Depth logger
 BLI .F              3036:   Bottom log interval
 TLI .F               200:   Top log interval
 CS1 .IN            8.625:   Casing size
 BSD1.F              3040:   Depth drilled with bit1
 DFT .            KCL MUD:   Type fluid in hole
 ORIG.     2.5", 5" PRINT:   Origin of data
 UWI .     49025103740000:   Unique Well ID
 DICO. A2D TECHNOLOGIES, INC.:   Digitizing Company
 DAPD.                 11:   Feet Above Permanent Datum
 CBD1.      8.625" @ 220':   Casing driller 1
 BS1 .              7.875:   Bit size
 DFD .                8.7:   Density
 MRT .                108:   Maximum recorded temp.
 ENGI.            C. DOAK:   Recorded By
 WITN.      W. PETTINGILL:   Witnessed by
~OTHER INFORMATION
~A   DEPT      SPR        ILM          ILD     SGRD         GRD        CALD       RHOB      CORR  
# ...
 2063.0000   -65.2320    10.4610     9.3450    14.6990    98.1400     8.7170     2.4590     0.0040
 2063.5000   -65.3050    10.6040     9.3690    13.9110    98.2960     8.7130     2.4580     0.0050
 2064.0000   -65.3780    10.6960     9.3020    13.6570    98.4510     8.7090     2.4540     0.0100
 2064.5000   -65.4500    10.7890     9.2410    15.6760    98.6070     8.7050     2.4500     0.0090
 2065.0000   -65.5230    10.8530     9.1980    15.4100    98.7620     8.7010     2.4480     0.0060
 2065.5000   -65.5890    10.6560     9.0080    15.2500    98.9170     8.6980     2.4490     0.0040
 2066.0000   -65.6270    10.2730     8.8360    15.3910    99.0740     8.6940     2.4450     0.0010
 2066.5000   -65.6620     9.9250     8.6630    14.3000    99.2300     8.6970     2.4410    -0.0010
 2067.0000   -65.6970     9.5430     8.4900    13.8350    99.3850     8.6990     2.4360    -0.0010
 2067.5000   -65.7320     9.2800     8.3180    13.4120    99.5420     8.7020     2.4330    -0.0010
 2068.0000   -65.7670     8.8660     8.1620    12.4300    99.6950     8.7050     2.4310    -0.0010
 2068.5000   -65.7840     8.8490     8.0970    11.4690    99.8540     8.7080     2.4380     0.0020
 2069.0000   -65.7840     8.7920     8.0380    12.2310   100.0080     8.7110     2.4460     0.0050
 2069.5000   -65.7840     8.7340     7.9800    11.8980   100.1570     8.7140     2.4540     0.0090
 2070.0000   -65.7840     8.6770     7.9210    12.1780   100.3410     8.7160     2.4620     0.0120
 2070.5000   -65.7840     8.6250     7.8680    12.4580   100.2100     8.7190     2.4700     0.0150
 2071.0000   -65.7840     8.8470     7.8420    12.7050    99.8380     8.7220     2.4780     0.0150
 2071.5000   -65.7840     8.9480     7.8140    13.1640    99.4690     8.7250     2.4800     0.0150
 2072.0000   -65.7840     8.9480     7.7850    13.0390    99.1350     8.7280     2.4800     0.0150
 2072.5000   -65.7840     8.7420     7.7570    12.8600    98.9050     8.7310     2.4800     0.0150
 2073.0000   -65.7840     8.5550     7.7280    12.4030    99.6940     8.7340     2.4810     0.0150
 2073.5000   -65.7890     8.3680     7.7000    12.2310   100.3760     8.7370     2.4770     0.0140
 2074.0000   -65.8890     8.2380     7.6720    12.8060   101.0560     8.7390     2.4680     0.0120
 2074.5000   -65.9850     8.2380     7.6430    11.5470   101.9280     8.7420     2.4610     0.0100
 2075.0000   -66.0810     8.2490     7.6150    11.0550   101.2050     8.7450     2.4530     0.0080
 2075.5000   -66.1760     8.2730     7.5840    11.3370    99.3340     8.7480     2.4450     0.0060
 2076.0000   -66.2720     8.2970     7.4710    11.9390    97.5270     8.7510     2.4420     0.0040
 2076.5000   -66.3680     8.3520     7.3450    12.4580    95.7300     8.7540     2.4470     0.0030
 2077.0000   -66.4640     8.3900     7.2200    11.8070    93.8650     8.7570     2.4510     0.0040
 2077.5000   -66.5640     8.3900     7.0940    11.1570    92.1410     8.7590     2.4520     0.0060
 2078.0000   -66.5690     8.1870     6.9810    11.4690    90.3140     8.7620     2.4480     0.0070
 2078.5000   -66.5690     8.0020     6.9280    10.1770    90.9650     8.7650     2.4440     0.0080
 2079.0000   -66.5690     7.8170     6.8790    10.9890    91.1390     8.7680     2.4410     0.0100
 2079.5000   -66.5690     7.6540     6.8300    11.2600    92.3040     8.7710     2.4410     0.0110
 2080.0000   -66.5690     7.6540     6.7810     9.1140    93.3530     8.7790     2.4400     0.0100
 2080.5000   -66.5690     7.6540     6.7320     9.6370    94.5390     8.7880     2.4410     0.0090
 2081.0000   -66.5690     7.6310     6.6830    11.4690    95.6960     8.7970     2.4430     0.0080
 2081.5000   -66.5690     7.6100     6.5850    11.0980    96.1650     8.8060     2.4420     0.0060
 2082.0000   -66.5690     7.5900     6.4660    10.6560    94.8650     8.8150     2.4400     0.0050
 2082.5000   -66.5690     7.5140     6.3470    11.4690    93.6020     8.8250     2.4350     0.0040
 2083.0000   -66.5690     7.3330     6.2280    11.3130    92.2920     8.8340     2.4350     0.0030
 2083.5000   -66.5690     7.1110     6.1100    10.0840    91.0030     8.8430     2.4390     0.0040
 2084.0000   -66.5690     6.8540     5.9640     9.6310    89.6750     8.8520     2.4450     0.0070
 2084.5000   -66.5690     6.5670     5.7580     8.6250    88.7600     8.8610     2.4520     0.0100
 2085.0000   -66.5690     6.3100     5.5510     9.2830    88.8000     8.8700     2.4580     0.0120
 2085.5000   -66.5690     6.1210     5.4470     8.8650    88.6760     8.8790     2.4580     0.0150
 2086.0000   -66.5690     5.9490     5.4470     7.8010    89.6230     8.8870     2.4590     0.0130
 2086.5000   -66.5690     5.8630     5.4900     7.5140    91.7250     8.8880     2.4520     0.0110
 2087.0000   -66.5780     6.0270     5.5770     7.9400    92.7750     8.8870     2.4520     0.0080
 2087.5000   -66.5950     6.3500     5.6640     7.7960    92.0350     8.8870     2.4600     0.0070
 2088.0000   -66.6130     6.7090     5.7500     8.6260    91.3320     8.8690     2.4680     0.0090
 2088.5000   -66.6310     7.0690     5.8370    10.4610    90.0410     8.8490     2.4730     0.0100
 2089.0000   -66.6490     7.2430     5.9170    13.0440    89.5300     8.8280     2.4740     0.0120
 2089.5000   -66.6670     7.1110     5.8740    12.6890    90.0370     8.8080     2.4720     0.0140
 2090.0000   -66.6840     6.6880     5.7320    10.5580    90.4510     8.7870     2.4680     0.0160
 2090.5000   -66.7020     6.3430     5.5910     9.9970    90.8440     8.7670     2.4620     0.0170
 2091.0000   -66.7200     5.9970     5.4570     9.1550    91.6990     8.7450     2.4570     0.0190
 2091.5000   -66.7380     5.6520     5.3270     8.2380    92.9820     8.7310     2.4520     0.0190
 2092.0000   -66.7560     5.3740     5.1970     6.9720    94.2130     8.7330     2.4460     0.0180
 2092.5000   -66.7480     5.2020     5.0660     6.1950    95.4580     8.7330     2.4410     0.0180
 2093.0000   -66.7160     5.2020     4.9230     6.3680    96.5140     8.7330     2.4380     0.0180
 2093.5000   -66.6840     5.2020     4.9100     7.5140    96.9910     8.7330     2.4370     0.0170
 2094.0000   -66.6520     5.4610     4.8650     7.7240    97.4210     8.7330     2.4370     0.0170
 2094.5000   -66.6190     5.7560     4.8340     9.9000    97.8400     8.7330     2.4370     0.0170
 2095.0000   -66.5870     5.5440     4.9390    10.8530    98.2650     8.7330     2.4360     0.0160
 2095.5000   -66.5550     5.4470     4.9920     8.2200    98.6880     8.7330     2.4330     0.0160
 2096.0000   -66.5220     5.6550     5.0450     6.9810    99.1050     8.7330     2.4300     0.0150
 2096.5000   -66.4900     5.8630     5.1710     9.0310    99.5450     8.7330     2.4270     0.0150
 2097.0000   -66.4580     5.4970     5.3290     8.6670    99.9390     8.7330     2.4270     0.0150
 2097.5000   -66.4250     5.7220     5.4860     7.7960   100.3680     8.7330     2.4260     0.0140
 2098.0000   -66.3930     5.9710     5.6440     7.8680   100.4000     8.7330     2.4310     0.0120
 2098.5000   -66.3610     6.1950     5.8010     8.3010   100.2300     8.7330     2.4390     0.0100
 2099.0000   -66.3280     6.6380     5.9590     9.0130    99.4370     8.7330     2.4470     0.0090
 2099.5000   -66.2960     7.2430     6.1160    10.1770    98.0680     8.7330     2.4550     0.0070
 2100.0000   -66.2640     7.3770     6.2520    12.2430    96.1350     8.7330     2.4630     0.0120
 2100.5000   -66.2310     7.2840     6.3100    13.6570    94.1810     8.7330     2.4710     0.0170
 2101.0000   -66.1990     7.1110     6.3870    11.6810    92.2630     8.7330     2.4750     0.0180
 2101.5000   -66.1730     7.1580     6.4860     9.7810    90.3170     8.7330     2.4730     0.0150
 2102.0000   -66.1630     7.2430     6.4200     9.1980    88.9490     8.7330     2.4660     0.0120
 2102.5000   -66.1530     6.9860     6.3590     9.7200    88.0020     8.7330     2.4590     0.0090
 2103.0000   -66.1430     6.7290     6.2980     9.5990    86.9920     8.7330     2.4560     0.0070
