~VERSION INFORMATION
 VERS.                2.0:   CWLS LOG ASCII STANDARD - VERSION 2.0
 WRAP.                 NO:   ONE LINE PER DEPTH STEP
~WELL INFORMATION
#MNEM.UNIT      DATA TYPE    INFORMATION
#----------   ------------   ------------------------------
 STRT.F           10.0000:   START DEPTH
 STOP.F         3180.0000:   STOP DEPTH
 STEP.F            0.5000:   STEP LENGTH
 NULL.          -999.2500:   NO VALUE
 COMP. LAWRENCE - ALLISON WEST:   COMPANY
 WELL. LAWRENCE ALLISON NPR 3 "AX" #17-2:   WELL
 FLD .                NPR:   FIELD
 LOC .       S2 T38N R78W:   LOCATION
 CNTY.            NATRONA:   COUNTY
 STAT.            WYOMING:   STATE
 CTRY. UNITED STATES OF AMERICA:   COUNTRY
 SRVC.      DRESSER ATLAS:   SERVICE COMPANY
 DATE.        16-FEB-1987:   LOGDATE
 API .     49025111210000:   API NUMBER
~CURVE INFORMATION
#MNEM.UNIT       API CODE    CURVE DESCRIPTION
#----------   ------------   ------------------------------
 DEPT.F                  :   
 DEN .LBS    45 350 01 00:   BULK DENSITY
 CORR.G/C3   45 356 01 00:   DENSITY CORRECTION
 TEND.LBS    45 635 01 00:   TENSION FROM DENSITY LOG
 CNC .DEC    42 890 01 00:   NEUTRON PORISITY LIMESTONE
 CALR.IN     07 280 01 00:   CALIPER FROM RESISTIVITY
 SPR .MV     07 010 01 00:   SPONTANEOUS POTENTIAL
 GRR .GAPI   07 310 01 00:   GAMMA RAY FROM RESISTIVITY
 RFOC.OHMM   07 220 04 00:   RESISTIVITY FOCUSED LOG RES.
 ILD .OHMM   07 120 46 00:   DEEP INDUCTION RESISTIVITY
 ILM .OHMM   07 120 44 00:   INDUCTION LOG MEDIUM RESISTIVITY
 TENR.LBS    07 635 01 00:   TENSION FROM RESISTIVITY
~PARAMETER INFORMATION
#MNEM.UNIT          VALUE    DESCRIPTION
#----------   ------------   ------------------------------
 EKB .F         5141.0000:   Kelly bushing
 EGL .F         5129.0000:   Ground level
 EDF .F            0.0000:   Drilling floor
 EPD .F            0.0000:   Permanent datum
 TD  .F         3161.0000:   Total depth
 DATE.        16-FEB-1987:   Date logged
 CLNT.            A2DTECH:   Client Code
 SL  . 1125' FSL & 220' FWL:   Surface Location
 PD  .                 GL:   Permanent Datum
 DAPD.F                12:   Feet Above Permanent Datum
 DD  .F              3161:   Depth driller
 DL  .F              3158:   Depth logger
 BLI .F              3156:   Bottom log interval
 TLI .F                12:   Top log interval
 CS1 .IN            8.625:   Casing size
 CBD1.      8.625" @ 626':   Casing driller 1
 CBL1.F               626:   Casing logger 1
 BS1 .IN            7.875:   Bit size
 BSD1.F              3161:   Depth drilled with bit1
 DFT .        KCL/POLYMER:   Type fluid in hole
 DFD .                8.8:   Density
 DFV .                 39:   Viscosity
 DFPH.                 10:   pH
 DFL .                8.4:   Fluid loss
 MSS .           FLOWLINE:   Source of sample
 RMS .OHMM           .292:   Rm
 MST .F                82:   Rm Meas. temp.
 RMF .OHMM           .231:   Rmf
 MFST.F                82:   Rmf Meas. temp.
 RMC .OHMM           .365:   Rmc
 MCST.F                82:   Rmc Meas. temp.
 MFSS.               MEAS:   Source Rmf.
 MCSS.               CALC:   Source Rmc.
 RMB .OHMM           .203:   Rm. at BHT
 BHT .F               118:   BHT.
 TCS .HRS               3:   Time Circ. stopped
 MRT .F               118:   Maximum recorded temp.
 LUN .            HL-6274:   Logging unit number
 LUL .           GALLETTE:   Logging unit location
 ENGI.            PANASUK:   Recorded By
 WITN.             STRONG:   Witnessed by
 ORIG.           5" PRINT:   Origin of data
 UWI .     49025111210000:   Unique Well ID
 DICO. A2D TECHNOLOGIES, INC.:   Digitizing Company
~OTHER INFORMATION
~A   DEPT      DEN       CORR       TEND        CNC       CALR        SPR          GRR     RFOC        ILD        ILM       TENR   
# ...
 1108.0000  -999.2500  -999.2500  -999.2500  -999.2500     8.9611    -9.7901    92.7840     9.7926     8.4521     8.0240  -103.4130
 1108.5000  -999.2500  -999.2500  -999.2500  -999.2500     8.9411    -9.5929    90.7878     9.7915     8.6879     8.0236  -103.3137
 1109.0000  -999.2500  -999.2500  -999.2500  -999.2500     8.9410    -9.5947    92.3799     9.7009     8.6871     8.1718  -103.2144
 1109.5000  -999.2500  -999.2500  -999.2500  -999.2500     8.9607    -9.7958    93.1736     9.7000     8.6863     8.3228  -103.1151
 1110.0000  -999.2500  -999.2500  -999.2500  -999.2500     8.9607    -9.3993    93.1707     9.8793     8.6059     8.3222  -103.0158
 1110.5000  -999.2500  -999.2500  -999.2500  -999.2500     8.9605    -9.6004    94.7611     9.6983     8.4483     8.3213  -102.9165
 1111.0000  -999.2500  -999.2500  -999.2500  -999.2500     8.9604    -9.6023    95.9531     9.6086     8.3703     8.0938  -102.8172
 1111.5000  -999.2500  -999.2500  -999.2500  -999.2500     8.9404    -9.6042    98.7384     9.2921     8.3692     8.3199  -102.7179
 1112.0000  -999.2500  -999.2500  -999.2500  -999.2500     8.9004    -9.6060   101.5236     9.2060     8.3688     8.5521  -102.6186
 1112.5000  -999.2500  -999.2500  -999.2500  -999.2500     8.8604    -9.6083   105.5036     9.3763     8.5234     8.7103  -102.5193
 1113.0000  -999.2500  -999.2500  -999.2500  -999.2500     8.8803    -9.6102   104.3057     9.6383     8.5226     8.7902  -102.4001
 1113.5000  -999.2500  -999.2500  -999.2500  -999.2500     8.8618    -9.6121    99.1249     9.6929     8.5215     8.7893  -102.3008
 1114.0000  -999.2500  -999.2500  -999.2500  -999.2500     8.8600    -9.6140    98.7236     9.7816     8.5207     8.7888  -102.2015
 1114.5000  -999.2500  -999.2500  -999.2500  -999.2500     8.8599    -9.6158    98.3224     9.7808     8.5200     8.7877  -102.1022
 1115.0000  -999.2500  -999.2500  -999.2500  -999.2500     8.8599    -9.6177    97.9211     9.8702     8.5193     8.7063  -102.0029
 1115.5000  -999.2500  -999.2500  -999.2500  -999.2500     8.8597    -9.8188    94.7319     9.8693     8.5189     8.7057   -91.9037
 1116.0000  -999.2500  -999.2500  -999.2500  -999.2500     8.8595    -9.8206    92.7377     9.9597     8.5178     8.5458  -101.8043
 1116.5000  -999.2500  -999.2500  -999.2500  -999.2500     8.8794    -9.8225    97.1134     9.9587     8.5957     8.5452  -101.7050
 1117.0000  -999.2500  -999.2500  -999.2500  -999.2500     8.8950    -9.8244    98.3076     9.8666     8.5949     8.5446  -101.6057
 1117.5000  -999.2500  -999.2500  -999.2500  -999.2500     8.9387    -9.8263    98.3047     9.7754     8.6736     8.5438  -101.5064
 1118.0000  -999.2500  -999.2500  -999.2500  -999.2500     8.9586    -9.8282    98.3017     9.7745     8.6728     8.5430  -101.4071
 1118.5000  -999.2500  -999.2500  -999.2500  -999.2500     8.9784   -10.0292    97.9005     9.6841     8.6722     8.5419  -101.3077
 1119.0000  -999.2500  -999.2500  -999.2500  -999.2500     8.9782    -9.8319    98.2958     9.6832     8.6714     8.5413  -101.2084
 1119.5000  -999.2500  -999.2500  -999.2500  -999.2500     8.9781    -9.8338    97.8940     9.6823     8.6703     8.5404  -101.1091
 1120.0000  -999.2500  -999.2500  -999.2500  -999.2500     8.9581    -9.8357    95.8999     9.6814     8.6698     8.5397  -101.0098
 1120.5000  -999.2500  -999.2500  -999.2500  -999.2500     8.9580    -9.8376    96.2952     9.7700     8.6688     8.4605  -100.9105
 1121.0000  -999.2500  -999.2500  -999.2500  -999.2500     8.9578   -10.0386    98.6822     9.7691     8.6682     8.3822   -90.8113
 1121.5000  -999.2500  -999.2500  -999.2500  -999.2500     8.9577   -10.2396    99.0781     9.7682     8.6676     8.3816  -100.7119
 1122.0000  -999.2500  -999.2500  -999.2500  -999.2500     8.9576   -10.2414    99.4722     9.7673     8.6663     8.3808  -100.6126
 1122.5000  -999.2500  -999.2500  -999.2500  -999.2500     8.9575   -10.0442    99.4692     9.7665     8.6660     8.3797  -100.5133
 1123.0000  -999.2500  -999.2500  -999.2500  -999.2500     8.9573   -10.6434    98.2728     9.7656     8.6653     8.3794   -90.4141
 1123.5000  -999.2500  -999.2500  -999.2500  -999.2500     8.9970   -10.6453    95.8794     9.7647     8.6638     8.3784   -90.3148
 1124.0000  -999.2500  -999.2500  -999.2500  -999.2500     8.9968   -10.4481    93.8854     9.7636     8.6630     8.3777   -80.2156
 1124.5000  -999.2500  -999.2500  -999.2500  -999.2500     8.9768   -10.4499    95.0771     9.7627     8.6622     8.3002   -80.1163
 1125.0000  -999.2500  -999.2500  -999.2500  -999.2500     8.9966   -10.4518    95.0742     9.6724     8.6614     8.2994   -90.0169
 1125.5000  -999.2500  -999.2500  -999.2500  -999.2500     8.9965   -10.4537    93.4785     9.6715     8.6606     8.2223   -79.9177
 1126.0000  -999.2500  -999.2500  -999.2500  -999.2500     8.9764   -10.2565    91.8828     9.6706     8.6600     8.1461   -79.8184
 1126.5000  -999.2500  -999.2500  -999.2500  -999.2500     8.9962   -10.0592    93.4727     9.6698     8.6590     8.1455   -79.7191
 1127.0000  -999.2500  -999.2500  -999.2500  -999.2500     9.0160    -9.8620    97.0534     9.5805     8.5004     8.1448   -79.6198
 1127.5000  -999.2500  -999.2500  -999.2500  -999.2500     9.0159    -9.6648   103.8196     9.3188     8.3448     8.0695   -89.5005
 1128.0000  -999.2500  -999.2500  -999.2500  -999.2500     9.0157   -10.0649   102.6221     9.1479     8.1169     7.9212   -89.4012
 1128.5000  -999.2500  -999.2500  -999.2500  -999.2500     9.0554   -10.2659   102.2209     8.9803     8.0418     7.7761   -89.3019
 1129.0000  -999.2500  -999.2500  -999.2500  -999.2500     9.0951   -10.2677   105.0051     8.8158     7.8220     7.4940   -89.2026
 1129.5000  -999.2500  -999.2500  -999.2500  -999.2500     9.0950   -10.4687   107.7893     8.5748     7.7498     7.2891   -89.1033
 1130.0000  -999.2500  -999.2500  -999.2500  -999.2500     9.0949   -10.6696   110.9691     8.5745     7.5381     7.2216   -89.0238
 1130.5000  -999.2500  -999.2500  -999.2500  -999.2500     9.1146   -11.2680   110.1722     8.5741     7.4003     7.0242   -88.9047
 1131.0000  -999.2500  -999.2500  -999.2500  -999.2500     9.1145   -11.2710   108.9746     8.5725     7.1320     6.9591   -88.8054
 1131.5000  -999.2500  -999.2500  -999.2500  -999.2500     9.1144   -10.6756   106.9808     8.4156     7.0659     7.0225   -88.7061
 1132.0000  -999.2500  -999.2500  -999.2500  -999.2500     9.0943   -10.4784   102.9963     8.4148     7.0652     6.9576   -88.6068
 1132.5000  -999.2500  -999.2500  -999.2500  -999.2500     9.0146   -10.2812   102.1970     8.4140     6.9358     6.9569   -88.5075
 1133.0000  -999.2500  -999.2500  -999.2500  -999.2500     9.0144   -10.2831   103.7866     8.1093     6.8717     6.8926   -88.4081
 1133.5000  -999.2500  -999.2500  -999.2500  -999.2500     9.0342   -10.2850   106.1718     8.1085     6.8710     6.8920   -88.3088
 1134.0000  -999.2500  -999.2500  -999.2500  -999.2500     9.0341   -10.2869   108.9563     8.1078     6.8704     6.8914   -88.2095
 1134.5000  -999.2500  -999.2500  -999.2500  -999.2500     9.0140   -10.2888   104.5738     8.1071     6.8069     6.8276   -88.1102
 1135.0000  -999.2500  -999.2500  -999.2500  -999.2500     9.0338   -10.0916   101.7821     8.1063     6.8062     6.8270   -88.0109
 1135.5000  -999.2500  -999.2500  -999.2500  -999.2500     9.0535   -10.2925   102.9753     8.1056     6.8056     6.8264   -87.9116
 1136.0000  -999.2500  -999.2500  -999.2500  -999.2500     9.0734   -10.2944   108.1466     8.1048     6.6196     6.7632   -67.8125
 1136.5000  -999.2500  -999.2500  -999.2500  -999.2500     9.0733   -10.2963   106.5523     8.0299     6.7419     6.7626   -87.7130
 1137.0000  -999.2500  -999.2500  -999.2500  -999.2500     9.0731   -10.2981   104.1606     7.9556     6.7413     6.7619   -87.6137
 1137.5000  -999.2500  -999.2500  -999.2500  -999.2500     9.0730   -10.4991   102.1671     7.9547     6.8030     6.8238   -97.5143
 1138.0000  -999.2500  -999.2500  -999.2500  -999.2500     9.0331   -10.5009   101.7666     7.9540     6.7401     6.7607   -97.4150
