~VERSION INFORMATION
 VERS.                2.0:   CWLS LOG ASCII STANDARD - VERSION 2.0
 WRAP.                 NO:   ONE LINE PER DEPTH STEP
~WELL INFORMATION
#MNEM.UNIT      DATA TYPE    INFORMATION
#----------   ------------   ------------------------------
 STRT.F          517.0000:   START DEPTH
 STOP.F         3222.0000:   STOP DEPTH
 STEP.F            0.5000:   STEP LENGTH
 NULL.          -999.2500:   NO VALUE
 COMP.    FENIX & SCISSON:   COMPANY
 WELL.  FENIX "TX" #53-33:   WELL
 FLD .             NPR #3:   FIELD
 LOC .      S33 T39N R78W:   LOCATION
 CNTY.            NATRONA:   COUNTY
 STAT.            WYOMING:   STATE
 CTRY. UNITED STATES OF AMERICA:   COUNTRY
 SRVC.              WELEX:   SERVICE COMPANY
 DATE.        24-AUG-1980:   LOGDATE
 API .     49025108460000:   API NUMBER
~CURVE INFORMATION
#MNEM.UNIT       API CODE    CURVE DESCRIPTION
#----------   ------------   ------------------------------
 DEPT.F                  :   
 CALD.IN     45 280 60 00:   CALIPER FROM DENSITY LOG
 GRD .GAPI   45 310 01 00:   GAMMA RAY FROM DENSITY LOG
 CORR.G/C3   45 356 01 00:   DENSITY CORRECTION
 RHOB.G/C3   45 350 01 00:   BULK DENSITY
 SPR .MV     07 010 01 00:   SPONTANEOUS POTENTIAL
 ILD .OHMM   07 120 46 00:   DEEP INDUCTION RESISTIVITY
 ILM .OHMM   07 120 44 00:   INDUCTION LOG MEDIUM RESISTIVITY
 SGRD.OHMM   07 220 05 00:   SHALLOW SHORT GUARD RESISTIVITY
~PARAMETER INFORMATION
#MNEM.UNIT          VALUE    DESCRIPTION
#----------   ------------   ------------------------------
 EKB .F         5173.0000:   Kelly bushing
 EGL .F         5163.0000:   Ground level
 EDF .F            0.0000:   Drilling floor
 EPD .F            0.0000:   Permanent datum
 TD  .F         3224.0000:   Total depth
 CLNT.            A2DTECH:   Client Code
 SL  . 1650' FNL & 2500' FEL:   Surface Location
 PD  .                 GL:   Permanent Datum
 DAPD.F                10:   Feet Above Permanent Datum
 DATE.        24-AUG-1980:   Date Logged [DD-MMM-YYYY]
 DD  .F              3190:   Depth driller
 DL  .F              3224:   Depth logger
 BLI .F              3222:   Bottom log interval
 TLI .F               528:   Top log interval
 CS1 .IN            8.625:   Casing size
 CBD1.      8.625" @ 532':   Casing driller 1
 CBL1.F               528:   Casing logger 1
 BS1 .IN            7.875:   Bit size
 BSD1.F              3190:   Depth drilled with bit1
 DFT .     WATER BASE MUD:   Type fluid in hole
 DFD .                8.8:   Density
 DFV .                 45:   Viscosity
 DFL .                9.4:   Fluid loss
 MSS .            MUD PIT:   Source of sample
 RMS .OHMM           2.10:   Rm
 MST .F                65:   Rm Meas. temp.
 RMF .OHMM           1.68:   Rmf
 MFST.F                65:   Rmf Meas. temp.
 MFSS.               CALC:   Source Rmf.
 RMC .OHMM           2.52:   Rmc
 MCST.F                65:   Rmc Meas. temp.
 MCSS.               CALC:   Source Rmc.
 RMB .OHMM           1.14:   Rm. at BHT
 BHT .F               120:   BHT.
 TCS .HRS               3:   Time Circ. stopped
 MRT .F               120:   Maximum recorded temp.
 LUN .               1892:   Logging unit number
 LUL .             CASPER:   Logging unit location
 ENGI.           WACHTEIL:   Recorded By
 ORIG.         2.5" PRINT:   Origin of data
 UWI .     49025108460000:   Unique Well ID
 DICO. A2D TECHNOLOGIES, INC.:   Digitizing Company
~OTHER INFORMATION
~A   DEPT     CALD         GRD      CORR       RHOB        SPR        ILD        ILM       SGRD   
# ...
 1246.0000    13.3858    87.6847     0.0961     2.5692   -26.9790     7.8635     7.5833     7.5579
 1246.5000    13.3841    87.4586     0.1056     2.5738   -26.9389     7.8553     7.5770     7.5549
 1247.0000    13.3823    85.7345     0.1185     2.5751   -26.3223     7.8472     7.5707     7.5518
 1247.5000    13.3806    84.1103     0.1199     2.5765   -26.0060     7.8390     7.5642     7.5487
 1248.0000    13.3788    85.4774     0.1107     2.5683   -25.8007     7.8309     7.5571     7.5456
 1248.5000    13.3770    87.9136     0.1167     2.5553   -25.8078     7.8228     7.5518     7.5424
 1249.0000    13.3752    88.3381     0.1226     2.5612   -25.5135     7.8147     7.5456     7.5393
 1249.5000    13.3734    88.4272     0.1285     2.5669   -25.8210     7.8065     7.5393     7.5362
 1250.0000    13.3716    87.3852     0.1193     2.5716   -25.8268     7.7984     7.5330     7.5330
 1250.5000    13.3698    86.9088     0.1099     2.5610   -26.4332     7.7900     7.5268     7.5299
 1251.0000    13.3680    87.7837     0.1004     2.5504   -27.0396     7.7822     7.5205     7.5791
 1251.5000    13.3658    88.2777     0.0940     2.5473   -27.0454     7.7742     7.5143     7.6286
 1252.0000    13.3339    89.6037     0.0876     2.5412   -27.0512     7.7661     7.5080     7.6254
 1252.5000    13.3321    90.5141     0.0812     2.5260   -27.0571     7.7580     7.5018     7.6451
 1253.0000    13.3304    90.0872     0.0733     2.5109   -27.0631     7.7500     7.4956     7.7253
 1253.5000    13.2984    88.4527     0.0792     2.5172   -27.0691     7.6963     7.4893     7.7221
 1254.0000    13.2665    86.0510     0.0791     2.5248   -27.3746     7.4695     7.4831     7.7189
 1254.5000    13.2647    87.2059     0.0729     2.5287   -27.0801     7.3080     7.3741     7.6908
 1255.0000    13.2628    88.9144     0.0698     2.5266   -27.0871     7.1013     7.3679     7.3986
 1255.5000    13.2610    89.3423     0.0697     2.5212   -26.7928     6.9966     7.2606     7.1541
 1256.0000    13.2592    89.7633     0.0787     2.5195   -26.3343     6.8935     7.0553     6.9941
 1256.5000    13.2574    89.2869     0.0910     2.5284   -25.9039     6.8867     7.0496     6.9371
 1257.0000    13.2556    87.9096     0.0971     2.5495   -25.9108     6.8797     7.0440     6.7034
 1257.5000    13.2535    86.9820     0.0876     2.5494   -25.6163     6.8623     6.9785     6.7007
 1258.0000    13.2819    87.4072     0.0728     2.5448   -25.6221     6.7710     6.9362     6.6980
 1258.5000    13.3104    87.9286     0.0689     2.5387   -25.6279     6.7640     6.9298     6.6953
 1259.0000    13.2785    88.8393     0.0688     2.5325   -25.6337     6.7570     6.8745     6.7860
 1259.5000    13.2465    89.1311     0.0717     2.5306   -25.9399     6.7500     6.8237     6.7833
 1260.0000    13.2125    89.5495     0.0686     2.5258   -25.9861     6.7429     6.8181     6.8814
 1260.5000    13.1778    89.7696     0.0594     2.5190   -26.3143     6.8299     6.8124     6.9683
 1261.0000    13.1505    90.8420     0.0562     2.5125   -26.8589     6.8218     6.8067     6.9651
 1261.5000    13.1184    92.1674     0.0561     2.5051   -27.1652     6.8150     6.8011     6.9622
 1262.0000    13.1166    91.6910     0.0749     2.5113   -27.1712     6.8082     6.7952     6.9593
 1262.5000    13.1450    90.7641     0.0937     2.5275   -27.1772     6.8014     6.7898     6.9564
 1263.0000    13.1428    90.7382     0.1094     2.5425   -27.1832     6.7945     6.7842     6.8573
 1263.5000    13.1713    91.1793     0.1222     2.5590   -27.1902     6.7875     6.7785     6.7603
 1264.0000    13.1696    91.5871     0.1367     2.5756   -27.1960     6.6675     6.7729     6.6647
 1264.5000    13.1678    89.9346     0.1460     2.5816   -27.2018     6.4710     6.8138     6.5704
 1265.0000    13.1661    88.1229     0.1519     2.5709   -27.2076     6.4017     6.8561     6.5678
 1265.5000    13.1341    86.5067     0.1760     2.5708   -27.2134     6.3950     6.8503     6.4748
 1266.0000    13.1323    84.5673     0.1880     2.5659   -27.2192     6.3884     6.8446     6.4721
 1266.5000    13.1003    84.7191     0.1939     2.5423   -27.1991     6.4708     6.8681     6.4694
 1267.0000    13.0985    86.9139     0.1394     2.5275   -26.9305     6.6447     6.9296     6.4917
 1267.5000    13.0967    86.8879     0.1149     2.5058   -26.6360     6.7313     6.9227     6.5547
 1268.0000    13.0812    85.9610     0.0992     2.5662   -26.5505     6.7239     6.9170     6.5515
 1268.5000    13.0163    85.0342     0.0907     2.5724   -26.3472     6.8110     6.9102     6.6401
 1269.0000    12.9701    85.0082     0.0876     2.5703   -26.2182     6.9049     7.0010     6.7299
 1269.5000    12.9683    84.9822     0.0874     2.5793   -26.0601     7.0857     6.9960     6.9156
 1270.0000    12.9666    85.9460     0.0903     2.5852   -26.0672     7.0779     6.9898     6.9128
 1270.5000    12.9649    86.7321     0.0919     2.5821   -26.3733     7.1019     7.0816     6.9101
 1271.0000    12.9631    86.3468     0.0961     2.5837   -26.3791     7.1631     7.1012     7.0038
 1271.5000    12.9613    84.8739     0.1020     2.5850   -26.3849     7.2540     7.1466     7.0996
 1272.0000    12.9639    84.8468     0.1049     2.5864   -26.6910     7.4063     7.1627     7.2950
 1272.5000    12.9881    84.8198     0.1109     2.5949   -26.9971     7.1382     7.1833     7.2918
 1273.0000    12.9366    83.4361     0.0987     2.5874   -27.0030     7.0330     7.2515     7.3526
 1273.5000    12.8512    85.6624     0.0895     2.5726   -27.0090     6.8340     7.2445     7.3878
 1274.0000    12.7863    88.3391     0.0938     2.5862   -27.3153     6.8272     7.2385     7.4873
 1274.5000    12.7214    89.2141     0.1134     2.5981   -27.3213     7.0120     7.2313     7.4842
 1275.0000    12.7067    89.6396     0.0851     2.5784   -27.2272     7.1191     7.2255     7.4804
 1275.5000    12.6445    89.6126     0.0769     2.5738   -26.9108     7.3967     7.2197     7.4774
 1276.0000    12.5823    88.6487     0.0768     2.5617   -26.7387     7.3884     7.2139     7.4745
 1276.5000    12.5806    88.2093     0.0555     2.5390   -26.2782     7.4849     7.2082     7.5759
 1277.0000    12.5482    90.5421     0.0433     2.5267   -26.1502     7.5055     7.2024     7.5726
 1277.5000    12.5136    91.3105     0.0583     2.5253   -26.1570     7.6434     7.1965     7.5696
 1278.0000    12.4846    90.8288     0.0672     2.5320   -25.8619     7.7753     7.1905     7.5665
 1278.5000    12.4526    91.9227     0.0762     2.5488   -25.5680     7.7675     7.2854     7.5634
 1279.0000    12.4508    92.5766     0.0792     2.5546   -25.5738     7.7607     7.2787     7.5602
 1279.5000    12.4489    92.5450     0.0854     2.5491   -25.8799     7.7527     7.2726     7.5571
 1280.0000    12.4471    93.8704     0.0879     2.5475   -25.9058     7.7444     7.2666     7.5539
 1280.5000    12.4148    95.1958     0.0878     2.5489   -26.1922     7.8091     7.2606     7.5508
 1281.0000    12.3828    94.7194     0.0877     2.5504   -26.1982     7.8363     7.3566     7.5477
 1281.5000    12.3207    93.3421     0.0876     2.5609   -26.2042     7.8282     7.3487     7.5440
 1282.0000    12.3189    92.4152     0.0874     2.5547   -26.2102     7.8201     7.3429     7.5410
 1282.5000    12.3172    93.8665     0.0812     2.5394   -26.5165     7.8119     7.3374     7.5380
 1283.0000    12.2836    95.0660     0.0751     2.5295   -26.5225     7.8038     7.3313     7.5351
 1283.5000    12.2489    91.0204     0.0629     2.5102   -26.5285     7.7965     7.3252     7.5319
 1284.0000    12.2143    89.6036     0.0507     2.5053   -26.5355     7.8947     7.3191     7.5289
 1284.5000    12.1891    90.0270     0.0506     2.5121   -26.5413     7.8869     7.3130     7.5254
 1285.0000    12.1752    90.4504     0.0597     2.5160   -26.6066     7.8799     7.3070     7.5226
 1285.5000    12.1251    91.3195     0.0694     2.5326   -26.5526     7.8717     7.3000     7.5195
 1286.0000    12.0931    91.7440     0.0842     2.5496   -26.5587     7.8635     7.2948     7.5164
