~VERSION INFORMATION
 VERS.                2.0:   CWLS LOG ASCII STANDARD - VERSION 2.0
 WRAP.                 NO:   ONE LINE PER DEPTH STEP
~WELL INFORMATION
#MNEM.UNIT      DATA TYPE    INFORMATION
#----------   ------------   ------------------------------
 STRT.F          484.0000:   START DEPTH
 STOP.F         4334.0000:   STOP DEPTH
 STEP.F            0.5000:   STEP LENGTH
 NULL.          -999.2500:   NO VALUE
 COMP.    FENIX & SCISSON:   COMPANY
 WELL. FENIX NPR 3 "JX" #46-27:   WELL
 FLD .              N P R:   FIELD
 LOC .      S27 T39N R78W:   LOCATION
 CNTY.            NATRONA:   COUNTY
 STAT.            WYOMING:   STATE
 CTRY. UNITED STATES OF AMERICA:   COUNTRY
 SRVC.       SCHLUMBERGER:   SERVICE COMPANY
 DATE.        01-MAR-1979:   LOGDATE
 API .     49025107660000:   API NUMBER
~CURVE INFORMATION
#MNEM.UNIT       API CODE    CURVE DESCRIPTION
#----------   ------------   ------------------------------
 DEPT.F                  :   
 TENR.LBS    07 635 01 00:   TENSION FROM RESISTIVITY
 SPR .MV     07 010 01 00:   SPONTANEOUS POTENTIAL
 SFL .OHMM   07 220 01 00:   SHALLOW FOCUSED LOG RESISTIVITY
 ILD .OHMM   07 120 46 00:   DEEP INDUCTION RESISTIVITY
 ILM .OHMM   07 120 44 00:   INDUCTION LOG MEDIUM RESISTIVITY
 TEND.LBS    42 635 01 00:   TENSION FROM COMPENSATE NEUTRON
 GRD .GAPI   45 310 01 00:   GAMMA RAY FROM DENSITY LOG
 CALD.IN     45 280 60 00:   CALIPER FROM DENSITY LOG
 RHOB.G/C3   45 350 01 00:   BULK DENSITY
 CORR.G/C3   45 356 01 00:   DENSITY CORRECTION
 NPHI.DEC    42 890 03 00:   NEUTRON POROSITY SANDSTONE
~PARAMETER INFORMATION
#MNEM.UNIT          VALUE    DESCRIPTION
#----------   ------------   ------------------------------
 EKB .F         5059.0000:   Kelly bushing
 EGL .F         5049.0000:   Ground level
 EDF .F            0.0000:   Drilling floor
 TD  .F         4320.0000:   Total depth
 DATE.        01-MAR-1979:   Date logged
 CLNT.            A2DTECH:   Client Code
 SL  . 1625' FSL & 2281' FWL:   Surface Location
 PD  .                 GL:   Permanent Datum
 DD  .F              4320:   Depth driller
 DL  .F              4319:   Depth logger
 BLI .F              4316:   Bottom log interval
 CS1 .IN            8.625:   Casing size
 CBD1.      8.625" @ 505':   Casing driller 1
 CBL1.F               500:   Casing logger 1
 BS1 .IN            7.875:   Bit size
 DFT .                FGM:   Type fluid in hole
 DFD .                9.1:   Density
 DFV .                 40:   Viscosity
 DFPH.               11.7:   pH
 DFL .                6.5:   Fluid loss
 MSS .               TANK:   Source of sample
 RMS .OHMM           .901:   Rm
 MST .F                65:   Rm Meas. temp.
 RMF .OHMM           .852:   Rmf
 MFST.F                65:   Rmf Meas. temp.
 MFSS.               MEAS:   Source Rmf.
 RMB .OHMM            .39:   Rm. at BHT
 BHT .F               151:   BHT.
 TCS .HRS            1200:   Time Circ. stopped
 MRT .F               151:   Maximum recorded temp.
 LUN .               8043:   Logging unit number
 LUL .               CSPR:   Logging unit location
 ENGI.              PFARR:   Recorded By
 WITN.              AMENO:   Witnessed by
 ORIG.         2.5" PRINT:   Origin of data
 UWI .     49025107660000:   Unique Well ID
 DICO. A2D TECHNOLOGIES, INC.:   Digitizing Company
 DAPD.                 10:   Feet Above Permanent Datum
 BSD1.F              4320:   Depth drilled with bit1
 EPD .F              5049:   Elevation Permanent Datum
 LMF .                 KB:   Log Measured From
 DMF .                 KB:   Drilling Measured From
 TLI .F               500:   Top log interval
 TLAB.HRS            1900:   Time logger at bottom
~OTHER INFORMATION
~A   DEPT     TENR        SPR        SFL        ILD        ILM       TEND         GRD      CALD       RHOB       CORR         NPHI 
# ...
  728.0000   337.3020   -39.5970     6.0500     6.2900     6.0650   578.9550    99.8030    11.8200     1.8600     0.0980     0.4290
  728.5000   337.3020   -39.7250     6.4750     6.4110     6.2810   579.1540   100.6710    11.0000     2.0030     0.0170     0.4010
  729.0000   337.3020   -39.8540     6.9930     6.5330     6.4960   579.3530   101.3720    10.1670     2.1650    -0.0150     0.3630
  729.5000   337.3020   -39.9820     7.1630     6.6540     6.7110   579.5520   102.0700     9.4710     2.3270    -0.0100     0.3350
  730.0000   337.3020   -40.1090     7.3600     6.7420     6.8670   579.7500   102.8230     9.4410     2.4570    -0.0050     0.3250
  730.5000   337.3020   -40.2410     7.5560     6.8700     6.9970   579.9490   102.0940     9.3990     2.4690     0.0000     0.3110
  731.0000   337.3020   -40.2750     7.7520     7.0150     7.1440   580.1480   100.7220     9.3750     2.4690     0.0050     0.3140
  731.5000   337.3020   -40.2800     7.9490     7.1600     7.2920   580.3470    99.3920     9.3490     2.4790     0.0100     0.3190
  732.0000   337.3020   -39.9620     8.1450     7.3050     7.4390   580.5460    99.6630     9.3190     2.4910     0.0150     0.3160
  732.5000   337.3020   -39.5040     8.3420     7.4500     7.5870   580.7450   104.2210     9.2900     2.5040     0.0200     0.3150
  733.0000   337.3020   -39.0520     8.5380     7.5950     7.7350   580.9430   108.5170     9.2490     2.5140     0.0180     0.3170
  733.5000   337.3020   -38.5590     8.7080     7.6620     7.8040   581.1420   111.0460     9.2090     2.5200     0.0170     0.3180
  734.0000   337.3020   -38.3080     8.7080     7.8040     7.9480   581.3410   108.9990     9.1690     2.5180     0.0140     0.3190
  734.5000   337.3020   -38.4710     8.7080     7.8040     7.9480   581.5400   107.0780     9.1290     2.5070     0.0150     0.3130
  735.0000   337.3020   -38.5850     8.7080     7.8040     7.9480   581.7390   105.0070     9.0880     2.5000     0.0160     0.3150
  735.5000   337.3020   -38.7090     8.7080     7.8040     7.9480   581.9380   103.5010     9.0660     2.4940     0.0130     0.3180
  736.0000   337.3020   -38.8380     8.7080     7.8040     7.9480   582.1360   103.1980     9.0870     2.4880     0.0100     0.3170
  736.5000   337.3020   -38.9600     8.7080     7.8040     7.9480   582.3350   102.8220     9.1000     2.4830     0.0070     0.3150
  737.0000   337.3020   -39.0860     8.7080     7.7810     7.9250   582.5340   102.4990     9.1000     2.4860     0.0110     0.3130
  737.5000   337.3020   -39.2130     8.7080     7.7240     7.8670   582.7330   102.1980     9.1000     2.5030     0.0210     0.3100
  738.0000   337.3020   -39.3340     8.7080     7.6670     7.8080   582.9320   101.5780     9.1000     2.5140     0.0270     0.3100
  738.5000   337.3020   -39.4760     8.6660     7.6100     7.7500   583.1310   100.8560     9.1000     2.5020     0.0090     0.3130
  739.0000   337.3020   -39.6070     8.5980     7.5520     7.6920   583.3290    99.7200     9.1000     2.4850     0.0040     0.3190
  739.5000   337.3020   -39.7660     8.5290     7.4950     7.6330   583.5280   100.5290     9.1000     2.4740     0.0040     0.3200
  740.0000   337.3020   -39.9180     8.4610     7.4380     7.5750   583.7270   101.9410     9.1000     2.4810     0.0080     0.3150
  740.5000   337.3020   -40.0670     8.3920     7.3810     7.5170   583.9260   102.9910     9.1000     2.4960     0.0150     0.3170
  741.0000   337.3020   -40.2370     8.3240     7.3240     7.4590   584.1250   101.9810     9.1000     2.5060     0.0240     0.3190
  741.5000   337.3020   -40.1840     8.2560     7.2660     7.4000   584.3240   100.2730     9.1000     2.5010     0.0220     0.3200
  742.0000   337.3020   -39.9990     8.1870     7.2090     7.3420   584.5220    99.8480     9.1000     2.4970     0.0150     0.3200
  742.5000   337.3020   -39.8340     8.1190     7.1220     7.2540   584.7210   101.4260     9.1000     2.4970     0.0080     0.3130
  743.0000   337.3020   -39.6700     8.0500     7.1270     7.2580   584.9200   100.1850     9.1000     2.4930     0.0010     0.3050
  743.5000   337.3020   -39.5000     7.9480     7.1360     7.2670   585.1190    98.2010     9.1000     2.4860    -0.0010     0.3040
  744.0000   337.3020   -39.3340     7.9580     7.1440     7.2760   585.3180    99.4990     9.1000     2.4820     0.0000     0.3060
  744.5000   337.3020   -39.1700     7.9780     7.1540     7.2850   585.5170   101.0210     9.0930     2.4900     0.0020     0.3150
  745.0000   337.3020   -38.9980     7.9990     7.1630     7.2940   585.7160   102.6470     9.0840     2.4970     0.0050     0.3240
  745.5000   337.3020   -38.8350     8.0190     7.1710     7.3040   585.9140   104.3090     9.0750     2.5050     0.0100     0.3310
  746.0000   337.3020   -38.7070     8.0400     7.1800     7.3130   586.1130   104.0420     9.0660     2.5120     0.0140     0.3320
  746.5000   337.3020   -38.8610     8.0600     7.1890     7.3220   586.3120   103.7850     9.0510     2.5210     0.0140     0.3200
  747.0000   337.3020   -38.9980     8.0810     7.1980     7.3310   586.5110   103.3690     9.0280     2.5200     0.0140     0.3090
  747.5000   337.3020   -39.1500     8.0940     7.2070     7.3400   586.7100   103.0880     9.0050     2.5160     0.0140     0.3090
  748.0000   337.3020   -39.2940     8.0940     7.2150     7.3500   586.9090   102.9730     8.9820     2.5130     0.0160     0.3110
  748.5000   337.3020   -39.4400     8.0940     7.2250     7.3590   587.1070   104.9710     8.9590     2.5160     0.0220     0.3120
  749.0000   337.3020   -39.5870     8.0940     7.2300     7.3630   587.3060   106.6420     8.9400     2.5100     0.0250     0.3120
  749.5000   337.3020   -39.7330     8.0940     7.2470     7.3810   587.5050   108.5410     8.9430     2.4970     0.0160     0.3120
  750.0000   337.3020   -39.8800     8.0940     7.2340     7.3670   587.7040   109.0970     8.9500     2.4810     0.0080     0.3110
  750.5000   337.3020   -40.0250     8.0940     7.4010     7.5360   587.9030   108.6350     8.9570     2.4730     0.0060     0.3110
  751.0000   337.3020   -40.1730     8.0940     7.3820     7.5160   588.1020   108.2720     8.9640     2.4900     0.0070     0.3120
  751.5000   337.3020   -40.3180     8.0940     7.3910     7.5210   588.3000   106.7200     8.9710     2.5070     0.0200     0.3180
  752.0000   337.3020   -40.4610     8.0940     7.3890     7.5260   588.4990   105.3420     8.9780     2.5250     0.0310     0.3260
  752.5000   337.3020   -40.6230     8.0940     7.3880     7.5240   588.6980   103.9460     8.9860     2.5280     0.0390     0.3370
  753.0000   337.3020   -40.5600     8.0940     7.3870     7.5240   588.8970   102.9380     8.9930     2.5100     0.0310     0.3310
  753.5000   337.3020   -40.2890     8.1590     7.3870     7.5230   589.0960   104.6930     9.0000     2.4920     0.0230     0.3230
  754.0000   337.3020   -40.2810     8.2460     7.3870     7.5230   589.2950   104.8320     9.0070     2.4820     0.0200     0.3140
  754.5000   337.3020   -40.2770     8.3330     7.4020     7.5390   589.4930   104.0450     9.0140     2.4790     0.0200     0.3050
  755.0000   337.3020   -40.2730     8.4200     7.4490     7.5860   589.6920   103.3080     9.0210     2.4750     0.0180     0.3030
  755.5000   337.3020   -40.2950     8.5090     7.4950     7.6330   589.8910   102.5830     9.0280     2.4710     0.0100     0.3030
  756.0000   337.3020   -40.0780     8.5520     7.5420     7.6810   590.0900   101.8490     9.0350     2.4680     0.0020     0.3080
  756.5000   337.3020   -39.6050     8.5840     7.5880     7.7280   590.2890   101.1000     9.0430     2.4640     0.0000     0.3120
  757.0000   337.3020   -39.1920     8.6130     7.6340     7.7750   590.4880   100.3930     9.0490     2.4690     0.0030     0.3100
  757.5000   337.3020   -38.7300     8.6420     7.6810     7.8220   590.6860    99.6590     9.0570     2.4840     0.0090     0.3100
  758.0000   337.3020   -38.8090     8.6710     7.7270     7.8690   590.8850    99.7900     9.0610     2.4960     0.0190     0.3110
