~VERSION INFORMATION
 VERS.                2.0:   CWLS LOG ASCII STANDARD - VERSION 2.0
 WRAP.                 NO:   ONE LINE PER DEPTH STEP
~WELL INFORMATION
#MNEM.UNIT      DATA TYPE    INFORMATION
#----------   ------------   ------------------------------
 STRT.F          700.5000:   START DEPTH
 STOP.F         3060.0000:   STOP DEPTH
 STEP.F            0.5000:   STEP LENGTH
 NULL.          -999.2500:   NO VALUE
 COMP.    FENIX & SCISSON:   COMPANY
 WELL.   FENIX "A" #23-34:   WELL
 FLD .           N P R #3:   FIELD
 LOC .      S34 T39N R78W:   LOCATION
 CNTY.            NATRONA:   COUNTY
 STAT.            WYOMING:   STATE
 CTRY. UNITED STATES OF AMERICA:   COUNTRY
 SRVC.       SCHLUMBERGER:   SERVICE COMPANY
 DATE.        23-APR-1977:   LOGDATE
 API .     49025103590000:   API NUMBER
~CURVE INFORMATION
#MNEM.UNIT       API CODE    CURVE DESCRIPTION
#----------   ------------   ------------------------------
 DEPT.F                  :   
 ILD .OHMM   07 120 46 00:   DEEP INDUCTION RESISTIVITY
 ILM .OHMM   07 120 44 00:   INDUCTION LOG MEDIUM RESISTIVITY
 LL8 .OHMM   07 220 08 00:   LATEROLOG-8 RES.
 SPR .MV     07 010 01 00:   SPONTANEOUS POTENTIAL
 GRD .GAPI   45 310 01 00:   GAMMA RAY FROM DENSITY LOG
 CALD.IN     45 280 60 00:   CALIPER FROM DENSITY LOG
 RHOB.G/C3   45 350 01 00:   BULK DENSITY
 CORR.G/C3   45 356 01 00:   DENSITY CORRECTION
~PARAMETER INFORMATION
#MNEM.UNIT          VALUE    DESCRIPTION
#----------   ------------   ------------------------------
 EKB .F         5094.0000:   Kelly bushing
 EGL .F         5082.0000:   Ground level
 EDF .F            0.0000:   Drilling floor
 EPD .F            0.0000:   Permanent datum
 TD  .F         3051.0000:   Total depth
 DATE.        23-APR-1977:   Date logged
 CLNT.            A2DTECH:   Client Code
 SL  . 990' FWL & 1650' FNL:   Surface Location
 PD  .                 GL:   Permanent Datum
 DD  .F              3050:   Depth driller
 DL  .F              3051:   Depth logger
 BLI .F              3045:   Bottom log interval
 CS1 .IN            8.625:   Casing size
 CBD1.      8.625" @ 718':   Casing driller 1
 CBL1.F               717:   Casing logger 1
 BS1 .IN            7.875:   Bit size
 DFT .                FGM:   Type fluid in hole
 DFD .                8.8:   Density
 DFV .                 34:   Viscosity
 DFPH.                8.5:   pH
 DFL .                8.2:   Fluid loss
 MSS .           FLOWLINE:   Source of sample
 RMS .OHMM           .155:   Rm
 MST .F                66:   Rm Meas. temp.
 RMF .OHMM           .152:   Rmf
 MFST.F                66:   Rmf Meas. temp.
 MFSS.               MEAS:   Source Rmf.
 RMB .OHMM           .085:   Rm. at BHT
 BHT .F               120:   BHT.
 TCS .HRS            0230:   Time Circ. stopped
 MRT .F               120:   Maximum recorded temp.
 LUN .               5642:   Logging unit number
 LUL .               CSPR:   Logging unit location
 ENGI.             TAYLOR:   Recorded By
 WITN.         HARRINGTON:   Witnessed by
 ORIG.           5" PRINT:   Origin of data
 UWI .     49025103590000:   Unique Well ID
 DICO. A2D TECHNOLOGIES, INC.:   Digitizing Company
 DAPD.                 12:   Feet Above Permanent Datum
 BSD1.               3050:   Depth drilled with bit1
 TLI .                717:   Top log interval
 TLAB.               0530:   Time logger at bottom
~OTHER INFORMATION
~A   DEPT      ILD        ILM        LL8        SPR         GRD      CALD       RHOB       CORR   
# ...
  862.5000     8.7000     6.5470     8.5750   -65.5080   118.4110    10.6720     2.4940     0.0550
  863.0000     8.6570     6.5600     8.6370   -65.1860   118.9250    10.6270     2.4880     0.0440
  863.5000     8.6140     6.5730     8.6990   -65.1090   119.4610    10.5810     2.4840     0.0350
  864.0000     8.5710     6.5850     8.7610   -65.0420   116.7400    10.5700     2.5220     0.0430
  864.5000     8.5280     6.5980     8.8230   -64.9740   113.6300    10.5640     2.5100     0.0480
  865.0000     8.4850     6.6100     8.8850   -64.9060   110.3790    10.5590     2.4600     0.0260
  865.5000     8.4420     6.6230     8.9470   -64.8390   108.6150    10.5540     2.4570     0.0290
  866.0000     8.3990     6.6360     8.9980   -64.7810   110.3500    10.5490     2.4600     0.0420
  866.5000     8.3560     6.5700     8.8410   -64.7820   112.4830    10.5440     2.4730     0.0470
  867.0000     8.3120     6.4860     8.7080   -64.7710   113.1780    10.5380     2.4840     0.0350
  867.5000     8.2690     6.4010     8.5750   -65.1620   112.1180    10.5330     2.4690     0.0260
  868.0000     8.2260     6.3160     8.4350   -65.6520   108.5320    10.5280     2.4480     0.0170
  868.5000     8.1830     6.2700     8.4170   -66.1470   107.6900    10.5230     2.4460     0.0120
  869.0000     8.1400     6.2540     8.3830   -66.6440   111.9380    10.5170     2.4650     0.0220
  869.5000     8.0970     6.2390     8.3500   -67.1460   115.6940    10.5120     2.4850     0.0370
  870.0000     8.0540     6.2230     8.3160   -67.3350   119.1290    10.5070     2.4900     0.0440
  870.5000     8.0110     6.2080     8.2810   -67.5210   120.7050    10.5020     2.5000     0.0510
  871.0000     7.9680     6.1930     8.2550   -67.3750   120.7420    10.4960     2.5110     0.0580
  871.5000     7.9250     6.1770     8.2060   -67.1320   122.4390    10.5000     2.5050     0.0490
  872.0000     7.8810     6.1640     8.1580   -66.8840   123.9980    10.5090     2.4980     0.0390
  872.5000     7.8350     6.1350     8.1090   -66.6330   124.7130    10.5180     2.5190     0.0540
  873.0000     7.8270     6.1040     8.0610   -66.3880   124.2860    10.5260     2.5240     0.0740
  873.5000     7.8150     6.0740     8.0120   -66.8690   124.7560    10.5350     2.5200     0.0660
  874.0000     7.8040     6.0430     7.9640   -67.3290   124.1280    10.5440     2.5060     0.0480
  874.5000     7.7930     6.0120     7.9150   -67.1030   123.4760    10.5530     2.4930     0.0400
  875.0000     7.7810     5.9810     7.8670   -66.8650   123.1480    10.5620     2.4910     0.0360
  875.5000     7.7700     5.9510     7.8180   -66.6280   121.5340    10.5710     2.5070     0.0460
  876.0000     7.7590     5.9200     7.7700   -66.3990   120.1210    10.5750     2.5200     0.0570
  876.5000     7.7470     5.8890     7.7210   -66.6840   118.9720    10.5770     2.5240     0.0510
  877.0000     7.7360     5.8860     7.6720   -67.0360   119.9110    10.5780     2.5080     0.0540
  877.5000     7.7250     5.8860     7.6240   -67.3620   123.6770    10.5800     2.4950     0.0480
  878.0000     7.7140     5.8860     7.5750   -67.5070   127.6260    10.5810     2.4860     0.0380
  878.5000     7.7030     5.8860     7.5270   -67.6410   128.0760    10.5830     2.4820     0.0290
  879.0000     7.6920     5.8860     7.4820   -67.7750   127.6330    10.5850     2.4960     0.0350
  879.5000     7.8280     5.8860     7.6320   -67.9200   128.1900    10.5860     2.5200     0.0470
  880.0000     7.9550     5.8860     7.7240   -67.7220   127.7060    10.5880     2.5290     0.0580
  880.5000     8.0830     5.9400     7.8170   -67.3770   125.2940    10.5890     2.5340     0.0570
  881.0000     8.2110     6.1970     7.9100   -67.0280   122.9280    10.5910     2.5440     0.0630
  881.5000     8.4480     6.3960     8.0030   -66.6790   120.8190    10.5930     2.5540     0.0780
  882.0000     8.8200     6.5950     8.2750   -66.3300   119.9910    10.5940     2.5600     0.0770
  882.5000     9.1930     6.7940     8.7700   -65.9810   119.3480    10.5960     2.5180     0.0610
  883.0000     9.5650     6.9930     9.2640   -65.6380   117.9210    10.5970     2.4980     0.0440
  883.5000     9.9370     7.1910     9.7580   -65.4030   113.9010    10.5990     2.4990     0.0360
  884.0000    10.3090     7.3450    10.2390   -65.1980   109.9830    10.6010     2.5070     0.0420
  884.5000    10.6810     7.5080    10.0660   -64.9910   109.9020    10.6020     2.5070     0.0500
  885.0000    11.1250     7.6660     9.8680   -64.7840   111.3970    10.6040     2.5080     0.0520
  885.5000    11.1250     7.8240    10.0660   -64.5940   112.1630    10.6050     2.5120     0.0470
  886.0000    11.0230     7.9810    10.3230   -64.7540   110.9810    10.6070     2.5110     0.0430
  886.5000    10.9130     8.0410    10.5260   -64.9260   108.7480    10.6080     2.5050     0.0380
  887.0000    10.8700     8.0550    10.4590   -65.0970   108.1460    10.6100     2.4980     0.0380
  887.5000    10.8270     8.0650    10.3920   -65.2680   107.3610    10.6120     2.4940     0.0380
  888.0000    10.7840     8.1150    10.3260   -65.4360   105.3090    10.6130     2.4980     0.0430
  888.5000    10.7410     8.1640    10.2590   -65.5330   103.2230    10.6080     2.4990     0.0450
  889.0000    10.6980     8.2050    10.1930   -65.2730   102.6010    10.5970     2.4920     0.0420
  889.5000    10.6550     8.1170    10.1260   -65.0180   104.7440    10.5870     2.4830     0.0380
  890.0000    10.6120     8.0440    10.0590   -64.7640   105.8990    10.5760     2.4800     0.0340
  890.5000    10.5690     7.9700     9.9930   -64.5100   105.6390    10.5660     2.4850     0.0380
  891.0000    10.5260     7.8960     9.9260   -64.2550   103.7640    10.5550     2.4910     0.0430
  891.5000    10.4830     7.8350     9.8600   -64.0040   103.2390    10.5450     2.4960     0.0480
  892.0000    10.4300     7.8440     9.7770   -63.8170   104.1090    10.5340     2.4850     0.0320
  892.5000    10.4450     7.8670     9.9980   -64.0420   104.9880    10.5230     2.4720     0.0290
  893.0000    10.4730     7.8910    10.2390   -64.0970   106.8290    10.5130     2.4720     0.0310
  893.5000    10.5000     7.9150    10.0840   -63.8280   108.9540    10.5020     2.4740     0.0330
  894.0000    10.5280     7.9380     9.8680   -63.5690   109.2070    10.4920     2.4660     0.0120
  894.5000    10.5550     7.9620     9.8680   -63.4510   106.9680    10.4810     2.4560     0.0180
  895.0000    10.5830     7.9850     9.9400   -63.6590   107.1690    10.4700     2.4670     0.0290
  895.5000    10.6100     8.0090    10.0020   -63.8570   109.4430    10.4600     2.4660     0.0300
  896.0000    10.6380     8.0330    10.0650   -64.0540   111.2930    10.4430     2.4590     0.0220
  896.5000    10.6650     8.0560    10.1450   -64.2510   109.9660    10.4200     2.4590     0.0240
  897.0000    10.6930     8.0800    10.0960   -64.4490   108.5250    10.3970     2.4720     0.0290
  897.5000    10.7220     8.1040    10.0300   -64.6240   106.7720    10.3740     2.4870     0.0410
  898.0000    10.6510     8.1290     9.9630   -64.7580   104.8290    10.3510     2.5030     0.0540
  898.5000    10.5730     8.1290     9.8970   -64.8860   105.8570    10.3280     2.5030     0.0440
  899.0000    10.4960     8.0860     9.8300   -64.8910   107.7140    10.3050     2.4750     0.0320
  899.5000    10.4180     8.0020     9.7640   -64.5490   109.6160    10.2820     2.4740     0.0380
  900.0000    10.3400     7.9170     9.6970   -64.3150   111.5800    10.2650     2.4800     0.0270
  900.5000    10.2630     7.8320     9.6310   -64.1860   111.6710    10.2510     2.4680     0.0270
  901.0000    10.1850     7.7480     9.5640   -64.1210   112.3080    10.2360     2.4840     0.0360
  901.5000    10.1080     7.6630     9.4980   -64.0610   113.2240    10.2220     2.4820     0.0200
  902.0000    10.0520     7.5790     9.4230   -64.0010   113.9420    10.2070     2.4750     0.0230
  902.5000    10.0250     7.5510     9.4890   -63.9410   111.2230    10.1930     2.4870     0.0370
