~VERSION INFORMATION
 VERS.                2.0:   CWLS LOG ASCII STANDARD - VERSION 2.0
 WRAP.                 NO:   ONE LINE PER DEPTH STEP
~WELL INFORMATION
#MNEM.UNIT      DATA TYPE    INFORMATION
#----------   ------------   ------------------------------
 STRT.F            0.0000:   START DEPTH
 STOP.F         1071.5000:   STOP DEPTH
 STEP.F            0.5000:   STEP LENGTH
 NULL.          -999.2500:   NO VALUE
 COMP.       FLUOR DANIEL:   COMPANY
 WELL.     FLUOR X #82-22:   WELL
 FLD .                NPR:   FIELD
 LOC .      S22 T38N R78W:   LOCATION
 CNTY.            NATRONA:   COUNTY
 STAT.            WYOMING:   STATE
 CTRY. UNITED STATES OF AMERICA:   COUNTRY
 SRVC.      WESTERN ATLAS:   SERVICE COMPANY
 DATE.        19-SEP-1994:   LOGDATE
 API .     49025226520000:   API NUMBER
~CURVE INFORMATION
#MNEM.UNIT       API CODE    CURVE DESCRIPTION
#----------   ------------   ------------------------------
 DEPT.F                  :   
 GRR .GAPI   07 310 01 00:   GAMMA RAY FROM RESISTIVITY
 TENR.LBS    07 635 01 00:   TENSION
 ILD .OHMM   07 120 46 00:   INDUCTION LOG DEEP RESISTIVITY
 ILM .OHMM   07 120 44 00:   INDUCTION LOG MEDIUM RESISTIVITY
~PARAMETER INFORMATION
#MNEM.UNIT          VALUE    DESCRIPTION
#----------   ------------   ------------------------------
 EKB .F         5288.0000:   Kelly bushing
 EGL .F         5278.0000:   Ground level
 EDF .F         5287.0000:   Drilling floor
 EPD .F         5278.0000:   Permanent datum
 TD  .F         1062.0000:   Total depth
 DATE.        19-SEP-1994:   Date logged
 CLNT.            A2DTECH:   Client Code
 SL  . 937' FNL & 347' FEL:   Surface Location
 PD  .                 GL:   Permanent Datum
 LMF .                 KB:   Log Measured From
 DMF .                 KB:   Drilling Measured From
 DAPD.F                10:   Feet Above Permanent Datum
 DD  .F              1060:   Depth driller
 DL  .F              1062:   Depth logger
 BLI .F              1054:   Bottom log interval
 CS1 .IN            9.625:   Casing size
 CBD1.       9.625" @ 77':   Casing driller 1
 CBL1.F                78:   Casing logger 1
 BS1 .IN             8.75:   Bit size
 BSD1.F              1060:   Depth drilled with bit1
 DFT .                AIR:   Type fluid in hole
 LUN .            HL 6530:   Logging unit number
 LUL .             CASPER:   Logging unit location
 ENGI.      PAT RASMUSSEN:   Recorded By
 WITN.        GARY STRONG:   Witnessed by
 ORIG.           5" PRINT:   Origin of data
 UWI .     49025226520000:   Unique Well ID
 DICO. A2D TECHNOLOGIES, INC.:   Digitizing Company
~OTHER INFORMATION
~A    DEPT      GRR      TENR        ILD        ILM   
# ...
  730.0000   126.6780    -8.4430     6.2920     6.4280
  730.5000   125.4700    -9.8320     6.2800     6.4280
  731.0000   123.1650   -11.2210     6.2690     6.4550
  731.5000   120.8790   -12.6110     6.2570     6.5150
  732.0000   118.5520   -13.1260     6.2520     6.5760
  732.5000   118.3740   -11.6140     6.4470     6.6360
  733.0000   122.1490   -10.1020     6.5770     6.6960
  733.5000   125.0710    -8.5900     6.6490     6.7560
  734.0000   121.5050    -7.0780     6.7020     6.8160
  734.5000   118.6810    -5.5660     6.7420     6.8760
  735.0000   118.1800    -4.0540     6.7650     6.9360
  735.5000   119.9360    -3.5210     6.7880     6.9940
  736.0000   122.1770    -3.5210     6.9250     7.0520
  736.5000   123.9600    -3.5210     7.1190     7.1100
  737.0000   125.1410    -3.5210     7.2510     7.1670
  737.5000   126.3780    -3.5210     7.2240     7.2250
  738.0000   126.4240    -3.5210     7.2030     7.2510
  738.5000   125.4000    -3.5210     7.1820     7.2510
  739.0000   123.7260    -3.5210     7.1620     7.2510
  739.5000   124.4960    -3.5210     7.1410     7.2510
  740.0000   126.8060    -3.5210     7.1200     7.2510
  740.5000   129.7320    -3.5210     7.1180     7.2510
  741.0000   130.7370    -3.5210     7.1180     7.2510
  741.5000   129.2600    -3.5210     7.1180     7.2510
  742.0000   127.5560    -3.5210     7.1180     7.2500
  742.5000   127.6610    -3.5210     7.1330     7.2720
  743.0000   129.2020    -3.5210     7.1600     7.3300
  743.5000   130.6360    -3.5210     7.1870     7.3880
  744.0000   129.4110    -3.5210     7.2140     7.4550
  744.5000   126.6880    -3.5210     7.2510     7.4150
  745.0000   125.1170    -3.5210     7.2130     7.3670
  745.5000   126.2090    -3.5210     7.1570     7.3190
  746.0000   127.3420    -3.5210     7.1000     7.2710
  746.5000   127.8730    -3.5210     7.0490     7.2230
  747.0000   127.2610    -3.5210     7.0270     7.1750
  747.5000   126.1210    -3.5210     7.0040     7.1280
  748.0000   125.1650    -3.5210     6.9820     7.0720
  748.5000   127.4000    -0.8990     6.9600     7.0140
  749.0000   127.4940     2.3140     6.9380     6.9570
  749.5000   127.4760     5.5270     6.9150     6.8990
  750.0000   126.9140     4.1880     6.8930     6.8590
  750.5000   124.5530     0.7550     6.8710     6.8710
  751.0000   122.3060    -2.6790     6.8490     6.8800
  751.5000   122.6310    -6.1120     6.8260     6.8890
  752.0000   125.3490    -9.5450     6.8040     6.8990
  752.5000   127.5570   -12.9780     6.7670     6.9080
  753.0000   124.8420   -13.1390     6.7190     6.9170
  753.5000   121.8790   -12.6030     6.6710     6.9230
  754.0000   121.4500   -12.0660     6.6230     6.6520
  754.5000   122.4170   -11.5300     6.4810     6.4630
  755.0000   122.1590   -10.9930     6.2980     6.2410
  755.5000   121.5400   -10.4560     6.0280     6.0190
  756.0000   120.8480    -9.9200     5.7290     5.7970
  756.5000   123.7350    -9.3830     5.4910     5.4910
  757.0000   127.8470    -8.8470     5.4910     5.5380
  757.5000   129.8220    -8.3100     5.4910     5.6130
  758.0000   129.2950    -7.7740     5.4910     5.6890
  758.5000   126.3960    -7.2370     5.5100     5.7640
  759.0000   122.6260    -6.7010     5.5470     5.8400
  759.5000   119.2740    -6.1640     5.5850     5.9150
  760.0000   121.8670    -5.6280     5.6910     5.9900
  760.5000   128.6120    -5.0910     5.8190     6.0660
  761.0000   132.7030    -4.5540     5.9470     6.1650
  761.5000   129.5530    -4.0180     6.0750     6.2690
  762.0000   126.7590    -3.5210     6.2030     6.3730
  762.5000   128.0300    -3.5210     6.3310     6.4880
  763.0000   128.0760    -3.5210     6.3770     6.5230
  763.5000   126.9250    -3.5210     6.3890     6.5480
  764.0000   125.7550    -3.5210     6.4020     6.5100
  764.5000   125.1180    -3.5210     6.4140     6.4700
  765.0000   127.8680    -3.5210     6.4280     6.4300
  765.5000   130.7380    -3.5210     6.3720     6.3900
  766.0000   133.6110    -3.5210     6.3040     6.3520
  766.5000   133.4640    -3.5210     6.2370     6.2880
  767.0000   131.5880    -3.5210     6.1690     6.2240
  767.5000   129.2030    -3.5210     6.0750     6.1240
  768.0000   126.3150    -3.5210     5.9560     5.9900
  768.5000   123.5010    -3.5210     5.8380     5.8570
  769.0000   125.7870    -3.5210     5.7200     5.7230
  769.5000   129.7290    -3.5210     5.5420     5.5430
  770.0000   130.3040    -3.5210     5.3510     5.3540
  770.5000   128.6300    -3.5210     5.1600     5.1640
  771.0000   127.1670    -3.5210     4.9690     4.9740
  771.5000   127.0140    -3.5210     4.6910     4.7840
  772.0000   123.5640    -3.5210     4.7020     4.7350
  772.5000   119.7790    -3.5210     4.7220     4.7350
  773.0000   115.9680    -3.5210     4.7430     4.7780
  773.5000   113.4330    -3.5210     4.7630     4.9980
  774.0000   114.5050    -3.5210     4.8390     5.2180
  774.5000   118.0460    -3.5210     5.0850     5.4380
  775.0000   119.1960    -3.5210     5.3300     5.6570
  775.5000   119.8810    -3.1160     5.5940     5.8770
  776.0000   120.6160    -2.3230     5.7590     6.0970
  776.5000   122.5700    -1.5310     5.9360     6.2280
  777.0000   124.3560    -0.7380     6.0930     6.2890
  777.5000   124.5140     0.0540     6.1590     6.3500
  778.0000   123.6890     0.8470     6.2250     6.4110
  778.5000   124.4600     1.6390     6.2910     6.4720
  779.0000   124.9460     2.4320     6.3570     6.5330
  779.5000   125.2930     3.2240     6.4230     6.5940
  780.0000   125.6330     4.0160     6.4890     6.6550
  780.5000   125.7650     4.8090     6.5550     6.7140
  781.0000   125.4810     5.6010     6.6260     6.7720
  781.5000   125.2210     6.3940     6.7180     6.8300
  782.0000   125.7580     3.0350     6.8100     6.8890
  782.5000   127.4530    -1.2580     6.9020     6.9470
  783.0000   129.1220    -5.5500     6.9870     7.0050
  783.5000   130.2710    -9.8420     7.0110     7.0630
  784.0000   130.0580   -13.5810     7.0330     7.1210
  784.5000   129.9330   -13.5810     7.0570     7.1790
  785.0000   130.1910   -13.5810     7.0910     7.2380
  785.5000   130.9910   -13.5810     7.1250     7.2960
  786.0000   132.1790   -13.5810     7.1590     7.3250
  786.5000   131.7550   -13.5810     7.1940     7.3370
  787.0000   127.5600   -23.6420     7.2280     7.3490
  787.5000   122.8630   -22.7350     7.2620     7.3600
  788.0000   122.0110   -21.8900     7.2960     7.3720
  788.5000   124.9700   -21.0460     7.3180     7.3860
  789.0000   128.5850   -20.2020     7.2560     7.3250
  789.5000   129.4830   -19.3570     7.1910     7.2440
  790.0000   129.1060   -18.5130     7.1260     7.1640
  790.5000   128.6140   -17.6680     7.0600     7.0990
  791.0000   126.5410   -16.8240     6.9950     7.0540
  791.5000   125.7000   -15.9790     6.9290     7.0100
  792.0000   128.9420   -15.1350     6.9220     6.9660
  792.5000   132.0100   -14.2910     6.9220     6.9220
  793.0000   129.1820   -13.4460     6.9230     6.8780
  793.5000   124.1840   -12.6020     6.9230     6.7860
  794.0000   121.5150   -11.7570     6.9230     6.6590
  794.5000   122.7840   -10.9130     6.6590     6.5330
  795.0000   124.1810   -10.0690     6.3980     6.3420
  795.5000   125.5870    -9.2240     6.1370     6.1160
  796.0000   127.2910    -8.3800     5.8770     5.8720
  796.5000   129.3630    -7.5350     5.5560     5.4790
  797.0000   131.4310    -6.6910     5.1790     5.1460
  797.5000   133.5560    -5.8470     4.8020     4.6940
  798.0000   133.6510    -5.0020     4.3530     4.2140
  798.5000   131.8840    -4.1580     3.8520     3.7040
  799.0000   130.8880    -3.7160     3.3520     3.1940
  799.5000   131.2870    -4.5090     2.8520     2.7970
  800.0000   130.6490    -5.3010     2.4400     2.4200
  800.5000   128.8350    -6.0930     2.2440     2.1640
  801.0000   127.1420    -6.8860     2.0710     2.0190
  801.5000   122.4920    -7.6780     2.0390     2.0080
  802.0000   116.9860    -8.4710     2.0060     2.0000
  802.5000   113.8930    -9.2630     2.0000     2.2580
