~VERSION INFORMATION
 VERS.                2.0:   CWLS LOG ASCII STANDARD - VERSION 2.0
 WRAP.                 NO:   ONE LINE PER DEPTH STEP
~WELL INFORMATION
#MNEM.UNIT      DATA TYPE    INFORMATION
#----------   ------------   ------------------------------
 STRT.F           10.0000:   START DEPTH
 STOP.F         2950.0000:   STOP DEPTH
 STEP.F            0.5000:   STEP LENGTH
 NULL.          -999.2500:   NO VALUE
 COMP.    FENIX & SCISSON:   COMPANY
 WELL.   PENIX SHX #11-23:   WELL
 FLD .  TEAPOT DOME NPR-3:   FIELD
 LOC .      S23 T38N R78W:   LOCATION
 CNTY.            NATRONA:   COUNTY
 STAT.            WYOMING:   STATE
 CTRY. UNITED STATES OF AMERICA:   COUNTRY
 SRVC.           BIRDWELL:   SERVICE COMPANY
 DATE.        19-MAY-1979:   LOGDATE
 API .     49025107790000:   API NUMBER
~CURVE INFORMATION
#MNEM.UNIT       API CODE    CURVE DESCRIPTION
#----------   ------------   ------------------------------
 DEPT.F                  :   
 ILD .OHMM   05 120 46 00:   INDUCTION LOG DEEP
 SN  .OHMM   05 040 16 00:   SHORT NORMAL 16"
 CALD.IN     45 280 60 00:   CALIPER FROM DENSITY LOG
 GRD .GAPI   45 310 01 00:   GAMMA RAY FROM DENSITY LOG
 RHOB.G/C3   45 350 01 00:   BULK DENSITY
 CORR.G/C3   45 356 01 00:   DENSITY CORRECTION
~PARAMETER INFORMATION
#MNEM.UNIT          VALUE    DESCRIPTION
#----------   ------------   ------------------------------
 EKB .F         5275.0000:   Kelly bushing
 EGL .F         5265.0000:   Ground level
 EDF .F            0.0000:   Drilling floor
 TD  .F         2995.0000:   Total depth
 DATE.        19-MAY-1979:   Date logged
 CLNT.            A2DTECH:   Client Code
 SL  . 337' FNL & 237' FWL:   Surface Location
 PD  .                 GL:   Permanent Datum
 EPD .F              5265:   Elevation Permanent Datum
 LMF .                 KB:   Log Measured From
 DMF .                 KB:   Drilling Measured From
 DAPD.F                10:   Feet Above Permanent Datum
 DD  .F              2995:   Depth driller
 DL  .F              2950:   Depth logger
 BLI .F              2944:   Bottom log interval
 TLI .F              1050:   Top log interval
 CS1 .IN            9.625:   Casing size
 CBD1.     9.625" @ 2050':   Casing driller 1
 CBL1.F              1050:   Casing logger 1
 BS1 .IN             8.75:   Bit size
 BSD1.F              2995:   Depth drilled with bit1
 DFT . AIR/FORRATION FLUIDS:   Type fluid in hole
 TCS .HRS              12:   Time Circ. stopped
 LUN .               3029:   Logging unit number
 LUL .             CASPER:   Logging unit location
 ENGI.         B. ROLLINS:   Recorded By
 ORIG.         2.5" PRINT:   Origin of data
 UWI .     49025107790000:   Unique Well ID
 DICO. A2D TECHNOLOGIES, INC.:   Digitizing Company
~OTHER INFORMATION
~A   DEPT      ILD         SN       CALD        GRD       RHOB         CORR 
# ...
 2870.0000     3.0780     3.7000     8.9790   126.6670     2.3700     0.2940
 2870.5000     2.8420     3.5750     9.1190   128.6340     2.0010     0.3230
 2871.0000     2.8950     3.4500     9.6760   130.2860     1.9980     0.3070
 2871.5000     2.8080     3.3380     9.5550   134.5590     1.9190     0.3270
 2872.0000     2.5910     3.2310    10.3000   139.2940     1.7990     0.0590
 2872.5000     2.6390     3.1580    10.7610   136.5530     1.8360     0.1430
 2873.0000     2.7900     3.3080    10.3380   137.7810     1.9990     0.2570
 2873.5000     2.9490     3.5440     9.6660   138.4420     2.2590     0.2880
 2874.0000     2.8700     3.4820     9.4270   137.1600     2.2190     0.2970
 2874.5000     2.8260     3.3710     9.4940   136.1450     2.1440     0.3080
 2875.0000     2.7900     3.3130    10.1190   135.1930     2.0550     0.3130
 2875.5000     3.0460     3.5420     9.8300   133.9330     2.0550     0.3180
 2876.0000     3.2950     3.8270     9.4530   137.0920     2.3800     0.3540
 2876.5000     3.1170     3.6130     9.5760   139.4050     2.3740     0.3510
 2877.0000     3.1760     3.9770     9.6130   139.6390     2.3760     0.3270
 2877.5000     3.2950     4.2950     9.3680   144.7370     2.2880     0.3020
 2878.0000     3.9650     4.4100     9.2860   138.8270     2.0410     0.2780
 2878.5000     3.8920     4.6920     9.9290   130.9340     1.9830     0.2540
 2879.0000     4.0390     4.9250    10.4040   127.2730     2.0210     0.2300
 2879.5000     4.4300     5.0700     9.4800   132.2950     2.1800     0.2150
 2880.0000     4.4300     5.4030     9.1570   139.1800     2.3770     0.2300
 2880.5000     4.5970     5.7310     8.9590   143.5320     2.4470     0.2660
 2881.0000     4.2640     5.0800     9.0890   141.0050     2.4240     0.2980
 2881.5000     4.0450     4.6380     9.1550   136.2010     2.3900     0.3120
 2882.0000     4.0770     4.9310     9.0020   132.9490     2.3560     0.3210
 2882.5000     4.1140     5.1460     9.2790   130.1810     2.3340     0.2620
 2883.0000     4.2690     4.8940     9.1020   131.7470     2.3840     0.2060
 2883.5000     4.2690     4.6420     8.9800   134.0540     2.4360     0.1760
 2884.0000     4.1760     4.2130     8.7450   136.7190     2.4880     0.2190
 2884.5000     4.0390     4.5230     9.0560   139.1320     2.5570     0.2520
 2885.0000     4.0390     5.7700     9.0800   144.0600     2.5450     0.1740
 2885.5000     4.0390     5.6080     8.8240   142.3590     2.5040     0.0940
 2886.0000     4.2640     5.2850     8.7860   140.1490     2.5250     0.0720
 2886.5000     4.5130     5.4580     8.8910   137.5850     2.5600     0.1030
 2887.0000     4.0390     5.7310     8.8700   137.7450     2.5510     0.1260
 2887.5000     4.0590     5.2980     8.7920   138.9460     2.5720     0.1570
 2888.0000     4.0770     5.0870     8.7540   137.4950     2.5290     0.1230
 2888.5000     4.0940     5.4540     8.8750   137.6130     2.4600     0.1340
 2889.0000     4.1140     5.6500     8.9470   138.3640     2.4640     0.2350
 2889.5000     4.1600     5.2060     9.1150   138.6860     2.4550     0.3120
 2890.0000     4.2140     5.3070     9.5810   137.6280     2.3640     0.2560
 2890.5000     4.2690     5.8010     9.4660   127.7350     2.3940     0.1710
 2891.0000     4.3230     6.2130     8.8900   131.7710     2.4550     0.2380
 2891.5000     4.5780     6.2890     8.7290   141.0880     2.5390     0.2610
 2892.0000     5.0420     6.8140     8.6990   141.1140     2.4790     0.2020
 2892.5000     5.0640     6.7070     8.5860   144.4430     2.3790     0.2230
 2893.0000     5.0870     6.4320     9.2010   146.8020     2.2650     0.3290
 2893.5000     5.1100     6.5730     9.9150   148.4010     2.1490     0.3140
 2894.0000     5.1330     6.8140     9.3530   150.7190     2.0030     0.2740
 2894.5000     5.1560     6.8140     9.4550   152.0730     2.1520     0.2140
 2895.0000     5.1790     6.8140     9.7880   150.2460     2.3140     0.1550
 2895.5000     5.2020     6.9460     8.9500   146.5570     2.4240     0.0410
 2896.0000     5.2320     6.9460     8.5800   141.0570     2.4850     0.0110
 2896.5000     5.2000     6.9460     8.6830   143.7970     2.5430     0.0480
 2897.0000     5.1520     6.9460     8.6820   107.8340     2.5930     0.1010
 2897.5000     5.1040     6.9460     8.7160   110.8040     2.6380     0.0870
 2898.0000     5.0570     6.8040     8.7420   120.8100     2.6380     0.0650
 2898.5000     5.0090     6.5340     8.7660   141.3220     2.6020     0.0420
 2899.0000     4.9610     6.3090     8.7690   140.1930     2.5740     0.0220
 2899.5000     4.9500     6.6840     8.7700   140.5690     2.5870     0.0230
 2900.0000     4.9500     6.8140     8.7690   136.1350     2.5910     0.0230
 2900.5000     4.9150     6.9240     8.7690   142.5670     2.5900     0.0250
 2901.0000     4.8860     6.8790     8.7690   141.3730     2.5900     0.0290
 2901.5000     4.8590     6.6020     8.7690   140.1520     2.6020     0.0420
 2902.0000     4.5130     6.3250     8.7690   137.9690     2.6050     0.0470
 2902.5000     4.5130     6.1890     8.7690   140.3800     2.5930     0.0360
 2903.0000     4.5130     5.8420     8.7700   140.2900     2.5880     0.0290
 2903.5000     4.5130     5.8160     8.7680   142.2110     2.5900     0.0280
 2904.0000     4.5560     5.7450     8.7700   142.0130     2.5840     0.0380
 2904.5000     4.6690     5.8340     8.7740   141.9030     2.5800     0.0410
 2905.0000     4.7820     6.3220     8.7560   141.7670     2.5650     0.0480
 2905.5000     4.8950     6.6840     8.7890   140.7050     2.5600     0.0580
 2906.0000     5.0080     7.0810     8.7730   147.6620     2.6240     0.1660
 2906.5000     5.2110     8.4190     9.0790   150.0420     2.6190     0.1500
 2907.0000     5.4540     8.3830     8.7350   144.5310     2.5570     0.0690
 2907.5000     5.6970     8.3150     8.7450   140.9710     2.5270     0.0040
 2908.0000     5.9390     8.2580     8.6770   139.7230     2.5420     0.0040
 2908.5000     6.1800     8.0740     8.6780   139.2030     2.5530     0.0140
 2909.0000     5.9940     7.9170     8.6710   138.9110     2.5680     0.0330
 2909.5000     5.8090     7.7610     8.6560   138.7410     2.5690     0.0370
 2910.0000     5.5310     7.6470     8.6440   138.5690     2.5630     0.0410
 2910.5000     6.0670     7.6470     8.6460   141.0120     2.5670     0.0460
 2911.0000     5.9980     7.6470     8.6120   141.3780     2.5720     0.0470
 2911.5000     5.9350     7.6730     8.6190   141.9210     2.5370     0.0490
 2912.0000     5.8460     7.7200     8.7050   141.9700     2.4850     0.0640
 2912.5000     5.8790     7.7680     9.1740   145.3500     2.5030     0.2260
 2913.0000     5.9560     7.7960     8.7970   150.8400     2.5370     0.2010
 2913.5000     5.9290     7.9190     8.6840   149.4660     2.5050     0.0870
 2914.0000     5.8860     8.1010     8.6840   146.7230     2.4930     0.0340
 2914.5000     5.8430     7.9370     8.6690   143.7540     2.5670     0.0410
 2915.0000     5.8010     7.7830     8.6650   141.2600     2.5940     0.0480
 2915.5000     5.7580     7.6300     8.6570   139.7270     2.5910     0.0500
 2916.0000     5.7390     7.5010     8.6480   141.0540     2.5840     0.0480
 2916.5000     5.7610     7.5010     8.6410  -999.2500     2.5700     0.0460
 2917.0000     5.8160     7.5010     8.6330  -999.2500     2.5700     0.0510
 2917.5000     5.8710     7.6240     8.6250  -999.2500     2.5790     0.0580
 2918.0000     5.9270     7.9470     8.6200  -999.2500     2.5810     0.0530
 2918.5000     5.9560     8.0440     8.6060  -999.2500     2.5690     0.0400
 2919.0000     5.9560     8.2470     8.6400  -999.2500     2.5670     0.0250
 2919.5000     5.9830     8.4500     8.6550  -999.2500     2.5610     0.0140
 2920.0000     6.0130     8.5820     8.6440  -999.2500     2.5530     0.0120
 2920.5000     6.0430     8.5820     8.6470  -999.2500     2.5470     0.0100
 2921.0000     6.0730     8.3170     8.5940  -999.2500     2.5540     0.0100
 2921.5000     6.1030     7.7960     8.6440  -999.2500     2.5600     0.0100
