~VERSION INFORMATION
 VERS.                2.0:   CWLS LOG ASCII STANDARD - VERSION 2.0
 WRAP.                 NO:   ONE LINE PER DEPTH STEP
~WELL INFORMATION
#MNEM.UNIT      DATA TYPE    INFORMATION
#----------   ------------   ------------------------------
 STRT.F           60.0000:   START DEPTH
 STOP.F         3758.0000:   STOP DEPTH
 STEP.F            0.5000:   STEP LENGTH
 NULL.          -999.2500:   NO VALUE
 COMP. LAWRENCE ALLISON & ASSOCIATES:   COMPANY
 WELL. LAWRENCE "MX" #72-10:   WELL
 FLD .            N P R 3:   FIELD
 LOC .      S10 T38N R78W:   LOCATION
 CNTY.            NATRONA:   COUNTY
 STAT.            WYOMING:   STATE
 CTRY. UNITED STATES OF AMERICA:   COUNTRY
 SRVC.       SCHLUMBERGER:   SERVICE COMPANY
 DATE.        03-JUL-1982:   LOGDATE
 API .     49025108910000:   API NUMBER
~CURVE INFORMATION
#MNEM.UNIT       API CODE    CURVE DESCRIPTION
#----------   ------------   ------------------------------
 DEPT.F                  :   
 GRD .GAPI   45 310 01 00:   GAMMA RAY FROM DENSITY LOG
 NPHI.DEC    42 890 03 00:   NEUTRON POROSITY SANDSTONE
 CALD.IN     45 280 60 00:   CALIPER FROM DENSITY LOG
 RHOB.G/C3   45 350 01 00:   BULK DENSITY
 DRHO.G/C3   45 356 01 00:   DENSITY CORRECTION
 TEND.LBS    45 635 01 00:   TENSION FROM DENSITY LOG
 SPR .MV     07 010 01 00:   SPONTANEOUS POTENTIAL
 SFL .OHMM   07 220 01 00:   SHALLOW FOCUSED LOG RESISTIVITY
 ILD .OHMM   07 120 46 00:   DEEP INDUCTION RESISTIVITY
 ILM .OHMM   07 120 44 00:   INDUCTION LOG MEDIUM RESISTIVITY
 TENR.LBS    07 635 01 00:   TENSION FROM RESISTIVITY
~PARAMETER INFORMATION
#MNEM.UNIT          VALUE    DESCRIPTION
#----------   ------------   ------------------------------
 EKB .F         5182.0000:   Kelly bushing
 EGL .F         5172.0000:   Ground level
 EDF .F            0.0000:   Drilling floor
 EPD .F            0.0000:   Permanent datum
 TD  .F         3770.0000:   Total depth
 DATE.        03-JUL-1982:   Date logged
 CLNT.            A2DTECH:   Client Code
 SL  . 1119' FNL & 21' FEL:   Surface Location
 PD  .                 GL:   Permanent Datum
 DD  .F              3770:   Depth driller
 DL  .F              3750:   Depth logger
 BLI .F              3744:   Bottom log interval
 CS1 .IN            9.625:   Casing size
 CBD1.      9.625" @ 473':   Casing driller 1
 CBL1.F               482:   Casing logger 1
 BS1 .IN            7.875:   Bit size
 DFT .                GEL:   Type fluid in hole
 DFD .                9.1:   Density
 DFV .                 34:   Viscosity
 DFPH.               10.5:   pH
 DFL .                 12:   Fluid loss
 MSS .            MUD PIT:   Source of sample
 RMS .OHMM           1.50:   Rm
 MST .F                84:   Rm Meas. temp.
 RMF .OHMM           1.37:   Rmf
 MFST.F                83:   Rmf Meas. temp.
 RMC .OHMM           1.20:   Rmc
 MCST.F                83:   Rmc Meas. temp.
 MFSS.               MEAS:   Source Rmf.
 RMB .OHMM              1:   Rm. at BHT
 BHT .F               130:   BHT.
 TCS .HRS            1500:   Time Circ. stopped
 MRT .F               130:   Maximum recorded temp.
 LUN .               8039:   Logging unit number
 LUL .               CSPR:   Logging unit location
 ENGI. CONOSCENTI/PIRAKIS:   Recorded By
 WITN.             STRONG:   Witnessed by
 ORIG.       2.5"5" PRINT:   Origin of data
 UWI .     49025108910000:   Unique Well ID
 DICO. A2D TECHNOLOGIES, INC.:   Digitizing Company
 DAPD.                 10:   Feet Above Permanent Datum
 BSD1.               3770:   Depth drilled with bit1
 MCSS.               CALC:   Source Rmc.
 TLI .                482:   Top log interval
 TLAB.HR             1800:   Time logger at bottom
~OTHER INFORMATION
~A   DEPT      GRD       NPHI       CALD       RHOB       DRHO       TEND        SPR        SFL        ILD        ILM       TENR   
# ...
 3293.0000   147.6720     0.2770    10.6470     2.5350     0.0290  1820.0000   -40.7420     5.4240     4.1860     4.3150  1719.5580
 3293.5000   148.3260     0.2890    10.6400     2.5120     0.0220  1820.0000   -40.7020     5.1240     4.0560     4.1810  1719.6260
 3294.0000   146.3070     0.3160    10.6310     2.4880     0.0100  1820.0000   -40.6620     4.8240     3.9230     4.0330  1719.6930
 3294.5000   144.5840     0.3200    10.6220     2.4740     0.0050  1820.0000   -40.6220     4.5230     3.8870     3.9230  1719.7600
 3295.0000   142.7100     0.3250    10.6130     2.4600     0.0020  1820.0000   -40.5810     4.2630     3.8950     3.9460  1719.8270
 3295.5000   141.2920     0.3270    10.6040     2.4570     0.0030  1820.0000   -40.5700     4.6310     3.9370     4.0060  1719.8950
 3296.0000   143.8940     0.3260    10.5950     2.4580     0.0060  1820.0000   -40.5700     5.0410     3.9800     4.0650  1719.9620
 3296.5000   146.9090     0.3240    10.5860     2.4650     0.0110  1820.0000   -40.5700     5.4510     4.0220     4.1240  1720.0291
 3297.0000   149.9350     0.3190    10.5770     2.4720     0.0160  1820.0000   -40.5700     5.6300     4.0640     4.1830  1720.0970
 3297.5000   152.5340     0.3210    10.5680     2.4800     0.0180  1820.0000   -40.5700     5.8340     4.0930     4.2420  1720.1639
 3298.0000   151.1780     0.3180    10.5590     2.4870     0.0170  1820.0000   -40.5700     5.7890     4.1270     4.2690  1720.2310
 3298.5000   149.3990     0.3150    10.5510     2.4910     0.0160  1820.0000   -40.5700     5.6920     4.1610     4.2920  1720.2990
 3299.0000   147.6460     0.3080    10.5420     2.4910     0.0080  1820.0000   -40.5700     5.5940     4.1950     4.3150  1720.3660
 3299.5000   146.1410     0.3020    10.5330     2.4890     0.0030  1820.0000   -40.5700     5.4960     4.2290     4.3380  1720.4330
 3300.0000   147.4940     0.2970    10.5240     2.4830     0.0030  1820.0000   -40.5700     5.3690     4.2640     4.3610  1720.5010
 3300.5000   148.9790     0.2930    10.5150     2.4770     0.0020  1820.0000   -40.5700     5.4350     4.2980     4.3840  1720.5680
 3301.0000   150.8000     0.2920    10.5060     2.4710     0.0020  1820.0000   -40.5700     5.5660     4.3320     4.4070  1720.6350
 3301.5000   150.1020     0.2930    10.4970     2.4650     0.0030  1820.0000   -40.5700     5.6970     4.3420     4.4300  1720.7030
 3302.0000   147.9440     0.2950    10.4880     2.4620     0.0050  1820.0000   -40.5700     5.8280     4.3420     4.4530  1720.7700
 3302.5000   145.8180     0.2990    10.4790     2.4760     0.0050  1820.0000   -40.5700     5.9600     4.3420     4.4760  1720.8370
 3303.0000   144.1070     0.2890    10.4700     2.4950     0.0080  1820.0000   -40.5700     6.0530     4.3420     4.4990  1720.9050
 3303.5000   145.5120     0.2800    10.4610     2.4990     0.0130  1820.0000   -40.5700     5.9820     4.3340     4.5050  1720.9720
 3304.0000   146.6610     0.2800    10.4520     2.4990     0.0120  1820.0000   -40.5700     5.9270     4.3100     4.4500  1721.0389
 3304.5000   147.8040     0.2900    10.4510     2.4910     0.0080  1820.0000   -40.5700     5.8720     4.2850     4.4000  1721.1071
 3305.0000   146.8920     0.2880    10.4510     2.4820     0.0030  1820.0000   -40.5700     5.8170     4.2610     4.3500  1721.1740
 3305.5000   146.0420     0.2840    10.4510     2.4860     0.0000  1820.0000   -40.5700     5.7380     4.2360     4.3000  1721.2410
 3306.0000   145.0740     0.2810    10.4510     2.4860     0.0010  1820.0000   -40.5700     5.6070     4.2110     4.2500  1721.3090
 3306.5000   146.7100     0.2910    10.4510     2.4740     0.0010  1820.0000   -40.5700     5.4290     4.1850     4.2000  1721.3760
 3307.0000   148.8870     0.3000    10.4510     2.4630     0.0010  1820.0000   -40.5700     5.1580     4.1280     4.1460  1721.4430
 3307.5000   150.7700     0.3040    10.4510     2.4520     0.0010  1820.0000   -40.5700     4.8870     4.0940     4.1460  1721.5110
 3308.0000   149.7040     0.3070    10.4510     2.4510     0.0010  1820.0000   -40.5700     4.6170     4.0700     4.3340  1721.5780
 3308.5000   147.6490     0.3100    10.4510     2.4630     0.0020  1820.0000   -40.5700     4.3820     4.1670     4.4750  1721.6450
 3309.0000   140.7440     0.3110    10.4510     2.4770    -0.0040  1820.0000   -40.5700     5.7350     4.2400     4.6160  1721.7130
 3309.5000   129.9100     0.3110    10.4510     2.4890    -0.0100  1820.0000   -40.5700     7.5750     4.3020     4.7570  1721.7800
 3310.0000   123.2520     0.3100    10.4510     2.5090    -0.0180  1820.0000   -40.5700     9.4160     4.1000     4.8510  1721.8470
 3310.5000   115.3180     0.3040    10.4510     2.5580    -0.0050  1820.0000   -40.5700    10.6290     3.7260     4.4000  1721.9150
 3311.0000   113.8750     0.2920    10.4520     2.5790     0.0230  1820.0000   -40.5700     8.0060     3.3510     4.0050  1721.9821
 3311.5000   123.7250     0.2800    10.4500     2.5730     0.0440  1819.8480   -40.5700     5.7090     2.9760     3.5180  1722.0490
 3312.0000   138.0310     0.2800    10.4530     2.5320     0.0640  1819.4670   -40.5700     4.3660     2.6020     2.4500  1722.1169
 3312.5000   151.9750     0.2850    10.4530     2.4710     0.0850  1819.0861   -40.5700     3.3460     2.2270     2.2190  1722.1840
 3313.0000   165.8940     0.2980    10.5800     2.4140     0.1160  1818.7050   -40.5700     2.3270     1.8530     1.9400  1722.2510
 3313.5000   180.9230     0.3320    10.7350     2.2840     0.1430  1818.3230   -40.5700     1.2610     1.4610     1.6480  1722.3190
 3314.0000   192.1460     0.3940    10.9130     2.1550     0.1130  1817.9420   -40.5700     1.2260     1.5400     1.6180  1722.3860
 3314.5000   180.7710     0.4560    10.8590     2.0550     0.0610  1817.5610   -40.5700     1.5530     1.6220     1.8420  1722.4530
 3315.0000   164.2100     0.5060    10.6310     2.1020     0.0140  1817.1801   -40.5640     2.4190     1.7050     1.9940  1722.5210
 3315.5000   149.1270     0.4610    10.5530     2.1910    -0.0150  1816.7990   -40.5450     3.7430     1.7900     2.2980  1722.5880
 3316.0000   137.0610     0.4050    10.5070     2.2980    -0.0100  1816.4180   -40.5270     4.8510     2.2690     2.6020  1722.6550
 3316.5000   132.6350     0.3480    10.4920     2.4050    -0.0030  1816.0370   -40.5090     4.7540     2.7670     2.9060  1722.7220
 3317.0000   132.1380     0.2880    10.5020     2.4640     0.0060  1815.6560   -40.4910     4.7180     3.2640     3.2100  1722.7900
 3317.5000   132.6440     0.2910    10.5080     2.4590     0.0100  1815.2750   -40.4730     4.7820     3.7170     3.5140  1722.8571
 3318.0000   133.6420     0.3000    10.5150     2.4660     0.0090  1814.8940   -40.4550     4.9550     3.9480     3.8180  1722.9240
 3318.5000   135.7010     0.2980    10.5220     2.4710     0.0080  1814.5129   -40.4370     5.1280     4.1850     4.1100  1722.9919
 3319.0000   138.3350     0.2950    10.5290     2.4770     0.0070  1814.1320   -40.4190     5.3200     4.2170     4.2150  1723.0590
 3319.5000   141.6450     0.2960    10.5360     2.4810     0.0060  1813.7510   -40.4000     5.6020     4.2580     4.3200  1723.1260
 3320.0000   145.6190     0.2950    10.5420     2.4850     0.0080  1813.3700   -40.3820     5.8340     4.3000     4.4250  1723.1940
 3320.5000   145.5840     0.2920    10.5490     2.4890     0.0130  1812.9890   -40.3640     5.8340     4.3420     4.5300  1723.2610
 3321.0000   142.3500     0.2950    10.5560     2.4930     0.0170  1812.6080   -40.3460     5.8340     4.4720     4.6350  1723.3280
 3321.5000   139.4330     0.2980    10.5630     2.4860     0.0160  1812.2271   -40.3280     5.8340     4.6320     4.7620  1723.3960
 3322.0000   139.3360     0.2960    10.5700     2.4720     0.0120  1811.8459   -40.3100     5.8340     4.5820     4.7070  1723.4630
 3322.5000   142.2530     0.2920    10.5760     2.4670     0.0090  1811.4650   -40.2920     5.8340     4.5190     4.6360  1723.5300
 3323.0000   147.1890     0.2890    10.5830     2.4660     0.0060  1811.0840   -40.2730     5.7690     4.4560     4.5660  1723.5980
