~VERSION INFORMATION
 VERS.                2.0:   CWLS LOG ASCII STANDARD - VERSION 2.0
 WRAP.                 NO:   ONE LINE PER DEPTH STEP
~WELL INFORMATION
#MNEM.UNIT      DATA TYPE    INFORMATION
#----------   ------------   ------------------------------
 STRT.F           31.0000:   START DEPTH
 STOP.F         2926.0000:   STOP DEPTH
 STEP.F            0.5000:   STEP LENGTH
 NULL.          -999.2500:   NO VALUE
 COMP. LAWERNCE ALLISON AND ASSOCIATES:   COMPANY
 WELL.   FENIX "X" #17-21:   WELL
 FLD .             NPR #3:   FIELD
 LOC .      S21 T39N R78W:   LOCATION
 CNTY.            NATRONA:   COUNTY
 STAT.            WYOMING:   STATE
 CTRY. UNITED STATES OF AMERICA:   COUNTRY
 SRVC.      WESTERN ATLAS:   SERVICE COMPANY
 DATE.        02-NOV-1987:   LOGDATE
 API .     49025111960000:   API NUMBER
~CURVE INFORMATION
#MNEM.UNIT       API CODE    CURVE DESCRIPTION
#----------   ------------   ------------------------------
 DEPT.F                  :   
 CALD.IN     45 280 60 00:   CALIPER FROM DENSITY LOG
 TEND.LBS    45 635 01 00:   TENSION FROM DENSITY LOG
 CORR.G/C3   45 356 01 00:   DENSITY CORRECTION
 RHOB.G/C3   45 350 01 00:   BULK DENSITY
 CNC .DEC    42 890 03 00:   NEUTRON POROSITY SANDSTONE
 SPR .MV     07 010 01 00:   SPONTANEOUS POTENTIAL
 GRR .GAPI   07 310 01 00:   GAMMA RAY FROM RESISTIVITY
 TENR.LBS    07 635 01 00:   TENSION FROM RESISTIVITY
 RFOC.OHMM   07 220 04 00:   RESISTIVITY FOCUSED LOG RES.
 RILD.OHMM   07 120 46 00:   DEEP INDUCTION RESISTIVITY
 RILM.OHMM   07 120 44 00:   INDUCTION LOG MEDIUM RESISTIVITY
~PARAMETER INFORMATION
#MNEM.UNIT          VALUE    DESCRIPTION
#----------   ------------   ------------------------------
 EKB .F         5006.0000:   Kelly bushing
 EGL .F         4995.0000:   Ground level
 EDF .F            0.0000:   Drilling floor
 TD  .F         2915.0000:   Total depth
 DATE.        02-NOV-1987:   Date logged
 CLNT.            A2DTECH:   Client Code
 SL  . 1824' FSL & 399' FWL:   Surface Location
 PD  .                 GL:   Permanent Datum
 DD  .F              2911:   Depth driller
 DL  .F              2915:   Depth logger
 BLI .F              2913:   Bottom log interval
 CS1 .IN            8.625:   Casing size
 CBD1.      8.625" @ 350':   Casing driller 1
 CBL1.F               350:   Casing logger 1
 BS1 .IN            7.875:   Bit size
 DFT .        KCL-POLYMER:   Type fluid in hole
 DFD .                8.8:   Density
 DFV .                 42:   Viscosity
 DFPH.                9.5:   pH
 DFL .                 11:   Fluid loss
 MSS .           FLOWLINE:   Source of sample
 RMS .OHMM           0.41:   Rm
 MST .F                78:   Rm Meas. temp.
 RMF .OHMM           0.29:   Rmf
 MFST.F                78:   Rmf Meas. temp.
 RMC .OHMM           0.51:   Rmc
 MCST.F                78:   Rmc Meas. temp.
 MFSS.               MEAS:   Source Rmf.
 RMB .OHMM           0.29:   Rm. at BHT
 BHT .F               108:   BHT.
 TCS .HRS               5:   Time Circ. stopped
 MRT .F               108:   Maximum recorded temp.
 LUN .            HL-6274:   Logging unit number
 LUL .           GILLETTE:   Logging unit location
 WITN.             STRONG:   Witnessed by
 ORIG.           5" PRINT:   Origin of data
 UWI .     49025111960000:   Unique Well ID
 DICO. A2D TECHNOLOGIES, INC.:   Digitizing Company
 DAPD.                 11:   Feet Above Permanent Datum
 BSD1.               2911:   Depth drilled with bit1
 MCSS.               CALC:   Source Rmc.
 EPD .               4995:   Elevation Permanent Datum
 LMF .                 KB:   Log Measured From
 DMF .                 KB:   Drilling Measured From
 TLI .                 11:   Top log interval
~OTHER INFORMATION
~A   DEPT     CALD       TEND       CORR       RHOB        CNC        SPR         GRR      TENR       RFOC       RILD       RILM   
# ...
 1708.5000  -999.2500  -999.2500  -999.2500  -999.2500  -999.2500   -26.2530   142.7260   -78.3240     8.7470     8.1860     8.6850
 1709.0000  -999.2500  -999.2500  -999.2500  -999.2500  -999.2500   -26.5650   142.4630   -78.1860     8.6110     8.1390     8.5340
 1709.5000  -999.2500  -999.2500  -999.2500  -999.2500  -999.2500   -26.6740   141.1930   -78.0470     8.4750     8.0930     8.3820
 1710.0000  -999.2500  -999.2500  -999.2500  -999.2500  -999.2500   -26.5310   140.7610   -77.9090     8.3390     8.0340     8.2310
 1710.5000  -999.2500  -999.2500  -999.2500  -999.2500  -999.2500   -26.2760   141.4380   -77.7710     8.2030     8.0560     8.0800
 1711.0000  -999.2500  -999.2500  -999.2500  -999.2500  -999.2500   -26.0430   141.9620   -77.6320     8.0670     8.1240     7.9280
 1711.5000  -999.2500  -999.2500  -999.2500  -999.2500  -999.2500   -25.8080   142.7850   -77.4940     8.0340     8.1910     7.8910
 1712.0000  -999.2500  -999.2500  -999.2500  -999.2500  -999.2500   -25.5650   144.3890   -77.3560     7.8010     8.2590     7.8910
 1712.5000  -999.2500  -999.2500  -999.2500  -999.2500  -999.2500   -25.3350   146.8410   -77.2170     7.6440     8.3260     7.8910
 1713.0000  -999.2500  -999.2500  -999.2500  -999.2500  -999.2500   -25.0980   144.2080   -77.0790     7.4870     8.3260     7.7010
 1713.5000  -999.2500  -999.2500  -999.2500  -999.2500  -999.2500   -24.8310   140.0360   -76.9410     7.3300     8.3260     7.5100
 1714.0000  -999.2500  -999.2500  -999.2500  -999.2500  -999.2500   -24.8380   136.3660   -76.8020     7.1740     8.1180     7.3200
 1714.5000  -999.2500  -999.2500  -999.2500  -999.2500  -999.2500   -25.2890   134.6010   -76.6640     7.0880     7.9170     7.2160
 1715.0000  -999.2500  -999.2500  -999.2500  -999.2500  -999.2500   -25.7040   134.1730   -76.5260     7.3100     7.7160     7.3370
 1715.5000  -999.2500  -999.2500  -999.2500  -999.2500  -999.2500   -26.1400   136.9710   -76.3870     7.6420     7.5140     7.3040
 1716.0000  -999.2500  -999.2500  -999.2500  -999.2500  -999.2500   -26.5480   137.6410   -76.2490     7.9730     7.3130     7.2710
 1716.5000  -999.2500  -999.2500  -999.2500  -999.2500  -999.2500   -27.0110   135.7340   -76.1100     8.3050     7.2160     7.2380
 1717.0000  -999.2500  -999.2500  -999.2500  -999.2500  -999.2500   -27.0470   134.8560   -75.9720     8.7850     7.2580     7.2160
 1717.5000  -999.2500  -999.2500  -999.2500  -999.2500  -999.2500   -27.1720   135.9080   -75.8340     8.6290     7.3800     7.3460
 1718.0000  -999.2500  -999.2500  -999.2500  -999.2500  -999.2500   -27.2670   138.3060   -75.6950     8.6290     7.5030     7.5770
 1718.5000  -999.2500  -999.2500  -999.2500  -999.2500  -999.2500   -27.3910   141.9270   -75.5570     8.6870     7.6250     7.8790
 1719.0000  -999.2500  -999.2500  -999.2500  -999.2500  -999.2500   -27.4080   145.7040   -75.4190     8.7850     7.7480     8.1790
 1719.5000  -999.2500  -999.2500  -999.2500  -999.2500  -999.2500   -27.3410   145.5990   -75.2800     8.8680     7.8910     8.0340
 1720.0000  -999.2500  -999.2500  -999.2500  -999.2500  -999.2500   -27.2840   139.0900   -75.1420     8.9440     7.8910     8.0340
 1720.5000  -999.2500  -999.2500  -999.2500  -999.2500  -999.2500   -27.2260   133.5150   -75.0040     8.9440     7.8910     8.0340
 1721.0000  -999.2500  -999.2500  -999.2500  -999.2500  -999.2500   -27.1660   126.9980   -74.8650     8.9220     7.8910     8.0160
 1721.5000  -999.2500  -999.2500  -999.2500  -999.2500  -999.2500   -27.1080   126.3390   -74.7270     8.8960     7.8910     7.9940
 1722.0000  -999.2500  -999.2500  -999.2500  -999.2500  -999.2500   -27.0500   125.9130   -74.5890     8.8700     7.8910     7.9730
 1722.5000  -999.2500  -999.2500  -999.2500  -999.2500  -999.2500   -26.9910   125.8190   -74.4500     8.8440     7.8910     7.9520
 1723.0000  -999.2500  -999.2500  -999.2500  -999.2500  -999.2500   -26.9330   127.2210   -74.3120     8.8190     7.8910     7.9310
 1723.5000  -999.2500  -999.2500  -999.2500  -999.2500  -999.2500   -26.8740   128.7460   -74.1740     8.7930     7.8910     7.9100
 1724.0000  -999.2500  -999.2500  -999.2500  -999.2500  -999.2500   -26.8160   129.1340   -74.0350     8.7670     7.8910     7.8890
 1724.5000  -999.2500  -999.2500  -999.2500  -999.2500  -999.2500   -26.7580   127.2690   -73.8970     8.7410     7.8910     7.8680
 1725.0000  -999.2500  -999.2500  -999.2500  -999.2500  -999.2500   -26.6960   126.6230   -73.7590     8.7150     7.8910     7.8470
 1725.5000  -999.2500  -999.2500  -999.2500  -999.2500  -999.2500   -26.6560   127.6750   -73.6200     8.6890     7.8910     7.8260
 1726.0000  -999.2500  -999.2500  -999.2500  -999.2500  -999.2500   -26.6640   128.2160   -73.4820     8.6640     7.8910     7.8040
 1726.5000  -999.2500  -999.2500  -999.2500  -999.2500  -999.2500   -26.8460   131.4510   -73.3440     8.6380     7.8920     7.7830
 1727.0000  -999.2500  -999.2500  -999.2500  -999.2500  -999.2500   -27.0250   134.4800   -73.2050     8.6300     7.8850     7.7620
 1727.5000  -999.2500  -999.2500  -999.2500  -999.2500  -999.2500   -27.2120   137.9080   -73.0670     8.6770     7.8730     7.7520
 1728.0000  -999.2500  -999.2500  -999.2500  -999.2500  -999.2500   -27.3950   137.1110   -72.9290     8.7760     7.8620     7.7930
 1728.5000  -999.2500  -999.2500  -999.2500  -999.2500  -999.2500   -27.5790   137.1160   -72.7900     8.9440     7.8510     7.8300
 1729.0000  -999.2500  -999.2500  -999.2500  -999.2500  -999.2500   -27.7630   139.6510   -72.6520     8.7850     7.8400     7.8680
 1729.5000  -999.2500  -999.2500  -999.2500  -999.2500  -999.2500   -27.9500   142.5020   -72.5140     8.4240     7.8290     7.9050
 1730.0000  -999.2500  -999.2500  -999.2500  -999.2500  -999.2500   -28.1290   143.2780   -72.3750     8.3260     7.8170     7.9430
 1730.5000  -999.2500  -999.2500  -999.2500  -999.2500  -999.2500   -28.3170   138.7610   -72.2370     9.0930     7.8060     7.9810
 1731.0000  -999.2500  -999.2500  -999.2500  -999.2500  -999.2500   -28.5110   134.7070   -72.0980     9.2690     7.7950     8.0340
 1731.5000  -999.2500  -999.2500  -999.2500  -999.2500  -999.2500   -28.5940   134.4100   -71.9600     9.2690     7.7840     7.8910
 1732.0000  -999.2500  -999.2500  -999.2500  -999.2500  -999.2500   -28.6400   137.0710   -71.8220     9.2690     7.7730     7.8910
 1732.5000  -999.2500  -999.2500  -999.2500  -999.2500  -999.2500   -28.2810   136.3090   -71.6830     8.5010     7.7620     7.7840
 1733.0000  -999.2500  -999.2500  -999.2500  -999.2500  -999.2500   -28.1650   132.6230   -71.5450     7.5410     7.7510     7.6140
 1733.5000  -999.2500  -999.2500  -999.2500  -999.2500  -999.2500   -27.9210   129.6050   -71.4070     7.0880     7.5630     7.4440
 1734.0000  -999.2500  -999.2500  -999.2500  -999.2500  -999.2500   -27.7450   128.7410   -71.2680     6.9630     7.3720     7.2740
 1734.5000  -999.2500  -999.2500  -999.2500  -999.2500  -999.2500   -27.3920   126.9330   -71.1300     6.9630     7.1810     7.0880
 1735.0000  -999.2500  -999.2500  -999.2500  -999.2500  -999.2500   -27.4470   127.3670   -70.9920     7.5880     7.0880     7.1410
 1735.5000  -999.2500  -999.2500  -999.2500  -999.2500  -999.2500   -27.4290   131.5410   -70.8530     8.5650     7.0880     7.2440
 1736.0000  -999.2500  -999.2500  -999.2500  -999.2500  -999.2500   -27.4290   135.5630   -70.7150     9.6070     7.0880     7.3460
 1736.5000  -999.2500  -999.2500  -999.2500  -999.2500  -999.2500   -27.4340   140.1690   -70.5770     9.4370     7.2160     7.4490
 1737.0000  -999.2500  -999.2500  -999.2500  -999.2500  -999.2500   -27.4300   141.1500   -70.4380     8.9400     7.3790     7.5520
 1737.5000  -999.2500  -999.2500  -999.2500  -999.2500  -999.2500   -27.4320   139.3320   -70.3000     8.3260     7.5480     7.6140
 1738.0000  -999.2500  -999.2500  -999.2500  -999.2500  -999.2500   -27.4320   135.3120   -70.1620     8.4760     7.6140     7.7510
 1738.5000  -999.2500  -999.2500  -999.2500  -999.2500  -999.2500   -27.4320   131.3600   -70.0230     8.4760     7.5780     7.6750
