~VERSION INFORMATION
 VERS.                2.0:   CWLS LOG ASCII STANDARD - VERSION 2.0
 WRAP.                 NO:   ONE LINE PER DEPTH STEP
~WELL INFORMATION
#MNEM.UNIT      DATA TYPE    INFORMATION
#----------   ------------   ------------------------------
 STRT.F          388.0000:   START DEPTH
 STOP.F         3166.0000:   STOP DEPTH
 STEP.F            0.5000:   STEP LENGTH
 NULL.          -999.2500:   NO VALUE
 COMP.    PENIX & SCISSON:   COMPANY
 WELL. PENIX NPR 3 "AX" #34-28:   WELL
 FLD .                NPR:   FIELD
 LOC .      S28 T39N R78W:   LOCATION
 CNTY.            NATRONA:   COUNTY
 STAT.            WYOMING:   STATE
 CTRY. UNITED STATES OF AMERICA:   COUNTRY
 SRVC.              WELEX:   SERVICE COMPANY
 DATE.        15-DEC-1978:   LOGDATE
 API .     49025107950000:   API NUMBER
~CURVE INFORMATION
#MNEM.UNIT       API CODE    CURVE DESCRIPTION
#----------   ------------   ------------------------------
 DEPT.F                  :   
 CALD.IN     45 280 60 00:   CALIPER FROM DENSITY LOG
 GRD .GAPI   45 310 01 00:   GAMMA RAY FROM DENSITY LOG
 RHOB.G/C3   45 350 01 00:   BULK DENSITY
 CORR.G/C3   45 356 01 00:   DENSITY CORRECTION
 NPHI.DEC    42 890 03 00:   NEUTRON POROSITY SANDSTONE
 SPR .MV     07 010 01 00:   SPONTANEOUS POTENTIAL
 SGRD.OHMM   07 220 05 00:   SHALLOW GUARD
 ILD .OHMM   07 120 46 00:   DEEP INDUCTION RESISTIVITY
 ILM .OHMM   07 120 44 00:   INDUCTION LOG MEDIUM RESISTIVITY
 TENR.LBS    07 635 01 00:   TENSION FROM RESISTIVITY
~PARAMETER INFORMATION
#MNEM.UNIT          VALUE    DESCRIPTION
#----------   ------------   ------------------------------
 EKB .F         5039.0000:   Kelly bushing
 EGL .F         5029.0000:   Ground level
 EDF .F            0.0000:   Drilling floor
 TD  .F         3159.0000:   Total depth
 DATE.        15-DEC-1978:   Date logged
 CLNT.            A2DTECH:   Client Code
 SL  . 2434' FNL & 1651' FWL:   Surface Location
 PD  .                 GL:   Permanent Datum
 EPD .F              5029:   Elevation Permanent Datum
 LMF .                 KB:   Log Measured From
 DMF .                 KB:   Drilling Measured From
 DAPD.F                10:   Feet Above Permanent Datum
 DD  .F              3155:   Depth driller
 DL  .F              3159:   Depth logger
 BLI .F              3157:   Bottom log interval
 TLI .F               350:   Top log interval
 CS1 .IN            8.625:   Casing size
 CBD1.      8.625" @ 383':   Casing driller 1
 CBL1.F               398:   Casing logger 1
 BS1 .IN            7.875:   Bit size
 BSD1.F              3155:   Depth drilled with bit1
 DFT .           CHEM/GEL:   Type fluid in hole
 DFD .                8.5:   Density
 DFV .                 55:   Viscosity
 DFPH.                 10:   pH
 DFL .               10.8:   Fluid loss
 MSS .           FLOWLINE:   Source of sample
 RMS .OHMM           1.65:   Rm
 MST .F                65:   Rm Meas. temp.
 RMF .OHMM           1.32:   Rmf
 MFST.F                65:   Rmf Meas. temp.
 RMC .OHMM           1.98:   Rmc
 MCST.F                65:   Rmc Meas. temp.
 MFSS.               CALC:   Source Rmf.
 RMB .OHMM              1:   Rm. at BHT
 BHT .F               107:   BHT.
 TCS .HRS               8:   Time Circ. stopped
 MRT .F               107:   Maximum recorded temp.
 LUN .               1892:   Logging unit number
 LUL .             CASPER:   Logging unit location
 ENGI.               REIN:   Recorded By
 WITN.              AMEND:   Witnessed by
 ORIG.           5" PRINT:   Origin of data
 UWI .     49025107950000:   Unique Well ID
 DICO. A2D TECHNOLOGIES, INC.:   Digitizing Company
~OTHER INFORMATION
~A   DEPT     CALD         GRD      RHOB       CORR       NPHI        SPR       SGRD        ILD        ILM       TENR   
# ...
 1292.5000     8.5045   119.5738     2.5055     0.0086     0.2940   -26.5909     8.8374     7.1845     7.8852  1263.0281
 1293.0000     8.5045   119.9790     2.5106     0.0147     0.2962   -26.3875     8.8377     7.1847     7.8852  1263.0216
 1293.5000     8.5045   120.3842     2.5146     0.0248     0.2985   -26.5879     8.8378     7.2520     7.9591  1263.0151
 1294.0000     8.5045   119.5774     2.5055     0.0187     0.3009   -26.3845     8.8382     7.2522     8.0337  1242.8053
 1294.5000     8.4844   120.3866     2.5075     0.0208     0.3037   -26.5850     8.8384     7.2524     8.0970  1263.0021
 1295.0000     8.4844   108.2675     2.5126     0.0228     0.3077   -26.5835     8.8386     7.2526     8.1095  1323.6046
 1295.5000     8.4844   113.1170     2.5086     0.0309     0.3081   -26.3801     8.8389     7.2529     8.1096  1283.1920
 1296.0000     8.5046   118.3702     2.5116     0.0329     0.3049   -26.1766     8.8391     7.2531     8.1098  1283.1854
 1296.5000     8.5047   116.7553     2.5227     0.0390     0.3004   -25.9732     8.8394     7.2534     8.1059  1283.1788
 1297.0000     8.5047   114.3324     2.5287     0.0451     0.2996   -25.9717     8.8396     7.2535     8.1020  1262.9695
 1297.5000     8.5047   114.7376     2.5267     0.0370     0.3028   -25.9702     8.9123     7.1866     8.0980  1262.9630
 1298.0000     8.5047   110.6985     2.5227     0.0269     0.3045   -25.7667     8.9224     7.1867     8.0941  1262.9565
 1298.5000     8.5048   109.4876     2.5156     0.0248     0.3053   -25.5633     9.0060     7.1869     8.0902  1262.9500
 1299.0000     8.5173   111.5088     2.5126     0.0187     0.3049   -25.3598     9.0903     7.1872     8.0361  1262.9435
 1299.5000     8.5048   116.7666     2.5106     0.0066     0.3040   -25.3583     9.0904     7.1873     7.9619  1283.1392
 1300.0000     8.5048   111.9151     2.5106     0.0167     0.3012   -24.5487     9.0066     7.1875     7.8883  1262.9305
 1300.5000     8.5855   109.8927     2.5168     0.0148     0.2988   -24.9324     8.8589     7.1878     7.8885  1262.9229
 1301.0000     8.5854   119.9878     2.5207     0.0207     0.2972   -24.9479     8.7608     7.2265     7.8892  1262.4865
 1301.5000     8.5852   122.0009     2.5196     0.0268     0.2976   -25.1469     8.7618     7.2564     7.8899  1262.1964
 1302.0000     8.5851   111.0920     2.5257     0.0390     0.2996   -24.3369     8.7622     7.3161     7.8906  1261.9548
 1302.5000     8.5849   111.8943     2.5337     0.0552     0.3040   -24.5359     8.7626     7.3251     7.8913  1281.9149
 1303.0000     8.5847   120.3742     2.5337     0.0491     0.3077   -24.5334     8.7633     7.3943     7.8920  1281.6733
 1303.5000     8.5240   115.9258     2.5287     0.0430     0.3093   -24.5309     8.7643     7.3951     7.8926  1281.4318
 1304.0000     8.5036   113.4976     2.5135     0.0389     0.3105   -24.7304     8.8468     7.1922     7.8933  1260.9882
 1304.5000     8.5035   114.7053     2.5045     0.0308     0.3093   -24.7279     8.9299     7.2149     7.8940  1280.9486
 1305.0000     8.4678   117.9319     2.4984     0.0267     0.3081   -24.9274     9.0138     7.2376     7.8947  1280.7070
 1305.5000     8.4629   120.3513     2.5085     0.0348     0.3097   -25.1269     9.0989     7.2604     7.8954  1300.6680
 1306.0000     8.4223   121.9627     2.5176     0.0469     0.3105   -24.9224     9.0996     7.2832     7.8960  1260.0212
 1306.5000     8.4221   122.3622     2.5276     0.0469     0.3105   -24.9199     9.1002     7.3062     7.8967  1279.9824
 1307.0000     8.4423   119.1263     2.5226     0.0469     0.3101   -24.9174     9.1008     7.3292     7.8973  1259.5378
 1307.5000     8.5026   115.4865     2.5135     0.0408     0.3129   -24.7129     9.1017     7.3523     7.9717  1279.4993
 1308.0000     8.5024   108.6163     2.5074     0.0327     0.3145   -24.1043     9.1026     7.3754     7.9724  1259.0544
 1308.5000     8.5023   113.0535     2.5094     0.0367     0.3149   -23.8998     9.1033     7.3986     7.9730  1279.0161
 1309.0000     8.5021   107.8001     2.5094     0.0387     0.3145   -23.4933     9.1040     7.4219     7.9735  1278.7747
 1309.5000     8.5020   109.0068     2.5084     0.0326     0.3129   -23.2888     9.1049     7.4453     7.9742  1278.5330
 1310.0000     8.4817   109.0027     2.4923     0.0245     0.3121   -23.4873     9.1052     7.4687     7.9751  1278.2914
 1310.5000     8.5017   108.5946     2.4812     0.0245     0.3105   -23.4858     9.0222     7.4923     8.0423  1257.7977
 1311.0000     8.5015   108.1866     2.4812     0.0305     0.3105   -23.2813     9.0228     7.5159     8.1100  1257.5560
 1311.5000     8.5014   117.0675     2.4912     0.0508     0.3105   -23.2783     9.0237     7.5395     8.1783  1257.3143
 1312.0000     8.5012   113.4284     2.4993     0.0528     0.3093   -23.0738     9.0249     7.5633     8.2472  1236.8684
 1312.5000     8.5213   110.5980     2.4933     0.0629     0.3093   -22.8693     9.0252     7.5871     8.3167  1277.0350
 1313.0000     8.5413   110.5930     2.5134     0.0711     0.3065   -22.4628     9.0258     7.6110     8.3589  1276.7935
 1313.5000     8.5413   113.8194     2.5164     0.0649     0.3044   -22.4603     9.0266     7.6349     8.3593  1276.5518
 1314.0000     8.5411   118.2555     2.5225     0.0588     0.3024   -22.4578     8.9439     7.6590     8.3599  1256.1055
 1314.5000     8.5611   115.4270     2.5184     0.0487     0.3008   -22.2532     8.9445     7.6895     8.2831  1276.0686
 1315.0000     8.5437   116.6333     2.5285     0.0527     0.2996   -22.4528     8.9452     7.6897     8.2838  1275.8270
 1315.5000     8.5607   119.4564     2.5235     0.0507     0.2985   -22.8543     8.9458     7.6902     8.2848  1295.6456
 1316.0000     8.5404   110.1639     2.5033     0.0364     0.2965   -22.8518     8.8641     7.5493     8.2854  1234.8365
 1316.5000     8.5402   107.3340     2.4962     0.0303     0.2969   -23.0513     8.7827     7.4800     8.2859  1254.8969
 1317.0000     8.5199   106.1177     2.4901     0.0323     0.2993   -23.0488     8.7834     7.3427     8.2869  1254.6552
 1317.5000     8.5198   109.3437     2.4952     0.0404     0.3020   -22.8443     8.7845     7.2751     8.2109  1274.6189
 1318.0000     8.4994   111.7621     2.5043     0.0567     0.3052   -22.6398     8.7849     7.2081     8.1355  1294.5830
 1318.5000     8.4993   114.9879     2.5053     0.0627     0.3073   -22.4353     8.7859     7.1423     7.9861  1274.1357
 1319.0000     8.4992   114.5790     2.5123     0.0647     0.3089   -22.6348     8.8825     7.1428     7.7669  1273.8940
 1319.5000     8.4990   114.5747     2.5042     0.0627     0.3101   -23.0363     8.9521     7.0771     7.7674  1273.6041
 1320.0000     8.4383   115.3779     2.4790     0.0343     0.3093   -22.8308     8.9526     7.1441     7.6960  1293.5687
 1320.5000     8.4987   113.7587     2.4830     0.0363     0.3056   -22.8293     8.9532     7.1444     7.6968  1273.1206
 1321.0000     8.4985   112.5433     2.5042     0.0545     0.3028   -22.8263     8.9542     7.1451     7.6972  1272.8790
 1321.5000     8.4580   114.9613     2.5224     0.0606     0.3040   -22.6218     8.9550     7.1457     7.6270  1252.4308
 1322.0000     8.4377   117.7828     2.5314     0.0707     0.3085   -22.2147     8.9558     7.1464     7.6273  1252.1890
 1322.5000     8.4174   120.2006     2.5183     0.0646     0.3077   -22.2127     8.9560     7.1465     7.6279  1272.1541
 1323.0000     8.4172   110.1042     2.5052     0.0545     0.3036   -22.0082     8.9570     7.1473     7.6998  1251.7054
 1323.5000     8.4329   112.9257     2.5072     0.0605     0.3008   -21.8037     8.9579     7.1481     7.7724  1251.4636
 1324.0000     8.4371   116.9581     2.5173     0.0666     0.3036   -22.0032     8.9582     7.1482     7.9191  1251.2218
 1324.5000     8.4479   117.7656     2.5233     0.0747     0.3044   -21.7987     8.9593     7.2835     7.9937  1271.1874
 1325.0000     8.4570   114.5275     2.5223     0.0787     0.3018   -21.3922     8.9598     7.3521     8.0690  1270.9457
 1325.5000     8.4569   110.4868     2.5213     0.0807     0.2992   -21.3897     8.9789     7.3527     8.0697  1290.9117
