~VERSION INFORMATION
 VERS.                2.0:   CWLS LOG ASCII STANDARD - VERSION 2.0
 WRAP.                 NO:   ONE LINE PER DEPTH STEP
~WELL INFORMATION
#MNEM.UNIT      DATA TYPE    INFORMATION
#----------   ------------   ------------------------------
 STRT.F         1053.5000:   START DEPTH
 STOP.F         3062.0000:   STOP DEPTH
 STEP.F            0.5000:   STEP LENGTH
 NULL.          -999.2500:   NO VALUE
 COMP.    FENIX & SCISSON:   COMPANY
 WELL.  FENIX "A" #301-11:   WELL
 FLD .              NPR-3:   FIELD
 LOC .      S11 T38N R78W:   LOCATION
 CNTY.            NATRONA:   COUNTY
 STAT.            WYOMING:   STATE
 CTRY. UNITED STATES OF AMERICA:   COUNTRY
 SRVC.      NL MCCULLOUGH:   SERVICE COMPANY
 DATE.        13-OCT-1977:   LOGDATE
 API .     49025104410000:   API NUMBER
~CURVE INFORMATION
#MNEM.UNIT       API CODE    CURVE DESCRIPTION
#----------   ------------   ------------------------------
 DEPT.F                  :   
 GR  .GAPI   35 310 01 00:   GAMMA RAY
 NEUT.NAPI   35 330 01 00:   NEUTRON
~PARAMETER INFORMATION
#MNEM.UNIT          VALUE    DESCRIPTION
#----------   ------------   ------------------------------
 EDF .F         5165.0000:   Drilling floor
 TD  .F         3097.0000:   Total depth
 CLNT.            A2DTECH:   Client Code
 PD  .                 DF:   Permanent Datum
 EPD .F              5165:   Elevation Permanent Datum
 LMF .                 GL:   Log Measured From
 DMF .                 DF:   Drilling Measured From
 DATE.        13-OCT-1977:   Date Logged [DD-MMM-YYYY]
 DD  .F              3097:   Depth driller
 BLI .F              3060:   Bottom log interval
 TLI .F              1060:   Top log interval
 BSD1.F              3097:   Depth drilled with bit1
 DFT .              WATER:   Type fluid in hole
 ENGI.            MUNDELL:   Recorded By
 ORIG.           5" PRINT:   Origin of data
 UWI .     49025104410000:   Unique Well ID
 DICO. A2D TECHNOLOGIES, INC.:   Digitizing Company
~OTHER INFORMATION
~A  DEPT         GR      NEUT   
# ...
 1782.5000    91.6776   281.6203
 1783.0000    90.2563   285.5391
 1783.5000    89.6371   284.8012
 1784.0000    89.7927   283.2858
 1784.5000    90.2594   288.3245
 1785.0000    87.4593   290.5629
 1785.5000    88.5482   282.7076
 1786.0000    90.1038   282.7021
 1786.5000    91.6594   284.9391
 1787.0000    92.7659   285.4943
 1787.5000    93.3706   274.6506
 1788.0000    94.3039   272.5881
 1788.5000    93.6817   268.6584
 1789.0000    92.2817   255.7591
 1789.5000    89.9482   236.1324
 1790.0000    86.3496   239.4906
 1790.5000    87.3037   249.5761
 1791.0000    86.9926   256.9483
 1791.5000    85.9037   257.9743
 1792.0000    86.2148   263.0130
 1792.5000    91.3483   268.0530
 1793.0000    93.8373   270.2914
 1793.5000    94.1655   259.6222
 1794.0000    93.8373   256.2642
 1794.5000    94.1484   258.5001
 1795.0000    90.7260   260.7371
 1795.5000    89.7927   260.7316
 1796.0000    92.5928   260.7262
 1796.5000    91.3483   260.7208
 1797.0000    89.4816   252.3062
 1797.5000    89.1704   248.9372
 1798.0000    93.0969   256.2196
 1798.5000    92.5928   257.8946
 1799.0000    91.8150   267.9801
 1799.5000    91.1927   270.2171
 1800.0000    92.4372   273.0147
 1800.5000    94.3039   276.3729
 1801.0000    94.4595   285.3372
 1801.5000    94.6270   296.5439
 1802.0000    93.8373   294.2957
 1802.5000    92.9039   289.8044
 1803.0000    91.5039   283.0716
 1803.5000    91.1927   258.3995
 1804.0000    88.8593   246.6214
 1804.5000    85.2814   244.3735
 1805.0000    86.6971   244.9288
 1805.5000    87.9260   243.2075
 1806.0000    84.5036   235.9468
 1806.5000    81.7035   219.1232
 1807.0000    81.0813   206.0657
 1807.5000    80.9257   195.3980
 1808.0000    81.5480   193.1393
 1808.5000    82.6369   186.3959
 1809.0000    79.4864   184.1367
 1809.5000    78.2812   185.2383
 1810.0000    80.7701   187.4645
 1810.5000    81.5480   186.8877
 1811.0000    82.9480   186.3150
 1811.5000    84.1267   188.5374
 1812.0000    83.0225   197.9092
 1812.5000    83.0262   206.4442
 1813.0000    84.2737   206.9846
 1813.5000    85.9879   206.9684
 1814.0000    85.5242   206.9522
 1814.5000    83.1911   206.9360
 1815.0000    83.5080   195.5385
 1815.5000    82.4227   177.1875
 1816.0000    81.8035   176.0501
 1816.5000    82.1176   176.5986
 1817.0000    81.8095   179.3813
 1817.5000    79.3235   181.6116
 1818.0000    75.8940   198.9702
 1818.5000    76.6857   205.7540
 1819.0000    76.8443   210.7065
 1819.5000    77.3139   217.4176
 1820.0000    79.3392   238.1438
 1820.5000    85.5647   240.3741
 1821.0000    86.1899   240.9632
 1821.5000    86.5403   240.2982
 1822.0000    89.3079   232.4690
 1822.5000    93.1999   224.0437
 1823.0000    94.2911   218.9821
 1823.5000    93.6726   207.7538
 1824.0000    89.9421   190.3588
 1824.5000    87.1450   188.1002
 1825.0000    85.9043   191.1664
 1825.5000    80.7738   195.3517
 1826.0000    80.9323   194.7749
 1826.5000    81.5576   193.0769
 1827.0000    82.4939   193.0607
 1827.5000    84.6748   192.4839
 1828.0000    87.4779   194.2088
 1828.5000    86.2364   195.8111
 1829.0000    85.3068   199.1586
 1829.5000    82.5097   212.0363
 1830.0000    83.2905   228.2777
 1830.5000    86.5603   228.8226
 1831.0000    85.9410   230.5922
 1831.5000    85.9622   242.2402
 1832.0000    86.8811   251.1978
 1832.5000    86.4174   248.3732
 1833.0000    84.7093   246.1187
 1833.5000    83.9345   248.3449
 1834.0000    83.9582   241.5974
 1834.5000    83.3155   237.6570
 1835.0000    83.1657   242.6862
 1835.5000    83.7916   246.2398
 1836.0000    84.2613   272.9225
 1836.5000    83.0199   282.4366
 1837.0000    82.2443   282.4205
 1837.5000    81.6258   281.8437
 1838.0000    79.7413   286.8730
 1838.5000    79.2991   293.7249
 1839.0000    79.3021   303.0982
 1839.5000    79.3051   280.0931
 1840.0000    80.0859   270.5466
 1840.5000    85.3780   266.0456
 1841.0000    88.8033   265.4688
 1841.5000    88.4587   264.8920
 1842.0000    89.2768   264.3145
 1842.5000    90.2131   264.2950
 1843.0000    89.7494   263.7182
 1843.5000    89.7525   250.8080
 1844.0000    90.6888   243.5040
 1844.5000    90.0696   218.8211
 1845.0000    88.2840   216.5058
 1845.5000    86.9643   212.6181
 1846.0000    86.5014   209.7988
 1846.5000    85.7266   203.0554
 1847.0000    83.5518   193.5089
 1847.5000    81.3769   178.8520
 1848.0000    81.2243   189.8185
 1848.5000    81.6948   218.6836
 1849.0000    82.6311   234.9250
 1849.5000    83.2564   234.3482
 1850.0000    83.8816   235.4532
 1850.5000    84.1957   236.5623
 1851.0000    85.5988   237.1141
 1851.5000    86.4159   234.2061
 1852.0000    87.6278   230.3390
 1852.5000    90.7421   228.6450
 1853.0000    92.7673   240.9581
 1853.5000    91.6814   249.9116
 1854.0000    92.3066   252.1382
 1854.5000    93.8678   253.2429
 1855.0000    93.4538   254.3479
 1855.5000    92.9379   254.3277
 1856.0000    94.8083   247.5842
 1856.5000    94.5002   257.0984
 1857.0000    94.1914   269.9761
 1857.5000    97.3063   272.7919
 1858.0000    98.3983   283.3983
 1858.5000    98.1665   292.4671
 1859.0000    98.1646   289.5276
 1859.5000    98.4746   278.2992
 1860.0000    99.0950   288.3739
 1860.5000   100.0269   293.9637
 1861.0000   102.8255   296.7545
 1861.5000   106.2463   296.7343
 1862.0000   107.4893   294.4752
 1862.5000   103.7024   292.7775
 1863.0000   102.1969   310.1360
 1863.5000   101.2620   310.6804
 1864.0000   100.1715   309.5429
 1864.5000    98.7700   305.6025
 1865.0000    97.2129   305.5862
 1865.5000    96.2761   289.3783
 1866.0000    94.9635   265.1861
 1866.5000    93.3190   267.9729
 1867.0000    93.1619   272.4415
 1867.5000    93.7830   281.3950
 1868.0000    94.4038   294.2726
 1868.5000    95.0242   304.3473
 1869.0000    95.6449   305.4523
 1869.5000    96.3049   296.4623
 1870.0000    96.8864   293.0824
 1870.5000    97.5071   285.2177
 1871.0000    97.9719   279.5954
 1871.5000    98.9038   280.1398
 1872.0000   101.2357   278.4417
 1872.5000   100.9230   276.1830
 1873.0000   100.5937   273.9203
 1873.5000    99.9863   264.3738
 1874.0000    99.9848   258.1909
 1874.5000   102.6278   255.9363
 1875.0000   101.2263   257.6920
 1875.5000    98.7358   255.8997
 1876.0000    96.7120   258.8210
 1876.5000    96.6969   262.0299
 1877.0000    95.6197   258.0894
 1877.5000    92.5070   249.1035
 1878.0000    93.5944   244.6064
 1878.5000    97.0152   250.7528
 1879.0000   100.5916   250.7366
 1879.5000   101.5235   243.7849
 1880.0000    98.6389   235.5637
 1880.5000    96.8533   253.4868
 1881.0000    92.3405   269.1676
 1881.5000    91.8723   275.8786
 1882.0000    95.7599   280.9085
 1882.5000    99.8029   281.4522
 1883.0000    99.9716   283.1881
 1883.5000    97.4231   273.0066
 1884.0000    94.9757   270.1914
 1884.5000    95.5964   282.5044
 1885.0000    96.9950   283.0528
 1885.5000    97.9268   282.4719
 1886.0000    99.6365   283.0164
 1886.5000    99.9461   282.2210
 1887.0000    99.9446   280.7414
 1887.5000    99.9430   273.4332
 1888.0000    99.9412   271.1786
 1888.5000    99.9397   277.3291
 1889.0000   100.2493   275.6270
 1889.5000   100.4037   277.8532
 1890.0000   100.5575   275.2198
 1890.5000   100.2448   266.6045
 1891.0000   100.2432   264.3458
 1891.5000   100.0859   262.0872
 1892.0000    99.3066   248.6164
 1892.5000    98.3717   247.4789
 1893.0000    92.1478   248.5839
 1893.5000    90.2795   246.8087
 1894.0000    90.5891   245.7484
 1894.5000    91.2099   250.7776
 1895.0000    92.4525   249.6361
 1895.5000    94.1622   248.4987
 1896.0000    98.5164   256.3309
 1896.5000    99.9149   264.7238
 1897.0000    99.6023   256.6221
 1897.5000    98.0452   250.6721
 1898.0000    97.8881   249.5387
 1898.5000    98.0422   270.8214
 1899.0000    94.9291   275.2941
 1899.5000    93.3720   268.5465
 1900.0000    93.0593   265.1667
 1900.5000    93.6805   262.8268
 1901.0000    93.6786   261.7665
 1901.5000    93.0548   261.7503
 1902.0000    93.8311   262.8552
 1902.5000    93.3629   265.0814
 1903.0000    94.7611   266.7476
 1903.5000    96.1596   266.1634
