~VERSION INFORMATION
 VERS.                2.0:   CWLS LOG ASCII STANDARD - VERSION 2.0
 WRAP.                 NO:   ONE LINE PER DEPTH STEP
~WELL INFORMATION
#MNEM.UNIT      DATA TYPE    INFORMATION
#----------   ------------   ------------------------------
 STRT.F          200.0000:   START DEPTH
 STOP.F         3078.0000:   STOP DEPTH
 STEP.F            0.5000:   STEP LENGTH
 NULL.          -999.2500:   NO VALUE
 COMP.   FENIX & SCISSION:   COMPANY
 WELL. FENIX NPR 72 "A" #3-28:   WELL
 FLD .              NPR-3:   FIELD
 LOC .      S28 T39N R78W:   LOCATION
 CNTY.            NATRONA:   COUNTY
 STAT.            WYOMING:   STATE
 CTRY. UNITED STATES OF AMERICA:   COUNTRY
 SRVC.              WELEX:   SERVICE COMPANY
 DATE.        06-JUN-1977:   LOGDATE
 API .     49025103770000:   API NUMBER
~CURVE INFORMATION
#MNEM.UNIT       API CODE    CURVE DESCRIPTION
#----------   ------------   ------------------------------
 DEPT.F                  :   
 CORR.G/C3   45 356 01 00:   DENSITY CORRECTION
 RHOB.G/C3   45 350 01 00:   BULK DENSITY
 CALD.IN     45 280 60 00:   CALIPER FROM DENSITY LOG
 SPR .MV     07 010 01 00:   SPONTANEOUS POTENTIAL
 GURD.OHMM   07 220 05 00:   GUARD LOG RESISTIVITY
 ILM .OHMM   07 120 44 00:   INDUCTION LOG MEDIUM RESISTIVITY
 ILD .OHMM   07 120 46 00:   DEEP INDUCTION RESISTIVITY
 GRD .GAPI   45 310 01 00:   GAMMA RAY FROM DENSITY LOG
~PARAMETER INFORMATION
#MNEM.UNIT          VALUE    DESCRIPTION
#----------   ------------   ------------------------------
 EKB .F         5022.0000:   Kelly bushing
 EGL .F         5011.0000:   Ground level
 EDF .F            0.0000:   Drilling floor
 EPD .F         5011.0000:   Permanent datum
 TD  .F         3081.0000:   Total depth
 DATE.        06-JUN-1977:   Date logged
 CLNT.            A2DTECH:   Client Code
 SL  . 990' FNL & 990' FEL:   Surface Location
 PD  .                 GL:   Permanent Datum
 DAPD.F                11:   Feet Above Permanent Datum
 DD  .F              3041:   Depth driller
 DL  .F              3081:   Depth logger
 BLI .F              3079:   Bottom log interval
 TLI .F               200:   Top log interval
 CS1 .IN            8.625:   Casing size
 CBD1.      8.625" @ 200':   Casing driller 1
 CBL1.F               218:   Casing logger 1
 BS1 .IN            7.875:   Bit size
 BSD1.F              3041:   Depth drilled with bit1
 DFT .            KCL MUD:   Type fluid in hole
 DFD .                8.8:   Density
 DFV .                 38:   Viscosity
 DFPH.                7.5:   pH
 DFL .                5.8:   Fluid loss
 MSS .           FLOWLINE:   Source of sample
 RMS .OHMM           1.19:   Rm
 MST .F                89:   Rm Meas. temp.
 RMF .OHMM           1.05:   Rmf
 MFST.F                89:   Rmf Meas. temp.
 RMC .OHMM           2.17:   Rmc
 MCST.F                89:   Rmc Meas. temp.
 MFSS.               FANN:   Source Rmf.
 MCSS.                KIT:   Source Rmc.
 RMB .OHMM           0.98:   Rm. at BHT
 BHT .F               108:   BHT.
 TCS .HRS             2.5:   Time Circ. stopped
 MRT .F               108:   Maximum recorded temp.
 LUN .               8611:   Logging unit number
 LUL .             CASPER:   Logging unit location
 ENGI.          T. JOYNER:   Recorded By
 WITN.      W. PETTINGILL:   Witnessed by
 ORIG.           5" PRINT:   Origin of data
 UWI .     49025103770000:   Unique Well ID
 DICO. A2D TECHNOLOGIES, INC.:   Digitizing Company
~OTHER INFORMATION
~A   DEPT     CORR       RHOB         CALD      SPR       GURD        ILM        ILD         GRD  
  200.0000  -999.2500  -999.2500     7.6500  -999.2500  -999.2500  -999.2500  -999.2500    73.2420
  200.5000  -999.2500  -999.2500     7.6230  -999.2500  -999.2500  -999.2500  -999.2500    73.4970
  201.0000  -999.2500  -999.2500     7.5850  -999.2500  -999.2500  -999.2500  -999.2500    74.4140
  201.5000  -999.2500  -999.2500     7.5760  -999.2500  -999.2500  -999.2500  -999.2500    74.4140
  202.0000  -999.2500  -999.2500     7.5810  -999.2500  -999.2500  -999.2500  -999.2500    75.2290
  202.5000  -999.2500  -999.2500     7.5860  -999.2500  -999.2500  -999.2500  -999.2500    75.1940
  203.0000  -999.2500  -999.2500     7.5920  -999.2500  -999.2500  -999.2500  -999.2500    75.2110
  203.5000  -999.2500  -999.2500     7.5980  -999.2500  -999.2500  -999.2500  -999.2500    74.0540
  204.0000    -0.3970     1.8840     7.6670  -999.2500  -999.2500  -999.2500  -999.2500    72.7810
  204.5000    -0.3970     1.8840     7.6810  -999.2500  -999.2500  -999.2500  -999.2500    72.7810
  205.0000    -0.3970     1.8840     7.6740  -999.2500  -999.2500  -999.2500  -999.2500    73.1610
  205.5000    -0.3970     1.8820     7.6670  -999.2500  -999.2500  -999.2500  -999.2500    73.5650
  206.0000    -0.3970     1.8830     7.6620  -999.2500  -999.2500  -999.2500  -999.2500    73.8680
  206.5000    -0.3950     1.8920     7.6550  -999.2500  -999.2500  -999.2500  -999.2500    74.2710
  207.0000    -0.3940     1.9040     7.6480  -999.2500  -999.2500  -999.2500  -999.2500    74.6800
  207.5000    -0.3870     1.9150     7.6470  -999.2500  -999.2500  -999.2500  -999.2500    75.1270
  208.0000    -0.3800     1.9320     7.6470  -999.2500  -999.2500  -999.2500  -999.2500    73.9110
  208.5000    -0.3730     1.9510     7.6470  -999.2500  -999.2500  -999.2500  -999.2500    72.4620
  209.0000    -0.3630     1.9690     7.6470  -999.2500  -999.2500  -999.2500  -999.2500    70.9850
  209.5000    -0.3420     2.0030     7.6470  -999.2500  -999.2500  -999.2500  -999.2500    69.4640
  210.0000    -0.3220     2.0330     7.6440  -999.2500  -999.2500  -999.2500  -999.2500    70.4990
  210.5000    -0.3010     2.0430     7.6410  -999.2500  -999.2500  -999.2500  -999.2500    72.0420
  211.0000    -0.2810     2.0460     7.6380  -999.2500  -999.2500  -999.2500  -999.2500    73.6140
  211.5000    -0.2570     2.0570     7.6340  -999.2500  -999.2500  -999.2500  -999.2500    75.2090
  212.0000    -0.2350     2.0770     7.6310  -999.2500  -999.2500  -999.2500  -999.2500    75.4270
  212.5000    -0.2120     2.0990     7.6300  -999.2500  -999.2500  -999.2500  -999.2500    75.2920
  213.0000    -0.1900     2.1250     7.7200  -999.2500  -999.2500  -999.2500  -999.2500    75.1760
  213.5000    -0.1530     2.1510     7.8200  -999.2500  -999.2500  -999.2500  -999.2500    76.3720
  214.0000    -0.1170     2.1760     7.9320  -999.2500  -999.2500  -999.2500  -999.2500    77.6790
  214.5000    -0.0790     2.2100     8.0490  -999.2500  -999.2500  -999.2500  -999.2500    78.9840
  215.0000    -0.0380     2.2430     8.1640  -999.2500  -999.2500  -999.2500  -999.2500    80.2880
  215.5000     0.0060     2.2750     8.2780  -999.2500  -999.2500  -999.2500  -999.2500    81.5890
  216.0000     0.0510     2.3090     8.4700  -999.2500  -999.2500  -999.2500  -999.2500    82.8930
  216.5000     0.0580     2.2880     8.7020  -999.2500  -999.2500  -999.2500  -999.2500    84.2360
  217.0000     0.0490     2.2770     9.0650  -999.2500  -999.2500  -999.2500  -999.2500    84.9670
  217.5000     0.0490     2.2960     9.5430  -999.2500     3.8450  -999.2500  -999.2500    85.5060
  218.0000     0.0490     2.3140    10.0200   -99.5480     6.6180  -999.2500  -999.2500    85.5120
  218.5000     0.0490     2.3270    10.4730   -99.3160     7.7480  -999.2500  -999.2500    84.8940
  219.0000     0.0450     2.3350    10.7000   -99.0850     8.3400     4.4840  -999.2500    84.2810
  219.5000     0.0400     2.3410    10.9150   -98.5980     8.7830     5.9560  -999.2500    83.6550
  220.0000     0.0320     2.3420    11.1310   -86.5420     9.1830     7.1700     0.2120    83.6070
  220.5000     0.0240     2.3460    11.3460   -75.2690     9.1310     7.1110     0.2530    83.8740
  221.0000     0.0170     2.3580    11.5620   -71.3450     9.1000     7.1050     0.4590    84.1450
  221.5000     0.0110     2.3690    11.7780   -67.7480     9.2900     7.8390     0.7820    84.4170
  222.0000     0.0130     2.3790    11.9920   -65.3500     9.4390     8.3880     1.0250    84.6890
  222.5000     0.0140     2.3790    12.1890   -64.3260     9.4050     8.8530     3.2070    84.9600
  223.0000     0.0160     2.3820    12.2580   -63.3570     9.3600     8.9340     6.0030    85.2280
  223.5000     0.0170     2.3850    12.3160   -62.3340     9.3150     8.6420     7.5750    85.2000
  224.0000     0.0180     2.3840    12.3420   -62.2800     9.2680     8.7050     7.5190    84.6000
  224.5000     0.0190     2.3820    12.3730   -62.5790     9.5470     8.9540     7.4380    84.0260
  225.0000     0.0200     2.3810    12.4280   -62.8890     9.8340     9.2020     8.6600    83.3980
  225.5000     0.0210     2.3820    12.4840   -63.2070    10.0650     9.3310    10.1550    82.7860
  226.0000     0.0220     2.3840    12.5400   -63.9470     9.9460     9.1340    11.6500    82.1760
  226.5000     0.0230     2.3840    12.5960   -64.7710     9.8460     8.9770    12.5420    81.5650
  227.0000     0.0230     2.3810    12.6550   -65.1910     9.7460     8.8430    12.4270    80.9530
  227.5000     0.0220     2.3770    12.7010   -65.6040     9.6470     8.7980    10.0650    80.3460
  228.0000     0.0210     2.3740    12.7490   -66.0060     9.5470     8.7530    10.4940    79.9610
  228.5000     0.0200     2.3700    12.7970   -66.5960     9.4470     8.7090    11.5100    79.5790
  229.0000     0.0220     2.3670    12.8450   -67.1830     9.3470     8.6690    12.5250    80.1200
  229.5000     0.0250     2.3630    12.8620   -68.2620     9.2470     8.6330    13.0100    81.0430
  230.0000     0.0270     2.3580    12.8740   -69.5040     9.1480     8.5970    11.4980    81.9700
  230.5000     0.0290     2.3530    12.8850   -70.7450     9.0480     8.5610     8.1350    82.8960
  231.0000     0.0310     2.3480    12.8970   -72.4150     8.9480     8.4210     7.6360    83.4240
  231.5000     0.0340     2.3390    12.9070   -73.7680     8.6230     7.9850     7.4630    83.2350
  232.0000     0.0360     2.3300    12.9370   -75.1100     8.2630     7.5500     7.3030    82.2930
  232.5000     0.0380     2.3210    12.9690   -76.7100     7.8710     7.1050     6.7980    81.3620
  233.0000     0.0390     2.3110    13.0010   -77.9810     7.3940     6.5680     6.2980    80.4370
  233.5000     0.0390     2.3020    13.0340   -78.3530     6.9180     6.0340     5.7970    79.4590
  234.0000     0.0390     2.2920    13.0650   -77.2660     6.4410     5.4460     5.2020    77.2430
  234.5000     0.0390     2.2830    13.0660   -76.1770     5.9650     4.9820     4.5230    74.9470
  235.0000     0.0390     2.2730    13.0660   -75.0880     5.4890     4.4670     3.9050    73.4140
  235.5000     0.0390     2.2640    13.0900   -73.9380     5.0120     3.9520     3.4960    72.4360
  236.0000     0.0380     2.2600    13.1200   -72.6780     4.5410     3.5500     3.1510    72.1180
  236.5000     0.0320     2.2650    13.1510   -71.4190     4.0710     3.2510     2.8940    72.3060
  237.0000     0.0290     2.2800    13.1820   -70.1730     3.5730     3.1150     2.7730    73.5570
  237.5000     0.0280     2.3010    13.2090   -69.2530     3.5730     3.0290     2.6890    75.1370
  238.0000     0.0300     2.3250    13.2360   -69.0520     3.8630     3.0860     2.7140    76.7270
  238.5000     0.0340     2.3500    13.2610   -69.7120     4.0620     3.1900     2.8730    78.3160
  239.0000     0.0350     2.3530    13.2610   -69.0160     4.7300     3.2950     3.0400    79.9040
  239.5000     0.0360     2.3530    13.2610   -68.3460     5.3470     3.4640     3.2080    81.4930
  240.0000     0.0400     2.3650    13.2610   -68.2190     4.8770     3.9590     3.3750    82.9780
