~VERSION INFORMATION
 VERS.                2.0:   CWLS LOG ASCII STANDARD - VERSION 2.0
 WRAP.                 NO:   ONE LINE PER DEPTH STEP
~WELL INFORMATION
#MNEM.UNIT      DATA TYPE    INFORMATION
#----------   ------------   ------------------------------
 STRT.F          195.5000:   START DEPTH
 STOP.F         3197.0000:   STOP DEPTH
 STEP.F            0.5000:   STEP LENGTH
 NULL.          -999.2500:   NO VALUE
 COMP.    FENIX & SCISSON:   COMPANY
 WELL.  FENIX "AX" #17-11:   WELL
 FLD .              NPR-3:   FIELD
 LOC .      S11 T38N R78W:   LOCATION
 CNTY.            NATRONA:   COUNTY
 STAT.            WYOMING:   STATE
 CTRY. UNITED STATES OF AMERICA:   COUNTRY
 SRVC.              WELEX:   SERVICE COMPANY
 DATE.        16-SEP-1977:   LOGDATE
 API .     49025104170000:   API NUMBER
~CURVE INFORMATION
#MNEM.UNIT       API CODE    CURVE DESCRIPTION
#----------   ------------   ------------------------------
 DEPT.F                  :   
 GRD .GAPI   45 310 01 00:   GAMMA RAY FROM DENSITY LOG
 CALD.IN     45 280 60 00:   CALIPER FROM DENSITY LOG
 CORR.G/C3   45 356 01 00:   DENSITY CORRECTION
 TEND.LBS    45 635 01 00:   TENSION FORM DENSITY LOG
 RHOB.G/C3   45 350 01 00:   BULK DENSITY
 SPR .MV     07 010 01 00:   SPONTANEOUS POTENTIAL
 TENR.LBS    07 635 01 00:   TENSION FROM RESISTIVITY
 ILD .OHMM   07 120 46 00:   DEEP INDUCTION RESISTIVITY
 ILM .OHMM   07 120 44 00:   INDUCTION LOG MEDIUM RESISTIVITY
 SGRD.OHMM   07 220 05 00:   SHALLOW SHORT GUARD RESISTIVITY
~PARAMETER INFORMATION
#MNEM.UNIT          VALUE    DESCRIPTION
#----------   ------------   ------------------------------
 EKB .F         5212.0000:   Kelly bushing
 EGL .F         5202.0000:   Ground level
 TD  .F         3195.0000:   Total depth
 CLNT.            A2DTECH:   Client Code
 SL  . 1090' FSL & 330' FWL:   Surface Location
 PD  .                 GL:   Permanent Datum
 EPD .F              5202:   Elevation Permanent Datum
 LMF .                 KB:   Log Measured From
 DMF .                 KB:   Drilling Measured From
 DAPD.F                10:   Feet Above Permanent Datum
 DATE.        16-SEP-1977:   Date Logged [DD-MMM-YYYY]
 DD  .F              3195:   Depth driller
 DL  .F              3195:   Depth logger
 BLI .F              3193:   Bottom log interval
 TLI .F               217:   Top log interval
 CS1 .IN            8.625:   Casing size
 CBD1.      8.625" @ 216':   Casing driller 1
 CBL1.F               217:   Casing logger 1
 BS1 .IN            7.875:   Bit size
 BSD1.F              3195:   Depth drilled with bit1
 DFT .            KCL MUD:   Type fluid in hole
 DFD .                9.2:   Density
 DFV .                 36:   Viscosity
 DFPH.                 11:   pH
 DFL .                8.8:   Fluid loss
 MSS .           FLOWLINE:   Source of sample
 RMS .OHMM           2.76:   Rm
 MST .F                99:   Rm Meas. temp.
 RMF .OHMM           1.54:   Rmf
 MFST.F                99:   Rmf Meas. temp.
 MFSS.               MEAS:   Source Rmf.
 RMC .OHMM           3.01:   Rmc
 MCST.F                99:   Rmc Meas. temp.
 MCSS.               MEAS:   Source Rmc.
 RMB .OHMM           2.40:   Rm. at BHT
 BHT .F               112:   BHT.
 TCS .HRS               6:   Time Circ. stopped
 MRT .F               112:   Maximum recorded temp.
 LUN .               8611:   Logging unit number
 LUL .             CASPER:   Logging unit location
 ENGI.          D. LAWSON:   Recorded By
 WITN.         HARRINGTON:   Witnessed by
 ORIG.           5" PRINT:   Origin of data
 UWI .     49025104170000:   Unique Well ID
 DICO. A2D TECHNOLOGIES, INC.:   Digitizing Company
~OTHER INFORMATION
~A   DEPT       GRD      CALD       CORR       TEND       RHOB        SPR       TENR        ILD        ILM       SGRD   
# ...
 1602.5000    89.7949     9.7519     0.0090  1665.1467     2.5220   -74.5924  1455.8384     7.2034     8.4990    12.0561
 1603.0000    89.4743     9.7597     0.0077  1661.8512     2.5242   -74.6012  1456.5868     7.2434     8.4967    11.9671
 1603.5000    89.4554     9.7740     0.0061  1651.3151     2.5197   -74.6100  1457.3353     7.2833     8.4944    11.4011
 1604.0000    90.0712     9.7799     0.0045  1652.1284     2.5174   -74.6188  1458.0839     7.3233     8.4921    11.9626
 1604.5000    91.8260     9.7942     0.0044  1645.7234     2.5181   -74.6273  1458.8324     7.3633     8.4898    12.4668
 1605.0000    93.9186     9.7933     0.0058  1638.4730     2.5211   -74.6364  1459.5808     7.2861     8.4875    12.2915
 1605.5000    95.7096     9.8078     0.0073  1637.4598     2.5249   -74.6455  1460.3293     7.1353     8.4852    12.1194
 1606.0000    97.8023     9.8069     0.0087  1624.7905     2.5263   -74.6562  1461.0779     6.9875     8.4824    11.7856
 1606.5000    99.2964     9.8062     0.0101  1625.6039     2.5203   -74.6651  1461.8263     6.8904     8.4801    11.3036
 1607.0000    96.8594     9.8204     0.0100  1611.1218     2.5165   -74.6739  1462.5748     6.8895     8.3608    11.1454
 1607.5000    99.0194     9.8172     0.0084  1621.6823     2.5127   -74.6827  1463.3234     6.8885     8.1296    11.2261
 1608.0000   101.0448     9.8038     0.0038  1628.8004     2.5089   -74.6915  1464.0719     6.9355     8.4732    11.5305
 1608.5000    98.3061     9.8031     0.0021  1614.3717     2.5081   -74.7000  1464.8203     6.9345     8.5895    11.6879
 1609.0000    96.7789     9.8024     0.0006  1594.0580     2.5081   -74.7091  1465.5688     6.9334     8.5871    10.9041
 1609.5000    95.8550     9.8016     0.0005  1580.4899     2.5073   -74.7182  1466.3174     6.9585     8.5848    10.8268
 1610.0000    94.5148     9.8009     0.0020  1569.8628     2.5081   -74.7289  1467.0659     6.9800     8.5819    11.5980
 1610.5000    94.0071     9.8002     0.0049  1557.6346     2.5193   -74.7377  1467.8143     6.9788     8.3445    12.3402
 1611.0000    93.9879     9.8145     0.0078  1543.4132     2.5373   -74.7455  1468.5629     6.9297     8.0018    11.2756
 1611.5000    96.6794     9.8137     0.0077  1544.2147     2.5290   -74.7545  1469.3114     6.8290     7.7804    11.2725
 1612.0000    97.5701     9.8282     0.0061  1544.9368     2.5162   -74.7641  1470.0598     6.7802     7.7783    10.9420
 1612.5000    96.3398     9.8272     0.0030  1560.6287     2.5094   -74.7727  1470.8083     6.7373     7.9953    10.5867
 1613.0000    94.8126     9.8265     0.0005  1563.5742     2.5056   -74.7818  1471.6953     6.6436     8.2183    10.9562
 1613.5000    93.8886     9.8559    -0.0017  1577.0958     2.5048   -74.7927  1472.4244     6.6428     8.4476    11.0292
 1614.0000    95.0763     9.8552    -0.0018  1592.9154     2.5049   -74.8000  1488.1237     6.6883     8.4448    10.7248
 1614.5000    97.4742     9.8696    -0.0034  1593.6375     2.5070   -74.8103  1503.8228     6.7339     8.5606    10.6480
 1615.0000    97.7533     9.8687    -0.0049  1594.3595     2.5085   -74.8182  1504.5519     6.8016     8.7994    11.0196
 1615.5000    90.4898     9.8679    -0.0050  1610.0515     2.5130   -74.8279  1505.2810     6.9211     9.2997    11.2476
 1616.0000    87.1526     9.8370    -0.0021  1622.1073     2.5144   -74.8367  1491.0398     6.9683     9.6929    11.1619
 1616.5000    85.9270     9.8212    -0.0007  1626.4971     2.5107   -74.8455  1476.7965     7.0643     9.8259    11.0100
 1617.0000    86.5114     9.8054     0.0007  1627.2479     2.5099   -74.8545  1477.5449     7.1229     9.8232    10.9312
 1617.5000    87.0958     9.8047     0.0021  1627.9940     2.5162   -74.8636  1478.4391     7.2110     9.8204    11.1573
 1618.0000    88.1238     9.7888     0.0060  1626.2233     2.5286   -74.8742  1494.1383     7.3613     9.6818    11.7887
 1618.5000    89.5907     9.7880     0.0071  1614.5210     2.5316   -74.8830  1509.8375     7.4117     9.3488    12.6293
 1619.0000    91.5591     9.7420     0.0078  1609.4503     2.5293   -74.8909  1510.5665     7.5662     8.9027    13.5308
 1619.5000    93.0090     9.7413     0.0062  1601.0481     2.5262   -74.9006  1511.2957     7.5645     8.7775    11.5374
 1620.0000    94.3187     9.7406     0.0046  1601.7965     2.5255   -74.9094  1481.9023     7.3573     8.6541    11.5343
 1620.5000    94.8252     9.7398     0.0045  1602.6628     2.5262   -74.9182  1467.8434     7.2424     8.5324    12.5389
 1621.0000    95.1079     9.7391     0.0060  1603.3849     2.5292   -74.9273  1453.5929     7.1046     8.5301    12.8767
 1621.5000    95.2790     9.7535     0.0104  1604.0419     2.5351   -74.9380  1454.3413     6.9575     8.5277    12.1797
 1622.0000    96.1689     9.7525     0.0133  1604.7904     2.5426   -74.9454  1485.0300     6.8134     8.6442    12.2609
 1622.5000    97.0942     9.7670     0.0162  1605.5509     2.5449   -74.9545  1485.9120     6.7187     8.6419    12.0059
 1623.0000    97.6480     9.7814     0.0161  1606.2874     2.5351   -74.9644  1486.6411     6.5796     8.7003    11.7563
 1623.5000    97.3281     9.7805     0.0130  1607.1755     2.5215   -74.9727  1487.3702     6.4881     8.7586    11.2755
 1624.0000    95.8053     9.7790     0.0099  1622.8676     2.5140   -74.9818  1488.0992     6.3538     8.7557    10.9650
 1624.5000    96.6957     9.7638     0.0061  1623.5895     2.5086   -74.9909  1488.7725     6.2220     8.7533    11.1918
 1625.0000    98.7928     9.7480     0.0022  1639.3419     2.5031   -75.0000  1489.5575     6.2212     8.7510    11.5157
 1625.5000   100.7801     9.7322    -0.0008  1636.3790     2.4958   -75.0106  1490.2864     6.3952     8.6203    12.1527
 1626.0000   102.0819     9.7164    -0.0009  1625.7484     2.4920   -75.0194  1491.0178     6.6198     8.5060    12.4910
 1626.5000    99.9521     9.7006    -0.0009  1620.7090     2.4898   -75.0283  1491.7664     6.7579     8.4449    12.7494
 1627.0000    97.5242     9.6998    -0.0010  1612.2755     2.4890   -75.0364  1492.6560     6.9470     8.5020    12.5701
 1627.5000    95.6997     9.6991    -0.0017  1613.1323     2.4890   -75.0459  1493.3849     6.9460     8.7386    12.1396
 1628.0000    94.4785     9.6982    -0.0026  1613.7725     2.4897   -75.0547  1494.1140     6.9425     8.8590    12.0528
 1628.5000    94.1623     9.6976    -0.0027  1616.5443     2.4928   -75.0636  1494.8431     6.8403     8.9179    12.0495
 1629.0000    95.3544     9.6968    -0.0019  1630.2683     2.5009   -75.0745  1495.5721     6.7532     8.9775    12.1299
 1629.5000    99.3727     9.6961     0.0002  1630.9879     2.5099   -75.0818  1496.3013     6.7523     8.9750    12.3799
 1630.0000   103.7681     9.6953     0.0031  1631.7366     2.5196   -75.0921  1497.0304     6.8456     8.9721    12.5490
 1630.5000   104.3605     9.6946     0.0106  1632.4851     2.5286   -75.1009  1497.7593     6.9402     8.8459    12.8086
 1631.0000    99.8174     9.6938     0.0165  1633.3369     2.5368   -75.1097  1513.4731     7.0850     8.8436    12.5422
 1631.5000    97.0879     9.6931     0.0210  1634.0590     2.5421   -75.1182  1514.3699     7.1334     8.8412    11.6205
 1632.0000    95.8667     9.7074     0.0193  1649.7511     2.5367   -75.1273  1500.1287     7.2822     8.9630    11.4578
 1632.5000    94.3438     9.7065     0.0103  1650.4730     2.5330   -75.1364  1500.8578     7.3386     8.8980    12.2748
 1633.0000    92.1409     9.7211     0.0058  1643.6102     2.5314   -75.1471  1486.6168     7.4849     8.7059    12.1784
 1633.5000    89.4845     9.7051     0.0057  1634.5114     2.5314   -75.1559  1472.1936     7.5357     8.0604    11.4485
 1634.0000    87.0567     9.6893     0.0072  1622.7546     2.5412   -75.1636  1473.1050     7.5347     7.9001    12.5212
 1634.5000    84.9305     9.6885     0.0116  1623.5032     2.5554   -75.1727  1473.8341     7.4816     7.8979    13.9822
 1635.0000    85.5193     9.6878     0.0167  1609.2935     2.5719   -75.1823  1474.5630     7.4806     7.8958    13.5035
 1635.5000    88.5213     9.6870     0.0205  1610.0299     2.5839   -75.1911  1475.2994     7.3767     8.0041    12.8620
