~VERSION INFORMATION
 VERS.                2.0:   CWLS LOG ASCII STANDARD - VERSION 2.0
 WRAP.                 NO:   ONE LINE PER DEPTH STEP
~WELL INFORMATION
#MNEM.UNIT      DATA TYPE    INFORMATION
#----------   ------------   ------------------------------
 STRT.F         2144.5000:   START DEPTH
 STOP.F         2870.0000:   STOP DEPTH
 STEP.F            0.5000:   STEP LENGTH
 NULL.          -999.2500:   NO VALUE
 COMP. LAWRENCE ALLISON & ASSOCIATES:   COMPANY
 WELL. LAWRENCE "X" #13-21:   WELL
 FLD .        TEAPOT DOME:   FIELD
 LOC .      S21 T39N R78W:   LOCATION
 CNTY.            NATRONA:   COUNTY
 STAT.            WYOMING:   STATE
 CTRY. UNITED STATES OF AMERICA:   COUNTRY
 SRVC.      DRESSER ATLAS:   SERVICE COMPANY
 DATE.        09-FEB-1987:   LOGDATE
 API .     49025111200000:   API NUMBER
~CURVE INFORMATION
#MNEM.UNIT       API CODE    CURVE DESCRIPTION
#----------   ------------   ------------------------------
 DEPT.F                  :   
 MCAL.IN     15 280 01 00:   CALIPER FROM MICRO LOG
 MTEN.LBS    15 635 01 00:   TENSION FROM MICRO LOG
 GRR .GAPI   05 310 01 00:   GAMMA RAY FROM RES.
 R2SL.OHMM   05 120 00 00:   RESISTIVITY
~PARAMETER INFORMATION
#MNEM.UNIT          VALUE    DESCRIPTION
#----------   ------------   ------------------------------
 EKB .F         4986.0000:   Kelly bushing
 EGL .F         4974.0000:   Ground level
 EDF .F            0.0000:   Drilling floor
 EPD .F         4974.0000:   Permanent datum
 TD  .F         2852.0000:   Total depth
 DATE.        09-FEB-1987:   Date logged
 CLNT.            A2DTECH:   Client Code
 SL  . 1962' FNL & 352' FWL:   Surface Location
 DAPD.F                12:   Feet Above Permanent Datum
 DD  .F              2850:   Depth driller
 DL  .F              2852:   Depth logger
 BLI .F              2846:   Bottom log interval
 TLI .F              2150:   Top log interval
 CS1 .IN            8.625:   Casing size
 CBD1.      8.625" @ 282':   Casing driller 1
 BS1 .IN            7.875:   Bit size
 BSD1.F              2850:   Depth drilled with bit1
 DFT .        KCL POLYMER:   Type fluid in hole
 DFD .                8.9:   Density
 DFV .                 40:   Viscosity
 DFPH.                9.7:   pH
 DFL .                8.6:   Fluid loss
 MSS .           FLOWLINE:   Source of sample
 RMS .OHMM          0.287:   Rm
 MST .F                60:   Rm Meas. temp.
 RMF .OHMM          0.203:   Rmf
 MFST.F                60:   Rmf Meas. temp.
 RMC .OHMM          0.358:   Rmc
 MCST.F                60:   Rmc Meas. temp.
 MFSS.               MEAS:   Source Rmf.
 MCSS.               CALC:   Source Rmc.
 RMB .OHMM          0.154:   Rm. at BHT
 BHT .F               112:   BHT.
 TCS .HRS               7:   Time Circ. stopped
 MRT .F               112:   Maximum recorded temp.
 LUN .            HL-6274:   Logging unit number
 LUL .           GILLETTE:   Logging unit location
 ENGI.             RAUTIO:   Recorded By
 WITN.             STRONG:   Witnessed by
 ORIG.           5" PRINT:   Origin of data
 UWI .     49025111200000:   Unique Well ID
 DICO. A2D TECHNOLOGIES, INC.:   Digitizing Company
~OTHER INFORMATION
~A  DEPT      MCAL       MTEN        GRR       R2SL   
# ...
 2655.5000     7.8540   -45.9770   222.6190     1.9980
 2656.0000     7.8540   -46.0710   200.9240     1.9930
 2656.5000     7.8540   -46.1660   174.0620     1.9910
 2657.0000     7.8540   -46.2600   136.7220     3.2500
 2657.5000     7.8540   -46.3550   109.7480     4.1070
 2658.0000     7.8540   -46.4490   101.0670     3.8470
 2658.5000     7.8540   -46.5440   101.0260     3.5790
 2659.0000     7.8540   -46.6380   102.7150     3.3170
 2659.5000     7.8540   -46.7330   104.8460     3.2850
 2660.0000     7.8540   -46.8270   106.9620     3.2130
 2660.5000     7.8540   -46.9220   109.0980     3.0450
 2661.0000     7.8540   -47.0160   111.2870     2.8590
 2661.5000     7.8540   -47.1110   113.0950     2.7960
 2662.0000     7.8540   -47.2050   115.6060     2.7250
 2662.5000     7.8540   -47.3000   118.0850     2.6550
 2663.0000     7.8540   -47.3940   120.5780     2.5820
 2663.5000     7.8540   -47.4890   123.1900     2.4600
 2664.0000     7.8540   -47.5830   130.5120     2.3340
 2664.5000     7.8540   -47.6780   136.9980     2.1170
 2665.0000     7.8540   -47.7720   154.8940     2.0080
 2665.5000     7.8540   -47.8670   170.2740     2.0040
 2666.0000     7.8540   -47.9610   193.4980     2.0000
 2666.5000     7.8540   -48.0560   211.7000     1.9960
 2667.0000     7.8540   -48.1510   192.8510     1.9930
 2667.5000     7.8540   -48.2450   165.9300     1.9910
 2668.0000     7.8540   -48.3400   139.1360     2.6200
 2668.5000     7.8540   -48.4340   120.2870     3.0510
 2669.0000     7.8540   -48.5290   118.3510     3.0470
 2669.5000     7.8540   -48.6230   119.9130     3.0380
 2670.0000     7.8540   -48.7180   121.4630     3.0300
 2670.5000     7.8540   -48.8120   122.7610     3.0080
 2671.0000     7.8540   -48.9070   122.8870     2.9450
 2671.5000     7.8540   -49.0010   123.0260     2.8860
 2672.0000     7.8530   -49.0960   124.1410     2.8330
 2672.5000     7.8520   -49.1900   125.6610     2.8580
 2673.0000     7.8510   -49.2850   127.1970     2.9090
 2673.5000     7.8490   -49.3790   127.9290     2.9590
 2674.0000     7.8480   -49.4740   126.9230     3.0100
 2674.5000     7.8470   -49.5680   125.6480     3.0510
 2675.0000     7.8450   -49.6630   125.6500     2.9850
 2675.5000     7.8440   -49.7570   128.5240     2.9400
 2676.0000     7.8430   -49.8520   131.3540     2.9400
 2676.5000     7.8410   -49.9460   133.2810     2.9400
 2677.0000     7.8400   -50.0410   131.8400     2.9400
 2677.5000     7.8390   -50.1350   131.1990     2.9400
 2678.0000     7.8380   -50.2300   131.3670     2.9400
 2678.5000     7.8360   -50.3240   131.5200     2.9190
 2679.0000     7.8350   -50.4190   130.9580     2.9810
 2679.5000     7.8340   -50.5130   130.2110     3.0580
 2680.0000     7.8320   -50.6080   132.0610     3.1350
 2680.5000     7.8310   -50.7020   134.6340     3.1960
 2681.0000     7.8300   -50.7970   134.1690     3.1960
 2681.5000     7.8280   -50.8910   133.5990     3.1960
 2682.0000     7.8270   -50.9860   133.5860     3.0120
 2682.5000     7.8260   -51.0810   135.6870     2.8530
 2683.0000     7.8240   -51.1750   139.0400     2.6950
 2683.5000     7.8230   -51.2700   141.6030     2.5360
 2684.0000     7.8220   -51.3640   141.5510     2.3970
 2684.5000     7.8200   -51.4590   140.3580     2.3970
 2685.0000     7.8190   -51.5530   138.1510     2.4520
 2685.5000     7.8180   -51.6480   136.7320     2.4880
 2686.0000     7.8160   -51.7420   136.8870     2.4020
 2686.5000     7.8150   -51.8370   137.0260     2.3300
 2687.0000     7.8140   -51.9310   137.0770     2.2880
 2687.5000     7.8120   -52.0260   135.3480     2.3830
 2688.0000     7.8110   -52.1200   133.5860     2.6820
 2688.5000     7.8100   -52.2150   131.8270     2.9810
 2689.0000     7.8080   -52.3090   129.9730     3.2800
 2689.5000     7.8070   -52.4040   127.2980     3.5790
 2690.0000     7.8060   -52.4980   124.4280     3.8150
 2690.5000     7.8050   -52.5930   121.5330     3.9270
 2691.0000     7.8030   -52.6870   120.2050     4.0390
 2691.5000     7.8020   -52.6220   120.0420     4.2230
 2692.0000     7.8010   -51.8750   120.2640     4.2230
 2692.5000     7.7990   -51.1290   122.2190     3.8950
 2693.0000     7.7980   -50.3830   124.1540     3.5590
 2693.5000     7.7970   -49.6370   126.0810     3.3970
 2694.0000     7.7950   -48.8900   127.6710     3.3420
 2694.5000     7.7940   -48.1440   128.8990     3.2870
 2695.0000     7.7900   -47.3980   128.8420     3.3240
 2695.5000     7.7840   -46.6510   127.5600     3.4540
 2696.0000     7.7790   -45.9050   126.2830     3.7430
 2696.5000     7.7730   -45.1590   125.0010     3.7030
 2697.0000     7.7680   -44.4130   123.7150     3.6900
 2697.5000     7.7620   -43.6660   122.3360     3.6740
 2698.0000     7.7570   -42.9200   122.1790     3.7080
 2698.5000     7.7510   -42.1740   125.3750     3.5760
 2699.0000     7.7460   -41.4280   129.0030     3.4750
 2699.5000     7.7410   -40.6810   129.1220     3.6380
 2700.0000     7.7350   -39.9350   123.0470     3.8270
 2700.5000     7.7240   -39.1890   114.6700     4.0310
 2701.0000     7.7110   -38.4420   104.2860     4.3490
 2701.5000     7.6970   -37.6960    95.4040     5.0530
 2702.0000     7.6840   -36.9500    89.0230     5.6910
 2702.5000     7.6700   -36.2040    82.7180     6.1790
 2703.0000     7.6570   -35.4570    78.9170     5.9140
 2703.5000     7.6440   -34.7110    75.1160     5.5790
 2704.0000     7.6330   -33.9650    71.2550     6.1160
 2704.5000     7.6330   -33.2190    67.4330     7.2210
 2705.0000     7.6320   -34.6230    64.0620     7.8670
 2705.5000     7.6320   -42.2810    62.6450     6.5110
 2706.0000     7.6310   -49.9400    62.4830     5.2520
 2706.5000     7.6310   -57.5980    67.0540     4.6770
 2707.0000     7.6300   -62.3350    68.4480     4.8200
 2707.5000     7.6300   -60.8340    66.6690     4.9560
 2708.0000     7.6290   -59.3320    64.1520     5.0910
 2708.5000     7.6290   -57.8300    62.2100     5.1320
 2709.0000     7.6280   -56.3290    61.5020     5.0050
 2709.5000     7.6280   -54.8270    60.7900     4.8920
 2710.0000     7.6270   -53.3250    60.0510     4.7790
 2710.5000     7.6270   -51.8240    60.1940     4.6660
 2711.0000     7.6260   -50.3220    66.2810     4.5490
 2711.5000     7.6260   -48.8210    73.1470     4.5490
 2712.0000     7.6250   -47.3190    72.2640     4.8700
 2712.5000     7.6240   -45.8170    70.0090     5.0850
 2713.0000     7.6240   -44.3160    67.7520     5.0850
 2713.5000     7.6230   -42.7140    65.6080     4.9130
 2714.0000     7.6230   -46.1990    65.4100     4.6340
 2714.5000     7.6220   -49.9350    70.1890     4.4240
 2715.0000     7.6220   -53.6710    75.2700     4.4240
 2715.5000     7.6210   -57.4070    78.3800     4.5340
 2716.0000     7.6210   -61.1420    76.4410     4.6620
 2716.5000     7.6200   -64.8780    73.4300     4.7210
 2717.0000     7.6200   -68.6140    70.4210     4.6820
 2717.5000     7.6190   -72.3500    67.4030     4.6380
 2718.0000     7.6190   -69.2890    64.3800     4.5910
 2718.5000     7.6180   -63.9140    61.3560     5.2480
 2719.0000     7.6180   -58.5400    58.3180     7.9400
 2719.5000     7.6170   -52.7640    56.2480    12.9840
 2720.0000     7.6170   -54.8180    54.6870    17.3190
 2720.5000     7.6160   -57.0370    53.2580    17.4810
 2721.0000     7.6160   -59.2570    54.7320    14.0150
 2721.5000     7.6150   -61.4770    57.9000     9.6530
 2722.0000     7.6150   -62.8140    61.0650     5.2900
 2722.5000     7.6140   -60.3730    58.8550     3.8850
 2723.0000     7.6140   -57.9420    57.6890     3.7670
 2723.5000     7.6170   -55.5110    59.4110     3.7080
 2724.0000     7.6360   -53.0800    61.2830     3.8610
 2724.5000     7.6540   -50.6480    62.4670     4.0690
 2725.0000     7.6720   -48.2170    63.1300     4.0690
 2725.5000     7.6900   -45.7860    64.2550     3.8250
 2726.0000     7.7070   -43.3550    65.3840     3.6720
 2726.5000     7.7250   -42.7140    66.4430     3.6650
 2727.0000     7.7340   -42.7140    66.4750     3.6590
 2727.5000     7.7360   -42.7140    66.9630     3.6520
 2728.0000     7.7370   -42.7140    68.0310     3.6450
