~VERSION INFORMATION
 VERS.                2.0:   CWLS LOG ASCII STANDARD - VERSION 2.0
 WRAP.                 NO:   ONE LINE PER DEPTH STEP
~WELL INFORMATION
#MNEM.UNIT      DATA TYPE    INFORMATION
#----------   ------------   ------------------------------
 STRT.F         2185.0000:   START DEPTH
 STOP.F         5688.0000:   STOP DEPTH
 STEP.F            0.5000:   STEP LENGTH
 NULL.          -999.2500:   NO VALUE
 COMP.       FLUOR DANIEL:   COMPANY
 WELL.   FLUOR "X" #53-10:   WELL
 FLD .           N.P.R #3:   FIELD
 LOC .      S10 T38N R78W:   LOCATION
 CNTY.            NATRONA:   COUNTY
 STAT.            WYOMING:   STATE
 CTRY. UNITED STATES OF AMERICA:   COUNTRY
 SRVC.      WESTERN ATLAS:   SERVICE COMPANY
 DATE.        23-MAR-1997:   LOGDATE
 API .     49025228470000:   API NUMBER
~CURVE INFORMATION
#MNEM.UNIT       API CODE    CURVE DESCRIPTION
#----------   ------------   ------------------------------
 DEPT.F                  :   
 CNC .DEC    42 890 03 00:   NEUTRON POROSITY SANDSTONE
 TEND.LBS    45 635 01 00:   TENSION FORM DENSITY LOG
 GRD .GAPI   45 310 01 00:   GAMMA RAY FROM DENSITY LOG
 CALD.IN     45 280 60 00:   CALIPER FROM DENSITY LOG
 ZDEN.G/C3   45 350 01 00:   BULK DENSITY
 ZCOR.G/C3   45 356 01 00:   DENSITY CORRECTION
 PE  .B/E    45 358 01 00:   PHOTOELECTRIC FACTOR
 R4SL.OHMM   07 000 00 00:   RESISTIVITY DEL 4
 R2SL.OHMM   07 000 00 00:   RESISTIVITY DEL 2
~PARAMETER INFORMATION
#MNEM.UNIT          VALUE    DESCRIPTION
#----------   ------------   ------------------------------
 EKB .F         5182.0000:   Kelly bushing
 EGL .F         5172.0000:   Ground level
 EDF .F         5181.0000:   Drilling floor
 EPD .F         5172.0000:   Permanent datum
 TD  .F         5690.0000:   Total depth
 CLNT.            A2DTECH:   Client Code
 SL  . 1183' FNL & 2118' FEL:   Surface Location
 PD  .                 GL:   Permanent Datum
 LMF .                 KB:   Log Measured From
 DMF .                 KB:   Drilling Measured From
 DAPD.F                10:   Feet Above Permanent Datum
 DATE.        23-MAR-1997:   Date Logged [DD-MMM-YYYY]
 DD  .F              5690:   Depth driller
 DL  .F              5688:   Depth logger
 BLI .F              5648:   Bottom log interval
 TLI .F              2200:   Top log interval
 CS1 .IN            9.625:   Casing size
 CBD1.      9.625" @ 446':   Casing driller 1
 CBL1.F               452:   Casing logger 1
 BS1 .IN             8.75:   Bit size
 BSD1.F              5690:   Depth drilled with bit1
 DFT .           GEL CHEM:   Type fluid in hole
 DFD .                9.8:   Density
 DFV .                 66:   Viscosity
 DFPH.                8.5:   pH
 DFL .                8.4:   Fluid loss
 MSS .              CIRC.:   Source of sample
 RMS .OHMM            1.1:   Rm
 MST .F                73:   Rm Meas. temp.
 RMF .OHMM           0.87:   Rmf
 MFST.F                73:   Rmf Meas. temp.
 MFSS.               CALC:   Source Rmf.
 RMC .OHMM           1.35:   Rmc
 MCST.F                73:   Rmc Meas. temp.
 MCSS.               CALC:   Source Rmc.
 RMB .OHMM           0.46:   Rm. at BHT
 BHT .F               174:   BHT.
 TCS .HRS               5:   Time Circ. stopped
 MRT .F               174:   Maximum recorded temp.
 LUN .            HL 6530:   Logging unit number
 LUL .          CASPER WY:   Logging unit location
 ENGI.           BROWNLOW:   Recorded By
 WITN.              HARDY:   Witnessed by
 ORIG.     2.5", 5" PRINT:   Origin of data
 UWI .     49025228470000:   Unique Well ID
 DICO. A2D TECHNOLOGIES, INC.:   Digitizing Company
~OTHER INFORMATION
~A  DEPTH      CNC       TEND        GRD       CALD       ZDEN       ZCOR         PE       R4SL       R2SL
# ...
 3097.5000     0.2246   -12.7437    97.2240     9.1288     2.5126     0.0237     2.9528  -999.2500  -999.2500
 3098.0000     0.2123   -12.2190    97.5298     9.1295     2.5179     0.0222     2.9521  -999.2500  -999.2500
 3098.5000     0.2051   -11.6942    95.6459     9.1303     2.5246     0.0236     2.9344  -999.2500  -999.2500
 3099.0000     0.2055   -11.0663    94.2499     9.1312     2.5351     0.0341     2.8906  -999.2500  -999.2500
 3099.5000     0.2267   -33.1678    94.2647     9.1319     2.5434     0.0356     2.8599  -999.2500  -999.2500
 3100.0000     0.2420   -47.6012    95.0604     9.1327     2.5299     0.0296     2.8442  -999.2500  -999.2500
 3100.5000     0.2529   -47.3014    95.2097     9.1334     2.5090     0.0326     2.8435  -999.2500  -999.2500
 3101.0000     0.2673   -24.5212    94.3329     9.1341     2.4903     0.0385     2.8427  -999.2500  -999.2500
 3101.5000     0.2850   -31.7217    96.1669     9.1349     2.4813     0.0415     2.7821  -999.2500  -999.2500
 3102.0000     0.2898   -38.9224    99.5069     9.1089     2.4731     0.0385     2.7065  -999.2500  -999.2500
 3102.5000     0.2901   -38.5528   104.6542     9.1244     2.4641     0.0340     2.6758  -999.2500  -999.2500
 3103.0000     0.2889   -38.2571   111.6087     9.1250     2.4566     0.0295     2.6903  -999.2500  -999.2500
 3103.5000     0.2850   -37.9613   121.0104     9.1254     2.4520     0.0279     2.6893  -999.2500  -999.2500
 3104.0000     0.2822   -37.6658   126.4212     9.1409     2.4524     0.0265     2.6886  -999.2500  -999.2500
 3104.5000     0.2817   -37.3700   124.3052     9.1414     2.4575     0.0280     2.6729  -999.2500  -999.2500
 3105.0000     0.2817   -37.0745   122.5101     9.1569     2.4618     0.0339     2.6422  -999.2500  -999.2500
 3105.5000     0.2820   -36.7788   123.1950     9.1573     2.4641     0.0369     2.6115  -999.2500  -999.2500
 3106.0000     0.2874   -36.4830   126.5350     9.1578     2.4528     0.0386     2.5873  -999.2500  -999.2500
 3106.5000     0.2904   -21.1950   127.7599     9.1582     2.4431     0.0309     2.6099  -999.2500  -999.2500
 3107.0000     0.2913   -20.8992   126.2874     9.1587     2.4394     0.0324     2.6690  -999.2500  -999.2500
 3107.5000     0.2937   -20.6037   126.0062     9.1591     2.4386     0.0384     2.7581  -999.2500  -999.2500
 3108.0000     0.2996   -27.8111   127.8469     9.1497     2.4371     0.0398     2.8025  -999.2500  -999.2500
 3108.5000     0.3049   -27.5085   131.7894     9.1449     2.4304     0.0278     2.7716  -999.2500  -999.2500
 3109.0000     0.3116   -34.7092   134.2258     9.1454     2.4199     0.0218     2.7709  -999.2500  -999.2500
 3109.5000     0.3189   -34.4077   136.3610     9.1459     2.4094     0.0233     2.8001  -999.2500  -999.2500
 3110.0000     0.3246   -34.1079   140.0022     9.1464     2.3982     0.0278     2.8594  -999.2500  -999.2500
 3110.5000     0.3339    11.2292   140.6314     9.1468     2.3825     0.0338     2.8585  -999.2500  -999.2500
 3111.0000     0.3450    19.0212   142.4654     9.1473     2.3683     0.0577     2.8577  -999.2500  -999.2500
 3111.5000     0.3514    19.3169   143.9982     9.1477     2.3578     0.0817     2.9019  -999.2500  -999.2500
 3112.0000     0.3535    12.1162   146.1334     9.1481     2.3684     0.0502     3.0060  -999.2500  -999.2500
 3112.5000     0.3465    12.4120   146.8121     9.1486     2.3889     0.0277     2.9903  -999.2500  -999.2500
 3113.0000     0.3429    12.7075   146.1868     9.1491     2.4004     0.0292     2.9596  -999.2500  -999.2500
 3113.5000     0.3442     5.4331   144.4013     9.1495     2.3982     0.0397     2.9419  -999.2500  -999.2500
 3114.0000     0.3447     5.8027   142.9075     9.1500     2.3937     0.0471     2.8681  -999.2500  -999.2500
 3114.5000     0.3369    -1.4718   141.4480     9.1504     2.3847     0.0501     2.7776  -999.2500  -999.2500
 3115.0000     0.3345    -1.1022   145.9964     9.1509     2.3668     0.0534     2.7619  -999.2500  -999.2500
 3115.5000     0.3417   -15.7992   152.9540     9.1513     2.3271     0.0658     2.7761  -999.2500  -999.2500
 3116.0000     0.3583   -23.0135   159.6073     9.1517     2.2927     0.0920     2.8053  -999.2500  -999.2500
 3116.5000     0.3610   -22.7040   166.2606     9.1371     2.2747     0.1055     2.8644  -999.2500  -999.2500
 3117.0000     0.3546   -14.9122   174.1187     9.1219     2.2897     0.1160     2.9086  -999.2500  -999.2500
 3117.5000     0.3184   -22.1140   179.2659     9.0913     2.3263     0.1070     2.9528  -999.2500  -999.2500
 3118.0000     0.2696   -44.3059   176.5819     9.0154     2.4192     0.0755     2.9672  -999.2500  -999.2500
 3118.5000     0.2039   -29.0105   138.3556     8.9580     2.4731     0.0650     2.9363  -999.2500  -999.2500
 3119.0000     0.1663   -28.7106   114.2860     8.9585     2.4663     0.0575     2.7859  -999.2500  -999.2500
 3119.5000     0.1525   -28.3523    80.2767     8.9588     2.4401     0.0500     2.5756  -999.2500  -999.2500
 3120.0000     0.1407   -28.0568    61.6287     8.9593     2.4177     0.0350     2.3802  -999.2500  -999.2500
 3120.5000     0.1383   -27.7611    54.7278     8.9598     2.4139     0.0335     2.2597  -999.2500  -999.2500
 3121.0000     0.1650   -27.4655    54.1455     8.9602     2.4253     0.0439     2.2630  -999.2500  -999.2500
 3121.5000     0.2073   -42.2361    61.7091     8.9607     2.4404     0.0679     2.5425  -999.2500  -999.2500
 3122.0000     0.2711   -49.4368    75.5913     8.9611     2.4548     0.0892     2.7813  -999.2500  -999.2500
 3122.5000     0.2886   -41.5710    99.1120     8.9464     2.4693     0.0877     2.9752  -999.2500  -999.2500
 3123.0000     0.3027   -26.2827   116.6087     8.9319     2.4813     0.0589     3.0643  -999.2500  -999.2500
 3123.5000     0.3024   -10.9947   126.5967     8.9323     2.4880     0.0573     3.0789  -999.2500  -999.2500
 3124.0000     0.3008   -10.6990   130.5585     8.9327     2.4910     0.0528     3.0328  -999.2500  -999.2500
 3124.5000     0.3069    -2.9070   131.4480     8.9332     2.4813     0.0588     2.9573  -999.2500  -999.2500
 3125.0000     0.3099   -17.6162   128.6133     8.9336     2.4693     0.0753     2.8966  -999.2500  -999.2500
 3125.5000     0.3066   -24.8126   126.3811     8.9341     2.4596     0.0917     2.8510  -999.2500  -999.2500
 3126.0000     0.2984   -24.5089   125.8054     8.9496     2.4573     0.0992     2.8203  -999.2500  -999.2500
 3126.5000     0.2712   -16.7166   125.5377     8.9487     2.4873     0.0872     2.8196  -999.2500  -999.2500
 3127.0000     0.2495   -16.4168   121.9500     8.9354     2.5142     0.0692     2.8338  -999.2500  -999.2500
 3127.5000     0.2405   -24.4890   109.9286     8.9360     2.5359     0.0542     2.8181  -999.2500  -999.2500
 3128.0000     0.2363   -38.3186   105.1361     8.9363     2.5427     0.0407     2.7575  -999.2500  -999.2500
 3128.5000     0.2357   -37.9491   103.0544     8.9369     2.5382     0.0272     2.7418  -999.2500  -999.2500
 3129.0000     0.2405   -37.6535   103.6836     8.9373     2.5292     0.0257     2.7409  -999.2500  -999.2500
 3129.5000     0.2494   -37.3578   105.2164     8.9377     2.5172     0.0255     2.7553  -999.2500  -999.2500
 3130.0000     0.2582   -29.5658   106.7492     8.9382     2.5020     0.0257     2.7995  -999.2500  -999.2500
 3130.5000     0.2667   -14.2777   108.5832     8.9387     2.4922     0.0272     2.8137  -999.2500  -999.2500
 3131.0000     0.2754   -36.5448   111.0196     8.9391     2.4824     0.0302     2.8577  -999.2500  -999.2500
 3131.5000     0.2796   -36.1752   114.0585     8.9546     2.4746     0.0361     2.9020  -999.2500  -999.2500
 3132.0000     0.2712   -20.8870   116.1937     8.9551     2.4723     0.0451     2.9313  -999.2500  -999.2500
 3132.5000     0.2514   -13.1690   116.2455     8.9555     2.4918     0.0346     2.9303  -999.2500  -999.2500
 3133.0000     0.2415   -27.8658   112.6328     8.9560     2.5052     0.0226     2.9146  -999.2500  -999.2500
 3133.5000     0.2328   -49.9850   109.0238     8.9564     2.5120     0.0166     2.8840  -999.2500  -999.2500
