~VERSION INFORMATION
 VERS.                2.0:   CWLS LOG ASCII STANDARD - VERSION 2.0
 WRAP.                 NO:   ONE LINE PER DEPTH STEP
~WELL INFORMATION
#MNEM.UNIT      DATA TYPE    INFORMATION
#----------   ------------   ------------------------------
 STRT.F          200.0000:   START DEPTH
 STOP.F         3050.0000:   STOP DEPTH
 STEP.F            0.5000:   STEP LENGTH
 NULL.          -999.2500:   NO VALUE
 COMP.     FENIX & SISSON:   COMPANY
 WELL. FENIX & SISSON "AX" #16-28:   WELL
 FLD .              NPR 3:   FIELD
 LOC .      S28 T39N R78W:   LOCATION
 CNTY.            NATRONA:   COUNTY
 STAT.            WYOMING:   STATE
 CTRY. UNITED STATES OF AMERICA:   COUNTRY
 SRVC.      DRESSER ATLAS:   SERVICE COMPANY
 DATE.        01-JUL-1977:   LOGDATE
 API .     49025103930000:   API NUMBER
~CURVE INFORMATION
#MNEM.UNIT       API CODE    CURVE DESCRIPTION
#----------   ------------   ------------------------------
 DEPT.F                  :   
 CALD.IN     45 280 60 00:   CALIPER FROM DENSITY LOG
 GRD .GAPI   45 310 01 00:   GAMMA RAY FROM DENSITY LOG
 CORR.G/C3   45 356 01 00:   DENSITY CORRECTION
 TEND.LBS    45 635 01 00:   TENSION FROM DENSITY LOG
 SPR .MV     07 010 01 00:   SPONTANEOUS POTENTIAL
 ILD .OHMM   07 120 46 00:   DEEP INDUCTION RESISTIVITY
 ILM .OHMM   07 120 44 00:   INDUCTION LOG MEDIUM RESISTIVITY
 SFL .OHMM   07 220 01 00:   SHALLOW FOCUSED LOG RESISTIVITY
 RHOB.G/C3   45 350 01 00:   BULK DENSITY
~PARAMETER INFORMATION
#MNEM.UNIT          VALUE    DESCRIPTION
#----------   ------------   ------------------------------
 EKB .F         5067.0000:   Kelly bushing
 EGL .F         5057.0000:   Ground level
 EDF .F         5066.0000:   Drilling floor
 EPD .F            0.0000:   Permanent datum
 TD  .F         3036.0000:   Total depth
 DATE.        01-JUL-1977:   Date logged
 CLNT.            A2DTECH:   Client Code
 SL  . 1220' FSL & 330' FWL:   Surface Location
 PD  .                 GL:   Permanent Datum
 DAPD.F                10:   Feet Above Permanent Datum
 DD  .F              3034:   Depth driller
 DL  .F              3036:   Depth logger
 BLI .F              3034:   Bottom log interval
 TLI .F               214:   Top log interval
 CS1 .IN            8.625:   Casing size
 CBD1.      8.625" @ 204':   Casing driller 1
 CBL1.F               214:   Casing logger 1
 BS1 .IN            7.875:   Bit size
 BSD1.F              3034:   Depth drilled with bit1
 DFT .                KCL:   Type fluid in hole
 DFD .                  9:   Density
 DFV .                 34:   Viscosity
 DFPH.                7.2:   pH
 DFL .                8.8:   Fluid loss
 MSS .         CIRCULATED:   Source of sample
 RMS .OHMM           .112:   Rm
 MST .F                75:   Rm Meas. temp.
 RMF .OHMM           .085:   Rmf
 MFST.F                75:   Rmf Meas. temp.
 RMC .OHMM           .141:   Rmc
 MCST.F                75:   Rmc Meas. temp.
 MFSS.               MEAS:   Source Rmf.
 MCSS.               MEAS:   Source Rmc.
 RMB .OHMM           .067:   Rm. at BHT
 BHT .F               124:   BHT.
 TCS .HRS               1:   Time Circ. stopped
 MRT .F               124:   Maximum recorded temp.
 LUN .               6134:   Logging unit number
 LUL .              GLTTE:   Logging unit location
 ENGI.              GOULD:   Recorded By
 WITN.         PETTINGILL:   Witnessed by
 ORIG.       2.5"5" PRINT:   Origin of data
 UWI .     49025103930000:   Unique Well ID
 DICO. A2D TECHNOLOGIES, INC.:   Digitizing Company
~OTHER INFORMATION
~A   DEPT     CALD         GRD      CORR       TEND        SPR        ILD        ILM        SFL       RHOB   
# ...
 3010.5000     7.7840    98.1510     0.0170    71.7840   -74.6140     3.9560     5.1490     6.7160     2.4570
 3011.0000     7.7680    98.0770     0.0170    76.0250   -75.1130     3.9700     5.2900     6.3470     2.4480
 3011.5000     7.7530    98.9990     0.0190    84.1930   -75.3170     3.9980     5.4320     6.0230     2.4470
 3012.0000     7.7490    97.9690     0.0240    92.3610   -75.1940     4.0260     5.5730     8.2290     2.4690
 3012.5000     7.7550    95.4430     0.0320   100.5290   -74.8930     4.0540     5.7000     8.0950     2.4850
 3013.0000     7.7630    93.4160     0.0400    95.6680   -74.6010     4.0960     5.7000     7.9320     2.5010
 3013.5000     7.7690    94.1960     0.0440   108.1350   -74.3050     4.0610     5.6250     8.5310     2.5040
 3014.0000     7.7270    94.4670     0.0280   135.3620   -74.2410     3.9880     5.5410    10.4470     2.4830
 3014.5000     7.6420    93.5150     0.0260   135.6480   -74.3160     3.8950     5.4670     9.3610     2.4580
 3015.0000     7.6310    93.2330     0.0330   141.8650   -74.3780     3.7790     5.3950     6.6020     2.4520
 3015.5000     7.7270    95.2690     0.0270   102.1830   -74.4290     3.6620     5.3070     6.6020     2.4560
 3016.0000     7.6830    95.5890     0.0160   158.2540   -74.5040     3.5450     5.1050     6.6020     2.4020
 3016.5000     7.6500    95.4330     0.0090   128.8490   -74.5600     3.4280     4.9030     6.2650     2.4080
 3017.0000     7.6810    96.7830     0.0090   102.1830   -74.5410     3.3110     4.7010     5.8510     2.4150
 3017.5000     7.7310    98.7940     0.0210   102.1830   -73.8890     3.2820     4.5730     5.5970     2.4280
 3018.0000     7.6990    97.6950     0.0330   121.5110   -73.5070     3.2700     4.6350     6.0230     2.4420
 3018.5000     7.6290    96.4980     0.0410   150.0990   -74.1190     3.2570     4.7430     6.0040     2.4690
 3019.0000     7.6610    95.4340     0.0440   175.6610   -74.5710     3.2450     4.9220     5.9140     2.4650
 3019.5000     7.7380    94.3760     0.0420   178.0070   -74.0430     3.2330     4.8620     6.0080     2.4720
 3020.0000     7.7680    93.3940     0.0330   162.9270   -73.2640     3.2110     4.6840     6.2890     2.4810
 3020.5000     7.7690    92.9600     0.0240   147.8480   -73.0420     3.1810     4.4900     6.4820     2.4380
 3021.0000     7.7690    93.9620     0.0300   151.0320   -73.7910     3.1520     4.5610     6.1780     2.4440
 3021.5000     7.7690    94.7500     0.0390   173.9020   -74.6200     3.1220     4.6400     5.8420     2.4570
 3022.0000     7.7690    93.6480     0.0440   196.7720   -75.4500     3.0920     4.7440     5.5060     2.4720
 3022.5000     7.7690    93.4880     0.0440   210.0890   -76.2950     3.0630     4.7260     5.3950     2.4630
 3023.0000     7.7690    94.2140     0.0430   202.5490   -77.1350     3.0330     4.6570     5.5160     2.4530
 3023.5000     7.7690    94.5620     0.0460   195.0090   -77.6980     2.9980     4.5870     5.7820     2.4860
 3024.0000     7.7690    94.4950     0.0590   202.1830   -76.6810     2.9990     4.5170     6.0480     2.5020
 3024.5000     7.7690    93.9300     0.0630   234.8540   -74.7660     2.9990     4.4480     6.3640     2.5090
 3025.0000     7.7690    93.3380     0.0550   250.9920  -999.2500     2.9990     4.3780     6.0080     2.4850
 3025.5000     7.7690    93.1660     0.0510   236.7060  -999.2500     2.9980     4.3090     5.5690     2.4770
 3026.0000     7.7690    94.0910     0.0490   191.4680  -999.2500     2.9980     4.2390     5.2010     2.4680
 3026.5000     7.7690    95.3930     0.0520   196.9580  -999.2500     2.9980     4.1690     5.0130     2.4620
 3027.0000     7.7670    95.1230     0.0550   205.1260  -999.2500     3.0000     4.0960     5.1930     2.4730
 3027.5000     7.7340    94.4920     0.0550   211.3100  -999.2500     3.0040     4.0960     5.3950     2.4760
 3028.0000     7.7010    93.9200     0.0430   262.3020  -999.2500     3.0070     4.0960     5.2030     2.4550
 3028.5000     7.6700    94.7580     0.0310   278.1750  -999.2500     3.0110     4.0960     4.9430     2.4260
 3029.0000     7.7060    94.2960     0.0270   221.2300  -999.2500     3.0150     4.0960     4.6580     2.4320
 3029.5000     7.7480    94.9240     0.0340   300.5950  -999.2500     3.0190     4.0960     4.6580     2.4470
 3030.0000     7.7360    95.6850     0.0390   201.3890  -999.2500     3.0230     4.0960     5.2010     2.4600
 3030.5000     7.7250    94.4160     0.0450   330.3570  -999.2500     3.0260     4.0880     5.1690     2.4750
 3031.0000     7.7140    94.5940     0.0610   269.3880  -999.2500     3.0300     4.0790     5.1030     2.5000
 3031.5000     7.7030    94.2780     0.0680    92.2620  -999.2500     3.0340     4.0700     5.0370     2.5110
 3032.0000     7.6920    95.0660     0.0580   313.9290  -999.2500     3.0380     4.0610     4.9220     2.4970
 3032.5000     7.6960    95.3760     0.0470   499.0080  -999.2500     3.0420     4.0520     5.0730     2.4790
 3033.0000     7.7050    94.8460     0.0320   317.3410  -999.2500     3.0460     4.0420     5.0120     2.4640
 3033.5000     7.7130    95.4070     0.0200   180.1190  -999.2500     3.0490     4.0330     4.5660     2.4380
 3034.0000     7.7220    95.6140     0.0300    82.3410  -999.2500     3.0530     4.0240     4.1200     2.4470
 3034.5000     7.7300    94.6140  -999.2500    -2.7380  -999.2500  -999.2500  -999.2500  -999.2500     2.4180
 3035.0000     7.7480  -999.2500  -999.2500   -76.3890  -999.2500  -999.2500  -999.2500  -999.2500  -999.2500
 3035.5000  -999.2500  -999.2500  -999.2500   -73.3310  -999.2500  -999.2500  -999.2500  -999.2500  -999.2500
 3036.0000  -999.2500  -999.2500  -999.2500   -70.4480  -999.2500  -999.2500  -999.2500  -999.2500  -999.2500
 3036.5000  -999.2500  -999.2500  -999.2500   -67.5650  -999.2500  -999.2500  -999.2500  -999.2500  -999.2500
 3037.0000  -999.2500  -999.2500  -999.2500   -68.7050  -999.2500  -999.2500  -999.2500  -999.2500  -999.2500
 3037.5000  -999.2500  -999.2500  -999.2500   -72.3160  -999.2500  -999.2500  -999.2500  -999.2500  -999.2500
 3038.0000  -999.2500  -999.2500  -999.2500   -75.9270  -999.2500  -999.2500  -999.2500  -999.2500  -999.2500
 3038.5000  -999.2500  -999.2500  -999.2500   -79.5380  -999.2500  -999.2500  -999.2500  -999.2500  -999.2500
 3039.0000  -999.2500  -999.2500  -999.2500   -83.1500  -999.2500  -999.2500  -999.2500  -999.2500  -999.2500
 3039.5000  -999.2500  -999.2500  -999.2500   -86.7610  -999.2500  -999.2500  -999.2500  -999.2500  -999.2500
 3040.0000  -999.2500  -999.2500  -999.2500   -90.3720  -999.2500  -999.2500  -999.2500  -999.2500  -999.2500
 3040.5000  -999.2500  -999.2500  -999.2500   -93.9830  -999.2500  -999.2500  -999.2500  -999.2500  -999.2500
 3041.0000  -999.2500  -999.2500  -999.2500   -97.5940  -999.2500  -999.2500  -999.2500  -999.2500  -999.2500
 3041.5000  -999.2500  -999.2500  -999.2500  -101.2050  -999.2500  -999.2500  -999.2500  -999.2500  -999.2500
 3042.0000  -999.2500  -999.2500  -999.2500  -104.8160  -999.2500  -999.2500  -999.2500  -999.2500  -999.2500
 3042.5000  -999.2500  -999.2500  -999.2500  -108.4270  -999.2500  -999.2500  -999.2500  -999.2500  -999.2500
 3043.0000  -999.2500  -999.2500  -999.2500  -112.0380  -999.2500  -999.2500  -999.2500  -999.2500  -999.2500
 3043.5000  -999.2500  -999.2500  -999.2500  -115.6500  -999.2500  -999.2500  -999.2500  -999.2500  -999.2500
 3044.0000  -999.2500  -999.2500  -999.2500  -119.2610  -999.2500  -999.2500  -999.2500  -999.2500  -999.2500
 3044.5000  -999.2500  -999.2500  -999.2500  -122.8720  -999.2500  -999.2500  -999.2500  -999.2500  -999.2500
 3045.0000  -999.2500  -999.2500  -999.2500  -126.4830  -999.2500  -999.2500  -999.2500  -999.2500  -999.2500
 3045.5000  -999.2500  -999.2500  -999.2500  -130.0940  -999.2500  -999.2500  -999.2500  -999.2500  -999.2500
 3046.0000  -999.2500  -999.2500  -999.2500  -133.7050  -999.2500  -999.2500  -999.2500  -999.2500  -999.2500
 3046.5000  -999.2500  -999.2500  -999.2500  -110.5160  -999.2500  -999.2500  -999.2500  -999.2500  -999.2500
