~VERSION INFORMATION
 VERS.                2.0:   CWLS LOG ASCII STANDARD - VERSION 2.0
 WRAP.                 NO:   ONE LINE PER DEPTH STEP
~WELL INFORMATION
#MNEM.UNIT      DATA TYPE    INFORMATION
#----------   ------------   ------------------------------
 STRT.F            5.0000:   START DEPTH
 STOP.F         5604.0000:   STOP DEPTH
 STEP.F            0.5000:   STEP LENGTH
 NULL.          -999.2500:   NO VALUE
 COMP.   LAWRENCE ALLISON:   COMPANY
 WELL. LAWRENCE 62 TPX #10-10:   WELL
 FLD .           NPR NO 3:   FIELD
 LOC .      S10 T38N R78W:   LOCATION
 CNTY.            NATRONA:   COUNTY
 STAT.            WYOMING:   STATE
 CTRY. UNITED STATES OF AMERICA:   COUNTRY
 SRVC.      DRESSER ATLAS:   SERVICE COMPANY
 DATE.        08-NOV-1985:   LOGDATE
 API .     49025110490000:   API NUMBER
~CURVE INFORMATION
#MNEM.UNIT       API CODE    CURVE DESCRIPTION
#----------   ------------   ------------------------------
 DEPT.F                  :   
 TEND.LBS    45 635 01 00:   TENSION FORM DENSITY LOG
 CNC .DEC    42 890 03 00:   NEUTRON POROSITY SANDSTONE
 CORR.G/C3   45 356 01 00:   DENSITY CORRECTION
 RHOB.G/C3   45 350 01 00:   BULK DENSITY
 TENR.LBS    11 635 01 00:   TENSION FROM RESISTIVITY
 GRR .GAPI   11 310 01 00:   GAMMA RAY FROM RESISTIVITY
 SPR .MV     11 010 01 00:   SPONTANEOUS POTENTIAL FROM RES.
 CALR.IN     11 280 01 00:   CALIPER FROM RESISTIVITY
 RD  .OHMM   11 220 10 00:   RESISTIVITY DEEP
 RS  .OHMM   11 220 09 00:   RESISTIVITY SHALLOW
 RMLL.OHMM   11 270 04 00:   MICRO LATEROLOG
 TENS.LBS    60 635 01 00:   TENSION FROM SONIC
 DT  .US/F   60 520 00 00:   DELTA TIME
~PARAMETER INFORMATION
#MNEM.UNIT          VALUE    DESCRIPTION
#----------   ------------   ------------------------------
 EKB .F         5167.0000:   Kelly bushing
 EGL .F         5155.0000:   Ground level
 EDF .F            0.0000:   Drilling floor
 TD  .F         5600.0000:   Total depth
 CLNT.            A2DTECH:   Client Code
 PD  .                 GL:   Permanent Datum
 EPD .F              5155:   Elevation Permanent Datum
 LMF .                 KB:   Log Measured From
 DMF .                 KB:   Drilling Measured From
 DAPD.F                12:   Feet Above Permanent Datum
 DATE.        08-NOV-1985:   Date Logged [DD-MMM-YYYY]
 DD  .F              5600:   Depth driller
 DL  .F              5600:   Depth logger
 BLI .F              5597:   Bottom log interval
 TLI .F               467:   Top log interval
 CS1 .IN            9.625:   Casing size
 CBD1.      9.625" @ 467':   Casing driller 1
 CBL1.F               465:   Casing logger 1
 BS1 .IN             8.75:   Bit size
 BSD1.F              5600:   Depth drilled with bit1
 DFT .        KCL POLYMER:   Type fluid in hole
 DFD .                9.2:   Density
 DFV .                 38:   Viscosity
 DFPH.                8.5:   pH
 DFL .                8.6:   Fluid loss
 MSS .           FLOWLINE:   Source of sample
 RMS .OHMM           0.28:   Rm
 MST .F                75:   Rm Meas. temp.
 RMF .OHMM           0.21:   Rmf
 MFST.F                75:   Rmf Meas. temp.
 MFSS.               CALC:   Source Rmf.
 RMC .OHMM           0.35:   Rmc
 MCST.F                75:   Rmc Meas. temp.
 MCSS.               CALC:   Source Rmc.
 RMB .OHMM           0.13:   Rm. at BHT
 BHT .F               168:   BHT.
 TCS .HRS               7:   Time Circ. stopped
 MRT .F               168:   Maximum recorded temp.
 LUN .               6274:   Logging unit number
 LUL .               GLTE:   Logging unit location
 ENGI.               MACK:   Recorded By
 WITN.             STRONG:   Witnessed by
 ORIG.      2.5" 5" PRINT:   Origin of data
 UWI .     49025110490000:   Unique Well ID
 DICO. A2D TECHNOLOGIES, INC.:   Digitizing Company
~OTHER INFORMATION
~A  DEPTH     TEND        CNC       CORR       RHOB       TENR        GRR        SPR       CALR         RD         RS       RMLL       TENS         DT
# ...
  811.0000  -999.2500  -999.2500  -999.2500  -999.2500   -63.5081    89.3452   -77.6642    13.0928     9.4630     5.9027     5.9812  -999.2500  -999.2500
  811.5000  -999.2500  -999.2500  -999.2500  -999.2500   -63.5081    86.5273   -77.6502    13.0949     9.8064     5.9974     6.2417  -999.2500  -999.2500
  812.0000  -999.2500  -999.2500  -999.2500  -999.2500   -63.5081    85.8914   -77.6366    13.0970    10.0921     6.1204     6.2916  -999.2500  -999.2500
  812.5000  -999.2500  -999.2500  -999.2500  -999.2500   -61.3479    86.8256   -77.6231    13.0991    10.2430     6.2105     6.4752  -999.2500  -999.2500
  813.0000  -999.2500  -999.2500  -999.2500  -999.2500   -57.8197    85.9420   -77.6096    13.1012    10.1797     6.2153     6.5724  -999.2500  -999.2500
  813.5000  -999.2500  -999.2500  -999.2500  -999.2500   -54.2915    85.0828   -77.5961    13.0977    10.2605     6.2633     6.7158  -999.2500  -999.2500
  814.0000  -999.2500  -999.2500  -999.2500  -999.2500   -50.7632    84.8378   -77.5826    13.0754    10.2020     6.2680     6.5390  -999.2500  -999.2500
  814.5000  -999.2500  -999.2500  -999.2500  -999.2500   -47.2350    85.7854   -77.5691    13.0775    10.2119     6.2789     6.6389  -999.2500  -999.2500
  815.0000  -999.2500  -999.2500  -999.2500  -999.2500   -43.7068    86.4072   -77.5555    13.0795    10.2219     6.3652     6.7854  -999.2500  -999.2500
  815.5000  -999.2500  -999.2500  -999.2500  -999.2500   -43.9943    86.1435   -77.5420    13.0817    10.2318     6.4590     6.6510  -999.2500  -999.2500
  816.0000  -999.2500  -999.2500  -999.2500  -999.2500   -44.7154    84.9819   -77.6818    13.0683    10.2418     6.5143     6.5663  -999.2500  -999.2500
  816.5000  -999.2500  -999.2500  -999.2500  -999.2500   -45.4365    83.8203   -77.6649    13.0708    10.1106     6.6047     6.7130  -999.2500  -999.2500
  817.0000  -999.2500  -999.2500  -999.2500  -999.2500   -46.1576    82.3593   -77.6514    13.0673    10.0480     6.6607     6.6718  -999.2500  -999.2500
  817.5000  -999.2500  -999.2500  -999.2500  -999.2500   -46.8787    79.4014   -77.6379    13.0596     9.9907     6.7070     6.4530  -999.2500  -999.2500
  818.0000  -999.2500  -999.2500  -999.2500  -999.2500   -47.5998    78.5232   -77.4778    13.0624     9.5265     6.4753     6.1522  -999.2500  -999.2500
  818.5000  -999.2500  -999.2500  -999.2500  -999.2500   -48.3209    80.9704   -77.6142    13.0490     9.1471     6.1777     6.0335  -999.2500  -999.2500
  819.0000  -999.2500  -999.2500  -999.2500  -999.2500   -49.0420    83.1022   -77.7506    13.0363     9.0277     5.9243     5.7538  -999.2500  -999.2500
  819.5000  -999.2500  -999.2500  -999.2500  -999.2500   -49.7631    83.4540   -77.8871    13.0384     9.3576     5.4944     5.3370  -999.2500  -999.2500
  820.0000  -999.2500  -999.2500  -999.2500  -999.2500   -50.4842    82.2760   -78.0235    13.0409     9.7648     4.8610     5.0531  -999.2500  -999.2500
  820.5000  -999.2500  -999.2500  -999.2500  -999.2500   -51.2053    80.5157   -78.1599    13.0273    10.1896     5.6805     5.8119  -999.2500  -999.2500
  821.0000  -999.2500  -999.2500  -999.2500  -999.2500   -51.9264    78.7553   -78.2963    13.0297    10.7069     6.5231     6.7294  -999.2500  -999.2500
  821.5000  -999.2500  -999.2500  -999.2500  -999.2500   -52.6475    75.7973   -78.4327    13.0170    11.1727     7.0836     7.1205  -999.2500  -999.2500
  822.0000  -999.2500  -999.2500  -999.2500  -999.2500   -53.3686    77.9291   -78.2659    13.0111    11.4982     7.1383     7.1775  -999.2500  -999.2500
  822.5000  -999.2500  -999.2500  -999.2500  -999.2500   -54.0897    80.3603   -77.9525    12.9907    11.6702     7.1438     7.1849  -999.2500  -999.2500
  823.0000  -999.2500  -999.2500  -999.2500  -999.2500   -54.8107    82.2295   -77.3393    12.9933    11.8447     7.2003     7.2425  -999.2500  -999.2500
  823.5000  -999.2500  -999.2500  -999.2500  -999.2500   -55.5318    80.7318   -76.7261    12.9799    12.0195     7.3050     7.2989  -999.2500  -999.2500
  824.0000  -999.2500  -999.2500  -999.2500  -999.2500   -56.2529    78.3713   -76.1129    12.9826    12.3696     7.4133     7.4697  -999.2500  -999.2500
  824.5000  -999.2500  -999.2500  -999.2500  -999.2500   -56.9740    78.4086   -75.9494    12.9694    12.5540     7.5744     7.7944  -999.2500  -999.2500
  825.0000  -999.2500  -999.2500  -999.2500  -999.2500   -57.6951    78.4446   -75.7860    12.9715    12.3931     7.7391     7.7388  -999.2500  -999.2500
  825.5000  -999.2500  -999.2500  -999.2500  -999.2500   -58.4162    78.1796   -75.6225    12.9739    12.4057     7.7450     7.7471  -999.2500  -999.2500
  826.0000  -999.2500  -999.2500  -999.2500  -999.2500   -59.1373    77.0196   -75.7589    12.9757    12.4177     7.5914     7.7552  -999.2500  -999.2500
  826.5000  -999.2500  -999.2500  -999.2500  -999.2500   -59.8584    78.5527   -75.8987    12.9778    12.4298     7.5972     7.7094  -999.2500  -999.2500
  827.0000  -999.2500  -999.2500  -999.2500  -999.2500   -60.5795    79.7863   -76.1817    12.9952    12.3555     7.6030     7.7177  -999.2500  -999.2500
  827.5000  -999.2500  -999.2500  -999.2500  -999.2500   -61.3006    80.4211   -76.6180    12.9973    12.4539     7.6618     7.8335  -999.2500  -999.2500
  828.0000  -999.2500  -999.2500  -999.2500  -999.2500   -62.0217    80.1577   -76.7544    12.9991    12.3796     7.6147     7.7873  -999.2500  -999.2500
  828.5000  -999.2500  -999.2500  -999.2500  -999.2500   -62.7428    79.8853   -76.7408    13.0015    12.3060     7.6205     7.7956  -999.2500  -999.2500
  829.0000  -999.2500  -999.2500  -999.2500  -999.2500   -63.5081    79.0322   -76.7273    13.0036    12.2258     7.6793     7.8037  -999.2500  -999.2500
  829.5000  -999.2500  -999.2500  -999.2500  -999.2500   -63.5081    78.1700   -76.8671    13.0207    12.0761     7.6852     7.8118  -999.2500  -999.2500
  830.0000  -999.2500  -999.2500  -999.2500  -999.2500   -63.5081    79.4036   -76.7003    13.0228    11.9989     7.7446     7.8200  -999.2500  -999.2500
  830.5000  -999.2500  -999.2500  -999.2500  -999.2500   -63.5081    81.5354   -76.6868    13.0249    11.8504     7.8044     7.7202  -999.2500  -999.2500
  831.0000  -999.2500  -999.2500  -999.2500  -999.2500   -63.5081    83.6673   -76.5233    13.0270    11.8621     7.7564     7.6725  -999.2500  -999.2500
  831.5000  -999.2500  -999.2500  -999.2500  -999.2500   -63.5081    83.4039   -76.5098    13.0291    11.7915     7.5501     7.4729  -999.2500  -999.2500
  832.0000  -999.2500  -999.2500  -999.2500  -999.2500   -63.5081    80.7453   -76.4963    13.0312    11.5579     7.2985     7.2761  -999.2500  -999.2500
  832.5000  -999.2500  -999.2500  -999.2500  -999.2500   -63.5081    80.1735   -76.4828    13.0330    11.3329     7.2034     7.1834  -999.2500  -999.2500
  833.0000  -999.2500  -999.2500  -999.2500  -999.2500   -63.5081    83.5119   -76.4693    13.0354    11.2651     7.0606     7.0423  -999.2500  -999.2500
  833.5000  -999.2500  -999.2500  -999.2500  -999.2500   -63.5081    86.8414   -76.4558    13.0375    10.9680     6.8729     6.8576  -999.2500  -999.2500
  834.0000  -999.2500  -999.2500  -999.2500  -999.2500   -63.5081    86.2786   -76.4422    13.0396    10.8274     6.7835     6.8173  -999.2500  -999.2500
  834.5000  -999.2500  -999.2500  -999.2500  -999.2500   -63.5081    85.4074   -76.5787    13.0417    10.6148     6.6951     6.7304  -999.2500  -999.2500
  835.0000  -999.2500  -999.2500  -999.2500  -999.2500   -63.5081    86.9494   -76.7184    13.0438    10.4063     6.6081     6.6909  -999.2500  -999.2500
  835.5000  -999.2500  -999.2500  -999.2500  -999.2500   -63.5081    88.4824   -76.7016    13.0460    10.1315     6.5221     6.5601  -999.2500  -999.2500
  836.0000  -999.2500  -999.2500  -999.2500  -999.2500   -63.5081    90.9137   -76.8413    13.0481    10.1414     6.5271     6.5670  -999.2500  -999.2500
  836.5000  -999.2500  -999.2500  -999.2500  -999.2500   -63.5081    91.2401   -76.6745    13.0502    10.1512     6.5321     6.7119  -999.2500  -999.2500
