~VERSION INFORMATION
 VERS.                2.0:   CWLS LOG ASCII STANDARD - VERSION 2.0
 WRAP.                 NO:   ONE LINE PER DEPTH STEP
~WELL INFORMATION
#MNEM.UNIT      DATA TYPE    INFORMATION
#----------   ------------   ------------------------------
 STRT.F           13.0000:   START DEPTH
 STOP.F         2858.0000:   STOP DEPTH
 STEP.F            0.5000:   STEP LENGTH
 NULL.          -999.2500:   NO VALUE
 COMP.    FENIX & SCISSON:   COMPANY
 WELL. FENIX & SCISSON "AX" #16-21:   WELL
 FLD .  TEAPOT DOME NRP-3:   FIELD
 LOC .      S21 T39N R78W:   LOCATION
 CNTY.            NATRONA:   COUNTY
 STAT.            WYOMING:   STATE
 CTRY. UNITED STATES OF AMERICA:   COUNTRY
 SRVC.           BIRDWELL:   SERVICE COMPANY
 DATE.        17-JUL-1978:   LOGDATE
 API .     49025106590000:   API NUMBER
~CURVE INFORMATION
#MNEM.UNIT       API CODE    CURVE DESCRIPTION
#----------   ------------   ------------------------------
 DEPT.F                  :   
 GRD .GAPI   45 310 01 00:   GAMMA RAY FROM DENSITY LOG
 CALD.IN     45 280 60 00:   CALIPER FROM DENSITY LOG
 CORR.G/C3   45 356 01 00:   DENSITY CORRECTION
 RHOB.G/C3   45 350 01 00:   BULK DENSITY
 SPR .MV     05 010 01 00:   SPONTANEOUS POTENTIAL FROM RES.
 ILD .OHMM   05 120 46 00:   INDUCTION LOG DEEP
 SN  .OHMM   05 041 16 00:   SHORT NORMAL 16"
~PARAMETER INFORMATION
#MNEM.UNIT          VALUE    DESCRIPTION
#----------   ------------   ------------------------------
 EKB .F         5003.0000:   Kelly bushing
 EGL .F         4993.0000:   Ground level
 EDF .F            0.0000:   Drilling floor
 EPD .F         4993.0000:   Permanent datum
 TD  .F         2858.0000:   Total depth
 CLNT.            A2DTECH:   Client Code
 SL  . 1420' FSL & 200' FWL:   Surface Location
 DATE.        17-JUL-1978:   Date Logged [DD-MMM-YYYY]
 DD  .F              2855:   Depth driller
 DL  .F              2858:   Depth logger
 BLI .F              2858:   Bottom log interval
 TLI .F                20:   Top log interval
 CS1 .              8.625:   Casing size
 CBD1.      8.625" @ 200':   Casing driller 1
 CBL1.IN              228:   Casing logger 1
 BS1 .IN            7.875:   Bit size
 BSD1.F              2855:   Depth drilled with bit1
 DFT .            MUD GEL:   Type fluid in hole
 DFD .                9.9:   Density
 DFV .                 32:   Viscosity
 DFPH.               10.5:   pH
 DFL .                7.2:   Fluid loss
 MSS .           FLOWLINE:   Source of sample
 RMS .OHMM            1.3:   Rm
 MST .F                80:   Rm Meas. temp.
 RMF .OHMM           0.77:   Rmf
 MFST.F                74:   Rmf Meas. temp.
 MFSS.               MEAS:   Source Rmf.
 RMC .OHMM            1.5:   Rmc
 MCST.F                73:   Rmc Meas. temp.
 MCSS.               MEAS:   Source Rmc.
 TCS .HRS               1:   Time Circ. stopped
 MRT .F               118:   Maximum recorded temp.
 LUN .               2958:   Logging unit number
 LUL .               CASP:   Logging unit location
 ENGI.              HONEA:   Recorded By
 WITN.           MCGINLEY:   Witnessed by
 ORIG.        2" 5" PRINT:   Origin of data
 UWI .     49025106590000:   Unique Well ID
 DICO. A2D TECHNOLOGIES, INC.:   Digitizing Company
 PD  .                 GL:   Permanent Datum
 DAPD.                 10:   Feet Above Permanent Datum
~OTHER INFORMATION
~A   DEPT       GRD      CALD       CORR       RHOB        SPR        ILD         SN   
# ...
 2333.5000    83.7773    10.3546     0.0348     2.5696   -28.9744     6.1261     6.7365
 2334.0000    84.5419    10.3558     0.0319     2.5733   -29.1039     6.0070     6.7383
 2334.5000    89.6380    10.3569     0.0290     2.5756   -29.0846     5.9296     6.6481
 2335.0000    91.4282    10.3432     0.0292     2.5667   -29.0653     5.8935     6.6044
 2335.5000    89.4969    10.3295     0.0320     2.5571   -29.0422     5.8980     6.6066
 2336.0000    89.2372    10.3140     0.0336     2.5512   -29.0233     5.8619     6.6540
 2336.5000    89.4117    10.2727     0.0336     2.5475   -29.0044     5.8673     6.6558
 2337.0000    89.7299    10.2591     0.0337     2.5438   -28.9854     5.8305     6.6576
 2337.5000    90.1969    10.2305     0.0337     2.5431   -28.9665     5.8359     6.6594
 2338.0000    90.2174    10.2165     0.0338     2.5491   -28.9475     5.8402     6.6612
 2338.5000    89.3451    10.1883     0.0338     2.5528   -28.7802     5.8445     6.7089
 2339.0000    88.6165    10.1597     0.0338     2.5484   -28.9144     5.8488     6.7570
 2339.5000    88.6422    10.1460     0.0339     2.5394   -28.7423     5.8532     6.7588
 2340.0000    88.8064    10.1175     0.0295     2.5366   -28.7234     5.8175     6.7507
 2340.5000    88.2369    10.1035     0.0280     2.5433   -28.7045     5.8218     6.9477
 2341.0000    87.6622    10.0898     0.0296     2.5426   -28.6854     5.8261     7.1980
 2341.5000    86.1947    10.0913     0.0370     2.5366   -28.5178     5.8705     7.4061
 2342.0000    86.0101    10.0776     0.0415     2.5307   -28.3502     6.5702     7.6729
 2342.5000    88.3191    10.0788     0.0445     2.5285   -28.3272     6.9568     8.0041
 2343.0000    90.7206    10.0799     0.0460     2.5300   -28.3083     7.9013     8.3495
 2343.5000    91.7829    10.0811     0.0476     2.5464   -28.2894     9.1310     9.5240
 2344.0000    91.6432    10.0826     0.0476     2.5531   -28.2704    10.6977    14.3015
 2344.5000    89.5805    10.0837     0.0477     2.5465   -28.2515    11.9463    18.9762
 2345.0000    89.0172    10.0849     0.0477     2.5442   -28.2325    14.8864    19.5250
 2345.5000    89.1865    10.0563     0.0478     2.5488   -28.2136    22.7843    22.8923
 2346.0000    86.8313    10.0427     0.0508     2.5471   -28.1946    25.6184    24.8918
 2346.5000    79.8578    10.0138     0.0523     2.5345   -28.1757    27.2684    25.0835
 2347.0000    74.8188    10.0001     0.0390     2.5288   -28.1568    27.8554    25.1084
 2347.5000    65.7620    10.0161     0.0139     2.5281   -28.1378    26.2087    24.7908
 2348.0000    49.1159    10.0025     0.0006     2.5244   -28.1187    24.3194    24.6460
 2348.5000    41.6960    10.0039     0.0125     2.5096   -28.0994    24.1754    24.6773
 2349.0000    40.2233    10.0051     0.0288     2.4777   -28.0763    24.1940    24.5270
 2349.5000    40.2490    10.0063     0.0466     2.4361   -28.0573    24.2156    24.3838
 2350.0000    40.4184    10.0074     0.0556     2.4248   -28.0384    24.2335    23.9165
 2350.5000    40.8854    10.0086     0.0555     2.4235   -28.1725    24.2515    23.4522
 2351.0000    41.5012    10.0098     0.0512     2.4191   -28.1489    24.2694    23.3093
 2351.5000    41.6953    10.0112     0.0527     2.4221   -28.1321    24.1170    23.1732
 2352.0000    41.2447     9.9972     0.0572     2.4341   -28.0662    23.8108    23.0437
 2352.5000    41.1161     9.9987     0.0647     2.4259   -27.9827    23.3392    22.9033
 2353.0000    41.4346     9.9999     0.0706     2.4193   -27.9170    22.8854    22.7744
 2353.5000    41.9136    10.0010     0.0722     2.4171   -28.0457    22.9023    22.9557
 2354.0000    42.8709    10.0022     0.0707     2.4231   -28.4704    22.9193    23.1375
 2354.5000    46.2884    10.0034     0.0708     2.4380   -29.0384    22.9363    23.1613
 2355.0000    57.1470    10.0046     0.0708     2.4410   -29.3148    22.9536    23.1851
 2355.5000    60.2874    10.0206     0.0709     2.4411   -29.2944    22.9710    23.2090
 2356.0000    58.6762    10.0218     0.0709     2.4404   -29.4275    22.9883    23.0726
 2356.5000    57.5063    10.0229     0.0710     2.4397   -29.2537    23.0057    23.1020
 2357.0000    57.2241    10.0241     0.0754     2.4444   -29.2333    23.0230    23.0838
 2357.5000    57.3986    10.0253     0.0770     2.4494   -29.2130    23.0403    22.9846
 2358.0000    58.3120    10.0264     0.0785     2.4465   -29.1926    23.0577    22.8503
 2358.5000    60.1183    10.0279     0.0771     2.4554   -29.1721    23.0785    22.5670
 2359.0000    60.2825    10.0139     0.0756     2.4518   -29.1514    23.2545    22.7458
 2359.5000    58.5225    10.0153     0.0712     2.4422   -29.1264    23.4317    22.6072
 2360.0000    54.8228    10.0314     0.0624     2.4392   -29.1061    23.6103    22.6346
 2360.5000    53.7966    10.0474     0.0565     2.4356   -29.0857    24.1186    22.7984
 2361.0000    56.6496    10.0783     0.0536     2.4282   -29.0653    24.8073    22.8061
 2361.5000    58.7535    10.0794     0.0536     2.4230   -29.0450    25.3413    22.9711
 2362.0000    59.2282    10.0656     0.0537     2.4278   -29.0246    25.8869    22.9789
 2362.5000    56.1161    10.0669     0.0552     2.4313   -29.0042    26.0794    22.8162
 2363.0000    47.9521    10.0829     0.0597     2.4269   -28.9839    25.9244    22.4995
 2363.5000    48.5843    10.0841     0.0642     2.4247   -28.9635    25.9445    22.3783
 2364.0000    49.0357    10.1004     0.0680     2.4292   -28.9431    25.7864    22.3877
 2364.5000    48.0189    10.1015     0.0695     2.4441   -28.9228    25.2754    22.3952
 2365.0000    45.0633    10.1027     0.0652     2.4649   -28.9021    24.4304    22.2493
 2365.5000    43.8882    10.1782     0.0608     2.4776   -28.8813    23.4531    21.8026
 2366.0000    50.7592    10.2239     0.0642     2.5096   -28.8566    22.7096    21.8099
 2366.5000    56.5495    10.2251     0.0728     2.5395   -28.8362    22.4130    21.6660
 2367.0000    59.1251    10.2111     0.0744     2.5440   -28.8159    22.1243    21.3792
 2367.5000    60.3274    10.2125     0.0715     2.5484   -28.7955    21.5460    21.0944
 2368.0000    60.3393    10.2434     0.0568     2.5544   -28.7751    20.8356    20.6709
 2368.5000    60.2016    10.2594     0.0390     2.5581   -29.0566    20.0111    19.8087
 2369.0000    60.8113    10.2916     0.0495     2.5574   -29.1846    18.9576    18.3619
 2369.5000    61.4181    10.3510     0.0584     2.5500   -29.4559    17.8369    17.5465
 2370.0000    61.4297    10.3969     0.0526     2.5449   -29.5846    16.7825    16.6134
 2370.5000    61.5901    10.4130     0.0527     2.5412   -29.5635    15.7903    15.3032
 2371.0000    61.8994    10.4141     0.0574     2.5435   -29.5431    14.6546    14.1936
 2371.5000    62.0598    10.4153     0.0663     2.5206   -29.5223    13.8812    13.3467
 2372.0000    62.0715    10.4313     0.0722     2.4968   -29.4973    13.3265    12.6369
 2372.5000    62.1030    10.4173     0.0722     2.4872   -29.6304    12.7934    12.4675
 2373.0000    62.8415    10.4336     0.0634     2.4946   -29.6050    12.4714    12.5730
 2373.5000    67.9126    10.4199     0.0531     2.5066   -29.5846    12.4806    12.6503
 2374.0000    68.2218    10.4211     0.0443     2.5170   -29.5643    12.4899    12.6546
 2374.5000    69.1263    10.3766     0.0325     2.5200   -29.5439    12.4991    12.6589
 2375.0000    69.4355    10.3640     0.0237     2.5223   -29.6770    12.5084    12.6631
 2375.5000    70.7864    10.3654     0.0193     2.5231   -29.6515    12.5177    12.7548
 2376.0000    70.8155    10.3666     0.0209     2.5239   -29.6312    12.4391    12.8470
 2376.5000    70.6608    10.3678     0.0254     2.5161   -29.7597    12.4506    12.8514
 2377.0000    70.2122    10.3838     0.0299     2.5061   -29.7388    12.3724    12.6802
 2377.5000    70.0887    10.3850     0.0315     2.4980   -29.7181    12.4691    12.6845
 2378.0000    70.2520    10.3861     0.0330     2.4958   -29.6981    12.4783    12.6887
 2378.5000    70.8588    10.4018     0.0331     2.5033   -29.8261    12.4875    12.6931
