~VERSION INFORMATION
 VERS.                2.0:   CWLS LOG ASCII STANDARD - VERSION 2.0
 WRAP.                 NO:   ONE LINE PER DEPTH STEP
~WELL INFORMATION
#MNEM.UNIT      DATA TYPE    INFORMATION
#----------   ------------   ------------------------------
 STRT.F            4.5000:   START DEPTH
 STOP.F         3216.0000:   STOP DEPTH
 STEP.F            0.5000:   STEP LENGTH
 NULL.          -999.2500:   NO VALUE
 COMP. LAWRENCE ALLISON & ASSCOCIATES:   COMPANY
 WELL. LAWRENCE ALLISON #38-34:   WELL
 FLD . NAVAL PET. RES. NO. 3:   FIELD
 LOC .      S34 T39N R78W:   LOCATION
 CNTY.            NATRONA:   COUNTY
 STAT.            WYOMING:   STATE
 CTRY. UNITED STATES OF AMERICA:   COUNTRY
 SRVC.      DRESSER ATLAS:   SERVICE COMPANY
 DATE.        12-OCT-1986:   LOGDATE
 API .     49025111120000:   API NUMBER
~CURVE INFORMATION
#MNEM.UNIT       API CODE    CURVE DESCRIPTION
#----------   ------------   ------------------------------
 DEPT.F                  :   
 CALD.IN     45 280 60 00:   CALIPER FROM DENSITY LOG
 RHOB.G/C3   45 350 01 00:   BULK DENSITY
 CORR.G/C3   45 356 01 00:   DENSITY CORRECTION
 CNC .DEC    42 890 01 00:   NEUTRON POROSITY
 SPR .MV     07 010 01 00:   SPONTANEOUS POTENTIAL
 TENR.LBS    06 635 01 00:   TENSION FROM RESISTIVITY
 GRR .GAPI   07 310 01 00:   GAMMA RAY FROM RESISTIVITY
 ILD .OHMM   07 120 46 00:   DEEP INDUCTION RESISTIVITY
 ILM .OHMM   07 120 44 00:   INDUCTION LOG MEDIUM RESISTIVITY
 SFL .OHMM   07 220 01 00:   SHALLOW FOCUSED LOG RESISITIVITY
~PARAMETER INFORMATION
#MNEM.UNIT          VALUE    DESCRIPTION
#----------   ------------   ------------------------------
 EKB .F         5229.5000:   Kelly bushing
 EGL .F         5217.7000:   Ground level
 TD  .F         3200.0000:   Total depth
 CLNT.            A2DTECH:   Client Code
 SL  . 1338' FWL & 132' FSL:   Surface Location
 PD  .                 GL:   Permanent Datum
 EPD .F            5217.7:   Elevation Permanent Datum
 LMF .                 KB:   Log Measured From
 DMF .                 KB:   Drilling Measured From
 DAPD.F              11.8:   Feet Above Permanent Datum
 DATE.        12-OCT-1986:   Date Logged [DD-MMM-YYYY]
 DD  .F              3200:   Depth driller
 DL  .F              3200:   Depth logger
 BLI .F              3194:   Bottom log interval
 TLI .F                 0:   Top log interval
 CS1 .IN            8.625:   Casing size
 CBD1.      8.625" @ 668':   Casing driller 1
 CBL1.F               668:   Casing logger 1
 BS1 .IN            7.875:   Bit size
 BSD1.F              3200:   Depth drilled with bit1
 DFT .        KCL POLYMER:   Type fluid in hole
 DFD .                  9:   Density
 DFV .                 36:   Viscosity
 DFPH.                9.5:   pH
 MSS .           FLOWLINE:   Source of sample
 RMS .OHMM           0.25:   Rm
 MST .F                70:   Rm Meas. temp.
 RMF .OHMM          0.191:   Rmf
 MFST.F                70:   Rmf Meas. temp.
 MFSS.               MEAS:   Source Rmf.
 RMB .OHMM          0.132:   Rm. at BHT
 BHT .F               132:   BHT.
 TCS .HRS               3:   Time Circ. stopped
 MRT .F               132:   Maximum recorded temp.
 LUN .               6274:   Logging unit number
 ENGI.             RAUTIO:   Recorded By
 ORIG.   1" 2.5" 5" PRINT:   Origin of data
 UWI .     49025111120000:   Unique Well ID
 DICO. A2D TECHNOLOGIES, INC.:   Digitizing Company
 LUL .               CLIT:   Logging unit location
 RMC .OHMM           0.31:   Rmc
 MCST.F                70:   Rmc Meas. temp.
 MCSS.               CALC:   Source Rmc.
~OTHER INFORMATION
~A    DEPT    CALD       RHOB       CORR        CNC        SPR       TENR        GRR        ILD        ILM        SFL   
# ...
  842.0000  -999.2500  -999.2500  -999.2500  -999.2500   -91.1359   -61.5000   114.5542     5.9964     5.7177     6.6633
  842.5000  -999.2500  -999.2500  -999.2500  -999.2500   -91.0241   -64.7500   114.3173     5.9968     5.7177     6.6633
  843.0000  -999.2500  -999.2500  -999.2500  -999.2500   -90.9093   -45.2500   117.5533     5.9972     5.7177     6.6633
  843.5000  -999.2500  -999.2500  -999.2500  -999.2500   -90.7981   -64.7500   119.3547     5.9976     5.7765     6.5712
  844.0000  -999.2500  -999.2500  -999.2500  -999.2500   -90.6888   -55.0000   118.1441     5.9980     5.7978     6.5712
  844.5000  -999.2500  -999.2500  -999.2500  -999.2500   -90.5594   -45.2500   115.1262     5.9157     5.7978     6.5712
  845.0000  -999.2500  -999.2500  -999.2500  -999.2500   -90.6272   -45.2500   112.1083     5.9989     5.7711     6.5712
  845.5000  -999.2500  -999.2500  -999.2500  -999.2500   -90.8578   -64.7500   110.8976     5.9993     5.7978     6.5712
  846.0000  -999.2500  -999.2500  -999.2500  -999.2500   -91.0699   -45.2500   112.1606     5.9997     5.7978     6.5712
  846.5000  -999.2500  -999.2500  -999.2500  -999.2500   -91.2809   -45.2500   114.7128     6.0001     5.7978     6.5712
  847.0000  -999.2500  -999.2500  -999.2500  -999.2500   -91.4947   -55.0000   117.0522     6.0006     5.7978     6.6633
  847.5000  -999.2500  -999.2500  -999.2500  -999.2500   -91.7125   -64.7500   119.0863     6.0010     5.7978     6.6633
  848.0000  -999.2500  -999.2500  -999.2500  -999.2500   -91.9184   -65.1980   116.9313     6.0014     5.7978     6.6633
  848.5000  -999.2500  -999.2500  -999.2500  -999.2500   -92.1211   -65.4478   110.5864     6.0018     5.7978     6.6633
  849.0000  -999.2500  -999.2500  -999.2500  -999.2500   -92.0291   -55.7518   109.6506     6.0022     5.7978     6.6633
  849.5000  -999.2500  -999.2500  -999.2500  -999.2500   -91.9292   -65.3813   110.2470     6.0026     5.7978     6.6633
  850.0000  -999.2500  -999.2500  -999.2500  -999.2500   -91.8173   -65.1400   114.4569     6.0030     5.7978     6.6633
  850.5000  -999.2500  -999.2500  -999.2500  -999.2500   -91.7112   -64.8346   121.0775     6.0035     5.7978     6.5712
  851.0000  -999.2500  -999.2500  -999.2500  -999.2500   -91.6052   -64.5311   121.6747     6.0039     5.7978     6.5712
  851.5000  -999.2500  -999.2500  -999.2500  -999.2500   -91.4984   -64.3102   120.4635     6.0043     5.8412     6.5712
  852.0000  -999.2500  -999.2500  -999.2500  -999.2500   -91.3842   -84.2500   118.6504     6.0048     5.8791     6.5712
  852.5000  -999.2500  -999.2500  -999.2500  -999.2500   -91.3341   -64.7500   111.3654     6.0052     5.8791     6.6633
  853.0000  -999.2500  -999.2500  -999.2500  -999.2500   -91.3634   -84.2500   105.8835     6.0897     5.8791     6.6633
  853.5000  -999.2500  -999.2500  -999.2500  -999.2500   -91.3842   -84.2500   103.5727     6.0902     5.8791     6.7566
  854.0000  -999.2500  -999.2500  -999.2500  -999.2500   -91.4057   -84.2500   110.7389     6.1759     5.8791     6.7566
  854.5000  -999.2500  -999.2500  -999.2500  -999.2500   -91.4287   -64.7500   113.1997     6.2628     5.8791     6.8513
  855.0000  -999.2500  -999.2500  -999.2500  -999.2500   -91.4504   -84.2500   111.7671     6.2633     5.8791     6.8513
  855.5000  -999.2500  -999.2500  -999.2500  -999.2500   -91.4727   -84.2500   110.5140     6.3514     5.8791     6.7566
  856.0000  -999.2500  -999.2500  -999.2500  -999.2500   -91.4949   -64.7500   110.7790     6.3519     5.8791     6.7566
  856.5000  -999.2500  -999.2500  -999.2500  -999.2500   -91.5170   -64.7500   111.9699     6.3523     5.8955     6.6633
  857.0000  -999.2500  -999.2500  -999.2500  -999.2500   -91.5391   -64.7500   111.9628     6.3528     5.9614     6.6633
  857.5000  -999.2500  -999.2500  -999.2500  -999.2500   -91.5612   -64.7500   110.7522     6.3532     5.9614     6.6633
  858.0000  -999.2500  -999.2500  -999.2500  -999.2500   -91.5834   -64.7500   110.7464     6.3537     5.9614     6.6745
  858.5000  -999.2500  -999.2500  -999.2500  -999.2500   -91.6054   -64.7500   112.5478     6.3541     5.9614     6.7566
  859.0000  -999.2500  -999.2500  -999.2500  -999.2500   -91.6278   -64.7500   116.7588     6.3545     6.0060     6.8763
  859.5000  -999.2500  -999.2500  -999.2500  -999.2500   -91.6501   -64.7500   117.9578     6.3550     6.1296     7.0446
  860.0000  -999.2500  -999.2500  -999.2500  -999.2500   -91.6710   -45.2500   117.3494     6.3555     6.1296     7.0446
  860.5000  -999.2500  -999.2500  -999.2500  -999.2500   -91.6960   -64.7500   117.2610     6.3559     6.2155     6.9989
  861.0000  -999.2500  -999.2500  -999.2500  -999.2500   -91.7152   -45.2500   116.7355     6.3564     6.2155     6.8513
  861.5000  -999.2500  -999.2500  -999.2500  -999.2500   -91.7246   -45.2500   117.4980     6.3568     6.2155     7.0446
  862.0000  -999.2500  -999.2500  -999.2500  -999.2500   -91.6041   -45.2500   117.9287     6.3572     6.1296     7.1433
  862.5000  -999.2500  -999.2500  -999.2500  -999.2500   -91.5024   -45.2500   114.7589     6.3576     6.1296     7.1433
  863.0000  -999.2500  -999.2500  -999.2500  -999.2500   -91.3932   -45.2500   112.4940     6.3581     6.0449     7.1433
  863.5000  -999.2500  -999.2500  -999.2500  -999.2500   -91.2851   -45.2500   111.5502     6.3585     5.9614     7.0446
  864.0000  -999.2500  -999.2500  -999.2500  -999.2500   -91.1790   -45.2500   110.0712     6.2711     5.9614     6.9473
  864.5000  -999.2500  -999.2500  -999.2500  -999.2500   -91.0751   -45.2500   107.6557     6.2715     5.9614     6.9473
  865.0000  -999.2500  -999.2500  -999.2500  -999.2500   -90.9543   -45.2500   106.3202     6.2720     5.9614     6.9473
  865.5000  -999.2500  -999.2500  -999.2500  -999.2500   -91.0163   -45.2500   104.6320     6.2724     5.9614     6.8352
  866.0000  -999.2500  -999.2500  -999.2500  -999.2500   -91.1920   -45.2500   105.8310     6.3139     5.9614     6.7342
  866.5000  -999.2500  -999.2500  -999.2500  -999.2500   -91.3527   -45.2500   108.8373     6.3612     5.9614     6.6347
  867.0000  -999.2500  -999.2500  -999.2500  -999.2500   -91.5113   -45.2500   109.4339     6.4508     5.8791     6.5712
  867.5000  -999.2500  -999.2500  -999.2500  -999.2500   -91.6713   -45.2500   107.4095     6.6333     5.9614     6.5712
  868.0000  -999.2500  -999.2500  -999.2500  -999.2500   -91.8380   -45.2500   105.0923     6.7267     6.0449     6.6191
  868.5000  -999.2500  -999.2500  -999.2500  -999.2500   -91.9914   -45.2500   104.5971     6.9170     6.2155     6.9473
  869.0000  -999.2500  -999.2500  -999.2500  -999.2500   -92.1175   -45.2500   106.7912     7.1126     6.4804     7.1433
  869.5000  -999.2500  -999.2500  -999.2500  -999.2500   -91.8826   -64.7500   109.4048     7.3138     6.7566     7.4478
  870.0000  -999.2500  -999.2500  -999.2500  -999.2500   -91.6674   -45.2500   108.8352     7.5207     7.0446     7.7652
  870.5000  -999.2500  -999.2500  -999.2500  -999.2500   -91.4406   -45.2500   106.3354     7.8491     7.6723     8.2096
  871.0000  -999.2500  -999.2500  -999.2500  -999.2500   -91.1817   -45.2500   101.5531     8.0940     8.2405     8.5595
  871.5000  -999.2500  -999.2500  -999.2500  -999.2500   -90.8857   -46.2148    98.5352     8.4314     8.5835     8.9268
  872.0000  -999.2500  -999.2500  -999.2500  -999.2500   -90.5964   -65.7832   100.3366     8.7996     8.8673     9.4563
  872.5000  -999.2500  -999.2500  -999.2500  -999.2500   -90.3019   -65.8185   102.7404     8.9318     9.0494     9.8579
  873.0000  -999.2500  -999.2500  -999.2500  -999.2500   -90.0177   -65.8855   103.3373     9.1930     9.0494     9.9751
  873.5000  -999.2500  -999.2500  -999.2500  -999.2500   -89.7328   -65.9692   101.5240     9.3311     9.0494     9.9751
  874.0000  -999.2500  -999.2500  -999.2500  -999.2500   -89.7048   -46.5578    97.3013     9.4010     9.0494    10.0254
  874.5000  -999.2500  -999.2500  -999.2500  -999.2500   -89.6826   -46.5798    98.6166     9.5335     9.0494    10.3183
  875.0000  -999.2500  -999.2500  -999.2500  -999.2500   -89.6720   -46.5432   101.7069     9.5786     8.9244    10.4002
