~VERSION INFORMATION
 VERS.                2.0:   CWLS LOG ASCII STANDARD - VERSION 2.0
 WRAP.                 NO:   ONE LINE PER DEPTH STEP
~WELL INFORMATION
#MNEM.UNIT      DATA TYPE    INFORMATION
#----------   ------------   ------------------------------
 STRT.F            0.5000:   START DEPTH
 STOP.F         4256.0000:   STOP DEPTH
 STEP.F            0.5000:   STEP LENGTH
 NULL.          -999.2500:   NO VALUE
 COMP. LAWRENCE-ALLISON & ASSOC:   COMPANY
 WELL. LAWRENCE "X" #64-15:   WELL
 FLD .        N.P.R. NO.3:   FIELD
 LOC .      S15 T38N R78W:   LOCATION
 CNTY.            NATRONA:   COUNTY
 STAT.            WYOMING:   STATE
 CTRY. UNITED STATES OF AMERICA:   COUNTRY
 SRVC.      DRESSER ATLAS:   SERVICE COMPANY
 DATE.        13-SEP-1984:   LOGDATE
 API .     49025111610000:   API NUMBER
~CURVE INFORMATION
#MNEM.UNIT       API CODE    CURVE DESCRIPTION
#----------   ------------   ------------------------------
 DEPT.F                  :   
 TENR.LBS    07 635 01 00:   TENSION FROM RESISTIVITY
 GRR .GAPI   07 310 01 00:   GAMMA RAY FROM RESISTIVITY
 RFOC.OHMM   07 220 04 00:   RESISTIVITY FOCUSED LOG RES.
 RILD.OHMM   07 120 46 00:   DEEP INDUCTION RESISTIVITY
 RILM.OHMM   07 120 44 00:   INDUCTION LOG MEDIUM RESISTIVITY
 SPR .MV     07 010 01 00:   SPONTANEOUS POTENTIAL
 DT  .US/F   60 520 00 00:   DELTA TIME
 TENS.LBS    60 635 01 00:   TENSION FROM SONIC
 CALD.IN     45 280 60 00:   CALIPER FROM DENSITY LOG
 TEND.LBS    45 635 01 00:   TENSION FORM DENSITY LOG
 CORR.G/C3   45 356 01 00:   DENSITY CORRECTION
 DEN .G/C3   45 350 01 00:   BULK DENSITY
 CNC .DEC    42 890 03 00:   NEUTRON POROSITY SANDSTONE
~PARAMETER INFORMATION
#MNEM.UNIT          VALUE    DESCRIPTION
#----------   ------------   ------------------------------
 EKB .F         5294.0000:   Kelly bushing
 EGL .F         5282.0000:   Ground level
 TD  .F         4256.0000:   Total depth
 CLNT.            A2DTECH:   Client Code
 SL  . 2299' FNL & 1785' FEL:   Surface Location
 PD  .                 GL:   Permanent Datum
 EPD .F              5282:   Elevation Permanent Datum
 LMF .                 KB:   Log Measured From
 DMF .                 KB:   Drilling Measured From
 DAPD.F                12:   Feet Above Permanent Datum
 DATE.        13-SEP-1984:   Date Logged [DD-MMM-YYYY]
 DD  .F              4256:   Depth driller
 DL  .F              4248:   Depth logger
 BLI .F              4246:   Bottom log interval
 TLI .F                 0:   Top log interval
 CS1 .IN            8.625:   Casing size
 CBD1.      8.625" @ 817':   Casing driller 1
 CBL1.F               814:   Casing logger 1
 BS1 .IN            7.875:   Bit size
 BSD1.F              4256:   Depth drilled with bit1
 DFT .            KCL-GEL:   Type fluid in hole
 DFD .                  9:   Density
 DFV .                 40:   Viscosity
 DFPH.                8.6:   pH
 DFL .               11.8:   Fluid loss
 MSS .            MUDTANK:   Source of sample
 RMS .OHMM           0.38:   Rm
 MST .F                74:   Rm Meas. temp.
 RMF .OHMM           0.31:   Rmf
 MFST.F                72:   Rmf Meas. temp.
 MFSS.               MEAS:   Source Rmf.
 RMC .OHMM           0.48:   Rmc
 MCST.F                74:   Rmc Meas. temp.
 MCSS.               CALC:   Source Rmc.
 RMB .OHMM           0.22:   Rm. at BHT
 BHT .F               134:   BHT.
 TCS .HRS               4:   Time Circ. stopped
 MRT .F               134:   Maximum recorded temp.
 LUN .            HL-6274:   Logging unit number
 LUL .           GILLETTE:   Logging unit location
 ENGI.             RAUTIO:   Recorded By
 WITN.            JOHNSON:   Witnessed by
 ORIG.        2" 5" PRINT:   Origin of data
 UWI .     49025111610000:   Unique Well ID
 DICO. A2D TECHNOLOGIES, INC.:   Digitizing Company
~OTHER INFORMATION
~A    DEPT    TENR         GRR      RFOC       RILD       RILM        SPR         DT       TENS       CALD       TEND       CORR        DEN        CNC   
# ...
  806.5000  -999.2500    61.2591  -999.2500  -999.2500  -999.2500  -999.2500    89.0991  -999.2500  -999.2500  -999.2500  -999.2500  -999.2500  -999.2500
  807.0000  -999.2500    61.2505  -999.2500  -999.2500  -999.2500  -999.2500    90.4504  -999.2500  -999.2500  -999.2500  -999.2500  -999.2500  -999.2500
  807.5000  -999.2500    59.1460  -999.2500  -999.2500  -999.2500  -999.2500    91.5015  -999.2500  -999.2500  -999.2500  -999.2500  -999.2500  -999.2500
  808.0000  -999.2500    57.9383  -999.2500  -999.2500  -999.2500  -999.2500    92.1021  -999.2500  -999.2500  -999.2500  -999.2500  -999.2500  -999.2500
  808.5000  -999.2500    57.9297  -999.2500  -999.2500  -999.2500  -999.2500    92.1021  -999.2500  -999.2500  -999.2500  -999.2500  -999.2500  -999.2500
  809.0000  -999.2500    58.8221  -999.2500  -999.2500  -999.2500  -999.2500    92.4024  -999.2500  -999.2500  -999.2500  -999.2500  -999.2500  -999.2500
  809.5000  -999.2500    60.0097  -999.2500  -999.2500  -999.2500  -999.2500    97.2072  -999.2500  -999.2500  -999.2500  -999.2500  -999.2500     0.3168
  810.0000  -999.2500    61.1986  -999.2500  -999.2500  -999.2500  -999.2500   100.9610  -999.2500  -999.2500  -999.2500  -999.2500  -999.2500     0.3276
  810.5000  -999.2500    57.2949  -999.2500  -999.2500  -999.2500  -999.2500   102.6126  -999.2500  -999.2500  -999.2500  -999.2500  -999.2500     0.3291
  811.0000  -999.2500    53.0946  -999.2500  -999.2500  -999.2500  -999.2500   104.4144  -999.2500  -999.2500  -999.2500  -999.2500  -999.2500     0.3276
  811.5000  -999.2500    51.8884  -999.2500  -999.2500  -999.2500  -999.2500   108.3183  -999.2500  -999.2500  -999.2500  -999.2500  -999.2500     0.3226
  812.0000  -999.2500    52.7779  -999.2500  -999.2500  -999.2500  -999.2500   114.7246  -999.2500     8.8758  -999.2500  -999.2500     2.1435     0.3300
  812.5000  -999.2500    58.1585  -999.2500  -999.2500  -999.2500  -999.2500   117.4149  -999.2500     8.8605    13.9442    -0.5368     2.2129     0.3439
  813.0000  -999.2500    54.2562  -999.2500  -999.2500  -999.2500  -999.2500   116.2763  -999.2500     8.8603     3.9841    -0.6331     2.2673     0.3630
  813.5000  -999.2500    53.9482  -999.2500  -999.2500  -999.2500  -999.2500   110.9459  -999.2500     8.8752   -45.8167    -0.8106     2.2311     0.3636
  814.0000   -73.2343    58.7299     4.3730     2.7830  -999.2500    -0.0299   103.2132   -48.8370     8.9503   -45.8167    -0.8362     2.2779     0.3275
  814.5000   -73.6984    69.4983     5.6889     2.0113     3.2677    -0.0274    98.6336   -48.9886     9.1308   -45.8167    -0.1936     2.3730     0.3119
  815.0000   -74.0853    71.8877     6.0134     1.9035     3.4387    -0.3253    96.7568   -49.1149     9.2812   -25.8964     0.1977     2.4183     0.3095
  815.5000   -74.4721    70.9780     6.1403     2.3272     4.0770    -3.1256    95.4054   -49.2413     9.4015    33.8645     0.2672     2.3821     0.3108
  816.0000   -74.8589    70.3706     6.1409     3.8577     4.9138    -7.3769    95.5556   -49.3676     9.4767    -5.9761     0.2474     2.3776     0.3233
  816.5000   -72.5615    68.2647     6.0993     7.7621     5.3390    -9.7769    96.5315   -49.4939     9.5250   -67.5586     0.2279     2.4002     0.3407
  817.0000   -68.7231    65.5614     5.9746     8.3783     5.6818   -11.5763    97.5325   -49.6203     9.5817   -70.4260     0.2008     2.4320     0.3467
  817.5000   -64.8846    63.1576     5.8122     7.9292     5.9635   -13.5258    99.3343   -49.7466     9.5815   -73.2934     0.1828     2.4425     0.3305
  818.0000   -61.0462    62.2507     5.4999     6.2686     5.5268   -14.7246   100.0601   -49.8729     9.5512   -76.1607     0.1737     2.4441     0.3002
  818.5000   -57.1783    64.6366     5.1684     4.8762     4.7141   -15.7732    99.9099   -49.9992     9.5510   -79.0281     0.1616     2.4547     0.2650
  819.0000   -54.9552    71.2147     4.7902     4.0290     4.1209   -16.3914   100.3604   -50.1256     9.5508   -81.8955     0.1602     2.4670     0.2493
  819.5000   -55.0335    75.3977     4.3786     3.2066     3.5017   -17.2693   101.5616   -50.2519     9.5808   -84.7629     0.1678     2.4766     0.2487
  820.0000   -65.8878    76.8875     3.9473     2.6243     3.0075   -17.4176   106.5916   -50.3782     9.5805   -87.6302     0.1678     2.4743     0.2604
  820.5000   -76.6214    72.6844     3.6332     2.1927     2.6555   -16.9641   115.1501   -50.5046     9.5804   -90.4976     0.1573     2.4593     0.2799
  821.0000   -85.0000    72.9751     3.2753     2.0046     2.5301   -16.6614   127.1622   -50.6309     9.5802   -93.3650     0.1438     2.4449     0.2982
  821.5000   -85.0000    73.2673     2.8921     1.9369     2.4781   -16.5088   136.3964   -50.7572     9.5800   -95.6175     0.1347     2.4336     0.3261
  822.0000   -85.0067    75.0522     2.5322     1.9375     2.5126   -16.8067   145.7757   -50.8836     9.5497   -95.6175     0.1287     2.3733     0.3658
  822.5000   -84.9983    76.5420     2.3833     1.9924     2.3448   -16.9545   146.6817   -51.0099     9.5194   -95.6175     0.1318     2.3003     0.4078
  823.0000   -84.9937    78.9271     2.3345     2.0919     2.2331   -17.1022   140.3754   -51.1362     9.5192   -45.8167     0.1393     2.2005     0.4222
  823.5000   -85.0072    80.1176     2.4338     2.4376     2.3939   -17.2499   133.0931   -51.2625     9.5340   -35.8566     0.1469     2.1499     0.4234
  824.0000   -85.9824    78.9084     2.8738     2.9762     3.0075   -17.3976   125.3604   -51.3889     9.5941   -55.7769     0.1318     2.1469     0.4209
  824.5000   -91.0129    76.5046     3.6365     4.0125     3.7523   -17.3946   115.9760   -51.5152     9.6692   -55.7769     0.0867     2.1590     0.4156
  825.0000   -96.0000    74.9989     4.3238     5.0782     4.2204   -17.9928   107.8679   -51.6415     9.8046     3.9841     0.0687     2.1892     0.3955
  825.5000  -100.9900    74.0921     4.8306     5.7137     4.6817   -18.7411   101.8619   -51.7679    10.2462    73.7052     0.0837     2.2013     0.3597
  826.0000  -105.0000    74.0834     5.3226     6.2101     5.3760   -19.3393    95.4054   -51.8942    11.3855   173.3068     0.1470     2.2257     0.3053
  826.5000   -85.0000    75.5704     5.7135     6.7030     6.0049   -19.9574    93.7538   -52.0205    11.9576   173.3068     0.1665     2.2829     0.2780
  827.0000   -65.0000    81.5497     5.9473     7.0865     6.5267   -20.5357    94.3743   -52.1469    12.1833   103.5857     0.1515     2.3372     0.2618
  827.5000   -65.0000    85.1339     5.8257     7.4919     6.9166   -20.5326    95.2803   -52.2732    12.3488    43.8247     0.1079     2.3773     0.2588
  828.0000   -65.0000    86.3229     5.7860     7.7042     7.3383   -19.9296    95.7057   -52.3995    12.4691   -25.8964     0.0172     2.4204     0.2600
  828.5000   -65.0000    86.3128     6.0741     7.8137     7.5964   -19.3266    96.1562   -52.5258    12.5898   -55.4283    -0.0034     2.4822     0.2611
  829.0000   -65.0000    86.0047     6.5100     7.9798     7.7557   -19.0239    96.1562   -52.6522    12.6796   -75.6972     0.0146     2.5154     0.2605
  829.5000   -95.0000    86.2969     6.9291     8.0932     7.7557   -18.8713    96.1562   -52.7785    12.6794   -75.6972     0.0297     2.5109     0.2587
  830.0000   -81.3750    87.4859     6.8821     8.2087     7.7022   -18.7187    96.1562   -52.9048    12.6491   -85.6574     0.0237     2.5094     0.2575
  830.5000   -75.0000    87.1750     6.6488     8.2679     7.6491   -18.5661    96.4565   -53.0312    11.9260   -71.7416     0.0027     2.5155     0.2569
  831.0000   -85.0000    85.9687     6.5129     8.2702     7.5964   -19.3139    96.8318   -53.1575    10.3294   -55.7769    -0.0124     2.5186     0.2635
  831.5000   -85.0000    85.9601     6.4687     8.2148     7.5441   -20.9631    96.9820   -53.2838    10.3140   -45.8167    -0.0061     2.5201     0.2698
  832.0000   -85.0000    86.2523     6.5598     8.0482     7.5441   -23.0628    96.9019   -53.4102    10.3117   -45.8167     0.0132     2.5186     0.2647
