~VERSION INFORMATION
 VERS.                2.0:   CWLS LOG ASCII STANDARD - VERSION 2.0
 WRAP.                 NO:   ONE LINE PER DEPTH STEP
~WELL INFORMATION
#MNEM.UNIT      DATA TYPE    INFORMATION
#----------   ------------   ------------------------------
 STRT.F           53.0000:   START DEPTH
 STOP.F         3110.0000:   STOP DEPTH
 STEP.F            0.5000:   STEP LENGTH
 NULL.          -999.2500:   NO VALUE
 COMP. LAWRENCE ALLISON & ASSOCIATES W:   COMPANY
 WELL. LAWRENCE NPR 3 "AX" #31-34:   WELL
 FLD .      NPR - WILDCAT:   FIELD
 LOC .      S34 T39N R78W:   LOCATION
 CNTY.            NATRONA:   COUNTY
 STAT.            WYOMING:   STATE
 CTRY. UNITED STATES OF AMERICA:   COUNTRY
 SRVC.      DRESSER ATLAS:   SERVICE COMPANY
 DATE.        11-JUL-1986:   LOGDATE
 API .     49025111020000:   API NUMBER
~CURVE INFORMATION
#MNEM.UNIT       API CODE    CURVE DESCRIPTION
#----------   ------------   ------------------------------
 DEPT.F                  :   
 DEN .G/C3   45 350 01 00:   BULK DENSITY
 TEND.LBS    45 635 01 00:   TENSION FROM DENSITY LOG
 CORR.G/C3   45 356 01 00:   DENSITY CORRECTION
 NPHI.DEC    42 890 03 00:   NEUTRON POROSITY SANDSTONE
 SPR .MV     07 010 01 00:   SPONTANEOUS POTENTIAL
 RILM.OHMM   07 120 44 00:   INDUCTION LOG MEDIUM RESISTIVITY
 RILD.OHMM   07 120 46 00:   DEEP INDUCTION RESISTIVITY
 RFOC.OHMM   07 220 04 00:   RESISTIVITY FOCUSED LOG RES.
 TENR.LBS    07 635 01 00:   TENSION FROM RESISTIVITY
 GRR .GAPI   07 310 01 00:   GAMMA RAY FROM RESISTIVITY
 CALR.IN     07 280 01 00:   CALIPER FROM RESISTIVITY
~PARAMETER INFORMATION
#MNEM.UNIT          VALUE    DESCRIPTION
#----------   ------------   ------------------------------
 EKB .F          5074.800:   Kelly bushing
 EGL .F          5063.000:   Ground level
 EDF .F            0.0000:   Drilling floor
 EPD .F            0.0000:   Permanent datum
 TD  .F         3108.0000:   Total depth
 DATE.        11-JUL-1986:   Date logged
 CLNT.            A2DTECH:   Client Code
 SL  . 1796' FWL & 318' FNL:   Surface Location
 PD  .                 GL:   Permanent Datum
 DAPD.F                11:   Feet Above Permanent Datum
 DD  .F              3103:   Depth driller
 DL  .F              3108:   Depth logger
 BLI .F              3106:   Bottom log interval
 CS1 .IN            8.625:   Casing size
 CBD1.      8.625" @ 602':   Casing driller 1
 CBL1.F               596:   Casing logger 1
 BS1 .IN            7.875:   Bit size
 BSD1.F              3103:   Depth drilled with bit1
 DFT .            KCL/GEL:   Type fluid in hole
 DFD .                  9:   Density
 DFV .                 42:   Viscosity
 MSS .           MUD/TANK:   Source of sample
 RMS .OHMM           .352:   Rm
 MST .F                82:   Rm Meas. temp.
 RMF .OHMM           .264:   Rmf
 MFST.F                82:   Rmf Meas. temp.
 RMC .OHMM            .44:   Rmc
 MCST.F                82:   Rmc Meas. temp.
 MFSS.               CALC:   Source Rmf.
 MCSS.               CALC:   Source Rmc.
 RMB .OHMM            .23:   Rm. at BHT
 BHT .F               115:   BHT.
 TCS .HRS               3:   Time Circ. stopped
 MRT .F               115:   Maximum recorded temp.
 LUN .            HL-6264:   Logging unit number
 LUL .           GILLETTE:   Logging unit location
 ENGI.     P. M. FASHSING:   Recorded By
 WITN.             STRONG:   Witnessed by
 ORIG.           5" PRINT:   Origin of data
 UWI .     49025111020000:   Unique Well ID
 DICO. A2D TECHNOLOGIES, INC.:   Digitizing Company
~OTHER INFORMATION
~A   DEPT      DEN       TEND       CORR       NPHI        SPR       RILM       RILD       RFOC       TENR         GRR      CALR   
# ...
 1273.0000  -999.2500  -999.2500  -999.2500  -999.2500   -86.9060     6.1450     7.2540     7.1050  -112.2730    91.5270    12.0100
 1273.5000  -999.2500  -999.2500  -999.2500  -999.2500   -86.7530     6.1450     7.2540     7.1000  -111.9190    89.6680    12.0120
 1274.0000  -999.2500  -999.2500  -999.2500  -999.2500   -86.6000     6.1450     7.2540     7.0940  -111.5640    88.6530    12.0130
 1274.5000  -999.2500  -999.2500  -999.2500  -999.2500   -86.4470     6.1450     7.2540     7.0890  -111.2090    90.3690    12.0150
 1275.0000  -999.2500  -999.2500  -999.2500  -999.2500   -86.2950     6.1450     7.2540     7.0830  -110.8550    92.1790    12.0170
 1275.5000  -999.2500  -999.2500  -999.2500  -999.2500   -86.1450     6.1330     7.2540     7.0770  -110.5000    92.2310    12.0180
 1276.0000  -999.2500  -999.2500  -999.2500  -999.2500   -86.0390     6.1100     7.2540     7.0720  -110.1450    91.7260    12.0200
 1276.5000  -999.2500  -999.2500  -999.2500  -999.2500   -85.8640     6.0870     7.2540     7.0660  -109.7910    91.1960    12.0220
 1277.0000  -999.2500  -999.2500  -999.2500  -999.2500   -85.6680     6.0640     7.1930     7.0600  -109.4360    91.2850    12.0230
 1277.5000  -999.2500  -999.2500  -999.2500  -999.2500   -85.9110     6.0410     7.0930     7.0410  -109.0810    91.7360    12.0250
 1278.0000  -999.2500  -999.2500  -999.2500  -999.2500   -86.3210     6.0180     6.9930     6.9800  -108.7270    92.1930    12.0270
 1278.5000  -999.2500  -999.2500  -999.2500  -999.2500   -86.7360     5.9950     6.8920     6.9180  -108.3720    92.6880    12.0290
 1279.0000  -999.2500  -999.2500  -999.2500  -999.2500   -87.1520     5.9720     6.7920     6.8570  -108.0170    93.4250    12.0280
 1279.5000  -999.2500  -999.2500  -999.2500  -999.2500   -87.5770     5.9490     6.6920     6.7960  -107.6630    95.9300    12.0170
 1280.0000  -999.2500  -999.2500  -999.2500  -999.2500   -87.5810     5.9260     6.5920     6.7350  -107.3080    96.8300    12.0050
 1280.5000  -999.2500  -999.2500  -999.2500  -999.2500   -87.4930     5.9140     6.5510     6.6770  -106.9540    94.3380    11.9940
 1281.0000  -999.2500  -999.2500  -999.2500  -999.2500   -87.4040     5.9050     6.5430     6.7530  -106.5990    91.9190    11.9820
 1281.5000  -999.2500  -999.2500  -999.2500  -999.2500   -87.3150     5.8950     6.5340     6.8680  -106.2440    90.1930    11.9700
 1282.0000  -999.2500  -999.2500  -999.2500  -999.2500   -87.2270     5.8860     6.5260     6.9820  -105.8900    92.7840    11.9450
 1282.5000  -999.2500  -999.2500  -999.2500  -999.2500   -87.1380     5.8760     6.5170     7.1220  -105.5350    95.6740    11.9170
 1283.0000  -999.2500  -999.2500  -999.2500  -999.2500   -87.0500     5.8680     6.5090     7.0600  -105.1800    95.6570    11.8890
 1283.5000  -999.2500  -999.2500  -999.2500  -999.2500   -86.9610     5.9430     6.5000     6.9560  -104.8260    94.9660    11.8610
 1284.0000  -999.2500  -999.2500  -999.2500  -999.2500   -86.8730     6.0340     6.4920     6.8520  -104.4710    94.7480    11.8340
 1284.5000  -999.2500  -999.2500  -999.2500  -999.2500   -86.7840     6.1260     6.5990     6.7380  -104.1160    97.6020    11.8080
 1285.0000  -999.2500  -999.2500  -999.2500  -999.2500   -86.6960     6.2170     6.6960     6.8870  -103.7620    98.3070    11.7830
 1285.5000  -999.2500  -999.2500  -999.2500  -999.2500   -86.6070     6.3080     6.7930     7.0490  -103.4070    94.7290    11.7580
 1286.0000  -999.2500  -999.2500  -999.2500  -999.2500   -86.5190     6.4000     6.8900     7.2120  -103.0520    89.2490    11.7320
 1286.5000  -999.2500  -999.2500  -999.2500  -999.2500   -86.4300     6.4350     6.9320     7.3750  -102.6980    84.5900    11.7070
 1287.0000  -999.2500  -999.2500  -999.2500  -999.2500   -86.3400     6.3610     6.9430     7.5270  -102.3430    83.6650    11.6820
 1287.5000  -999.2500  -999.2500  -999.2500  -999.2500   -86.2500     6.2730     6.9530     7.3870  -101.9880    83.4120    11.6570
 1288.0000  -999.2500  -999.2500  -999.2500  -999.2500   -86.4380     6.1450     6.9640     7.2570  -101.6340    83.9430    11.6310
 1288.5000  -999.2500  -999.2500  -999.2500  -999.2500   -86.6550     6.1480     6.9750     7.1220  -101.2790    84.6260    11.6270
 1289.0000  -999.2500  -999.2500  -999.2500  -999.2500   -86.8720     6.1540     6.9860     7.1710  -100.9240    87.0800    11.6240
 1289.5000  -999.2500  -999.2500  -999.2500  -999.2500   -87.0880     6.1590     6.9960     7.2360  -100.5700    89.6710    11.6210
 1290.0000  -999.2500  -999.2500  -999.2500  -999.2500   -87.2490     6.1650     7.0070     7.3000  -100.2150    92.2560    11.6180
 1290.5000  -999.2500  -999.2500  -999.2500  -999.2500   -87.1530     6.1700     7.0180     7.3210   -99.8610    94.6630    11.6140
 1291.0000  -999.2500  -999.2500  -999.2500  -999.2500   -87.0600     6.1760     7.0280     7.1220   -99.5060    94.3340    11.6110
 1291.5000  -999.2500  -999.2500  -999.2500  -999.2500   -86.9670     6.1810     7.0390     7.1610   -99.1510    92.3090    11.6080
 1292.0000  -999.2500  -999.2500  -999.2500  -999.2500   -86.8750     6.1870     7.0500     7.2160   -98.7970    90.6060    11.6040
 1292.5000  -999.2500  -999.2500  -999.2500  -999.2500   -86.7830     6.1920     7.0780     7.2700   -98.7240    89.5810    11.6010
 1293.0000  -999.2500  -999.2500  -999.2500  -999.2500   -86.6910     6.1980     7.1310     7.3210   -98.7240    88.5400    11.5980
 1293.5000  -999.2500  -999.2500  -999.2500  -999.2500   -86.5980     6.2020     7.1830     7.3750   -98.7240    87.4960    11.5940
 1294.0000  -999.2500  -999.2500  -999.2500  -999.2500   -86.5010     6.2630     7.2360     7.4260   -98.7240    88.2100    11.5910
 1294.5000  -999.2500  -999.2500  -999.2500  -999.2500   -86.2290     6.3310     7.2890     7.4770   -98.7240    88.9460    11.5690
 1295.0000  -999.2500  -999.2500  -999.2500  -999.2500   -86.1860     6.4000     7.3420     7.5280   -98.7240    88.3880    11.5410
 1295.5000  -999.2500  -999.2500  -999.2500  -999.2500   -86.1300     6.4940     7.3940     7.5790   -98.7240    89.0830    11.5120
 1296.0000  -999.2500  -999.2500  -999.2500  -999.2500   -86.0700     6.4770     7.4470     7.6290   -98.7240    92.4210    11.4890
 1296.5000  -999.2500  -999.2500  -999.2500  -999.2500   -86.0110     6.4490     7.5000     7.6670   -98.7240    95.8320    11.4900
 1297.0000  -999.2500  -999.2500  -999.2500  -999.2500   -85.9510     6.4350     7.5270     7.6350   -98.7240    94.9720    11.4950
 1297.5000  -999.2500  -999.2500  -999.2500  -999.2500   -85.8910     6.4880     7.5000     7.6100   -98.7240    91.1300    11.4920
 1298.0000  -999.2500  -999.2500  -999.2500  -999.2500   -85.9180     6.5360     7.4820     7.5850   -98.7240    88.7300    11.4670
 1298.5000  -999.2500  -999.2500  -999.2500  -999.2500   -86.4150     6.5840     7.4650     7.5600   -98.7240    88.4440    11.4420
 1299.0000  -999.2500  -999.2500  -999.2500  -999.2500   -86.9070     6.6320     7.4470     7.5360   -98.7240    89.9220    11.4170
 1299.5000  -999.2500  -999.2500  -999.2500  -999.2500   -87.3980     6.6770     7.4290     7.5270   -98.7240    91.0000    11.3920
 1300.0000  -999.2500  -999.2500  -999.2500  -999.2500   -87.6460     6.5990     7.4110     7.5270   -98.7240    90.8700    11.3700
 1300.5000  -999.2500  -999.2500  -999.2500  -999.2500   -87.5380     6.5260     7.3940     7.5270   -98.7240    90.7640    11.3650
 1301.0000  -999.2500  -999.2500  -999.2500  -999.2500   -87.4340     6.4530     7.3760     7.5180   -98.7240    90.6690    11.3590
 1301.5000  -999.2500  -999.2500  -999.2500  -999.2500   -87.3310     6.3800     7.3580     7.4700   -98.7240    91.0750    11.3530
 1302.0000  -999.2500  -999.2500  -999.2500  -999.2500   -87.2270     6.3070     7.3400     7.4230   -98.7240    92.2060    11.3480
 1302.5000  -999.2500  -999.2500  -999.2500  -999.2500   -87.1240     6.2020     7.3210     7.3750   -98.7240    92.8680    11.3420
 1303.0000  -999.2500  -999.2500  -999.2500  -999.2500   -87.0210     6.2720     7.2630     7.3280   -98.7240    92.3830    11.3360
