~VERSION INFORMATION
 VERS.                2.0:   CWLS LOG ASCII STANDARD - VERSION 2.0
 WRAP.                 NO:   ONE LINE PER DEPTH STEP
~WELL INFORMATION
#MNEM.UNIT      DATA TYPE    INFORMATION
#----------   ------------   ------------------------------
 STRT.F            0.5000:   START DEPTH
 STOP.F         1380.0000:   STOP DEPTH
 STEP.F            0.5000:   STEP LENGTH
 NULL.          -999.2500:   NO VALUE
 COMP.       FLUOR DANIEL:   COMPANY
 WELL. FLUOR 84 "X" #1-14:   WELL
 FLD .          N.P.R. #3:   FIELD
 LOC .      S14 T38N R78W:   LOCATION
 CNTY.            NATRONA:   COUNTY
 STAT.            WYOMING:   STATE
 CTRY. UNITED STATES OF AMERICA:   COUNTRY
 SRVC.     ATLAS WIRELINE:   SERVICE COMPANY
 DATE.        24-AUG-1994:   LOGDATE
 API .     49025226370000:   API NUMBER
~CURVE INFORMATION
#MNEM.UNIT       API CODE    CURVE DESCRIPTION
#----------   ------------   ------------------------------
 DEPT.F                  :   
 GRR .GAPI   07 310 01 00:   GAMMA RAY FROM RESISTIVITY
 RILD.OHMM   07 120 46 00:   INDUCTION LOG DEEP RESISTIVITY
 RILM.OHMM   07 120 44 00:   INDUCTION LOG MEDIUM RESISTIVITY
 TENR.LBS    07 635 01 00:   TENSION FROM RESISTIVITY
~PARAMETER INFORMATION
#MNEM.UNIT          VALUE    DESCRIPTION
#----------   ------------   ------------------------------
 EKB .F         5326.0000:   Kelly bushing
 EGL .F         5316.0000:   Ground level
 EDF .F         5325.0000:   Drilling floor
 TD  .F         1368.0000:   Total depth
 CLNT.            A2DTECH:   Client Code
 PD  .                 GL:   Permanent Datum
 EPD .F              5316:   Elevation Permanent Datum
 LMF .                 KB:   Log Measured From
 DMF .                 KB:   Drilling Measured From
 DAPD.F                10:   Feet Above Permanent Datum
 DATE.        24-AUG-1994:   Date Logged [DD-MMM-YYYY]
 DD  .F              1368:   Depth driller
 DL  .F              1364:   Depth logger
 BLI .F              1356:   Bottom log interval
 TLI .F                 0:   Top log interval
 CS1 .IN            9.625:   Casing size
 CBD1.       9.625" @ 56':   Casing driller 1
 CBL1.F                56:   Casing logger 1
 BS1 .IN             8.75:   Bit size
 BSD1.F              1368:   Depth drilled with bit1
 DFT .                AIR:   Type fluid in hole
 LUN .            HL 6530:   Logging unit number
 LUL .             CASPER:   Logging unit location
 WITN.        GARY STRONG:   Witnessed by
 ORIG.         2.5" PRINT:   Origin of data
 UWI .     49025226370000:   Unique Well ID
 DICO. A2D TECHNOLOGIES, INC.:   Digitizing Company
 SL  . 2551' FNL & 575' FEL:   Surface Location
~OTHER INFORMATION
~A    DEPT      GRR      RILD       RILM       TENR   
# ...
   73.5000   125.6617     5.4723     5.5167   -24.9382
   74.0000   118.1677     5.6253     5.6531   -26.0460
   74.5000   116.6257     5.6648     5.7492   -27.1538
   75.0000   117.5150     5.7427     5.8067   -28.2616
   75.5000   119.9072     5.8628     5.7802   -29.3694
   76.0000   120.1916     5.9016     5.7228   -30.4772
   76.5000   115.6018     5.9008     5.8004   -31.5850
   77.0000   112.6647     5.9000     5.8285   -32.6928
   77.5000   112.3802     5.8992     5.8761   -33.8006
   78.0000   112.0359     5.8984     5.7937   -34.9084
   78.5000   111.1647     5.8975     5.7554   -36.0162
   79.0000   113.7425     5.8160     5.6322   -37.1240
   79.5000   118.5479     5.7682     5.5146   -38.2318
   80.0000   122.5132     5.6561     5.4353   -39.3396
   80.5000   121.9054     5.5779     5.3245   -40.4473
   81.0000   119.5013     5.5007     5.3226   -41.5551
   81.5000   118.8936     5.4247     5.2475   -42.6629
   82.0000   119.4850     5.3496     5.2456   -43.7707
   82.5000   120.0733     5.3489     5.2437   -44.8785
   83.0000   122.4596     5.3482     5.2418   -45.9863
   83.5000   123.0509     5.3474     5.2399   -47.0941
   84.0000   123.2335     5.3467     5.2380   -48.2019
   84.5000   121.8339     5.3460     5.2361   -49.3097
   85.0000   120.0286     5.3453     5.2342   -50.4175
   85.5000   118.2233     5.3445     5.2323   -51.5253
   86.0000   116.4179     5.3438     5.2304   -52.6331
   86.5000   115.2114     5.3430     5.2285   -53.7409
   87.0000   118.1964     5.3423     5.2266   -54.8487
   87.5000   120.5827     5.3416     5.2247   -55.9565
   88.0000   121.7714     5.3408     5.2228   -57.0643
   88.5000   120.5648     5.3401     5.2209   -58.1721
   89.0000   117.5619     5.3394     5.2191   -59.2799
   89.5000   119.3494     5.3386     5.2171   -60.3877
   90.0000   129.5201     5.2648     5.1439   -61.4955
   90.5000   131.3075     5.1920     5.0717   -62.6033
   91.0000   121.7178     5.1202     5.0632   -63.7111
   91.5000   119.9124     5.0494     4.9987   -64.8189
   92.0000   120.5023     5.0487     4.9969   -65.9267
   92.5000   120.5838     5.1892     5.0644   -67.0345
   93.0000   119.2868     5.1885     5.0624   -68.1423
   93.5000   116.2838     5.1877     4.9914   -69.2500
   94.0000   115.6761     5.1870     4.9895   -70.3578
   94.5000   115.6672     5.1863     4.9877   -71.4656
   95.0000   116.2570     5.1146     4.9859   -72.5734
   95.5000   118.0445     5.0439     4.9840   -73.6812
   96.0000   120.4308     5.0432     4.9822   -50.1979
   96.5000   122.8170     5.0425     5.0064   -29.0059
   97.0000   124.6045     5.1118     5.0479   -13.9030
   97.5000   125.7932     5.1821     5.0756   -13.6816
   98.0000   127.5807     5.1813     5.1138   -28.2969
   98.5000   127.5717     5.1806     5.1119   -42.9525
   99.0000   128.1616     5.3247     5.1809   -42.6909
   99.5000   128.1527     5.3240     5.2170   -42.4694
  100.0000   128.1437     5.3233     5.2714   -42.3323
  100.5000   126.9162     5.3211     5.3440   -42.2526
  101.0000   125.0479     5.4724     5.4925   -42.1729
  101.5000   122.0030     5.6183     5.6452   -42.0932
  102.0000   121.5216     5.7038     5.7230   -42.0135
  102.5000   126.0180     5.8634     5.8821   -41.9338
  103.0000   127.4919     6.0119     5.9632   -41.8541
  103.5000   126.5898     6.0092     5.9627   -41.7744
  104.0000   124.3114     6.0067     5.9623   -41.6947
  104.5000   123.8713     6.0042     5.8805   -41.6150
  105.0000   123.8623     5.9757     5.7999   -41.5353
  105.5000   122.6557     5.9171     5.7983   -41.4556
  106.0000   122.0479     5.8839     5.7199   -41.3759
  106.5000   124.5449     5.7984     5.7195   -41.2962
  107.0000   129.8024     5.7141     5.6410   -41.2165
  107.5000   131.3174     5.5903     5.6406   -41.1369
  108.0000   129.3892     5.5880     5.6403   -41.0572
  108.5000   124.3964     5.5857     5.6399   -40.9775
  109.0000   120.7948     5.5834     5.6213   -40.8978
  109.5000   118.3907     5.5806     5.5417   -40.8181
  110.0000   123.1723     5.6558     5.4633   -40.7384
  110.5000   124.0808     5.6535     5.3367   -40.6587
  111.0000   120.1607     5.5738     5.3098   -40.5790
  111.5000   121.3494     5.4953     5.2631   -40.4993
  112.0000   124.3346     5.4178     5.1909   -40.4196
  112.5000   126.7210     5.4156     5.1580   -40.3399
  113.0000   128.5086     5.3393     5.1193   -40.2602
  113.5000   129.6974     5.2640     5.0490   -40.1805
  114.0000   132.0837     5.2619     5.0487   -40.1008
  114.5000   128.4012     5.2597     5.0483   -40.0211
  115.0000   121.2276     5.2576     5.0479   -39.9415
  115.5000   120.0812     5.1835     5.0476   -39.8618
  116.0000   125.1497     5.1104     5.0473   -39.7821
  116.5000   129.5089     5.1083     5.1168   -39.7024
  117.0000   132.8563     5.1116     5.1164   -39.6227
  117.5000   134.5509     5.1827     5.1161   -39.5430
  118.0000   132.4312     5.2448     5.1157   -39.4633
  118.5000   125.9071     5.2424     5.1154   -39.3836
  119.0000   124.8098     5.2403     5.1858   -39.3039
  119.5000   128.6108     5.2381     5.1855   -39.2242
  120.0000   128.9838     5.2359     5.1851   -39.1445
  120.5000   128.9731     5.2338     5.1848   -39.0648
  121.0000   128.9641     5.2316     5.1844   -38.9851
  121.5000   129.2575     5.2294     5.3286   -38.9054
  122.0000   129.5449     5.3003     5.3326   -38.8257
  122.5000   131.4222     5.3712     5.4085   -38.7461
  123.0000   133.1180     5.4030     5.4853   -38.6664
  123.5000   131.3128     5.4413     5.6283   -38.5867
  124.0000   128.9088     5.4390     5.7205   -38.5070
  124.5000   127.1035     5.4784     5.8018   -38.4273
  125.0000   127.0947     5.7564     5.8843   -38.3476
  125.5000   128.8823     5.8200     6.0505   -38.2048
  126.0000   130.6699     5.8984     6.2215   -52.6706
  126.5000   131.8593     5.9778     6.4858   -52.2997
  127.0000   132.4491     6.2273     6.6691   -51.9288
  127.5000   132.4398     6.4876     6.8189   -51.5578
  128.0000   131.8322     6.7588     6.8185   -51.1869
  128.5000   129.4281     6.8502     6.8180   -50.8160
  129.0000   130.0359     6.8471     6.8175   -35.6083
  129.5000   130.6081     6.8443     6.7240   -20.3293
  130.0000   129.4012     6.8415     6.6317   -34.7992
  130.5000   129.3922     6.7451     6.5407   -34.4323
  131.0000   129.9828     6.6500     6.5402   -34.0653
  131.5000   128.8832     6.6473     6.5398   -48.5352
  132.0000   124.0000     6.4638     6.5393   -48.1682
  132.5000   124.1317     6.4612     6.4496   -47.8013
  133.0000   124.5583     6.5483     6.4492   -47.4343
  133.5000   124.1348     6.5455     6.4487   -32.2306
  134.0000   120.4910     6.5428     6.3603   -31.8636
  134.5000   118.5419     6.5235     6.2730   -28.9815
  135.0000   122.6048     6.4287     6.1869   -31.1573
  135.5000   126.5808     6.2699     6.1021   -45.5996
  136.0000   129.8916     6.1814     6.0183   -45.2327
  136.5000   126.8887     6.1789     6.0179   -44.8657
  137.0000   123.8859     6.0918     5.9354   -44.4988
  137.5000   122.0807     6.0892     5.9350   -44.1318
  138.0000   125.0659     6.0867     5.9346   -43.7649
  138.5000   125.0399     6.0842     5.9341   -43.3976
  139.0000   124.4491     6.0817     5.9337   -43.0267
  139.5000   125.0394     6.0792     5.9333   -41.9876
  140.0000   125.9481     6.0767     5.9329   -27.4481
  140.5000   129.8121     6.0741     5.9325   -27.0771
  141.0000   128.3613     6.0711     5.9321   -26.7062
  141.5000   125.4591     6.0687     5.9317   -24.3820
  142.0000   126.2475     6.0662     5.9313   -11.1276
  142.5000   130.3294     6.0637     5.9309   -10.7567
  143.0000   133.9596     6.0613     5.9305   -25.2586
  143.5000   132.2984     6.0588     5.9301   -39.7285
  144.0000   129.8523     6.1407     5.9297   -39.3175
  144.5000   129.1407     6.1379     5.9293   -38.9946
  145.0000   128.8224     6.1354     6.0109   -40.4235
  145.5000   131.2296     6.2182     6.0937   -41.6887
  146.0000   131.8403     6.2155     6.2272   -42.9539
