~VERSION INFORMATION
 VERS.                2.0:   CWLS LOG ASCII STANDARD - VERSION 2.0
 WRAP.                 NO:   ONE LINE PER DEPTH STEP
~WELL INFORMATION
#MNEM.UNIT      DATA TYPE    INFORMATION
#----------   ------------   ------------------------------
 STRT.F           48.5000:   START DEPTH
 STOP.F         3509.0000:   STOP DEPTH
 STEP.F            0.5000:   STEP LENGTH
 NULL.          -999.2500:   NO VALUE
 COMP.   TESORO PETROLEUM:   COMPANY
 WELL. TESORO "TX" #45-33:   WELL
 FLD .        TEAPOT DOME:   FIELD
 LOC .      S33 T39N R78W:   LOCATION
 CNTY.            NATRONA:   COUNTY
 STAT.            WYOMING:   STATE
 CTRY. UNITED STATES OF AMERICA:   COUNTRY
 SRVC.      DRESSER ATLAS:   SERVICE COMPANY
 DATE.        03-OCT-1976:   LOGDATE
 API .     49025102700000:   API NUMBER
~CURVE INFORMATION
#MNEM.UNIT       API CODE    CURVE DESCRIPTION
#----------   ------------   ------------------------------
 DEPT.F                  :   
 SPR .MV     07 010 01 00:   SPONTANEOUS POTENTIAL
 TENR.LBS    07 635 01 00:   TENSION FROM RESISTIVITY
 SFL .OHMM   07 220 01 00:   SHALLOW FOCUSED LOG RESISTIVITY
 ILM .OHMM   07 120 44 00:   INDUCTION LOG MEDIUM RESISTIVITY
 ILD .OHMM   07 120 46 00:   DEEP INDUCTION RESISTIVITY
 GRD .GAPI   45 310 01 00:   GAMMA RAY FROM DENSITY LOG
 CALD.IN     45 280 60 00:   CALIPER FROM DENSITY LOG
 NPHI.DEC    42 890 03 00:   NEUTRON POROSITY SANDSTONE
 DPHI.DEC    45 890 12 00:   DENSITY POROSITY SANDSTONE
 TEND.LBS    45 635 01 00:   TENSION FROM DENSITY LOG
~PARAMETER INFORMATION
#MNEM.UNIT          VALUE    DESCRIPTION
#----------   ------------   ------------------------------
 EKB .F         5217.0000:   Kelly bushing
 EGL .F         5206.0000:   Ground level
 EDF .F         5216.0000:   Drilling floor
 EPD .F         5206.0000:   Permanent datum
 TD  .F         3491.0000:   Total depth
 DATE.        03-OCT-1976:   Date logged
 CLNT.            A2DTECH:   Client Code
 SL  . 2030' FWL & 2145' FSL:   Surface Location
 PD  .                 GL:   Permanent Datum
 DD  .F              3491:   Depth driller
 DL  .F              3487:   Depth logger
 BLI .F              3485:   Bottom log interval
 TLI .F               813:   Top log interval
 CS1 .IN            8.625:   Casing size
 CBD1.      8.625" @ 823':   Casing driller 1
 CBL1.F               819:   Casing logger 1
 BS1 .IN            7.875:   Bit size
 BSD1.F              3491:   Depth drilled with bit1
 DFT .           CHEM GEL:   Type fluid in hole
 DFD .                9.4:   Density
 DFV .                 47:   Viscosity
 DFPH.                 10:   pH
 DFL .                5.8:   Fluid loss
 MSS .           FLOWLINE:   Source of sample
 RMS .OHMM           1.09:   Rm
 MST .F                68:   Rm Meas. temp.
 RMF .OHMM              1:   Rmf
 MFST.F                68:   Rmf Meas. temp.
 RMC .OHMM           1.24:   Rmc
 MCST.F                68:   Rmc Meas. temp.
 MFSS.               MEAS:   Source Rmf.
 MCSS.               MEAS:   Source Rmc.
 RMB .OHMM            .62:   Rm. at BHT
 BHT .F               119:   BHT.
 TCS .HRS              12:   Time Circ. stopped
 MRT .F               119:   Maximum recorded temp.
 LUN .               6134:   Logging unit number
 LUL .              GLTTE:   Logging unit location
 ENGI.            VAUGHIN:   Recorded By
 WITN.        WOLF-CARTER:   Witnessed by
 ORIG.     2.5", 5" PRINT:   Origin of data
 UWI .     49025102700000:   Unique Well ID
 DICO. A2D TECHNOLOGIES, INC.:   Digitizing Company
 DAPD.                 11:   Feet Above Permanent Datum
~OTHER INFORMATION
~A   DEPT      SPR        TENR       SFL        ILM        ILD        GRD       CALD       NPHI       DPHI       TEND   
# ...
 1656.5000   -25.2000  -999.2500     5.8490     5.6800     5.4690   118.6940     8.8660     0.3030     0.1460   262.2730
 1657.0000   -24.6460  -999.2500     5.9760     5.6670     5.4560   118.0520     8.9000     0.3020     0.1430   265.0000
 1657.5000   -24.7270  -999.2500     6.2150     5.6530     5.4440   117.4040     8.9370     0.3020     0.1360   307.8570
 1658.0000   -24.8620  -999.2500     6.4870     5.6400     5.4310   116.7350     8.9740     0.3040     0.1300   385.0000
 1658.5000   -25.0160  -999.2500     6.1010     5.6280     5.4180   116.8950     9.0110     0.3070     0.1240   272.5000
 1659.0000   -25.1510  -999.2500     5.4940     5.6180     5.4060   118.1200     9.0470     0.3050     0.1180   267.5000
 1659.5000   -25.2980  -999.2500     5.5050     5.6010     5.3940   118.4210     9.0840     0.3040     0.1120   302.5000
 1660.0000   -25.4410  -999.2500     5.5290     5.4940     5.2370   118.8680     9.1210     0.3030     0.1050   296.4290
 1660.5000   -25.5810  -999.2500     5.5520     5.2950     5.1030   120.5370     9.1580     0.3020     0.0990   240.0000
 1661.0000   -25.7320  -999.2500     5.5750     5.3540     5.1930   120.3160     9.1940     0.3020     0.0930   238.7500
 1661.5000   -25.8050  -999.2500     5.5970     5.4390     5.2750   120.0480     9.2310     0.3010     0.0870   242.9170
 1662.0000   -25.7970  -999.2500     5.8680     5.5250     5.3580   120.2760     9.2440     0.3010     0.0630   248.1250
 1662.5000   -25.7990  -999.2500     6.1160     5.6110     5.4400   120.9790     9.2330     0.3000     0.0640   255.0000
 1663.0000   -25.7990  -999.2500     6.4870     5.6960     5.5230   121.6730     9.2210     0.3000     0.0680   255.0000
 1663.5000   -25.7970  -999.2500     6.3260     5.8070     5.5970   122.1370     9.2100     0.2990     0.0710   255.0000
 1664.0000   -25.8010  -999.2500     6.0060     5.7720     5.5440   121.9890     9.2170     0.2990     0.0730   255.0000
 1664.5000   -25.7970  -999.2500     5.6090     5.7230     5.4970   122.3980     9.2250     0.2970     0.0740   255.0000
 1665.0000   -25.7880  -999.2500     5.6390     5.6740     5.4500   123.1410     9.2340     0.2990     0.0760   255.0000
 1665.5000   -25.5680  -999.2500     5.6970     5.6250     5.4020   123.1480     9.2420     0.2990     0.0780   263.3330
 1666.0000   -25.3200  -999.2500     5.7560     5.5760     5.3550   123.1350     9.2500     0.2970     0.0850   273.7140
 1666.5000   -25.0650  -999.2500     5.8070     5.5270     5.2970   122.8140     9.2590     0.2970     0.0820   269.4290
 1667.0000   -24.8160  -999.2500     5.5850     5.4960     5.3000   122.5070     9.2670     0.2990     0.0790   265.1430
 1667.5000   -24.6090  -999.2500     5.4940     5.5030     5.3070   122.9220     9.2650     0.2990     0.0770   260.8570
 1668.0000   -24.6050  -999.2500     5.8010     5.5100     5.3140   121.6840     9.2600     0.2990     0.0640   256.5710
 1668.5000   -24.5980  -999.2500     6.1080     5.5180     5.3210   119.7450     9.2540     0.2900     0.0510   252.2860
 1669.0000   -24.6070  -999.2500     6.0490     5.5250     5.3280   118.7500     9.2480     0.2850     0.0480   248.0000
 1669.5000   -24.5970  -999.2500     5.9300     5.5320     5.3350   117.7190     9.2430     0.2870     0.0480   252.5000
 1670.0000   -24.6040  -999.2500     5.8070     5.5390     5.3410   118.2760     9.2370     0.2870     0.0520   262.9170
 1670.5000   -24.6340  -999.2500     5.7170     5.5470     5.3480   118.9620     9.2310     0.2860     0.0550   258.7500
 1671.0000   -25.0510  -999.2500     5.7470     5.5540     5.3550   119.6550     9.2270     0.2820     0.0580   255.0000
 1671.5000   -25.4040  -999.2500     5.8060     5.5610     5.3620   121.1500     9.2240     0.2740     0.0580   255.0000
 1672.0000   -25.7750  -999.2500     5.8660     5.5680     5.3690   121.2030     9.2210     0.2690     0.0560   255.0000
 1672.5000   -25.7520  -999.2500     5.9150     5.5750     5.3760   120.3100     9.2170     0.2680     0.0540   255.0000
 1673.0000   -25.7170  -999.2500     5.8360     5.5820     5.3830   119.6350     9.2140     0.2720     0.0520   255.0000
 1673.5000   -25.6650  -999.2500     5.7690     5.5890     5.3900   119.8360     9.2110     0.2750     0.0470   255.0000
 1674.0000   -25.6260  -999.2500     5.7010     5.5960     5.3960   120.4570     9.2010     0.2720     0.0490   255.0000
 1674.5000   -25.5810  -999.2500     5.7740     5.6020     5.4010   121.2650     9.1840     0.2670     0.0540   255.0000
 1675.0000   -25.5380  -999.2500     5.8480     5.6070     5.4060   121.3910     9.1670     0.2650     0.0530   255.0000
 1675.5000   -25.4970  -999.2500     5.9220     5.6130     5.4110   121.5590     9.1510     0.2680     0.0520   255.0000
 1676.0000   -25.4500  -999.2500     5.9970     5.6180     5.4160   122.3010     9.1340     0.2720     0.0550   255.0000
 1676.5000   -25.3940  -999.2500     6.0250     5.6230     5.4220   122.4880     9.1170     0.2780     0.0590   255.0000
 1677.0000   -24.9900  -999.2500     5.7010     5.6290     5.4270   122.2780     9.1090     0.2840     0.0580   252.5000
 1677.5000   -24.6360  -999.2500     5.7570     5.6340     5.4320   121.8260     9.1090     0.2880     0.0570   244.1670
 1678.0000   -24.7480  -999.2500     5.8470     5.6390     5.4370   121.1350     9.1090     0.2840     0.0590   235.0000
 1678.5000   -24.8550  -999.2500     5.9380     5.6450     5.4420   119.6660     9.1090     0.2810     0.0610   238.2140
 1679.0000   -24.9760  -999.2500     6.0250     5.6500     5.4470   120.0640     9.1090     0.2800     0.0570   241.7860
 1679.5000   -25.0890  -999.2500     5.9680     5.6550     5.4520   120.6080     9.1090     0.2790     0.0530   245.0000
 1680.0000   -25.2050  -999.2500     5.9150     5.6610     5.4580   120.6600     9.1090     0.2820     0.0510   246.1000
 1680.5000   -25.3210  -999.2500     5.8960     5.6660     5.4630   120.2310     9.1090     0.2850     0.0580   247.1000
 1681.0000   -25.4340  -999.2500     5.8660     5.6710     5.4680   120.0790     9.1090     0.2850     0.0630   248.1000
 1681.5000   -25.5540  -999.2500     5.8360     5.6770     5.4730   120.7250     9.1090     0.2840     0.0620   249.1000
 1682.0000   -25.6630  -999.2500     5.8070     5.6820     5.4780   121.3640     9.1090     0.2810     0.0620   250.1000
 1682.5000   -25.7830  -999.2500     6.1020     5.6870     5.4830   121.5240     9.1090     0.2810     0.0630   251.1000
 1683.0000   -25.6760  -999.2500     6.3680     5.6920     5.4880   121.5280     9.1090     0.2850     0.0600   252.1000
 1683.5000   -25.5340  -999.2500     6.1250     5.6990     5.4930   121.5340     9.1090     0.2880     0.0580   253.1000
 1684.0000   -25.3870  -999.2500     5.7590     5.6910     5.4740   121.9690     9.1090     0.2880     0.0590   254.1000
 1684.5000   -25.2470  -999.2500     5.5350     5.6650     5.4510   122.4690     9.1090     0.2820     0.0580   255.0000
 1685.0000   -25.1020  -999.2500     5.6810     5.6420     5.4280   122.3850     9.1110     0.2790     0.0580   255.0000
 1685.5000   -24.9590  -999.2500     5.8280     5.6180     5.4050   122.2720     9.1150     0.2760     0.0590   255.0000
 1686.0000   -24.8190  -999.2500     5.9750     5.5960     5.3860   122.5120     9.1180     0.2770     0.0600   255.0000
 1686.5000   -24.6670  -999.2500     6.1380     5.5800     5.3730   123.8140     9.1210     0.2800     0.0670   255.0000
 1687.0000   -24.5950  -999.2500     5.9940     5.5660     5.3580   125.0900     9.1240     0.2820     0.0730   255.0000
 1687.5000   -24.6040  -999.2500     5.8320     5.5510     5.3440   125.7280     9.1270     0.2830     0.0780   255.0000
 1688.0000   -24.6010  -999.2500     5.6710     5.5360     5.3300   124.8410     9.1290     0.2840     0.0760   255.0000
 1688.5000   -24.6000  -999.2500     5.4940     5.5210     5.3150   123.1580     9.1290     0.2840     0.0730   255.0000
 1689.0000   -24.6030  -999.2500     5.5470     5.5060     5.3010   122.1100     9.1290     0.2810     0.0670   255.0000
 1689.5000   -24.5990  -999.2500     5.6040     5.4910     5.2870   121.6650     9.1290     0.2770     0.0620   255.0000
