~VERSION INFORMATION
 VERS.                2.0:   CWLS LOG ASCII STANDARD - VERSION 2.0
 WRAP.                 NO:   ONE LINE PER DEPTH STEP
~WELL INFORMATION
#MNEM.UNIT      DATA TYPE    INFORMATION
#----------   ------------   ------------------------------
 STRT.F           22.5000:   START DEPTH
 STOP.F         4120.0000:   STOP DEPTH
 STEP.F            0.5000:   STEP LENGTH
 NULL.          -999.2500:   NO VALUE
 COMP. LAWRENCE ALLISON & ASSOCIATES:   COMPANY
 WELL. LAWRENCE-ALLISON SHX #37-10:   WELL
 FLD .              N P R:   FIELD
 LOC .      S10 T38N R78W:   LOCATION
 CNTY.            NATRONA:   COUNTY
 STAT.            WYOMING:   STATE
 CTRY. UNITED STATES OF AMERICA:   COUNTRY
 SRVC.      DRESSER ATLAS:   SERVICE COMPANY
 DATE.        29-JUN-1983:   LOGDATE
 API .     49025107370001:   API NUMBER
~CURVE INFORMATION
#MNEM.UNIT       API CODE    CURVE DESCRIPTION
#----------   ------------   ------------------------------
 DEPT.F                  :   
 TEND.LBS    45 635 01 00:   TENSION FROM DENSITY LOG
 CORR.G/C3   45 356 01 00:   DENSITY CORRECTION
 NPHI.DEC    42 890 03 00:   NEUTRON POROSITY SANDSTONE
 CALD.IN     45 280 60 00:   CALIPER FROM DENSITY LOG
 GRR .GAPI   07 310 01 00:   GAMMA RAY FROM RESISTIVITY
 SPR .MV     07 010 01 00:   SPONTANEOUS POTENTIAL
 TENR.LBS    07 635 01 00:   TENSION FROM RESISTIVITY
 RILD.OHMM   07 120 46 00:   DEEP INDUCTION RESISTIVITY
 RILM.OHMM   07 120 44 00:   INDUCTION LOG MEDIUM RESISTIVITY
 RFOC.OHMM   07 220 04 00:   RESISTIVITY FOCUSED LOG RES.
 RHOB.G/C3   45 350 01 00:   BULK DENSITY
~PARAMETER INFORMATION
#MNEM.UNIT          VALUE    DESCRIPTION
#----------   ------------   ------------------------------
 EKB .F         5228.0000:   Kelly bushing
 EGL .F         5218.0000:   Ground level
 EDF .F            0.0000:   Drilling floor
 EPD .F         5218.0000:   Permanent datum
 TD  .F         4125.0000:   Total depth
 DATE.        29-JUN-1983:   Date logged
 CLNT.            A2DTECH:   Client Code
 SL  . 984' FWL & 1620' FEL:   Surface Location
 PD  .                 GL:   Permanent Datum
 DD  .F              4125:   Depth driller
 DL  .F              4107:   Depth logger
 BLI .F              4105:   Bottom log interval
 CS1 .IN              4.5:   Casing size
 CBD1.       4.5" @ 2213':   Casing driller 1
 CBL1.F              2213:   Casing logger 1
 BS1 .IN             6.25:   Bit size
 DFT .                KCL:   Type fluid in hole
 DFD .                8.8:   Density
 DFV .                 45:   Viscosity
 DFPH.                  9:   pH
 DFL .               10.8:   Fluid loss
 MSS .            MUDTANK:   Source of sample
 RMS .OHMM            .44:   Rm
 MST .F               108:   Rm Meas. temp.
 RMF .OHMM            .37:   Rmf
 MFST.F               108:   Rmf Meas. temp.
 RMC .OHMM            .55:   Rmc
 MCST.F               108:   Rmc Meas. temp.
 MFSS.               MEAS:   Source Rmf.
 RMB .OHMM            .36:   Rm. at BHT
 BHT .F               126:   BHT.
 TCS .HRS               2:   Time Circ. stopped
 MRT .F               126:   Maximum recorded temp.
 LUN .               6343:   Logging unit number
 LUL .                 FM:   Logging unit location
 ENGI.          I. GOVETT:   Recorded By
 WITN.          G. STRONG:   Witnessed by
 ORIG.     2.5", 5" PRINT:   Origin of data
 UWI .     49025107370001:   Unique Well ID
 DICO. A2D TECHNOLOGIES, INC.:   Digitizing Company
 DAPD.                 10:   Feet Above Permanent Datum
 BSD1.               4125:   Depth drilled with bit1
 MCSS.               CALC:   Source Rmc.
 TLI .               2213:   Top log interval
~OTHER INFORMATION
~A   DEPT     TEND       CORR       NPHI       CALD         GRR       SPR       TENR       RILD       RILM       RFOC       RHOB   
# ...
 3591.0000     0.0000     0.0300     0.2240     7.6650   172.1730   -36.1990    14.3830     8.9660     8.8610    11.3830     2.4330
 3591.5000     0.0000     0.0160     0.2210     7.6660   174.9870   -36.1190    14.6350     8.6420     8.2990    10.8950     2.4370
 3592.0000     0.0000     0.0260     0.2140     7.6670   177.7840   -35.9690    14.8240     8.2990     8.3870     9.7590     2.4410
 3592.5000     0.0000     0.0530     0.2070     7.6680   173.1640   -35.8190    14.6220     8.2400     8.5510     9.0160     2.4450
 3593.0000     0.0000     0.0710     0.2000     7.6690   166.7510   -35.6700    14.4210     8.1770     8.7150     9.2310     2.4520
 3593.5000     0.0000     0.0500     0.1910     7.6700   160.2790   -35.5600    14.2200     8.1130     8.8520     9.7270     2.4600
 3594.0000     0.0000     0.0460     0.1940     7.6710   153.7610   -35.6840    14.0180     8.0500     8.9080    10.3280     2.4680
 3594.5000     0.0000     0.0490     0.1970     7.6720   151.4840   -35.8050    13.8170     7.9990     8.9800    10.9280     2.4760
 3595.0000     0.0000     0.0510     0.1970     7.6730   152.0470   -35.9250    13.6160     8.3470     9.0530    11.8860     2.4730
 3595.5000     0.0000     0.0540     0.1940     7.6740   152.8070   -36.0430    13.4150     8.6390     9.1260    11.6340     2.4710
 3596.0000     0.0000     0.0560     0.1910     7.6750   157.8670   -36.1090    13.2130     8.9320     9.1980    11.0120     2.4670
 3596.5000     0.0000     0.0510     0.1880     7.6770   163.0550   -35.9420    13.0120     9.1140     9.2710    10.0700     2.4640
 3597.0000     0.0000     0.0420     0.1860     7.6780   168.3220   -35.7810    12.8110     9.1470     9.3430    10.4320     2.4640
 3597.5000     0.0000     0.0430     0.1830     7.6790   170.6230   -35.6200    12.6100     9.1800     9.4480    11.2620     2.4750
 3598.0000     0.0000     0.0470     0.1790     7.6800   166.6550   -35.4580    12.4080     9.2130     9.5590    12.0920     2.4860
 3598.5000     0.0000     0.0500     0.1800     7.6810   161.7540   -35.2970    12.2070     9.2460     9.7060    12.9220     2.4980
 3599.0000     0.0000     0.0540     0.1830     7.6820   156.7960   -35.1480    12.0060     9.2790     9.6720    13.6470     2.5020
 3599.5000     0.0000     0.0640     0.1860     7.6830   156.5470   -35.0810    11.8040     9.3120     9.6020    12.0760     2.5000
 3600.0000     0.0000     0.0720     0.1890     7.6840   163.9600   -35.0180    11.6030     9.3450     9.5320    10.6210     2.4980
 3600.5000     0.0000     0.0810     0.1910     7.6850   171.3760   -34.9520    11.4020     9.5340     9.4410     9.6170     2.4970
 3601.0000     0.0000     0.0870     0.1680     7.6860   173.1440   -34.8590    11.2010     9.7880     9.6170     9.9140     2.4960
 3601.5000     0.0000     0.0760     0.1700     7.6870   167.6450   -34.7600    10.9990    10.0420     9.6170    10.8310     2.4960
 3602.0000     0.0000     0.0690     0.1740     7.6880   162.9220   -34.6600    10.7980    10.2570     9.6170    11.7490     2.4960
 3602.5000     0.0000     0.0670     0.1770     7.6890   158.2140   -34.5550    10.5970    10.0490     9.6170    12.3320     2.4950
 3603.0000     0.0000     0.0660     0.1810     7.6900   153.5190   -34.3680    10.3950     9.7960     9.6170    12.3320     2.4920
 3603.5000     0.0000     0.0660     0.1840     7.6910   148.7970   -34.1550    10.1940     9.9320    10.1700    12.3320     2.4890
 3604.0000     0.0000     0.0840     0.1870     7.6920   146.5330   -33.6450     9.9930    10.2990    10.7600    13.6580     2.4780
 3604.5000     0.0000     0.0890     0.1810     7.6930   150.8590   -33.1090     9.7920    10.8640    11.3500    14.6900     2.4630
 3605.0000     0.0000     0.0890     0.1760     7.6940   156.6910   -32.6970     9.5900    11.4280    11.9400    12.5550     2.4630
 3605.5000     0.0000     0.0880     0.1700     7.6950   162.3560   -32.5080     9.3890    11.9930    12.5300    11.2470     2.4740
 3606.0000     0.0000     0.0890     0.1650     7.6960   161.9950   -32.3160     9.1880    12.5570    13.1200    12.8700     2.4830
 3606.5000     0.0000     0.0880     0.1590     7.6980   149.1100   -32.1240     8.9860    13.1220    13.7100    14.7650     2.4940
 3607.0000     0.0000     0.0880     0.1540     7.7020   142.3290   -31.9330     8.7850    13.5220    14.3000    16.1080     2.4990
 3607.5000     0.0000     0.0920     0.1510     7.7060   142.0350   -31.7420     8.5840    13.2150    14.9630    14.8260     2.5000
 3608.0000     0.0000     0.1000     0.1510     7.7100   138.1800   -31.5670     8.3830    12.9130    15.2420    14.6900     2.4970
 3608.5000     0.0000     0.0910     0.1550     7.7130   129.2710   -31.3920     8.1810    12.4930    12.9310    19.8700     2.4960
 3609.0000     0.0000     0.0820     0.1620     7.7170   120.5070   -31.2350     7.9800    12.0380    10.4340    25.5290     2.4270
 3609.5000     0.0000     0.0340     0.1680     7.7210   114.7640   -30.6250     7.7790    11.5830     7.8530    21.6060     2.3220
 3610.0000     0.0000     0.0250     0.1720     7.7250   119.5570   -29.9690     7.5780    10.9400    10.0600    14.5790     2.3360
 3610.5000     0.0000     0.0450     0.1680     7.7290   127.2060   -29.6560     7.3760    11.2910    12.3440     7.5520     2.3840
 3611.0000     0.0000     0.0590     0.1610     7.7330   129.2890   -29.7600     7.1750    11.8860    14.2510     5.9570     2.4290
 3611.5000     0.0000     0.0520     0.1620     7.7360   119.9960   -29.8620     6.9740    10.4010    14.6900    13.5210     2.4730
 3612.0000     0.0000     0.0460     0.1670     7.7400   110.7730   -29.9750     6.7720     8.6900    11.4690    19.7980     2.4950
 3612.5000     0.0000     0.0630     0.1790     7.7440   115.4500   -29.8350     6.5710     9.2120     8.3160    25.7650     2.4670
 3613.0000     0.0000     0.0790     0.1910     7.7480   121.6870   -29.6020     6.3700     9.8340     7.1620    17.4030     2.4450
 3613.5000     0.0000     0.1460     0.2000     7.7520   127.9440   -29.3690     6.1690    10.1630     7.2120     6.9030     2.4470
 3614.0000     0.0000     0.1640     0.2070     7.7550   134.1830   -29.2050     5.9670     8.8060     7.2950     7.7450     2.4480
 3614.5000     0.0000     0.1390     0.2170     7.7590   140.4070   -29.2080     5.7660     7.0900     6.5760     8.9800     2.4260
 3615.0000     0.0000     0.1220     0.2300     7.7630   146.6640   -29.2080     5.5650     4.5610     5.5420    10.2140     2.3530
 3615.5000     0.0000     0.1230     0.2430     7.7670   149.4450   -29.2080     5.3630     4.6400     4.5580    11.0420     2.2790
 3616.0000     0.0000     0.1210     0.2560     7.7710   148.1320   -29.2080     5.1620     4.7900     4.1210     7.8420     2.2250
 3616.5000     0.0000     0.0920     0.2590     7.7750   146.9070   -29.2070     4.9610     4.9400     5.0510     5.4350     2.2370
 3617.0000     0.0000     0.0670     0.2510     7.7780   152.1350   -29.2090     4.7600     5.0940     5.7430     4.1590     2.3130
 3617.5000     0.0000     0.0710     0.2400     7.7820   157.5960   -29.2830     4.5580     5.0940     6.4350     4.3390     2.3920
 3618.0000     0.0000     0.0760     0.2280     7.7860   156.3540   -29.7260     4.3570     5.0940     6.8060     6.1090     2.4540
 3618.5000     0.0000     0.0820     0.2110     7.7900   155.1830   -30.1670     4.1560     5.3940     6.9590    10.2050     2.4880
 3619.0000     0.0000     0.0780     0.1950     7.7940   156.1160   -30.6080     3.9550     6.0220     7.1120    12.7950     2.4920
 3619.5000     0.0000     0.0580     0.1960     7.7970   157.0160   -31.0480     3.7530     6.8060     7.2950    12.4820     2.4930
 3620.0000     0.0000     0.0290     0.2000     7.8010   157.9370   -31.4860     3.5520     7.5890     7.9110    12.1060     2.4960
 3620.5000     0.0000     0.0200     0.2020     7.8050   159.7570   -31.9230     3.3510     8.3730     8.5010    11.7310     2.5010
 3621.0000     0.0000     0.0480     0.2020     7.8090   165.1490   -32.1760     3.1490     8.9340     8.7710    11.3560     2.5030
