~VERSION INFORMATION
 VERS.                2.0:   CWLS LOG ASCII STANDARD - VERSION 2.0
 WRAP.                 NO:   ONE LINE PER DEPTH STEP
~WELL INFORMATION
#MNEM.UNIT      DATA TYPE    INFORMATION
#----------   ------------   ------------------------------
 STRT.F            0.0000:   START DEPTH
 STOP.F         4044.0000:   STOP DEPTH
 STEP.F            0.5000:   STEP LENGTH
 NULL.          -999.2500:   NO VALUE
 COMP. LAWRENCE-ALLISON & ASSOC.:   COMPANY
 WELL. LAWRENCE "X" #24-34:   WELL
 FLD .           N P R #3:   FIELD
 LOC .      S34 T39N R78W:   LOCATION
 CNTY.            NATRONA:   COUNTY
 STAT.            WYOMING:   STATE
 CTRY. UNITED STATES OF AMERICA:   COUNTRY
 SRVC.      DRESSER ATLAS:   SERVICE COMPANY
 DATE.        29-MAR-1984:   LOGDATE
 API .     49025109660000:   API NUMBER
~CURVE INFORMATION
#MNEM.UNIT       API CODE    CURVE DESCRIPTION
#----------   ------------   ------------------------------
 DEPT.F                  :   
 DT  .US/F   60 520 00 00:   DELTA TIME
 TENS.LBS    60 635 01 00:   TENSION FROM SONIC
 GRR .GAPI   07 310 01 00:   GAMMA RAY FROM RESISTIVITY
 SPR .MV     07 010 01 00:   SPONTANEOUS POTENTIAL
 CALR.IN     07 280 01 00:   CALIPER FROM RESISTIVITY
 TENR.LBS    07 635 01 00:   TENSION FROM RESISTIVITY
 RSFL.OHMM   07 221 01 00:   AMPPLIFIED SHALLOW FOCUSED LOG RESISTIVITY
 RILD.OHMM   07 120 46 00:   DEEP INDUCTION RESISTIVITY
 RILM.OHMM   07 120 44 00:   INDUCTION LOG MEDIUM RESISTIVITY
 RHOB.G/C3   45 350 01 00:   BULK DENSITY
 DRHO.G/C3   45 356 01 00:   DENSITY CORRECTION
 TEND.LBS    45 635 01 00:   TENSION FROM DENSITY LOG
 NPHI.DEC    42 890 03 00:   NEUTRON POROSITY SANDSTONE
~PARAMETER INFORMATION
#MNEM.UNIT          VALUE    DESCRIPTION
#----------   ------------   ------------------------------
 EKB .F         5101.0000:   Kelly bushing
 EGL .F         5089.0000:   Ground level
 EDF .F         5100.0000:   Drilling floor
 TD  .F         4050.0000:   Total depth
 DATE.        29-MAR-1984:   Date logged
 CLNT.            A2DTECH:   Client Code
 SL  . 2415' FNL & 839' FWL:   Surface Location
 PD  .                 GL:   Permanent Datum
 EPD .F              5089:   Elevation Permanent Datum
 LMF .                 KB:   Log Measured From
 DMF .                 KB:   Drilling Measured From
 DD  .F              4050:   Depth driller
 DL  .F              4043:   Depth logger
 BLI .F              4041:   Bottom log interval
 CS1 .IN            8.625:   Casing size
 CBD1.       8.625 @ 673':   Casing driller 1
 CBL1.F               671:   Casing logger 1
 BS1 .IN            7.875:   Bit size
 DFT .            GEL-KCL:   Type fluid in hole
 DFD .                8.9:   Density
 DFV .                 45:   Viscosity
 DFPH.                  8:   pH
 DFL .               12.8:   Fluid loss
 MSS .           MUD TANK:   Source of sample
 RMS .OHMM           0.46:   Rm
 MST .F                71:   Rm Meas. temp.
 RMF .OHMM           0.31:   Rmf
 MFST.F                71:   Rmf Meas. temp.
 RMC .OHMM           0.55:   Rmc
 MCST.F                71:   Rmc Meas. temp.
 MFSS.               MEAS:   Source Rmf.
 RMB .OHMM           0.25:   Rm. at BHT
 BHT .F               139:   BHT.
 TCS .HRS               4:   Time Circ. stopped
 MRT .F               139:   Maximum recorded temp.
 LUN .               6302:   Logging unit number
 LUL .               CODY:   Logging unit location
 ENGI.              GETTY:   Recorded By
 WITN.           JENNINGS:   Witnessed by
 ORIG.           5" PRINT:   Origin of data
 UWI .     49025109660000:   Unique Well ID
 DICO. A2D TECHNOLOGIES, INC.:   Digitizing Company
 DAPD.                 12:   Feet Above Permanent Datum
 BSD1.               4050:   Depth drilled with bit1
 MCSS.               MEAS:   Source Rmc.
~OTHER INFORMATION
~A  DEPTH       DT       TENS        GRR        SPR       CALR       TENR       RSFL       RILD       RILM       RHOB       DRHO       TEND       NPHI
# ...
 2028.0000  -999.2500  -999.2500    77.1040   -20.9270     9.0670  -189.3220     6.7990     6.0360     5.9620  -999.2500  -999.2500  -999.2500  -999.2500
 2028.5000  -999.2500  -999.2500    75.0040   -20.8450     9.0630  -188.9970     7.1650     6.0930     6.0790  -999.2500  -999.2500  -999.2500  -999.2500
 2029.0000  -999.2500  -999.2500    75.6050   -20.7640     9.0600  -188.6720     7.0660     6.1500     6.1950  -999.2500  -999.2500  -999.2500  -999.2500
 2029.5000  -999.2500  -999.2500    78.2670   -20.6830     9.0570  -188.3460     6.9760     6.2070     6.3110  -999.2500  -999.2500  -999.2500  -999.2500
 2030.0000  -999.2500  -999.2500    80.3580   -20.6020     9.0530  -188.0210     6.8850     6.2640     6.4270  -999.2500  -999.2500  -999.2500  -999.2500
 2030.5000  -999.2500  -999.2500    81.3790   -20.5200     9.0500  -187.6960     6.7950     6.3470     6.5430  -999.2500  -999.2500  -999.2500  -999.2500
 2031.0000  -999.2500  -999.2500    83.4410   -20.4390     9.0570  -187.3700     6.7040     6.5680     6.6590  -999.2500  -999.2500  -999.2500  -999.2500
 2031.5000  -999.2500  -999.2500    86.1600   -20.3580     9.0650  -187.0450     6.6500     6.6500     6.7750  -999.2500  -999.2500  -999.2500  -999.2500
 2032.0000  -999.2500  -999.2500    88.2600   -20.2760     9.0720  -186.7200     7.2190     6.5260     6.6500  -999.2500  -999.2500  -999.2500  -999.2500
 2032.5000  -999.2500  -999.2500    86.1950   -20.1950     9.0790  -186.3950     7.6250     6.3210     6.3920  -999.2500  -999.2500  -999.2500  -999.2500
 2033.0000  -999.2500  -999.2500    82.3650   -20.1130     9.0860  -186.0690     7.9400     6.1160     6.1380  -999.2500  -999.2500  -999.2500  -999.2500
 2033.5000  -999.2500  -999.2500    79.0550   -20.0860     9.0940  -185.7440     7.4370     5.9120     5.8830  -999.2500  -999.2500  -999.2500  -999.2500
 2034.0000  -999.2500  -999.2500    79.2010   -20.0640     9.1010  -185.4190     6.9480     5.7070     5.6290  -999.2500  -999.2500  -999.2500  -999.2500
 2034.5000  -999.2500  -999.2500    83.9280   -20.0420     9.1080  -185.0930     6.4580     5.5030     5.3740  -999.2500  -999.2500  -999.2500  -999.2500
 2035.0000  -999.2500  -999.2500    89.3280   -20.0200     9.1160  -184.7680     5.9690     5.2980     5.1200  -999.2500  -999.2500  -999.2500  -999.2500
 2035.5000  -999.2500  -999.2500    93.9790   -19.9990     9.1230  -184.4430     5.4800     5.0940     4.9330  -999.2500  -999.2500  -999.2500  -999.2500
 2036.0000  -999.2500  -999.2500    97.8520   -19.9770     9.1300  -184.1170     5.2810     4.9790     4.8970  -999.2500  -999.2500  -999.2500  -999.2500
 2036.5000  -999.2500  -999.2500    98.8500   -19.9550     9.1380  -183.7920     5.1690     4.9790     4.8870  -999.2500  -999.2500  -999.2500  -999.2500
 2037.0000  -999.2500  -999.2500    96.0130   -19.9330     9.1450  -183.4670     5.4080     4.9790     4.9500  -999.2500  -999.2500  -999.2500  -999.2500
 2037.5000  -999.2500  -999.2500    93.1780   -19.9110     9.1490  -183.1410     6.0690     4.9790     5.0090  -999.2500  -999.2500  -999.2500  -999.2500
 2038.0000  -999.2500  -999.2500    91.8370   -19.8920     9.1460  -182.8160     6.5580     4.9840     5.0670  -999.2500  -999.2500  -999.2500  -999.2500
 2038.5000  -999.2500  -999.2500    93.7900   -19.8750     9.1440  -182.4910     6.5880     5.0280     5.1250  -999.2500  -999.2500  -999.2500  -999.2500
 2039.0000  -999.2500  -999.2500    96.0710   -19.8590     9.1410  -182.1660     6.0180     5.0730     5.1840  -999.2500  -999.2500  -999.2500  -999.2500
 2039.5000  -999.2500  -999.2500    97.3490   -19.8420     9.1380  -181.8400     5.7280     5.1170     5.2420  -999.2500  -999.2500  -999.2500  -999.2500
 2040.0000  -999.2500  -999.2500    97.1030   -19.8260     9.1350  -181.5150     5.7810     5.1610     5.3000  -999.2500  -999.2500  -999.2500  -999.2500
 2040.5000  -999.2500  -999.2500    96.7570   -19.8090     9.1320  -181.1900     5.7810     5.2050     5.3580  -999.2500  -999.2500  -999.2500  -999.2500
 2041.0000  -999.2500  -999.2500    96.6480   -19.7930     9.1270  -180.8640     5.7610     5.2490     5.4170  -999.2500  -999.2500  -999.2500  -999.2500
 2041.5000  -999.2500  -999.2500    94.5550   -19.7760     9.1050  -180.5390     5.6270     5.2940     5.4750  -999.2500  -999.2500  -999.2500  -999.2500
 2042.0000  -999.2500  -999.2500    91.8890   -19.7590     9.0840  -180.2140     5.5690     5.3380     5.5330  -999.2500  -999.2500  -999.2500  -999.2500
 2042.5000  -999.2500  -999.2500    90.2210   -19.7430     9.0740  -179.8880     6.1350     5.3650     5.5690  -999.2500  -999.2500  -999.2500  -999.2500
 2043.0000  -999.2500  -999.2500    91.8960   -19.7260     9.0870  -179.5630     6.8660     5.3650     5.4680  -999.2500  -999.2500  -999.2500  -999.2500
 2043.5000  -999.2500  -999.2500    93.6170   -19.7100     9.1000  -179.2380     7.2320     5.3030     5.3400  -999.2500  -999.2500  -999.2500  -999.2500
 2044.0000  -999.2500  -999.2500    94.8190   -19.7150     9.1140  -178.9120     6.5950     5.2410     5.2120  -999.2500  -999.2500  -999.2500  -999.2500
 2044.5000  -999.2500  -999.2500    91.1640   -19.7520     9.1320  -178.5870     6.0230     5.1780     5.0840  -999.2500  -999.2500  -999.2500  -999.2500
 2045.0000  -999.2500  -999.2500    86.2010   -19.7900     9.1510  -178.2620     5.4500     5.1150     4.9560  -999.2500  -999.2500  -999.2500  -999.2500
 2045.5000  -999.2500  -999.2500    81.5060   -19.8260     9.1700  -177.9360     5.1210     5.0520     4.9300  -999.2500  -999.2500  -999.2500  -999.2500
 2046.0000  -999.2500  -999.2500    81.3370   -19.8660     9.1880  -177.6110     5.2750     4.9900     4.9150  -999.2500  -999.2500  -999.2500  -999.2500
 2046.5000  -999.2500  -999.2500    82.7610   -19.8880     9.2070  -177.2860     5.4610     4.9750     4.9000  -999.2500  -999.2500  -999.2500  -999.2500
 2047.0000  -999.2500  -999.2500    82.7690   -20.6930     9.2200  -176.9610     5.6470     4.9650     4.8850  -999.2500  -999.2500  -999.2500  -999.2500
 2047.5000  -999.2500  -999.2500    83.6700   -21.9090     9.2310  -176.6350     5.6740     4.9550     4.8710  -999.2500  -999.2500  -999.2500  -999.2500
 2048.0000  -999.2500  -999.2500    86.2430   -21.9740     9.2430  -176.3100     5.7280     4.9450     4.8560  -999.2500  -999.2500  -999.2500  -999.2500
 2048.5000  -999.2500  -999.2500    89.8160   -21.5090     9.2540  -175.9850     5.8180     4.9340     4.8420  -999.2500  -999.2500  -999.2500  -999.2500
 2049.0000  -999.2500  -999.2500    93.2920   -21.0280     9.2650  -175.6590     5.9020     4.8820     4.8270  -999.2500  -999.2500  -999.2500  -999.2500
 2049.5000  -999.2500  -999.2500    96.5410   -20.5510     9.2770  -175.3340     5.9450     4.8070     4.7760  -999.2500  -999.2500  -999.2500  -999.2500
 2050.0000  -999.2500  -999.2500   100.9990   -20.5400     9.2880  -175.0090     5.7110     4.7310     4.7240  -999.2500  -999.2500  -999.2500  -999.2500
 2050.5000  -999.2500  -999.2500   116.9620   -20.6000     9.3000  -174.6830     5.5690     4.6560     4.6720  -999.2500  -999.2500  -999.2500  -999.2500
 2051.0000  -999.2500  -999.2500   132.6550   -20.6610     9.3110  -174.3580     5.4660     4.5800     4.6200  -999.2500  -999.2500  -999.2500  -999.2500
 2051.5000  -999.2500  -999.2500   136.1810   -20.6970     9.3220  -174.0120     5.3470     4.5050     4.5690  -999.2500  -999.2500  -999.2500  -999.2500
 2052.0000  -999.2500  -999.2500   129.3340   -20.4720     9.3300  -174.2250     5.1830     4.4290     4.5170  -999.2500  -999.2500  -999.2500  -999.2500
 2052.5000  -999.2500  -999.2500   120.0840   -20.2280     9.3300  -174.4510     5.0180     4.4110     4.4940  -999.2500  -999.2500  -999.2500  -999.2500
 2053.0000  -999.2500  -999.2500   110.7260   -19.9840     9.3290  -174.6780     4.9330     4.4220     4.4940  -999.2500  -999.2500  -999.2500  -999.2500
 2053.5000  -999.2500  -999.2500   107.5570   -19.7390     9.3270  -174.9050     5.0290     4.4890     4.4940  -999.2500  -999.2500  -999.2500  -999.2500
