~VERSION INFORMATION
 VERS.                2.0:   CWLS LOG ASCII STANDARD - VERSION 2.0
 WRAP.                 NO:   ONE LINE PER DEPTH STEP
~WELL INFORMATION
#MNEM.UNIT      DATA TYPE    INFORMATION
#----------   ------------   ------------------------------
 STRT.F          190.0000:   START DEPTH
 STOP.F         3215.0000:   STOP DEPTH
 STEP.F            0.5000:   STEP LENGTH
 NULL.          -999.2500:   NO VALUE
 COMP.    FENIX & SCISSON:   COMPANY
 WELL.  FENIX "AX" #78-34:   WELL
 FLD . NAVAL PET. RES. NO. 3:   FIELD
 LOC .      S34 T39N R78W:   LOCATION
 CNTY.            NATRONA:   COUNTY
 STAT.            WYOMING:   STATE
 CTRY. UNITED STATES OF AMERICA:   COUNTRY
 SRVC.       SCHLUMBERGER:   SERVICE COMPANY
 DATE.        16-DEC-1980:   LOGDATE
 API .     49025108670000:   API NUMBER
~CURVE INFORMATION
#MNEM.UNIT       API CODE    CURVE DESCRIPTION
#----------   ------------   ------------------------------
 DEPT.F                  :   
 TEND.LBS    45 635 01 00:   TENSION FORM DENSITY LOG
 GRD .GAPI   45 310 01 00:   GAMMA RAY FROM DENSITY LOG
 CALD.IN     45 280 60 00:   CALIPER FROM DENSITY LOG
 CORR.G/C3   45 356 01 00:   DENSITY CORRECTION
 RHOB.G/C3   45 350 01 00:   BULK DENSITY
 SPR .MV     07 010 01 00:   SPONTANEOUS POTENTIAL
 TENR.LBS    07 635 01 00:   TENSION FROM RESISTIVITY
 ILD .OHMM   07 120 46 00:   DEEP INDUCTION RESISTIVITY
 ILM .OHMM   07 120 44 00:   INDUCTION LOG MEDIUM RESISTIVITY
 SFL .OHMM   07 220 01 00:   SHALLOW FOCUSED LOG RESISTIVITY
~PARAMETER INFORMATION
#MNEM.UNIT          VALUE    DESCRIPTION
#----------   ------------   ------------------------------
 EKB .F         5068.0000:   Kelly bushing
 EGL .F         5058.0000:   Ground level
 EDF .F            0.0000:   Drilling floor
 EPD .F            0.0000:   Permanent datum
 TD  .F         3202.0000:   Total depth
 CLNT.            A2DTECH:   Client Code
 SL  . 542' FSL & 693' FEL:   Surface Location
 PD  .                 GL:   Permanent Datum
 DAPD.F                10:   Feet Above Permanent Datum
 DATE.        16-DEC-1980:   Date Logged [DD-MMM-YYYY]
 DD  .F              3200:   Depth driller
 DL  .F              3202:   Depth logger
 BLI .F              3199:   Bottom log interval
 TLI .F               193:   Top log interval
 CS1 .IN            8.625:   Casing size
 CBD1.      8.625" @ 215':   Casing driller 1
 CBL1.F               193:   Casing logger 1
 BS1 .IN            7.875:   Bit size
 BSD1.F              3200:   Depth drilled with bit1
 DFT .               LSND:   Type fluid in hole
 DFD .                9.1:   Density
 DFV .                 35:   Viscosity
 DFPH.                  8:   pH
 DFL .                 16:   Fluid loss
 MSS .            MUD PIT:   Source of sample
 RMS .OHMM            2.9:   Rm
 MST .F                56:   Rm Meas. temp.
 RMF .OHMM            2.4:   Rmf
 MFST.F                56:   Rmf Meas. temp.
 MFSS.               MEAS:   Source Rmf.
 RMC .OHMM            2.7:   Rmc
 MCST.F                56:   Rmc Meas. temp.
 MCSS.               CALC:   Source Rmc.
 RMB .OHMM           1.35:   Rm. at BHT
 BHT .F               120:   BHT.
 TCS .HRS            2100:   Time Circ. stopped
 MRT .F               120:   Maximum recorded temp.
 LUN .               8161:   Logging unit number
 ENGI.             SITTON:   Recorded By
 WITN.              FIVAS:   Witnessed by
 ORIG.           5" PRINT:   Origin of data
 UWI .     49025108670000:   Unique Well ID
 DICO. A2D TECHNOLOGIES, INC.:   Digitizing Company
~OTHER INFORMATION
~A   DEPT     TEND         GRD      CALD       CORR       RHOB        SPR       TENR        ILD        ILM        SFL   
# ...
 2568.5000   708.3038   114.3413     8.7407     0.0146     2.5503   -37.0458   628.1157     7.4492     7.5158     8.2555
 2569.0000   707.8549   111.6930     8.7407     0.0057     2.5338   -37.1799   628.1157     7.4004     7.4666     8.4322
 2569.5000   707.4019   108.1543     8.7407     0.0070     2.5323   -37.1568   624.7923     7.3527     7.4178     8.7328
 2570.0000   706.8597   106.9822     8.7407     0.0125     2.5543   -37.1510   618.1456     7.3054     7.4203     8.9818
 2570.5000   706.4155   112.3337     8.7407     0.0204     2.5596   -36.9602   611.4988     7.3097     7.4229     9.3020
 2571.0000   705.9713   114.7655     8.7407     0.0173     2.5602   -36.9542   608.1755     7.2626     7.3742     8.9078
 2571.5000   720.6326   115.3012     8.7407     0.0119     2.5588   -36.8601   608.1755     7.1660     7.3259     8.2765
 2572.0000   720.1884   110.8778     8.7407     0.0065     2.5573   -36.7562   608.1755     7.1695     7.2284     7.8880
 2572.5000   719.7442   107.9308     8.7407     0.0003     2.5573   -36.5255   628.1157     7.1736     7.1811     8.0569
 2573.0000   719.2997   107.0519     8.7407    -0.0012     2.5581   -36.4646   628.1157     7.0782     7.1334     8.2865
 2573.5000   718.8556   111.8001     8.7407     0.0090     2.5604   -36.4115   628.1157     6.8878     6.9901     8.5228
 2574.0000   718.4111   116.5454     8.7407     0.0184     2.5634   -36.3215   626.4540     6.7484     6.6164     8.4089
 2574.5000   717.9669   118.9238     8.7407     0.0271     2.5635   -36.1765   620.9150     6.6133     6.4829     8.0700
 2575.0000   717.5228   117.7515     8.7407     0.0256     2.5597   -35.9713   615.3761     6.5699     6.4851     7.6382
 2575.5000   717.0695   116.5799     8.7407     0.0186     2.5498   -35.9872   609.8372     6.5738     6.4873     7.2289
 2576.0000   719.0284   115.4082     8.7408     0.0101     2.5455   -36.0056   613.1605     6.5770     6.4448     7.0348
 2576.5000   731.2689   114.1763     8.7398     0.0078     2.5486   -36.1035   620.2820     6.6720     6.4498     7.2863
 2577.0000   730.7402   110.9964     8.7247     0.0071     2.5516   -36.1808   628.1157     6.7535     6.4939     7.5985
 2577.5000   745.5128   110.7092     8.7205     0.0024     2.5396   -36.2561   628.1157     6.7984     6.5870     7.9792
 2578.0000   744.9573   112.6075     8.7209    -0.0014     2.5336   -36.4651   628.1157     6.8276     6.7273     8.4371
 2578.5000   744.5131   113.3980     8.7210     0.0026     2.5367   -36.6690   628.1157     6.9214     6.7762     8.6178
 2579.0000   728.9631   113.1137     8.7210     0.0090     2.5480   -36.8704   619.8073     6.9246     6.8728     8.5609
 2579.5000   728.5187   111.9419     8.7210     0.0154     2.5532   -37.1054   603.1904     6.9761     6.9228     8.2737
 2580.0000   712.9688   111.0630     8.7210     0.0199     2.5518   -36.7441   588.2353     6.9795     6.9252     7.9954
 2580.5000   712.5244   111.3733     8.7210     0.0192     2.5518   -36.9343   628.1157     6.9828     6.9273     8.1102
 2581.0000   716.9192   111.0890     8.7210     0.0169     2.5565   -36.9484   628.1157     6.9861     6.9299     8.1135
 2581.5000   726.7416   109.6201     8.7209     0.0115     2.5654   -37.0898   628.1157     6.9411     6.9322     8.1169
 2582.0000   741.4030   107.8025     8.7271     0.0124     2.5744   -37.1594   628.1157     6.8487     6.9346     8.1773
 2582.5000   740.8478   106.3900     8.7373     0.0179     2.5790   -37.0076   628.1157     6.8046     6.9369     8.1807
 2583.0000   740.4033   108.4755     8.7427     0.0234     2.5715   -36.8214   628.1157     6.6604     6.8412     7.9055
 2583.5000   739.9591   110.8539     8.7211     0.0203     2.5580   -36.6311   628.1157     6.5789     6.7524     7.6918
 2584.0000   724.4092   110.8655     8.7214     0.0118     2.5422   -36.3336   628.1157     6.5828     6.7082     7.6418
 2584.5000   723.9647   110.8771     8.7210     0.0095     2.5445   -36.2988   628.1157     6.5860     6.6642     7.6457
 2585.0000   723.5205   112.0721     8.7210     0.0096     2.5431   -36.2469   628.1157     6.4983     6.5756     7.7020
 2585.5000   723.0761   114.4505     8.7210     0.0104     2.5416   -36.1949   628.1157     6.4557     6.5319     7.7681
 2586.0000   722.6319   115.6455     8.7210     0.0175     2.5464   -36.1432   628.1157     6.3698     6.4450     7.3942
 2586.5000   737.3112   116.8405     8.7210     0.0336     2.5717   -36.0915   628.1157     6.1992     6.2715     7.2958
 2587.0000   736.8491   116.8521     8.7210     0.0524     2.5920   -36.0392   628.1157     6.0324     6.0606     7.2995
 2587.5000   736.4048   116.2719     8.7210     0.0606     2.5853   -35.9850   628.1157     5.8702     5.8973     7.2513
 2588.0000   735.9515   116.3354     8.7210     0.0435     2.5703   -36.0784   628.1157     5.7086     5.7385     7.0081
 2588.5000   720.3928   118.3690     8.7210     0.0280     2.5523   -36.1938   628.1123     5.5980     5.5840     6.4967
 2589.0000   719.8552   120.7474     8.7210     0.0210     2.5380   -36.3102   628.1240     5.5612     5.5474     6.1066
 2589.5000   719.4108   122.5342     8.7210     0.0164     2.5418   -36.4147   628.0444     5.5645     5.5515     5.9829
 2590.0000   734.1834   121.6553     8.7210     0.0133     2.5433   -36.5069   633.3939     5.6059     5.6337     6.4151
 2590.5000   718.5224   119.5987     8.7210     0.0110     2.5404   -36.5988   639.2587     5.6869     5.7092     6.9738
 2591.0000   718.0779   118.1310     8.7211     0.0126     2.5449   -36.6909   645.1235     5.8093     5.7906     7.4769
 2591.5000   717.6337   116.6633     8.7212     0.0205     2.5570   -36.7843   648.1126     5.8525     5.8731     7.4800
 2592.0000   732.4064   116.0828     8.7202     0.0252     2.5550   -36.8791   648.0583     5.9370     5.9159     7.3219
 2592.5000   716.7451   116.9823     8.7050     0.0089     2.5352   -36.9103   648.0574     5.9398     5.9179     7.1325
 2593.0000   731.4200   118.2431     8.6982     0.0035     2.5308   -36.7476   648.0558     5.9005     5.9199     7.1354
 2593.5000   730.9623   119.3728     8.6874     0.0059     2.5436   -36.6895   648.0577     5.8636     5.9219     7.1383
 2594.0000   730.5136   119.6826     8.6818     0.0188     2.5706   -36.6399   648.0512     5.9079     5.9239     7.1412
 2594.5000   730.0604   120.2859     8.6818     0.0321     2.5797   -36.5898   648.0558     5.8698     5.8850     7.1441
 2595.0000   729.5184   120.0016     8.6817     0.0350     2.5797   -36.5395   645.1613     5.8320     5.8062     7.1470
 2595.5000   729.0742   117.6463     8.6817     0.0280     2.5692   -36.4891   641.9451     5.7544     5.7285     7.1499
 2596.0000   728.6298   114.1076     8.6817     0.0179     2.5595   -36.4387   638.7290     5.6379     5.6910     6.7673
 2596.5000   728.1855   111.1606     8.6816     0.0094     2.5542   -36.3877   635.5128     5.5629     5.6538     6.6309
 2597.0000   727.7413   113.5391     8.6812     0.0032     2.5496   -36.3727   632.2966     5.5662     5.6562     6.7261
 2597.5000   727.3414   116.2134     8.6856    -0.0054     2.5401   -36.3725   629.0006     5.6076     5.6973     6.5911
 2598.0000   726.8527   118.2959     8.7011    -0.0116     2.5326   -36.3725   623.8238     5.6493     5.7388     6.4137
 2598.5000   726.4083   119.4911     8.6978    -0.0147     2.5461   -36.3725   617.4907     5.7331     5.7805     6.3720
 2599.0000   725.9641   120.6864     8.6826    -0.0051     2.5589   -36.3724   611.2700     5.9011     5.8629     6.4189
 2599.5000   710.4141   120.7004     8.6816     0.0085     2.5740   -36.3714   611.5012     6.1491     5.9465     6.8344
 2600.0000   709.9697   117.7534     8.6817     0.0228     2.5823   -36.3738   618.1720     6.3691     6.1576     7.4289
 2600.5000   709.5167   115.6940     8.6817     0.0364     2.5808   -36.6029   624.8420     6.6891     6.4205     7.7104
 2601.0000   724.1871   113.9304     8.6817     0.0286     2.5771   -36.8609   628.1157     6.9284     6.6484     8.4832
 2601.5000   723.6316   112.0483     8.6817     0.0240     2.5756   -37.1142   628.1157     7.2262     7.0286     8.9088
