~VERSION INFORMATION
 VERS.                2.0:   CWLS LOG ASCII STANDARD - VERSION 2.0
 WRAP.                 NO:   ONE LINE PER DEPTH STEP
~WELL INFORMATION
#MNEM.UNIT      DATA TYPE    INFORMATION
#----------   ------------   ------------------------------
 STRT.F           15.0000:   START DEPTH
 STOP.F         3245.5000:   STOP DEPTH
 STEP.F            0.5000:   STEP LENGTH
 NULL.          -999.2500:   NO VALUE
 COMP. LAWRENCE ALLISON AND ASSOCIATES:   COMPANY
 WELL. LAWRENCE ALLISON 11 X34 #3-3:   WELL
 FLD .             NPR #3:   FIELD
 LOC .       S3 T38N R78W:   LOCATION
 CNTY.            NATRONA:   COUNTY
 STAT.            WYOMING:   STATE
 CTRY. UNITED STATES OF AMERICA:   COUNTRY
 SRVC.      DRESSER ATLAS:   SERVICE COMPANY
 DATE.        23-MAY-1985:   LOGDATE
 API .     49025110530000:   API NUMBER
~CURVE INFORMATION
#MNEM.UNIT       API CODE    CURVE DESCRIPTION
#----------   ------------   ------------------------------
 DEPT.F                  :   
 SPR .MV     07 010 01 00:   SPONTANEOUS POTENTIAL
 GRR .GAPI   07 310 01 00:   GAMMA RAY FROM RESISTIVITY
 SFL .OHMM   07 220 01 00:   SHALLOW FOCUSED LOG RES.
 ILD .OHMM   07 120 46 00:   INDUCTION LOG DEEP RESISTIVITY
 ILM .OHMM   07 120 44 00:   INDUCTION LOG MEDIUM RESISTIVITY
 TENR.LBS    07 635 01 00:   TENSION
 CALR.IN     07 280 01 00:   CALIPER FROM RESISTIVITY
 RHOB.G/C3   45 350 01 00:   BULK DENSITY
 CORR.G/C3   45 356 01 00:   DENSITY CORRECTION
 CNC .DEC    42 890 03 00:   NEUTRON POROSITY SANDSTONE
~PARAMETER INFORMATION
#MNEM.UNIT          VALUE    DESCRIPTION
#----------   ------------   ------------------------------
 EKB .F         5099.0000:   Kelly bushing
 EGL .F         5087.0000:   Ground level
 EDF .F            0.0000:   Drilling floor
 EPD .F         5087.0000:   Permanent datum
 TD  .F         3240.0000:   Total depth
 DATE.         2-MAY-1985:   Date logged
 CLNT.            A2DTECH:   Client Code
 PD  .                 GL:   Permanent Datum
 DD  .F              3239:   Depth driller
 DL  .F              3242:   Depth logger
 BLI .F              3240:   Bottom log interval
 TLI .F                15:   Top log interval
 CS1 .IN            8.625:   Casing size
 CBD1.      8.625" @ 487':   Casing driller 1
 CBL1.F               487:   Casing logger 1
 BSD1.F              3239:   Depth drilled with bit1
 DFT .            KCL GEL:   Type fluid in hole
 ENGI.      MACK. EDWARDS:   Recorded By
 WITN.         MR. STRONG:   Witnessed by
 ORIG.           5" PRINT:   Origin of data
 UWI .     49025110530000:   Unique Well ID
 DICO. A2D TECHNOLOGIES, INC.:   Digitizing Company
 DAPD.IN               12:   Feet Above Permanent Datum
 BS1 .              7.875:   Bit size
 DFD .                9.1:   Density
 DFV .                 35:   Viscosity
 DFPH.                  8:   pH
 DFL .                9.8:   Fluid loss
 MSS .           FLOWLINE:   Source of sample
 RMS .OHMM            .27:   Rm
 MST .F                68:   Rm Meas. temp.
 RMF .OHMM             .2:   Rmf
 MFST.F                68:   Rmf Meas. temp.
 MFSS.               MEAS:   Source Rmf.
 RMC .OHMM            .34:   Rmc
 MCST.F                68:   Rmc Meas. temp.
 MCSS.               CALC:   Source Rmc.
 RMB .OHMM            .15:   Rm. at BHT
 BHT .F               126:   BHT.
 TCS .HRS               3:   Time Circ. stopped
 MRT .F               126:   Maximum recorded temp.
 LUN .               6274:   Logging unit number
 LUL .               GLTE:   Logging unit location
~OTHER INFORMATION
~A   DEPT      SPR        GRR        SFL        ILD        ILM       TENR       CALR       RHOB       CORR        CNC   
# ...
 2293.0000   -63.2039    94.7364     2.9099     2.3557     2.3134     0.8603  -999.2500  -999.2500  -999.2500  -999.2500
 2293.5000   -63.2032    98.0113     2.6792     2.3558     2.3135    -9.2172  -999.2500  -999.2500  -999.2500  -999.2500
 2294.0000   -63.2025    98.6083     2.5827     2.3997     2.3567    -9.3150  -999.2500  -999.2500  -999.2500  -999.2500
 2294.5000   -63.5985    92.3615     2.7291     2.4724     2.4283    -9.4127  -999.2500  -999.2500  -999.2500  -999.2500
 2295.0000   -63.7962    89.3877     2.8840     2.5474     2.5021    -9.5105  -999.2500  -999.2500  -999.2500  -999.2500
 2295.5000   -63.7955    89.6870     2.9921     2.6246     2.5782    -9.6083  -999.2500  -999.2500  -999.2500  -999.2500
 2296.0000   -63.5964    89.3919     3.0478     2.6799     2.6327     0.2740  -999.2500  -999.2500  -999.2500  -999.2500
 2296.5000   -63.5957    88.7981     3.1045     2.8911     2.8407    10.1564  -999.2500  -999.2500  -999.2500  -999.2500
 2297.0000   -63.3971    83.7409     3.2806     3.1188     3.0651     0.0786  -999.2500  -999.2500  -999.2500  -999.2500
 2297.5000   -62.8004    78.6840     3.4036     3.3416     3.2847    -9.9994  -999.2500  -999.2500  -999.2500  -999.2500
 2298.0000   -62.7999    77.1970     3.5966     3.5312     3.4715   -10.0776  -999.2500  -999.2500  -999.2500  -999.2500
 2298.5000   -62.6008    75.4129     4.2437     3.5968     3.5362   -10.1949  -999.2500  -999.2500  -999.2500  -999.2500
 2299.0000   -62.6000    75.4143     4.4028     3.8009     3.5972   -10.2927  -999.2500  -999.2500  -999.2500  -999.2500
 2299.5000   -62.5993    76.3087     4.4031     3.8716     3.5973   -10.3905  -999.2500  -999.2500  -999.2500  -999.2500
 2300.0000   -62.4000    77.7983     4.0913     3.9437     3.5321   -10.4882  -999.2500  -999.2500  -999.2500  -999.2500
 2300.5000   -62.5327    84.3117     3.6658     3.9440     3.5323    -1.3326  -999.2500  -999.2500  -999.2500  -999.2500
 2301.0000   -62.6530    85.8379     3.4361     3.9437     3.6643     9.4611  -999.2500  -999.2500  -999.2500  -999.2500
 2301.5000   -62.7732    84.0534     3.4361     4.0169     3.7322   -10.4990  -999.2500  -999.2500  -999.2500  -999.2500
 2302.0000   -62.9923    81.0786     3.7667     4.0169     3.8719   -40.4391  -999.2500  -999.2500  -999.2500  -999.2500
 2302.5000   -62.5947    78.1036     4.0914     4.0169     3.9437   -20.4790  -999.2500  -999.2500  -999.2500  -999.2500
 2303.0000   -62.1971    78.4028     4.4850     4.0169     3.9437   -20.4790  -999.2500  -999.2500  -999.2500  -999.2500
 2303.5000   -61.7995    79.2974     4.4850     4.0169     3.9437   -20.4790  -999.2500  -999.2500  -999.2500  -999.2500
 2304.0000   -61.6003    80.1920     4.0914     4.0169     3.9504   -20.4790  -999.2500  -999.2500  -999.2500  -999.2500
 2304.5000   -61.2028    80.1935     4.0914     4.0169     3.9504   -20.4790  -999.2500  -999.2500  -999.2500  -999.2500
 2305.0000   -61.4009    78.1117     4.2445     4.0169     3.9504   -30.4591  -999.2500  -999.2500  -999.2500  -999.2500
 2305.5000   -61.5715    77.5178     4.4034     4.0169     3.9504   -40.4391  -999.2500  -999.2500  -999.2500  -999.2500
 2306.0000   -61.7957    78.1147     4.4850     4.0169     3.8015   -20.4790  -999.2500  -999.2500  -999.2500  -999.2500
 2306.5000   -61.9934    81.0933     4.2445     4.0169     3.8015   -30.4591  -999.2500  -999.2500  -999.2500  -999.2500
 2307.0000   -62.1912    83.4762     3.8719     4.0169     3.7322   -30.4591  -999.2500  -999.2500  -999.2500  -999.2500
 2307.5000   -62.1904    84.6687     3.6643     4.0169     3.6643   -30.4591  -999.2500  -999.2500  -999.2500  -999.2500
 2308.0000   -61.7927    84.0749     3.4678     4.0914     3.8015   -30.4591  -999.2500  -999.2500  -999.2500  -999.2500
 2308.5000   -61.7920    83.1834     3.8719     4.1672     3.8719   -30.4591  -999.2500  -999.2500  -999.2500  -999.2500
 2309.0000   -61.7914    83.7805     4.6529     4.1672     4.0914   -30.4591  -999.2500  -999.2500  -999.2500  -999.2500
 2309.5000   -61.7904    85.2715     5.0078     4.3232     4.2525   -30.4591  -999.2500  -999.2500  -999.2500  -999.2500
 2310.0000   -62.1867    85.2722     5.0078     4.4034     4.5682   -40.4391  -999.2500  -999.2500  -999.2500  -999.2500
 2310.5000   -62.3844    81.4038     4.9166     4.5682     4.6529   -40.4391  -999.2500  -999.2500  -999.2500  -999.2500
 2311.0000   -62.3837    78.4279     4.9671     4.6529     4.6529   -40.4391  -999.2500  -999.2500  -999.2500  -999.2500
 2311.5000   -62.1845    77.8339     5.0181     4.8271     4.7392   -40.4391  -999.2500  -999.2500  -999.2500  -999.2500
 2312.0000   -61.5882    77.8354     5.0696     4.8271     4.8271   -40.4391  -999.2500  -999.2500  -999.2500  -999.2500
 2312.5000   -61.3889    77.2414     5.1217     4.9166     4.8271   -40.4391  -999.2500  -999.2500  -999.2500  -999.2500
 2313.0000   -61.3882    75.4563     5.1743     4.9166     4.9166   -40.4391  -999.2500  -999.2500  -999.2500  -999.2500
 2313.5000   -60.4662    76.3508     5.2274     4.9166     5.0078   -30.4591  -999.2500  -999.2500  -999.2500  -999.2500
 2314.0000   -60.7911    75.1615     5.2916     4.9166     5.0078   -30.4591  -999.2500  -999.2500  -999.2500  -999.2500
 2314.5000   -60.5918    75.4608     5.2916     4.9749     5.0078   -40.4391  -999.2500  -999.2500  -999.2500  -999.2500
 2315.0000   -60.3924    76.9513     5.2916     5.0078     5.0078   -40.4391  -999.2500  -999.2500  -999.2500  -999.2500
 2315.5000   -60.3917    78.7396     5.1952     5.0078     5.0078   -40.4391  -999.2500  -999.2500  -999.2500  -999.2500
 2316.0000   -60.5894    80.8258     5.1952     5.0078     5.0078   -40.4391  -999.2500  -999.2500  -999.2500  -999.2500
 2316.5000   -60.5887    81.4231     5.1952     5.0078     4.9166   -50.4192  -999.2500  -999.2500  -999.2500  -999.2500
 2317.0000   -60.9850    82.3182     5.1952     4.8271     4.7392   -50.4192  -999.2500  -999.2500  -999.2500  -999.2500
 2317.5000   -61.3819    82.3198     5.1006     4.8271     4.5682   -50.4192  -999.2500  -999.2500  -999.2500  -999.2500
 2318.0000   -60.9836    81.7257     4.9166     4.7392     4.4850   -50.4192  -999.2500  -999.2500  -999.2500  -999.2500
 2318.5000   -61.5784    81.7273     4.7392     4.6529     4.4850   -50.4192  -999.2500  -999.2500  -999.2500  -999.2500
 2319.0000   -60.7833    83.8139     4.6529     4.5682     4.4850   -50.4192  -999.2500  -999.2500  -999.2500  -999.2500
 2319.5000   -60.7826    84.7091     4.5682     4.5682     4.4850   -40.4391  -999.2500  -999.2500  -999.2500  -999.2500
 2320.0000   -60.5832    83.8172     4.7392     4.4034     4.4034   -40.4391  -999.2500  -999.2500  -999.2500  -999.2500
 2320.5000   -60.5824    79.0530     5.1006     4.4034     4.3232   -40.4391  -999.2500  -999.2500  -999.2500  -999.2500
 2321.0000   -60.7802    77.5652     5.1952     4.3232     4.2445   -50.4192  -999.2500  -999.2500  -999.2500  -999.2500
 2321.5000   -60.5809    80.5455     5.1952     4.2445     4.1672   -50.4192  -999.2500  -999.2500  -999.2500  -999.2500
 2322.0000   -61.1757    87.9942     4.9166     4.1672     4.1672   -50.4192  -999.2500  -999.2500  -999.2500  -999.2500
 2322.5000   -61.5723    95.4428     4.4850     4.1672     4.0914   -50.4192  -999.2500  -999.2500  -999.2500  -999.2500
 2323.0000   -61.5714    97.8283     4.4034     4.1672     4.0914   -50.4192  -999.2500  -999.2500  -999.2500  -999.2500
 2323.5000   -61.5708    94.2554     4.3232     4.3232     4.1672   -50.4192  -999.2500  -999.2500  -999.2500  -999.2500
 2324.0000   -61.5699    91.8740     4.4034     4.4850     4.2445   -50.4192  -999.2500  -999.2500  -999.2500  -999.2500
 2324.5000   -61.1720    84.1300     4.4850     4.6529     4.5682   -50.4192  -999.2500  -999.2500  -999.2500  -999.2500
 2325.0000   -60.7739    79.0674     4.9166     5.1006     4.9166   -50.4192  -999.2500  -999.2500  -999.2500  -999.2500
 2325.5000   -60.7733    74.6006     5.9083     5.3897     5.1952   -50.4192  -999.2500  -999.2500  -999.2500  -999.2500
 2326.0000   -60.3751    68.6429     6.8438     5.6951     5.5914   -50.4192  -999.2500  -999.2500  -999.2500  -999.2500
