~VERSION INFORMATION
 VERS.                2.0:   CWLS LOG ASCII STANDARD - VERSION 2.0
 WRAP.                 NO:   ONE LINE PER DEPTH STEP
~WELL INFORMATION
#MNEM.UNIT      DATA TYPE    INFORMATION
#----------   ------------   ------------------------------
 STRT.F           32.0000:   START DEPTH
 STOP.F         2998.0000:   STOP DEPTH
 STEP.F            0.5000:   STEP LENGTH
 NULL.          -999.2500:   NO VALUE
 COMP.   TESORO PETROLEUM:   COMPANY
 WELL. TESORO N.P.R. #3-34:   WELL
 FLD .        TEAPOT DOME:   FIELD
 LOC .      S34 T39N R78W:   LOCATION
 CNTY.            NATRONA:   COUNTY
 STAT.            WYOMING:   STATE
 CTRY. UNITED STATES OF AMERICA:   COUNTRY
 SRVC.       SCHLUMBERGER:   SERVICE COMPANY
 DATE.        08-AUG-1969:   LOGDATE
 API .     49025100250000:   API NUMBER
~CURVE INFORMATION
#MNEM.UNIT       API CODE    CURVE DESCRIPTION
#----------   ------------   ------------------------------
 DEPT.F                  :   
 SPR .MV     05 010 01 00:   SPONTANEOUS POTENTIAL FROM RES.
 ASN .OHMM   05 040 16 00:   AMPLIFIED SHORT NORMAL 16"
 ILD .OHMM   05 120 46 00:   INDUCTION LOG DEEP
 CORR.G/C3   45 356 01 00:   DENSITY CORRECTION
 GRD .GAPI   45 310 01 00:   GAMMA RAY FROM DENSITY LOG
 CALD.IN     45 280 60 00:   CALIPER FROM DENSITY LOG
 RHOB.G/C3   45 350 01 00:   BULK DENSITY
~PARAMETER INFORMATION
#MNEM.UNIT          VALUE    DESCRIPTION
#----------   ------------   ------------------------------
 EKB .F         5185.0000:   Kelly bushing
 EGL .F         5172.0000:   Ground level
 TD  .F         2999.0000:   Total depth
 CLNT.            A2DTECH:   Client Code
 SL  . 465' FWL & 1075' FSL':   Surface Location
 DATE.        08-AUG-1969:   Date Logged [DD-MMM-YYYY]
 DD  .F              2998:   Depth driller
 DL  .F              2999:   Depth logger
 BLI .F              2998:   Bottom log interval
 TLI .F               615:   Top log interval
 CS1 .              10.75:   Casing size
 CBD1.      10.75" @ 615':   Casing driller 1
 CBL1.IN              615:   Casing logger 1
 BS1 .IN                9:   Bit size
 BSD1.F              2998:   Depth drilled with bit1
 DFT .      FRESH GEL MUD:   Type fluid in hole
 DFD .                9.6:   Density
 DFV .                 55:   Viscosity
 DFPH.                9.5:   pH
 DFL .                7.0:   Fluid loss
 MSS .           FLOWLINE:   Source of sample
 RMS .OHMM           0.75:   Rm
 MST .F                87:   Rm Meas. temp.
 RMF .OHMM           1.09:   Rmf
 MFST.F                87:   Rmf Meas. temp.
 MFSS.               MEAS:   Source Rmf.
 RMB .OHMM           0.59:   Rm. at BHT
 BHT .F               111:   BHT.
 TCS .HRS               3:   Time Circ. stopped
 MRT .F               111:   Maximum recorded temp.
 LUN .               4507:   Logging unit number
 LUL .               CSPR:   Logging unit location
 ENGI.            ED MIXA:   Recorded By
 WITN.                MAY:   Witnessed by
 ORIG.   1" 2.5" 5" PRINT:   Origin of data
 UWI .     49025100250000:   Unique Well ID
 DICO. A2D TECHNOLOGIES, INC.:   Digitizing Company
~OTHER INFORMATION
~A   DEPT      SPR        ASN        ILD       CORR        GRD       CALD       RHOB   
# ...
 2125.0000   -30.2023    10.9675     8.8996     0.0266   120.3361     9.0046     2.4948
 2125.5000   -30.1937    11.3494     9.1233     0.0180   118.8100     9.0054     2.4841
 2126.0000   -30.1851    11.5599     9.4210     0.0085   120.6479     9.0061     2.4654
 2126.5000   -30.1782    11.7822     9.6451     0.0044   116.2847     9.0069     2.4806
 2127.0000   -30.0279    11.8568     9.8688     0.0070   112.9521     9.0076     2.4893
 2127.5000   -29.8776    11.9314    10.0925     0.0131   110.8711     9.0084     2.4934
 2128.0000   -29.8707    11.9321    10.3162     0.0190   111.4858     9.0092     2.4933
 2128.5000   -29.8637    11.8501    10.3922     0.0209   107.6165     9.0099     2.4844
 2129.0000   -29.7118    11.6382    10.3944     0.0234   108.0325     9.0107     2.4945
 2129.5000   -29.7049    11.4912    10.3970     0.0203   111.1406     9.0420     2.5053
 2130.0000   -29.6980    11.2702    10.3247     0.0068   114.3932     9.0428     2.4808
 2130.5000   -29.6912    11.0495    10.1058     0.0114   115.7823     9.0436     2.4758
 2131.0000   -29.6831    10.6810     9.8125     0.0134   112.0123     9.0626     2.4895
 2131.5000   -29.6763    10.4541     9.4454     0.0166   109.0605     9.0758     2.5010
 2132.0000   -29.6694    10.1656     8.9217     0.0203   111.1520     9.0766     2.5065
 2132.5000   -29.6625     9.9447     8.5639     0.0236   112.9969     9.0468     2.5083
 2133.0000   -29.6557     9.7975     8.3445     0.0205   114.5750     9.0475     2.4930
 2133.5000   -29.5047     9.7984     8.1989     0.0151   111.9202     9.0177     2.4658
 2134.0000   -29.4973     9.7991     8.0528     0.0097   109.1258     9.0185     2.4626
 2134.5000   -29.4585     9.7999     8.0554     0.0053   108.1447     9.0192     2.4730
 2135.0000   -29.3389     9.8746     7.9837     0.0023   108.7666     9.0200     2.4663
 2135.5000   -29.1886     9.8753     7.9864     0.0144   110.3088     9.0207     2.4734
 2136.0000   -29.0377     9.8760     7.9885     0.0257   111.2336     9.0194     2.4891
 2136.5000   -29.0302     9.8027     7.9906     0.0338   113.6900     9.0178     2.4996
 2137.0000   -29.0191     9.8036     7.9927     0.0383   115.5351     9.0163     2.5007
 2137.5000   -28.8736     9.8043     7.9949     0.0398   115.4944     9.0147     2.4746
 2138.0000   -28.8662     9.8050     7.9970     0.0372   112.7057     9.0132     2.4486
 2138.5000   -28.8594     9.8059     7.9997     0.0218   110.5934     9.0117     2.4761
 2139.0000   -28.8522     9.8066     8.0018     0.0130   113.1537     9.0101     2.4820
 2139.5000   -28.8438     9.8073     8.0039     0.0063   118.6443     9.0086     2.4761
 2140.0000   -28.8379     9.8080     8.0061     0.0017   121.9578     9.0070     2.4820
 2140.5000   -28.8295     9.8087     8.0082     0.0053   123.7957     9.0055     2.4825
 2141.0000   -28.8226     9.8095     8.0103     0.0090   125.6336     9.0039     2.4774
 2141.5000   -28.8152     9.8842     8.0868     0.0137   128.0831     9.0024     2.4939
 2142.0000   -28.9535     9.9587     8.0890     0.0192   129.3094     9.0009     2.4673
 2142.5000   -28.9444     9.9595     8.2388     0.0247   132.9822     9.0007     2.4865
 2143.0000   -29.0827    10.1079     8.3886     0.0282   135.4317     9.0321     2.4939
 2143.5000   -29.2170    10.2563     8.6123     0.0312   137.2696     9.0022     2.4629
 2144.0000   -29.2263    10.5524     8.7650     0.0232   134.2145     9.0030     2.4556
 2144.5000   -29.3479    10.8487     8.9864     0.0134   131.7711     9.0037     2.4541
 2145.0000   -29.4845    10.9972     9.1362     0.0048   129.3277     9.0029     2.4617
 2145.5000   -29.6211    11.1456     9.2122    -0.0008   127.4958     9.0021     2.4708
 2146.0000   -29.7565    11.2201     9.2882     0.0053   125.6640     9.0014     2.4763
 2146.5000   -29.7490    11.2208     9.2903     0.0105   124.4438     9.0007     2.4689
 2147.0000   -29.5976    11.1477     9.2925     0.0152   122.6120     9.0000     2.4808
 2147.5000   -29.4473    11.0007     9.2207     0.0180   119.5569     8.9993     2.4946
 2148.0000   -29.2969    10.7800     9.0751     0.0190   118.8171     8.9986     2.4818
 2148.5000   -28.8594    10.7067     8.9296     0.0190   121.3979     8.9979     2.4690
 2149.0000   -28.5641    10.5599     8.7840     0.0146   123.8474     8.9971     2.4749
 2149.5000   -28.5572    10.4867     8.7128     0.0097   125.6853     8.9964     2.4616
 2150.0000   -28.6955    10.3397     8.7149     0.0043   125.0767     8.9957     2.4749
 2150.5000   -28.5430    10.3405     8.7171    -0.0008   123.8565     8.9950     2.4823
 2151.0000   -28.3928    10.3413     8.7936     0.0068   123.2477     8.9943     2.4705
 2151.5000   -28.3859    10.4159     8.7957     0.0103   123.2510     8.9936     2.4809
 2152.0000   -28.5227    10.4166     8.5850     0.0122   123.2540     8.9928     2.4774
 2152.5000   -28.8012    10.4613     8.6641     0.0146   123.2570     8.9921     2.4904
 2153.0000   -29.0831    10.5636     8.7421     0.0186   120.8136     8.9914     2.4825
 2153.5000   -29.3616    10.6660     8.8940     0.0236   118.9818     8.9907     2.4722
 2154.0000   -29.6417    10.7138     8.8982     0.0236   115.3151     8.9900     2.4849
 2154.5000   -29.7785    10.7144     8.7546     0.0200   109.8136     8.9893     2.4841
 2155.0000   -29.7700    10.7150     8.5383     0.0139   110.4282     9.0199     2.4603
 2155.5000   -29.7632    10.7155     8.2471     0.0068   112.2661     9.0512     2.4543
 2156.0000   -29.7548    10.6422     8.1034     0.0008   114.1040     9.0826     2.4913
 2156.5000   -29.3176    10.6429     8.0338     0.0070   115.9419     9.1139     2.5090
 2157.0000   -29.1673    10.4958     8.1129     0.0150   115.3333     9.1147     2.5120
 2157.5000   -29.1606    10.2009     8.2648     0.0216   107.3529     9.1154     2.4987
 2158.0000   -29.1720    10.0537     8.4906     0.0262   101.8478     9.1129     2.5120
 2158.5000   -29.4323    10.4237     8.9439     0.0296    98.8287     9.1076     2.5268
 2159.0000   -29.7125    11.2367     9.3862     0.0266    99.4963     9.1022     2.5150
 2159.5000   -29.9926    11.8281     9.6858     0.0436   101.2814     9.0969     2.4767
 2160.0000   -30.2728    12.4196    10.1331     0.0616   102.5893     9.0915     2.4782
 2160.5000   -30.4095    12.7894    10.5805     0.0647   105.0522     9.0862     2.4856
 2161.0000   -30.4011    13.0854    10.9550     0.0422   107.5162     9.0808     2.4590
 2161.5000   -30.5389    13.3814    11.1807     0.0129   110.6535     9.0755     2.4354
 2162.0000   -30.5308    13.5298    11.3326     0.0129   114.3480     9.0701     2.4207
 2162.5000   -30.5237    13.6781    11.4106     0.0098   121.9442     9.0647     2.4355
 2163.0000   -30.5158    13.8263    11.3410     0.0050   128.3822     9.0594     2.4351
 2163.5000   -30.5093    13.9746    11.3462    -0.0002   130.7543     9.0540     2.4178
 2164.0000   -30.5011    13.9752    11.3504    -0.0084   133.3090     9.0487     2.4298
 2164.5000   -30.3514    14.0497    11.4284    -0.0017   133.7276     9.0433     2.4341
 2165.0000   -30.2001    14.1241    11.5075     0.0040   131.7838     9.0380     2.4267
 2165.5000   -30.1933    14.1985    11.5855     0.0058   133.9592     9.0326     2.4446
 2166.0000   -30.1865    14.4207    11.7374     0.0036   140.4645     9.0272     2.4430
 2166.5000   -30.1781    14.7168    11.8154     0.0023   137.6209     9.0219     2.4400
 2167.0000   -30.3148    15.1605    12.0422     0.0092   132.7590     9.0165     2.4090
 2167.5000   -30.3080    15.5303    12.3418     0.0149   125.2039     9.0112     2.4252
 2168.0000   -30.5882    15.8332    12.5676     0.0192   119.3635     9.0058     2.4163
 2168.5000   -30.7249    16.1963    12.9410     0.0215   113.8214     9.0005     2.3927
 2169.0000   -30.7164    16.3445    13.2496     0.0190   109.1211     8.9951     2.3691
 2169.5000   -30.8548    16.3451    13.7629     0.0142   106.9293     8.9897     2.4045
 2170.0000   -30.7029    16.3456    14.2102     0.0074   103.2411     8.9844     2.4147
