~VERSION INFORMATION
 VERS.                2.0:   CWLS LOG ASCII STANDARD - VERSION 2.0
 WRAP.                 NO:   ONE LINE PER DEPTH STEP
~WELL INFORMATION
#MNEM.UNIT      DATA TYPE    INFORMATION
#----------   ------------   ------------------------------
 STRT.F            3.5000:   START DEPTH
 STOP.F         5648.0000:   STOP DEPTH
 STEP.F            0.5000:   STEP LENGTH
 NULL.          -999.2500:   NO VALUE
 COMP.       FLUOR DANIEL:   COMPANY
 WELL.   FLUOR "X" #46-10:   WELL
 FLD .          N.P.R. #3:   FIELD
 LOC .      S10 T38N R78W:   LOCATION
 CNTY.            NATRONA:   COUNTY
 STAT.            WYOMING:   STATE
 CTRY. UNITED STATES OF AMERICA:   COUNTRY
 SRVC.      WESTERN ATLAS:   SERVICE COMPANY
 DATE.        25-MAR-1996:   LOGDATE
 API .     49025227700000:   API NUMBER
~CURVE INFORMATION
#MNEM.UNIT       API CODE    CURVE DESCRIPTION
#----------   ------------   ------------------------------
 DEPT.F                  :   
 CALD.IN     45 280 60 00:   CALIPER FROM DENSITY LOG
 ZDEN.G/C3   45 350 01 00:   BULK DENSITY
 ZCOR.G/C3   45 356 01 00:   DENSITY CORRECTION
 TEND.LBS    45 635 01 00:   TENSION FORM DENSITY LOG
 GRD .GAPI   45 310 01 00:   GAMMA RAY FROM DENSITY LOG
 CNC .DEC    42 890 01 00:   NEUTRON POROSITY LIMESTONE
 SPR .MV     07 010 01 00:   SPONTANEOUS POTENTIAL
 RD  .OHMM   07 220 10 00:   RESISTIVITY DEEP
 RS  .OHMM   07 220 09 00:   RESISTIVITY SHALLOW
~PARAMETER INFORMATION
#MNEM.UNIT          VALUE    DESCRIPTION
#----------   ------------   ------------------------------
 EKB .F         5216.0000:   Kelly bushing
 EGL .F         5206.0000:   Ground level
 EDF .F         5215.0000:   Drilling floor
 TD  .F         5650.0000:   Total depth
 CLNT.            A2DTECH:   Client Code
 SL  . 1493' FSL & 2330' FWL:   Surface Location
 PD  .                 GL:   Permanent Datum
 EPD .F              5206:   Elevation Permanent Datum
 LMF .                 KB:   Log Measured From
 DMF .                 KB:   Drilling Measured From
 DAPD.F                10:   Feet Above Permanent Datum
 DATE.        25-MAR-1996:   Date Logged [DD-MMM-YYYY]
 DD  .F              5650:   Depth driller
 DL  .F              5648:   Depth logger
 BLI .F              5636:   Bottom log interval
 TLI .F                 0:   Top log interval
 CS1 .IN            9.625:   Casing size
 CBD1.      9.625" @ 498':   Casing driller 1
 CBL1.F               496:   Casing logger 1
 BS1 .IN             8.75:   Bit size
 BSD1.F              5650:   Depth drilled with bit1
 DFT .           CHEM GEL:   Type fluid in hole
 DFD .                9.6:   Density
 DFV .                 54:   Viscosity
 DFPH.                9.5:   pH
 DFL .                8.4:   Fluid loss
 MSS .           FLOWLINE:   Source of sample
 RMS .OHMM          0.635:   Rm
 MST .F                68:   Rm Meas. temp.
 RMF .OHMM          0.483:   Rmf
 MFST.F                68:   Rmf Meas. temp.
 MFSS.               MEAS:   Source Rmf.
 RMC .OHMM          0.789:   Rmc
 MCST.F                68:   Rmc Meas. temp.
 MCSS.               MEAS:   Source Rmc.
 RMB .OHMM           0.26:   Rm. at BHT
 BHT .F               166:   BHT.
 TCS .HRS               6:   Time Circ. stopped
 MRT .F               166:   Maximum recorded temp.
 LUN .            HL-6530:   Logging unit number
 LUL .             CASPER:   Logging unit location
 ENGI.        VERN RAUTIO:   Recorded By
 WITN. LORRAINE LAFRENIERE:   Witnessed by
 ORIG.           5" PRINT:   Origin of data
 UWI .     49025227700000:   Unique Well ID
 DICO. A2D TECHNOLOGIES, INC.:   Digitizing Company
~OTHER INFORMATION
~A  DEPTH     CALD       ZDEN       ZCOR       TEND        GRD        CNC        SPR         RD         RS
# ...
 4237.5000     9.7481     2.5644     0.1781   -15.9363    92.8642     0.2899   -80.2970     7.5386     6.8370
 4238.0000     9.7484     2.5546     0.1766    -5.9761    90.7793     0.2938   -79.6887     7.5373     6.9323
 4238.5000     9.7487     2.5456     0.1766    -5.9761    87.5081     0.3004   -79.6838     7.3815     6.8845
 4239.0000     9.7491     2.5396     0.1735   -25.8964    86.0263     0.3068   -79.9806     7.1296     6.8370
 4239.5000     9.7192     2.5332     0.1691   -35.8566    86.6466     0.3076   -80.2761     6.8860     6.7881
 4240.0000     9.7195     2.5268     0.1661   -11.3297    88.5482     0.3088   -80.2712     6.8377     6.6502
 4240.5000     9.7047     2.5246     0.1661     3.9841    89.6891     0.3130   -80.8746     6.8368     6.4685
 4241.0000     9.6899     2.5238     0.1693    15.2191    88.5076     0.3207   -81.7684     6.9312     6.3795
 4241.5000     9.6902     2.5263     0.1767    -5.9761    89.4332     0.3248   -81.3110     6.9301     6.3795
 4242.0000     9.7056     2.5374     0.1797   -12.3174    92.6016     0.3242   -80.8536     6.9292     6.6502
 4242.5000     9.7059     2.5404     0.1722    -9.8606    96.3844     0.3269   -80.5458     6.8329     6.8370
 4243.0000     9.6911     2.5337     0.1476     0.5578    92.8005     0.3344   -80.2392     6.7381     6.7429
 4243.5000     9.6914     2.5146     0.1527    23.9044    91.0185     0.3437   -80.2343     6.6446     6.7429
 4244.0000     9.6909     2.4810     0.1662    -5.9761    89.8370     0.3524   -79.9276     6.5978     6.5587
 4244.5000     9.6317     2.4675     0.1798    23.9044    92.8646     0.3641   -79.9216     6.5969     6.2918
 4245.0000     9.5415     2.4665     0.1860    23.9044    94.0856     0.3763   -79.6150     6.5506     6.2053
 4245.5000     9.4513     2.4753     0.1888    23.9044    94.7059     0.3798   -79.6101     6.6869     6.2065
 4246.0000     9.2791     2.4826     0.1648    -5.9761    95.3311     0.3776   -79.1515     6.9215     6.2918
 4246.5000     9.1200     2.4856     0.1103   -25.8964    99.5551     0.3722   -78.9957     7.3145     6.2918
 4247.0000     9.1204     2.4924     0.0759   -35.8566   105.5808     0.3643   -78.6892     7.7296     6.4248
 4247.5000     9.1357     2.5147     0.0594   -15.8118   108.6136     0.3439   -78.3813     8.6335     6.7898
 4248.0000     9.1512     2.5941     0.0475    23.2570   111.3309     0.3000   -78.0748     9.7100     8.5331
 4248.5000     9.1515     2.6272     0.0385    53.7849   102.6419     0.1884   -77.9190    13.8172    11.4234
 4249.0000     9.1366     2.6348     0.0386    33.8645    84.9439     0.1382   -77.7518    19.7987    18.6619
 4249.5000     9.1370     2.6338     0.0371    23.9044    65.7047     0.1036   -77.3047    29.5724    27.8863
 4250.0000     9.1524     2.6099     0.0327     8.4261    46.1538     0.0892   -77.1489    42.9651    30.9388
 4250.5000     9.1527     2.5806     0.0252    -3.1178    31.6883     0.0868   -76.8423    40.0861    29.2714
 4251.0000     9.1530     2.5588     0.0208   -15.9363    30.1885     0.0886   -76.5345    35.3788    25.8409
 4251.5000     9.1533     2.5359     0.0329   -25.8964    30.5043     0.0925   -76.0771    28.1579    22.3435
 4252.0000     9.1536     2.5091     0.0480   -39.1932    31.1469     0.1000   -75.6197    22.8764    17.6561
 4252.5000     9.1539     2.4813     0.0495   -35.8566    32.3396     0.1048   -75.0103    19.9057    13.8558
 4253.0000     9.1542     2.4617     0.0479   -45.8167    32.0465     0.1090   -74.7037    17.2206    11.5727
 4253.5000     9.1393     2.4534     0.0406   -35.8566    31.4570     0.1135   -74.3971    15.8463    10.3589
 4254.0000     9.1548     2.4482     0.0347   -41.2849    30.5636     0.1186   -73.9340    14.5741     9.6273
 4254.5000     9.1242     2.4444     0.0392   -45.8167    30.2732     0.1231   -73.4811    13.0514     8.8951
 4255.0000     9.1250     2.4354     0.0423   -65.7371    30.5890     0.1267   -73.1745    12.0933     8.1858
 4255.5000     9.1409     2.4279     0.0424   -65.7371    31.5078     0.1312   -72.8679    11.5789     7.7446
 4256.0000     9.1416     2.4226     0.0379   -60.6574    32.7260     0.1393   -72.1077    11.0261     7.4294
 4256.5000     9.1574     2.4134     0.0335   -45.8167    31.5278     0.1471   -71.6502    10.4343     7.0777
 4257.0000     9.1582     2.3993     0.0305   -25.8964    33.0503     0.1589   -71.3437    10.1468     6.8845
 4257.5000     9.1740     2.3828     0.0336    -5.9761    33.0315     0.1658   -70.8690     9.8627     6.6502
 4258.0000     9.1747     2.3775     0.0412    11.6733    31.5674     0.1700   -70.4276     9.3328     6.2918
 4258.5000     9.1755     2.3790     0.0472    -5.9761    30.6737     0.1718   -70.2719     8.9509     6.0333
 4259.0000     9.1611     2.3858     0.0473   -25.6383    30.3831     0.1727   -69.8145     9.0733     5.8708
 4259.5000     9.1620     2.3934     0.0413   -25.9251    30.3975     0.1724   -69.5067     9.4554     5.9527
 4260.0000     9.1627     2.3964     0.0369   -26.1571    31.3137     0.1706   -69.2001     9.6506     6.1199
 4260.5000     9.1627     2.3844     0.0339   -35.8566    32.8333     0.1678   -69.1952     9.5816     6.2918
 4261.0000     9.1608     2.3776     0.0340   -25.8964    33.7496     0.1668   -69.1891     9.0632     6.0357
 4261.5000     9.1590     2.3753     0.0356   -15.9363    33.7637     0.1720   -69.1841     8.8132     5.7901
 4262.0000     9.1572     2.3799     0.0371     3.9841    33.7750     0.1753   -69.3301     8.6895     5.7104
 4262.5000     9.1553     2.3889     0.0387    13.9442    34.6913     0.1765   -69.6393     8.8083     5.8337
 4263.0000     9.1535     2.3927     0.0403    13.9442    35.9411     0.1759   -69.9223     8.9907     5.9941
 4263.5000     9.1517     2.3935     0.0433    13.9442    36.2222     0.1744   -70.3699     9.0508     6.1199
 4264.0000     9.1498     2.3927     0.0404     1.9256    35.0268     0.1729   -70.3650     8.8009     6.1624
 4264.5000     9.1480     2.3890     0.0344    -5.9761    35.0409     0.1714   -70.0572     8.7986     6.2053
 4265.0000     9.1462     2.3798     0.0345   -15.9363    35.9600     0.1684   -69.7506     8.7356     6.1199
 4265.5000     9.1443     2.3770     0.0346   -15.9363    36.5746     0.1624   -69.7457     8.6731     6.0357
 4266.0000     9.1425     2.3785     0.0346   -15.9363    37.7926     0.1585   -69.7395     8.6703     6.0357
 4266.5000     9.1271     2.3860     0.0332   -25.8964    39.0168     0.1645   -69.7346     8.7894     6.0357
 4267.0000     9.1280     2.3937     0.0317   -14.9744    39.9268     0.1690   -69.4284     8.9090     6.1199
 4267.5000     9.1440     2.4026     0.0303    -7.2705    38.1309     0.1705   -69.4231     9.1566     6.2053
 4268.0000     9.1447     2.4102     0.0303     1.5775    37.2373     0.1708   -69.4170     9.4112     6.2918
 4268.5000     9.1454     2.4140     0.0319     3.9841    36.6452     0.1701   -69.2613     9.8069     6.5587
 4269.0000     9.1461     2.4268     0.0485    13.9442    36.9610     0.1563   -69.1055    10.2200     6.8370
 4269.5000     9.1468     2.4735     0.0591     3.9841    39.9889     0.1452   -69.2514    11.1020     7.4810
 4270.0000     9.1477     2.5014     0.0591    13.6952    44.8267     0.1292   -69.0945    15.6864     9.9374
 4270.5000     9.1484     2.5345     0.0502    26.3612    53.2873     0.1176   -69.0895    18.7735    13.6652
 4271.0000     9.1491     2.5473     0.0232    37.8929    60.8401     0.1055   -69.0845    31.1041    16.8206
 4271.5000     9.1498     2.5549     0.0127    49.4245    65.3763     0.0997   -69.2293    38.0064    23.7803
 4272.0000     9.1507     2.5617     0.0083    60.9562    65.6892     0.0937   -69.3765    44.2416    28.4717
 4272.5000     9.1514     2.5760     0.0113    51.6396    65.7033     0.0904   -69.6720    45.4714    29.8859
 4273.0000     9.1369     2.5805     0.0114    35.8741    65.7146     0.0907   -69.6658    46.0931    30.5133
 4273.5000     9.1378     2.5805     0.0195    23.0601    66.9326     0.0943   -70.2642    44.2070    30.9388
