~VERSION INFORMATION
 VERS.                2.0:   CWLS LOG ASCII STANDARD - VERSION 2.0
 WRAP.                 NO:   ONE LINE PER DEPTH STEP
~WELL INFORMATION
#MNEM.UNIT      DATA TYPE    INFORMATION
#----------   ------------   ------------------------------
 STRT.F          705.5000:   START DEPTH
 STOP.F         3212.0000:   STOP DEPTH
 STEP.F            0.5000:   STEP LENGTH
 NULL.          -999.2500:   NO VALUE
 COMP.    FENIX & SCISSON:   COMPANY
 WELL. FENIX 41 "AX" #1-15:   WELL
 FLD .             NPR #3:   FIELD
 LOC .      S15 T38N R78W:   LOCATION
 CNTY.            NATRONA:   COUNTY
 STAT.            WYOMING:   STATE
 CTRY. UNITED STATES OF AMERICA:   COUNTRY
 SRVC.              WELEX:   SERVICE COMPANY
 DATE.        18-NOV-1980:   LOGDATE
 API .     49025108530000:   API NUMBER
~CURVE INFORMATION
#MNEM.UNIT       API CODE    CURVE DESCRIPTION
#----------   ------------   ------------------------------
 DEPT.F                  :   
 SPR .MV     07 010 01 00:   SPONTANEOUS POTENTIAL
 ILD .OHMM   07 120 46 00:   INDUCTION LOG DEEP RESISTIVITY
 ILM .OHMM   07 120 44 00:   INDUCTION LOG MEDIUM RESISTIVITY
 SGRD.OHMM   07 220 05 00:   SHORT GUARD RESISTIVITY
 GRD .GAPI   45 310 01 00:   GAMMA RAY FROM DENSITY LOG
 CALD.IN     45 280 60 00:   CALIPER FROM DENSITY LOG
 RHOB.G/C3   45 350 01 00:   BULK DENSITY
 NPHI.DEC    42 890 03 00:   NEUTRON POROSITY SANDSTONE
~PARAMETER INFORMATION
#MNEM.UNIT          VALUE    DESCRIPTION
#----------   ------------   ------------------------------
 EKB .F         5252.0000:   Kelly bushing
 EGL .F         5242.0000:   Ground level
 EDF .F            0.0000:   Drilling floor
 TD  .F         3214.0000:   Total depth
 CLNT.            A2DTECH:   Client Code
 SL  . 2150' FWL & 550' FNL:   Surface Location
 PD  .                 GL:   Permanent Datum
 EPD .F              5242:   Elevation Permanent Datum
 LMF .                 KB:   Log Measured From
 DMF .                 KB:   Drilling Measured From
 DATE.        18-NOV-1980:   Date Logged [DD-MMM-YYYY]
 DD  .F              3210:   Depth driller
 DL  .F              3214:   Depth logger
 BLI .F              3212:   Bottom log interval
 TLI .F               734:   Top log interval
 CS1 .IN            8.625:   Casing size
 CBD1.      8.625" @ 709':   Casing driller 1
 CBL1.F               734:   Casing logger 1
 BS1 .IN            7.875:   Bit size
 BSD1.F              3210:   Depth drilled with bit1
 DFT .          FRESH MUD:   Type fluid in hole
 DFD .                8.8:   Density
 DFV .                 45:   Viscosity
 DFPH.               10.5:   pH
 DFL .                 12:   Fluid loss
 MSS .           FLOWLINE:   Source of sample
 RMS .OHMM           1.25:   Rm
 MST .F                70:   Rm Meas. temp.
 RMF .OHMM           1.25:   Rmf
 MFST.F                70:   Rmf Meas. temp.
 MFSS.               MEAS:   Source Rmf.
 RMB .OHMM           0.78:   Rm. at BHT
 BHT .F               112:   BHT.
 TCS .HRS               7:   Time Circ. stopped
 MRT .F               112:   Maximum recorded temp.
 LUN .               1892:   Logging unit number
 LUL .             CASPER:   Logging unit location
 ENGI.               REIN:   Recorded By
 WITN.              SCOTT:   Witnessed by
 ORIG.      2.5" 5" PRINT:   Origin of data
 UWI .     49025108530000:   Unique Well ID
 DICO. A2D TECHNOLOGIES, INC.:   Digitizing Company
 DAPD.                 10:   Feet Above Permanent Datum
~OTHER INFORMATION
~A   DEPT      SPR        ILD        ILM       SGRD         GRD      CALD       RHOB       NPHI   
# ...
 2042.0000   -36.3768     7.7258     8.5399    10.2288    98.2155     9.1365     2.4767     0.2853
 2042.5000   -36.3825     7.5673     8.4137     9.5344   100.1833     9.0617     2.5245     0.2863
 2043.0000   -36.3882     7.4616     8.3076     8.8277    99.9387     8.9718     2.5639     0.2860
 2043.5000   -36.0998     7.4596     8.3053     8.0478    99.2522     8.9411     2.5190     0.2848
 2044.0000   -36.1059     7.3558     8.3030     8.0629    98.5691     8.9397     2.5363     0.2830
 2044.5000   -36.1682     7.3538     8.4163     8.6151    98.3245     8.9383     2.5529     0.2802
 2045.0000   -36.4118     7.3518     8.4136     9.4828    98.9669     8.9366     2.5665     0.2793
 2045.5000   -36.4176     7.3499     8.4654    10.1550   100.0477     8.9352     2.5755     0.2784
 2046.0000   -36.4235     7.3479     8.6441     9.3457    99.3646     8.9192     2.5176     0.2762
 2046.5000   -36.4294     7.3459     8.8322     8.7205    99.1200     8.9178     2.5353     0.2737
 2047.0000   -36.4353     7.3439     8.8809     8.3643   100.4251     8.9161     2.5531     0.2775
 2047.5000   -36.4412     7.3419     9.1263     8.4848   102.6105     8.9000     2.5629     0.2810
 2048.0000   -36.4482     7.3398     9.1238     9.6346   103.6981     8.8986     2.5749     0.2851
 2048.5000   -36.4539     7.4397     9.1214    10.5781   104.1196     8.8969     2.5832     0.2833
 2049.0000   -36.4596     7.5407     9.2457    10.6994   104.0925     8.8955     2.5671     0.2805
 2049.5000   -36.1712     7.5382     9.3715    10.6945   103.6269     8.8942     2.5442     0.2805
 2050.0000   -36.1769     7.5361     9.3689    10.6415   103.3856     8.9075     2.4962     0.2851
 2050.5000   -35.8885     7.6384     9.3663    10.3955   106.9587     8.9060     2.5295     0.2863
 2051.0000   -35.8943     7.7420     9.3637    10.1846   106.0535     8.9194     2.5454     0.2838
 2051.5000   -35.9000     7.8466     9.3381    10.1048   103.7793     8.9177     2.5602     0.2813
 2052.0000   -35.9059     7.9534     9.2304    10.2661   104.6787     8.9163     2.5444     0.2785
 2052.5000   -35.9118     7.9510     9.2279    10.6673   103.7735     8.9295     2.5572     0.2829
 2053.0000   -35.9176     7.9489     9.2253    11.4229   100.0007     8.9279     2.5669     0.2855
 2053.5000   -35.9235     7.9468     9.1698    11.4541    98.4331     8.9265     2.5729     0.2890
 2054.0000   -35.9294     7.9446     9.0940    10.9520    99.5083     8.9251     2.5690     0.2892
 2054.5000   -35.9353     7.9425     9.0915    10.6502   100.3735     8.9087     2.5628     0.2884
 2055.0000   -35.9412     7.9403     9.0885    10.3568   100.5662     8.9073     2.5604     0.2935
 2055.5000   -35.9471     7.8297     9.0861    10.5005   100.9783     8.9210     2.5740     0.2923
 2056.0000   -35.9529     7.8276     9.0836    11.2689   101.8378     8.9192     2.5890     0.2885
 2056.5000   -35.9600     7.7932     9.0812    11.8713   102.7031     8.9176     2.6019     0.2967
 2057.0000   -35.9647     7.7165     9.0788    11.6684   103.7775     8.9015     2.6101     0.2955
 2057.5000   -35.9706     7.7143     9.0763    11.4503   104.6314     8.9001     2.5796     0.2912
 2058.0000   -35.9765     7.7122     9.0739    10.7134   105.2760     8.8984     2.5430     0.2854
 2058.5000   -35.9829     7.7101     9.0715     9.7737   104.8064     8.8970     2.5209     0.2824
 2059.0000   -35.9882     7.7076     9.0689    10.4591   103.4600     8.8956     2.5314     0.2809
 2059.5000   -35.9943     7.6003     9.0665    11.0660   101.6668     8.9090     2.5609     0.2806
 2060.0000   -36.0000     7.4946     9.0639    11.5142   100.5411     8.9219     2.5676     0.2844
 2060.5000   -36.0067     7.4926     9.0615    11.8309    99.8565     8.9205     2.5667     0.2870
 2061.0000   -36.0118     7.4906     9.0590    11.8262    99.8297     8.9192     2.5565     0.2895
 2061.5000   -36.0176     7.4886     9.0565    11.8563   102.8991     8.9178     2.5376     0.2924
 2062.0000   -36.0235     7.3844     9.0540    11.4958   100.6648     8.9161     2.5292     0.2943
 2062.5000   -36.0294     7.2816     9.0515    11.0262   100.2065     8.9294     2.5481     0.2912
 2063.0000   -36.0353     7.2796     8.9797    10.5759   101.0640     8.9280     2.5605     0.2878
 2063.5000   -36.0412     7.1782     8.8000    10.4962   102.7965     8.9266     2.5737     0.2889
 2064.0000   -36.0471     7.0782     8.7976    10.4229   103.6561     8.9398     2.5599     0.2910
 2064.5000   -36.0529     7.0763     8.7953    10.5632   104.2951     8.9383     2.5461     0.2898
 2065.0000   -36.0588     7.0744     8.7929    10.8537   104.9412     8.9515     2.5357     0.2873
 2065.5000   -36.0657     7.0724     8.7905    10.9998   105.7936     8.9501     2.5230     0.2849
 2066.0000   -36.0714     7.0705     8.6679    11.1478   106.2119     8.9484     2.5685     0.2843
 2066.5000   -36.0765     7.0685     8.5469    11.1424   106.6303     8.9620     2.5502     0.2849
 2067.0000   -36.0829     7.0662     8.5398    11.1378   106.6015     8.9603     2.5257     0.2856
 2067.5000   -36.0886     7.1621     8.4252    11.1332   106.1321     8.9586     2.5302     0.2888
 2068.0000   -36.0943     7.2596     8.4044    10.9756   104.1240     8.9723     2.5483     0.2863
 2068.5000   -36.1000     7.2574     8.3053    10.9712   103.8864     8.9705     2.5649     0.2863
 2069.0000   -36.1059     7.2554     8.3030    10.9668   104.5196     8.9838     2.5709     0.2876
 2069.5000   -36.1118     7.2535     8.3007    10.9624   102.9470     8.9678     2.5297     0.2905
 2070.0000   -36.1176     7.2516     8.2984    10.8082   101.1595     8.9811     2.5129     0.2877
 2070.5000   -36.1235     7.2496     8.1825    10.8039   102.0190     8.9794     2.5174     0.2859
 2071.0000   -36.1294     7.2476     8.1802    10.6519   103.0992     8.9633     2.5636     0.2872
 2071.5000   -36.1353     7.2456     8.0660    10.5019   102.8501     8.9616     2.5673     0.2897
 2072.0000   -36.1412     7.2225     8.0634    10.4976   102.8273     8.9602     2.5474     0.2872
 2072.5000   -36.1471     7.0452     8.0612    10.3498   103.9074     8.9649     2.5550     0.2866
 2073.0000   -36.1529     7.0433     8.0591    10.3106   105.2382     8.9721     2.5760     0.2876
 2073.5000   -36.1588     7.0414     8.0569    10.1998   105.8471     8.9704     2.5843     0.2864
 2074.0000   -36.1658     7.0394     8.0548    10.3377   106.0449     8.9690     2.5751     0.2839
 2074.5000   -36.1715     7.0375     8.0526    10.3952   106.2370     8.9530     2.5588     0.2833
 2075.0000   -36.1772     7.0356     8.0505    10.5442   106.4291     8.9222     2.5482     0.2834
 2075.5000   -36.1829     7.0333     8.0482    10.7595   106.8475     8.9205     2.5527     0.2825
 2076.0000   -36.1886     7.0314     8.0460    10.7543   107.4864     8.9191     2.5587     0.2809
 2076.5000   -36.1943     7.1268     8.0438    10.8997   107.6846     8.9177     2.5632     0.2791
 2077.0000   -36.2000     7.2237     8.1535    10.8946   105.6704     8.9160     2.5668     0.2769
 2077.5000   -36.2059     7.2216     8.1849    10.7414   104.1035     8.9146     2.5690     0.2691
 2078.0000   -36.2118     7.3196     8.2623    10.7371   102.0954     8.9133     2.5704     0.2626
 2078.5000   -36.2176     7.3177     8.2596    10.7328   100.3079     8.9119     2.5702     0.2736
 2079.0000   -36.2235     7.4170     8.2573    10.7284   101.1617     8.9249     2.5686     0.2799
 2079.5000   -36.2294     7.4149     8.3696    10.7240   102.6830     8.9236     2.5601     0.2862
 2080.0000   -36.2353     7.4129     8.4835    10.5538   103.1071     8.9371     2.5479     0.2803
 2080.5000   -36.2412     7.4108     8.4808    10.4241   101.5345     8.9501     2.5181     0.2825
 2081.0000   -36.2471     7.4088     8.4785    10.4198    99.7413     8.9484     2.5165     0.2804
 2081.5000   -36.2529     7.4067     8.4762    10.0436    99.0567     8.9470     2.5346     0.2757
 2082.0000   -36.0922     7.4047     8.4740     9.8013    99.8500     8.9456     2.5520     0.2792
