~VERSION INFORMATION
 VERS.                2.0:   CWLS LOG ASCII STANDARD - VERSION 2.0
 WRAP.                 NO:   ONE LINE PER DEPTH STEP
~WELL INFORMATION
#MNEM.UNIT      DATA TYPE    INFORMATION
#----------   ------------   ------------------------------
 STRT.F           30.0000:   START DEPTH
 STOP.F         3240.0000:   STOP DEPTH
 STEP.F            0.5000:   STEP LENGTH
 NULL.          -999.2500:   NO VALUE
 COMP. LAWRENCE-ALLISON ASSOCIATES WES:   COMPANY
 WELL. LAWRENCE "AX" #87AX28:   WELL
 FLD .   TEAPOT N.P.R. #3:   FIELD
 LOC .      S28 T39N R78W:   LOCATION
 CNTY.            NATRONA:   COUNTY
 STAT.            WYOMING:   STATE
 CTRY. UNITED STATES OF AMERICA:   COUNTRY
 SRVC.       SCHLUMBERGER:   SERVICE COMPANY
 DATE.        28-MAY-1982:   LOGDATE
 API .     49025108860000:   API NUMBER
~CURVE INFORMATION
#MNEM.UNIT       API CODE    CURVE DESCRIPTION
#----------   ------------   ------------------------------
 DEPT.F                  :   
 TENR.LBS    07 635 01 00:   TENSION FROM RESISTIVITY
 GRR .GAPI   07 310 01 00:   GAMMA RAY FROM RESISTIVITY
 SPR .MV     07 010 01 00:   SPONTANEOUS POTENTIAL FROM RES.
 ILD .OHMM   07 120 46 00:   DEEP INDUCTION RESISTIVITY
 ILM .OHMM   07 120 44 00:   INDUCTION LOG MEDIUM RESISTIVITY
 SFL .OHMM   07 220 01 00:   SHALLOW FOCUSED LOG RESISITIVITY
 TEND.LBS    45 635 01 00:   TENSION FORM DENSITY LOG
 NPHI.DEC    42 890 03 00:   NEUTRON POROSITY SANDSTONE
 CALD.IN     45 280 60 00:   CALIPER FROM DENSITY LOG
 CORR.G/C3   45 356 01 00:   DENSITY CORRECTION
 RHOB.G/C3   45 350 01 00:   BULK DENSITY
~PARAMETER INFORMATION
#MNEM.UNIT          VALUE    DESCRIPTION
#----------   ------------   ------------------------------
 EKB .F         5070.0000:   Kelly bushing
 EGL .F         5060.0000:   Ground level
 TD  .F         3220.0000:   Total depth
 CLNT.            A2DTECH:   Client Code
 SL  . 1341' FSL & 162' FEL:   Surface Location
 PD  .                 GL:   Permanent Datum
 EPD .F              5060:   Elevation Permanent Datum
 LMF .                 KB:   Log Measured From
 DMF .                 KB:   Drilling Measured From
 DAPD.F                10:   Feet Above Permanent Datum
 DATE.        28-MAY-1982:   Date Logged [DD-MMM-YYYY]
 DD  .F              3220:   Depth driller
 DL  .F              3215:   Depth logger
 BLI .F              3212:   Bottom log interval
 TLI .F               489:   Top log interval
 CS1 .IN            9.625:   Casing size
 CBD1.      9.625" @ 461':   Casing driller 1
 CBL1.F               489:   Casing logger 1
 BS1 .IN            9.750:   Bit size
 BSD1.F              3220:   Depth drilled with bit1
 DFT .          POLY./KCL:   Type fluid in hole
 DFD .                8.8:   Density
 DFV .                 44:   Viscosity
 DFPH.                7.0:   pH
 DFL .                8.0:   Fluid loss
 MSS .           MUD TANK:   Source of sample
 RMS .OHMM          0.778:   Rm
 MST .F                65:   Rm Meas. temp.
 RMF .OHMM          0.710:   Rmf
 MFST.F                67:   Rmf Meas. temp.
 MFSS.               MEAS:   Source Rmf.
 RMB .OHMM          0.447:   Rm. at BHT
 BHT .F               118:   BHT.
 TCS .HRS            2000:   Time Circ. stopped
 TLAB.HRS            2430:   Time logger at bottom
 MRT .F               118:   Maximum recorded temp.
 LUN .               8043:   Logging unit number
 LUL .               CSPR:   Logging unit location
 ENGI.             DENNIS:   Recorded By
 WITN.             STRONG:   Witnessed by
 ORIG.           5" PRINT:   Origin of data
 UWI .     49025108860000:   Unique Well ID
 DICO. A2D TECHNOLOGIES, INC.:   Digitizing Company
~OTHER INFORMATION
~A   DEPT     TENR         GRR       SPR        ILD        ILM        SFL       TEND       NPHI       CALD       CORR       RHOB   
# ...
  670.5000   634.3714   103.4385   -37.5605     7.6772     7.1951     8.0071   831.3580    -0.0248    11.0333    -0.0088     2.4754
  671.0000   634.8053   102.2914   -37.5550     7.4672     7.0533     7.7315   831.5148    -0.0322    11.0636    -0.0127     2.4708
  671.5000   635.2392   101.3751   -37.5505     7.2618     6.9578     7.4124   831.6715    -0.0325    11.0938    -0.0141     2.4771
  672.0000   635.6731   100.2280   -37.5460     7.0620     6.8148     7.2003   831.8282    -0.0167    11.1242    -0.0117     2.4981
  672.5000   636.1070    99.5423   -37.3884     6.9169     6.6274     6.9119   831.9849    -0.0075    11.1697    -0.0101     2.5075
  673.0000   636.5409    98.6262   -37.3838     6.7267     6.3993     6.6740   832.1417    -0.0109    11.2000    -0.0116     2.4951
  673.5000   636.9748   100.3500   -37.0731     6.5416     6.1352     6.2632   832.2984    -0.0159    11.2150    -0.0138     2.4819
  674.0000   637.4087   105.9786   -36.7623     6.4071     6.0512     6.1335   832.4551    -0.0067    11.2453    -0.0096     2.4758
  674.5000   637.8426   109.7251   -36.4515     6.3204     5.9701     6.1380   832.6118     0.0046    11.2603    -0.0020     2.4782
  675.0000   638.2765   108.8088   -36.4470     6.3246     5.9315     6.1856   832.7686     0.0119    11.2753     0.0035     2.4821
  675.5000   638.7104   104.4310   -36.4425     6.3293     5.8931     6.1451   832.9253     0.0155    11.2749     0.0083     2.4853
  676.0000   639.1443   102.8224   -36.2848     6.2436     5.8549     6.1489   833.0820     0.0191    11.2899     0.0052     2.4877
  676.5000   639.5782   104.6753   -36.1272     6.2475     5.8169     6.1526   833.2387     0.0230    11.2921     0.0021     2.4893
  677.0000   640.0121   108.3744   -36.1225     6.1629     5.7391     6.1124   833.3954     0.0151    11.3046    -0.0001     2.4891
  677.5000   640.4460   109.9966   -36.2713     6.1220     5.6605     6.0726   833.5522     0.0083    11.3042    -0.0016     2.4754
  678.0000   640.8799   107.4649   -36.1125     6.0399     5.4666     5.9911   833.7089     0.0046    11.3040    -0.0054     2.4654
  678.5000   641.3138   105.8563   -36.2623     5.8739     5.2784     5.7439   833.8656     0.0050    11.3189    -0.0046     2.4685
  679.0000   641.7477   107.2726   -36.2566     5.6638     5.0968     5.4289   834.0223     0.0076    11.3187     0.0010     2.4748
  679.5000   642.1816   110.5638   -36.2521     5.3999     5.0277     5.3165   834.1791     0.0078    11.3183     0.0081     2.4842
  680.0000   642.6155   111.8783   -36.2476     5.3640     4.9952     5.0616   834.3358     0.0051    11.3180     0.0175     2.4921
  680.5000   643.0494   111.4235   -36.0900     5.4066     5.0342     4.8527   834.4925     0.0035    11.3177     0.0238     2.4936
  681.0000   643.4833   111.4303   -35.9323     5.4487     5.0741     5.1104   834.6492     0.0068    11.3328     0.0277     2.4843
  681.5000   643.9172   110.7448   -35.6216     5.5304     5.0773     5.4457   834.8060     0.0228    11.3171     0.0301     2.4735
  682.0000   644.3511   105.4438   -35.3108     5.6534     5.1534     5.6465   834.9627     0.0483    11.3168     0.0216     2.4596
  682.5000   644.7850   103.3737   -35.0000     5.7793     5.1935     5.8131   835.1194     0.0513    11.3165     0.0123     2.4534
  683.0000   645.2189   103.1480   -34.6891     5.9516     5.2714     5.9422   835.2761     0.0458    11.3162     0.0039     2.4552
  683.5000   645.6528   106.1565   -34.3573     6.0892     5.3887     6.0310   835.4329     0.0409    11.3159    -0.0015     2.4667
  684.0000   646.0867   107.3171   -34.2196     6.2189     5.4306     6.1211   835.5896     0.0411    11.3156    -0.0054     2.4730
  684.5000   646.5206   106.6316   -33.9088     6.2673     5.5515     6.1247   835.7463     0.0408    11.3306    -0.0053     2.4762
  685.0000   646.9545   101.2536   -33.5981     6.2712     5.5550     6.1721   835.9030     0.0277    11.3303    -0.0029     2.4786
  685.5000   647.3884    98.3022   -33.5936     6.2751     5.6787     6.2200   836.0598     0.0065    11.3299    -0.0013     2.4802
  686.0000   647.8223    98.3459   -33.7422     6.2334     5.7237     6.2245   836.2165     0.0101    11.3296    -0.0012     2.4834
  686.5000   648.2562   100.4296   -33.7377     6.2383     5.7273     6.2282   836.3732     0.0195    11.3293    -0.0011     2.4865
  687.0000   648.6901   104.3595   -33.7332     6.2422     5.7309     6.2318   836.5299     0.0351    11.3290    -0.0010     2.4904
  687.5000   649.1240   106.9047   -33.5755     6.2461     5.6929     6.2355   836.6866     0.0571    11.3134     0.0006     2.4928
  688.0000   649.5579   109.4499   -32.9585     6.2957     5.6973     6.2534   836.8434     0.0659    11.3131     0.0014     2.4890
  688.5000   649.9918   111.9952   -32.3414     6.2996     5.7417     6.3324   837.0001     0.0636    11.3128     0.0031     2.4890
  689.0000   650.4257   112.6926   -31.8775     6.3940     5.7453     6.3815   837.1568     0.0438    11.3125     0.0031     2.4891
  689.5000   650.8596   109.9318   -31.5579     6.4438     5.8731     6.4309   837.3135     0.0294    11.3122     0.0017     2.4853
  690.0000   651.2935   108.5540   -31.4089     6.4939     5.9189     6.5271   837.4703     0.0242    11.3119    -0.0006     2.4752
  690.5000   651.7274   107.6331   -31.2503     6.5913     5.9693     6.6255   837.6270     0.0370    11.3116    -0.0029     2.4667
  691.0000   652.1613   107.4137   -31.4000     6.6901     6.0123     6.7245   837.7838     0.0452    11.3113    -0.0036     2.4637
  691.5000   652.5952   108.1144   -31.7007     6.7430     5.9733     6.8250   837.9404     0.0473    11.3109    -0.0011     2.4676
  692.0000   653.0291   109.7366   -31.6962     6.8434     5.9771     6.8779   838.0972     0.0411    11.3107     0.0028     2.4731
  692.5000   653.4630   110.8972   -31.9991     6.8976     5.9808     6.7364   838.2539     0.0329    11.3104     0.0013     2.4669
  693.0000   653.8969   112.7502   -32.4528     6.8042     5.9846     6.5511   838.4106     0.0246    11.3101    -0.0018     2.4623
  693.5000   654.3308   114.3723   -33.2140     6.5700     5.9883     6.3708   838.5673     0.0086    11.3098    -0.0056     2.4608
  694.0000   654.7647   113.6868   -33.9752     6.3893     5.9495     6.1515   838.7241    -0.0009    11.3095    -0.0086     2.4671
  694.5000   655.1986   112.3089   -33.6644     6.3018     5.9532     6.1114   838.8808     0.0110    11.3092    -0.0093     2.4718
  695.0000   655.6325   111.3910   -33.3536     6.2173     5.8309     6.1159   839.0375     0.0226    11.3088    -0.0069     2.4734
  695.5000   656.0664   112.3225   -33.0429     6.1332     5.7931     6.1633   839.1942     0.0181    11.3085    -0.0053     2.4719
  696.0000   656.5003   113.9447   -33.0383     6.0935     5.7976     6.1669   839.3510     0.0057    11.3082    -0.0037     2.4720
  696.5000   656.9342   115.3500   -33.1870     6.0982     5.8013     6.2147   839.5077     0.0032    11.3079    -0.0036     2.4720
  697.0000   657.3681   115.2416   -33.3356     6.1020     5.7628     6.2183   839.6644     0.0121    11.3076    -0.0035     2.4721
  697.5000   657.8020   109.3513   -33.3300     6.1495     5.6856     6.1769   839.8212     0.0148    11.3073    -0.0018     2.4721
  698.0000   658.2359   105.4350   -33.1723     6.1533     5.6479     6.1815   839.9778     0.0147    11.3070     0.0021     2.4730
  698.5000   658.6698   104.2879   -32.8615     6.2012     5.6523     6.1851   840.1346     0.0138    11.3221     0.0045     2.4738
  699.0000   659.1037   104.9870   -32.3976     6.2051     5.6559     6.1889   840.2913     0.0084    11.3217     0.0014     2.4746
  699.5000   659.5376   105.6861   -32.0868     6.1649     5.6594     6.1933   840.4481    -0.0104    11.3214     0.0007     2.4755
  700.0000   653.0506   104.0775   -31.6229     6.1411     5.6629     6.2355   840.6047    -0.0199    11.3211     0.0070     2.4802
  700.5000   620.2947   102.9304   -31.4653     6.1895     5.6272     6.1946   840.7615    -0.0108    11.3207     0.0125     2.4958
