~VERSION INFORMATION
 VERS.                2.0:   CWLS LOG ASCII STANDARD - VERSION 2.0
 WRAP.                 NO:   ONE LINE PER DEPTH STEP
~WELL INFORMATION
#MNEM.UNIT      DATA TYPE    INFORMATION
#----------   ------------   ------------------------------
 STRT.F          261.0000:   START DEPTH
 STOP.F         2875.0000:   STOP DEPTH
 STEP.F            0.5000:   STEP LENGTH
 NULL.          -999.2500:   NO VALUE
 COMP.   LAWRENCE ALLISON:   COMPANY
 WELL. LAWRENCE ALLISON "X" #85-20:   WELL
 FLD .          N.P.R. #3:   FIELD
 LOC .      S20 T39N R78W:   LOCATION
 CNTY.            NATRONA:   COUNTY
 STAT.            WYOMING:   STATE
 CTRY. UNITED STATES OF AMERICA:   COUNTRY
 SRVC.      DRESSER ATLAS:   SERVICE COMPANY
 DATE.        23-JUL-1986:   LOGDATE
 API .     49025111030000:   API NUMBER
~CURVE INFORMATION
#MNEM.UNIT       API CODE    CURVE DESCRIPTION
#----------   ------------   ------------------------------
 DEPT.F                  :   
 CORR.G/C3   45 356 01 00:   DENSITY CORRECTION
 RHOB.G/C3   45 350 01 00:   BULK DENSITY
 CNC .DEC    42 890 03 00:   NEUTRON POROSITY SANDSTONE
 GRR .GAPI   07 310 01 00:   GAMMA RAY FROM RESISTIVITY
 CALR.IN     07 280 01 00:   CALIPER FROM RESISTIVITY
 SPR .MV     07 010 01 00:   SPONTANEOUS POTENTIAL
 TENR.LBS    07 635 01 00:   TENSION FROM RESISTIVITY
 RILD.OHMM   07 120 46 00:   DEEP INDUCTION RESISTIVITY
 RILM.OHMM   07 120 44 00:   INDUCTION LOG MEDIUM RESISTIVITY
 RFOC.OHMM   07 220 04 00:   RESISTIVITY FOCUSED LOG RES.
~PARAMETER INFORMATION
#MNEM.UNIT          VALUE    DESCRIPTION
#----------   ------------   ------------------------------
 EKB .F         5007.0000:   Kelly bushing
 EGL .F         4995.0000:   Ground level
 EDF .F            0.0000:   Drilling floor
 EPD .F         4995.0000:   Permanent datum
 TD  .F         2874.0000:   Total depth
 CLNT.            A2DTECH:   Client Code
 SL  . 307' FEL & 2237' FSL:   Surface Location
 DATE.        23-JUL-1986:   Date Logged [DD-MMM-YYYY]
 DD  .F              2870:   Depth driller
 DL  .F              2874:   Depth logger
 BLI .F              2872:   Bottom log interval
 TLI .F              2205:   Top log interval
 CS1 .              8.625:   Casing size
 CBD1.      8.625" @ 261':   Casing driller 1
 CBL1.IN              261:   Casing logger 1
 BS1 .IN            7.875:   Bit size
 BSD1.F              2870:   Depth drilled with bit1
 DFT .            KCL-GEL:   Type fluid in hole
 DFD .                9.0:   Density
 DFV .                 37:   Viscosity
 MSS .           MUD TANK:   Source of sample
 RMS .OHMM          0.257:   Rm
 MST .F                89:   Rm Meas. temp.
 RMF .OHMM           0.19:   Rmf
 MFST.F                89:   Rmf Meas. temp.
 MFSS.               CALC:   Source Rmf.
 RMC .OHMM           0.32:   Rmc
 MCST.F                89:   Rmc Meas. temp.
 MCSS.               CALC:   Source Rmc.
 RMB .OHMM           0.20:   Rm. at BHT
 BHT .F               116:   BHT.
 TCS .HRS               4:   Time Circ. stopped
 MRT .F               116:   Maximum recorded temp.
 LUN .            HL 6264:   Logging unit number
 LUL .           GILLETTE:   Logging unit location
 ENGI.      P.M. FAHLSING:   Recorded By
 WITN.           JENNINGS:   Witnessed by
 ORIG.         2.5" PRINT:   Origin of data
 UWI .     49025111030000:   Unique Well ID
 DICO. A2D TECHNOLOGIES, INC.:   Digitizing Company
~OTHER INFORMATION
~A   DEPT     CORR       RHOB        CNC         GRR        CALR      SPR        TENR       RILD      RILM         RFOC 
# ...
  428.5000  -999.2500  -999.2500  -999.2500    97.9284    10.0144   -87.1428   -69.8813     8.4203     6.9516     7.9720
  429.0000  -999.2500  -999.2500  -999.2500    94.7058    10.0145   -87.4384   -69.5845     8.0789     6.7063     7.8605
  429.5000  -999.2500  -999.2500  -999.2500    98.1070    10.0147   -87.7340   -69.2878     7.7514     6.5406     7.5597
  430.0000  -999.2500  -999.2500  -999.2500   104.2137    10.0148   -87.7354   -68.9911     7.5393     6.2743     7.4356
  430.5000  -999.2500  -999.2500  -999.2500   107.1869    10.0150   -88.3251   -68.6944     7.3330     5.9735     7.3316
  431.0000  -999.2500  -999.2500  -999.2500   107.1929    10.0161   -88.9148   -68.3976     7.1456     5.8855     7.2289
  431.5000  -999.2500  -999.2500  -999.2500   107.1989    10.0450   -89.5045   -68.1008     7.0325     5.9272     7.1531
  432.0000  -999.2500  -999.2500  -999.2500   108.5579    10.0451   -89.8000   -67.7474     6.8401     6.0078     7.1248
  432.5000  -999.2500  -999.2500  -999.2500   110.7126    10.0477   -90.0956   -67.4536     6.6529     6.0070     7.0539
  433.0000  -999.2500  -999.2500  -999.2500   115.0979    10.0751   -90.3912   -67.1598     6.5597     6.0062     7.0529
  433.5000  -999.2500  -999.2500  -999.2500   118.4975    10.0752   -90.3926   -66.8660     6.4680     6.0054     7.0520
  434.0000  -999.2500  -999.2500  -999.2500   114.6824    10.0754   -90.3941   -81.4090     6.3774     5.9574     7.0510
  434.5000  -999.2500  -999.2500  -999.2500   110.7941    10.0711   -90.3955   -81.1152     6.3107     5.8420     7.0500
  435.0000  -999.2500  -999.2500  -999.2500   112.2256    10.0460   -90.3725   -95.6581     6.2239     5.6839     7.0491
  435.5000  -999.2500  -999.2500  -999.2500   114.8665    10.0407   -90.1043   -95.3644     6.1132     5.5302     7.0481
  436.0000  -999.2500  -999.2500  -999.2500   117.8634    10.0166   -90.0667   -95.0706     6.0277     5.1648     7.0050
  436.5000  -999.2500  -999.2500  -999.2500   116.8487    10.0167   -89.7666  -109.6438     5.8627     4.8898     6.7708
  437.0000  -999.2500  -999.2500  -999.2500   111.4658    10.0466   -89.2263  -109.3197     5.7023     4.6930     6.3598
  437.5000  -999.2500  -999.2500  -999.2500   108.7538    10.0764   -88.9337  -109.0260     5.6225     4.5660     5.9780
  438.0000  -999.2500  -999.2500  -999.2500   107.2523    10.1062   -88.6410  -108.7322     5.4980     4.5654     5.6162
  438.5000  -999.2500  -999.2500  -999.2500   104.2196    10.1444   -88.5667  -108.4384     5.4224     4.6275     5.4703
  439.0000  -999.2500  -999.2500  -999.2500   103.2761    10.1955   -88.3498  -108.1446     5.4212     4.7549     5.7446
  439.5000  -999.2500  -999.2500  -999.2500   107.7328    10.1863   -88.3514  -107.8508     5.4535     4.8197     6.1194
  440.0000  -999.2500  -999.2500  -999.2500   110.2682    10.1266   -88.3529  -107.5570     5.6046     5.0203     6.6643
  440.5000  -999.2500  -999.2500  -999.2500   107.3068    10.0372   -88.7540  -107.2632     5.7599     5.0887     6.7554
  441.0000  -999.2500  -999.2500  -999.2500   103.7518     9.9775   -89.4636   -92.1326     5.9196     5.2286     6.8475
  441.5000  -999.2500  -999.2500  -999.2500   102.9614     9.9292   -90.2422   -91.8388     6.0403     5.2998     6.8464
  442.0000  -999.2500  -999.2500  -999.2500   106.7309     9.9590   -90.9667   -91.5430     6.1221     5.4456     6.7524
  442.5000  -999.2500  -999.2500  -999.2500   113.8585     9.9888   -91.4363   -91.2463     6.1208     5.5955     6.7515
  443.0000  -999.2500  -999.2500  -999.2500   116.2382    10.0019   -91.7392   -90.9496     6.2036     5.7496     6.7506
  443.5000  -999.2500  -999.2500  -999.2500   115.0571    10.0188   -92.0421   -90.6528     6.2023     5.7488     6.6579
  444.0000  -999.2500  -999.2500  -999.2500   114.4688    10.0486   -92.3451   -90.3561     6.2008     5.6701     6.6570
  444.5000  -999.2500  -999.2500  -999.2500   116.2558    10.0488   -92.4838   -90.0593     6.1996     5.5925     6.6561
  445.0000  -999.2500  -999.2500  -999.2500   112.7009    10.0490   -92.4853   -89.7626     6.1983     5.5160     6.6552
  445.5000  -999.2500  -999.2500  -999.2500   101.4308    10.0491   -92.4871   -89.4659     6.1971     5.4405     6.6543
  446.0000  -999.2500  -999.2500  -999.2500   100.1543    10.0493   -92.4885   -89.1691     6.1958     5.4397     6.6534
  446.5000  -999.2500  -999.2500  -999.2500   107.3773    10.0494   -92.1958   -88.8724     6.1106     5.5137     6.6525
  447.0000  -999.2500  -999.2500  -999.2500   110.3505    10.0496   -91.9032   -88.5757     6.1094     5.5887     6.7433
  447.5000  -999.2500  -999.2500  -999.2500   110.3564    10.0497   -91.6105   -88.2789     6.0253     5.6705     6.7424
  448.0000  -999.2500  -999.2500  -999.2500   109.7688    10.0499   -91.3176   -87.9822     6.1069     5.7491     6.8344
  448.5000  -999.2500  -999.2500  -999.2500   110.3681    10.0500   -90.7311   -87.6854     6.1895     5.8998     6.8334
  449.0000  -999.2500  -999.2500  -999.2500   112.7479    10.0502   -90.4384   -87.3887     6.3595     5.9801     6.8325
  449.5000  -999.2500  -999.2500  -999.2500   112.1603    10.0503   -89.8516   -87.0920     6.6239     6.0737     6.7387
  450.0000  -999.2500  -999.2500  -999.2500   109.1988    10.0505   -89.8531   -86.7952     6.7136     6.1439     6.7378
  450.5000  -999.2500  -999.2500  -999.2500   105.0269    10.0506   -90.4428   -86.4985     6.8044     6.1429     6.8316
  451.0000  -999.2500  -999.2500  -999.2500   101.4244    10.0508   -91.3266   -86.2018     6.7108     6.1421     7.0261
  451.5000  -999.2500  -999.2500  -999.2500    96.6117    10.0509   -91.9162   -85.9050     6.6185     6.0399     7.5205
  452.0000  -999.2500  -999.2500  -999.2500    93.7447    10.0511   -92.2118   -85.6083     6.5275     5.9557     7.7218
  452.5000  -999.2500  -999.2500  -999.2500    93.9758    10.0512   -91.9192   -85.3115     6.4377     5.7931     7.5021
  453.0000  -999.2500  -999.2500  -999.2500    99.1928    10.0514   -91.9206   -85.0148     6.3492     5.6562     7.1857
  453.5000  -999.2500  -999.2500  -999.2500   108.4683    10.0812   -91.6279   -84.7181     6.3479     5.5788     6.7983
  454.0000  -999.2500  -999.2500  -999.2500   114.1840    10.1407   -91.6294   -84.4213     6.3466     5.5781     6.5345
  454.5000  -999.2500  -999.2500  -999.2500   113.6794    10.1705   -91.6308   -84.1246     6.3453     5.5773     6.3710
  455.0000  -999.2500  -999.2500  -999.2500   109.2581    10.2003   -91.6324   -83.8279     6.3440     5.5766     6.3701
  455.5000  -999.2500  -999.2500  -999.2500   104.5157    10.2005   -91.9280   -83.5891     6.3427     5.5758     6.4572
  456.0000  -999.2500  -999.2500  -999.2500   107.4657    10.2046   -91.9294   -83.5039     6.3414     5.6517     6.5452
  456.5000  -999.2500  -999.2500  -999.2500   114.3564    10.2008   -91.8843   -83.4187     6.3401     5.6508     6.5443
  457.0000  -999.2500  -999.2500  -999.2500   120.4630    10.2009   -91.6381   -83.3335     6.3388     5.6500     6.5434
  457.5000  -999.2500  -999.2500  -999.2500   124.1237    10.2010   -91.5784   -83.2483     6.3375     5.6493     6.5424
  458.0000  -999.2500  -999.2500  -999.2500   119.0268    10.2012   -91.3469   -83.1632     6.3362     5.6485     6.5416
  458.5000  -999.2500  -999.2500  -999.2500   116.2196    10.2013   -91.0542   -83.0780     6.3349     5.6477     6.5105
  459.0000  -999.2500  -999.2500  -999.2500   115.0267    10.2015   -91.1392   -82.9928     6.3196     5.6470     6.4509
  459.5000  -999.2500  -999.2500  -999.2500   113.1572    10.2016   -91.3514   -82.9076     6.2465     5.6462     6.3623
  460.0000  -999.2500  -999.2500  -999.2500   106.9436    10.2018   -91.6470   -82.8224     6.2453     5.6454     6.3268
  460.5000  -999.2500  -999.2500  -999.2500   104.8249    10.2019   -91.6486   -82.7373     6.1593     5.6447     6.2741
  461.0000  -999.2500  -999.2500  -999.2500   107.1453    10.2021   -91.5372   -82.6521     6.1581     5.6439     6.2733
  461.5000  -999.2500  -999.2500  -999.2500   112.7537    10.2022   -91.2373   -82.5669     6.1568     5.6431     6.2724
