~VERSION INFORMATION
 VERS.                2.0:   CWLS LOG ASCII STANDARD - VERSION 2.0
 WRAP.                 NO:   ONE LINE PER DEPTH STEP
~WELL INFORMATION
#MNEM.UNIT      DATA TYPE    INFORMATION
#----------   ------------   ------------------------------
 STRT.F            0.5000:   START DEPTH
 STOP.F         5758.0000:   STOP DEPTH
 STEP.F            0.5000:   STEP LENGTH
 NULL.          -999.2500:   NO VALUE
 COMP.   LAWRENCE ALLISON:   COMPANY
 WELL. LAWRENCE "X" #51-10:   WELL
 FLD .          NPR NO. 3:   FIELD
 LOC .      S10 T38N R78W:   LOCATION
 CNTY.            NATRONA:   COUNTY
 STAT.            WYOMING:   STATE
 CTRY. UNITED STATES OF AMERICA:   COUNTRY
 SRVC.      DRESSER ATLAS:   SERVICE COMPANY
 DATE.        31-JAN-1987:   LOGDATE
 API .     49025111230000:   API NUMBER
~CURVE INFORMATION
#MNEM.UNIT       API CODE    CURVE DESCRIPTION
#----------   ------------   ------------------------------
 DEPT.F                  :   
 GRR .GAPI   07 310 01 00:   GAMMA RAY FROM RESISTIVITY
 TENR.LBS    07 635 01 00:   TENSION FROM RESISTIVITY
 SPR .MV     07 010 01 00:   SPONTANEOUS POTENTIAL
 RD  .OHMM   11 220 10 00:   RESISTIVITY DEEP
 RS  .OHMM   11 220 09 00:   RESISTIVITY SHALLOW
 CNC .DEC    42 890 03 00:   NEUTRON POROSITY
 CALD.IN     45 280 60 00:   CALIPER FROM DENSITY LOG
 DEN .G/C3   45 350 01 00:   BULK DENSITY
 CORR.G/C3   45 356 01 00:   DENSITY CORRECTION
 TEND.LBS    45 635 01 00:   TENSION FORM DENSITY LOG
~PARAMETER INFORMATION
#MNEM.UNIT          VALUE    DESCRIPTION
#----------   ------------   ------------------------------
 EKB .F         5227.0000:   Kelly bushing
 EGL .F         5215.0000:   Ground level
 EDF .F            0.0000:   Drilling floor
 TD  .F         5750.0000:   Total depth
 CLNT.            A2DTECH:   Client Code
 SL  . 2356' FEL & 170' FNL:   Surface Location
 PD  .                 GL:   Permanent Datum
 EPD .F              5215:   Elevation Permanent Datum
 LMF .                 KB:   Log Measured From
 DMF .                 KB:   Drilling Measured From
 DAPD.F                12:   Feet Above Permanent Datum
 DATE.        31-JAN-1987:   Date Logged [DD-MMM-YYYY]
 DD  .F              5747:   Depth driller
 DL  .F              5750:   Depth logger
 BLI .F              5748:   Bottom log interval
 CS1 .IN            9.625:   Casing size
 CBD1.      9.625" @ 511':   Casing driller 1
 CBL1.F               512:   Casing logger 1
 BS1 .IN             8.75:   Bit size
 BSD1.F              5747:   Depth drilled with bit1
 DFT .        KCL POLYMER:   Type fluid in hole
 DFD .                9.3:   Density
 DFV .                 43:   Viscosity
 DFPH.                9.5:   pH
 MSS .           FLOWLINE:   Source of sample
 RMS .OHMM          0.247:   Rm
 MST .F                74:   Rm Meas. temp.
 RMF .OHMM          0.162:   Rmf
 MFST.F                74:   Rmf Meas. temp.
 MFSS.               MEAS:   Source Rmf.
 RMC .OHMM          0.310:   Rmc
 MCST.F                74:   Rmc Meas. temp.
 MCSS.               CALC:   Source Rmc.
 RMB .OHMM          0.109:   Rm. at BHT
 BHT .F               167:   BHT.
 TCS .HRS               5:   Time Circ. stopped
 MRT .F               167:   Maximum recorded temp.
 LUN .            HL-6274:   Logging unit number
 LUL .           GILLETTE:   Logging unit location
 ORIG.        2" 5" PRINT:   Origin of data
 UWI .     49025111230000:   Unique Well ID
 DICO. A2D TECHNOLOGIES, INC.:   Digitizing Company
 ENGI.             RAUTIO:   Recorded By
 WITN.             STRONG:   Witnessed by
 DFL .                7.8:   Fluid loss
~OTHER INFORMATION
~A  DEPTH      GRR       TENR        SPR         RD         RS        CNC       CALD        DEN       CORR       TEND
# ...
  570.0000    99.1942  -109.2542   -53.7152    10.6795     6.8138  -999.2500  -999.2500  -999.2500  -999.2500  -999.2500
  570.5000    98.5925  -110.1424   -53.7061    10.6802     6.6227  -999.2500  -999.2500  -999.2500  -999.2500  -999.2500
  571.0000    97.3761  -111.0305   -53.6988    10.7552     6.4831  -999.2500  -999.2500  -999.2500  -999.2500  -999.2500
  571.5000    93.6785  -111.9186   -53.6342    10.7625     6.3920  -999.2500  -999.2500  -999.2500  -999.2500  -999.2500
  572.0000    94.1917  -112.8120   -53.5294    10.9068     6.4851  -999.2500  -999.2500  -999.2500  -999.2500  -999.2500
  572.5000    98.3620  -113.7134   -53.5202    11.1364     6.7219  -999.2500  -999.2500  -999.2500  -999.2500  -999.2500
  573.0000    97.2694  -114.5837   -53.3581    11.4500     6.9673  -999.2500  -999.2500  -999.2500  -999.2500  -999.2500
  573.5000    94.3724  -110.6451   -53.1960    11.6105     7.1192  -999.2500  -999.2500  -999.2500  -999.2500  -999.2500
  574.0000    91.8887  -102.3376   -52.8790    11.4517     7.0695  -999.2500  -999.2500  -999.2500  -999.2500  -999.2500
  574.5000    92.2447   -93.9979   -52.8715    11.2949     7.0707  -999.2500  -999.2500  -999.2500  -999.2500  -999.2500
  575.0000    95.0486   -85.0427   -53.0192    11.2956     7.0716  -999.2500  -999.2500  -999.2500  -999.2500  -999.2500
  575.5000    98.4718   -90.5220   -53.1667    11.2964     7.1744  -999.2500  -999.2500  -999.2500  -999.2500  -999.2500
  576.0000    99.1085   -96.7481   -53.1575    11.2973     7.0738  -999.2500  -999.2500  -999.2500  -999.2500  -999.2500
  576.5000    96.9633  -102.8924   -53.1502    11.2980     6.9741  -999.2500  -999.2500  -999.2500  -999.2500  -999.2500
  577.0000    95.7381  -102.6671   -53.2977    11.3773     6.9254  -999.2500  -999.2500  -999.2500  -999.2500  -999.2500
  577.5000    98.8560   -99.0054   -53.4451    11.5381     6.8772  -999.2500  -999.2500  -999.2500  -999.2500  -999.2500
  578.0000    97.0160   -95.3875   -53.7456    11.6632     6.9277  -999.2500  -999.2500  -999.2500  -999.2500  -999.2500
  578.5000    92.0124   -91.7662   -54.0478    11.6993     6.9287  -999.2500  -999.2500  -999.2500  -999.2500  -999.2500
  579.0000    89.3156   -88.1725   -54.0856    11.6192     6.9793  -999.2500  -999.2500  -999.2500  -999.2500  -999.2500
  579.5000    94.2867   -85.0040   -54.6524    11.4603     7.1315  -999.2500  -999.2500  -999.2500  -999.2500  -999.2500
  580.0000    97.0863   -85.3927   -54.4884    11.5409     7.2870  -999.2500  -999.2500  -999.2500  -999.2500  -999.2500
  580.5000    94.6038   -85.7319   -54.0167    11.6218     7.0829  -999.2500  -999.2500  -999.2500  -999.2500  -999.2500
  581.0000    91.5574   -86.0800   -54.0011    11.6226     6.9831  -999.2500  -999.2500  -999.2500  -999.2500  -999.2500
  581.5000    90.9514   -86.4255   -53.6906    11.7041     6.9842  -999.2500  -999.2500  -999.2500  -999.2500  -999.2500
  582.0000    93.4501   -86.7709   -53.6833    11.7863     7.0353  -999.2500  -999.2500  -999.2500  -999.2500  -999.2500
  582.5000    97.1829   -87.1164   -53.5212    11.5448     7.1377  -999.2500  -999.2500  -999.2500  -999.2500  -999.2500
  583.0000    98.4388   -87.4619   -53.3591    11.6258     7.2414  -999.2500  -999.2500  -999.2500  -999.2500  -999.2500
  583.5000    96.2936   -87.8074   -53.3499    11.7887     7.3993  -999.2500  -999.2500  -999.2500  -999.2500  -999.2500
  584.0000    94.7632   -88.1529   -53.3426    11.9539     7.6251  -999.2500  -999.2500  -999.2500  -999.2500  -999.2500
  584.5000    92.9232   -88.4984   -53.4919    11.9549     7.7812  -999.2500  -999.2500  -999.2500  -999.2500  -999.2500
  585.0000    91.0219   -88.8439   -53.6378    11.9557     7.6716  -999.2500  -999.2500  -999.2500  -999.2500  -999.2500
  585.5000    89.8623   -89.1893   -53.7850    11.8738     7.5102  -999.2500  -999.2500  -999.2500  -999.2500  -999.2500
  586.0000    96.6954   -89.5348   -53.7758    11.8747     7.3498  -999.2500  -999.2500  -999.2500  -999.2500  -999.2500
  586.5000    99.1898   -89.8803   -53.6137    11.8756     7.1969  -999.2500  -999.2500  -999.2500  -999.2500  -999.2500
  587.0000    99.8265   -90.2258   -53.4516    11.8765     7.1466  -999.2500  -999.2500  -999.2500  -999.2500  -999.2500
  587.5000    96.7525   -90.5713   -53.2895    11.7951     7.1991  -999.2500  -999.2500  -999.2500  -999.2500  -999.2500
  588.0000    94.2933   -90.9168   -53.1255    11.8780     7.3561  -999.2500  -999.2500  -999.2500  -999.2500  -999.2500
  588.5000    92.7629   -91.2623   -52.9634    11.9615     7.5706  -999.2500  -999.2500  -999.2500  -999.2500  -999.2500
  589.0000    93.7092   -91.6077   -52.9561    12.0455     7.6260  -999.2500  -999.2500  -999.2500  -999.2500  -999.2500
  589.5000    99.9231   -91.9532   -52.9487    12.2991     7.6270  -999.2500  -999.2500  -999.2500  -999.2500  -999.2500
  590.0000   101.1791   -92.2987   -52.9412    12.5581     7.5737  -999.2500  -999.2500  -999.2500  -999.2500  -999.2500
  590.5000    99.9583   -92.6442   -52.7775    12.9119     7.5750  -999.2500  -999.2500  -999.2500  -999.2500  -999.2500
  591.0000    97.4991   -92.9897   -52.6153    12.9128     7.5760  -999.2500  -999.2500  -999.2500  -999.2500  -999.2500
  591.5000    93.1270   -93.3352   -52.6080    12.9136     7.6314  -999.2500  -999.2500  -999.2500  -999.2500  -999.2500
  592.0000    90.1082   -93.6807   -52.6006    13.0042     7.6324  -999.2500  -999.2500  -999.2500  -999.2500  -999.2500
  592.5000    90.4354   -94.0261   -52.5915    12.9946     7.6882  -999.2500  -999.2500  -999.2500  -999.2500  -999.2500
  593.0000    91.6914   -94.3716   -52.4294    12.8270     7.6895  -999.2500  -999.2500  -999.2500  -999.2500  -999.2500
  593.5000    92.9504   -94.7171   -52.1125    12.8281     7.7456  -999.2500  -999.2500  -999.2500  -999.2500  -999.2500
  594.0000    93.5885   -95.0626   -51.9504    13.0078     7.8022  -999.2500  -999.2500  -999.2500  -999.2500  -999.2500
  594.5000    92.9868   -95.4081   -51.7864    13.0144     7.8593  -999.2500  -999.2500  -999.2500  -999.2500  -999.2500
  595.0000    92.0712   -95.7536   -51.3147    13.2828     7.9169  -999.2500  -999.2500  -999.2500  -999.2500  -999.2500
  595.5000    90.8548   -96.0991   -50.6882    13.3758     8.0320  -999.2500  -999.2500  -999.2500  -999.2500  -999.2500
  596.0000    89.9436   -96.4445   -50.3713    13.1018     8.1487  -999.2500  -999.2500  -999.2500  -999.2500  -999.2500
  596.5000    91.5135   -96.7900   -50.3639    12.9225     8.2677  -999.2500  -999.2500  -999.2500  -999.2500  -999.2500
  597.0000    92.7695   -97.1355   -50.8192    12.8341     8.3275  -999.2500  -999.2500  -999.2500  -999.2500  -999.2500
  597.5000    91.8582   -97.4810   -51.1233    12.7464     8.0942  -999.2500  -999.2500  -999.2500  -999.2500  -999.2500
  598.0000    89.6594   -97.8265   -51.1141    12.7474     8.0374  -999.2500  -999.2500  -999.2500  -999.2500  -999.2500
  598.5000    88.1782   -98.1720   -51.1068    12.8369     7.9247  -999.2500  -999.2500  -999.2500  -999.2500  -999.2500
  599.0000    90.3673   -98.5175   -51.2543    13.3826     7.8693  -999.2500  -999.2500  -999.2500  -999.2500  -999.2500
  599.5000    92.5521   -98.8629   -51.2451    13.4764     7.8144  -999.2500  -999.2500  -999.2500  -999.2500  -999.2500
  600.0000    92.8793   -99.2084   -51.3944    13.5710     7.9850  -999.2500  -999.2500  -999.2500  -999.2500  -999.2500
  600.5000    89.4956   -99.5539   -51.5402    13.7612     8.2766  -999.2500  -999.2500  -999.2500  -999.2500  -999.2500
  601.0000    87.9608   -99.8994   -51.5325    13.7727     8.7198  -999.2500  -999.2500  -999.2500  -999.2500  -999.2500
  601.5000    87.4494  -100.2449   -51.3688    13.7754     8.6417  -999.2500  -999.2500  -999.2500  -999.2500  -999.2500
  602.0000    88.9536  -100.5904   -51.6157    13.7816     8.3396  -999.2500  -999.2500  -999.2500  -999.2500  -999.2500
  602.5000    92.3839  -100.9359   -51.5091    13.8772     8.1057  -999.2500  -999.2500  -999.2500  -999.2500  -999.2500
  603.0000    91.4840  -101.2813   -51.3374    13.8800     8.1700  -999.2500  -999.2500  -999.2500  -999.2500  -999.2500
