~VERSION INFORMATION
 VERS.                2.0:   CWLS LOG ASCII STANDARD - VERSION 2.0
 WRAP.                 NO:   ONE LINE PER DEPTH STEP
~WELL INFORMATION
#MNEM.UNIT      DATA TYPE    INFORMATION
#----------   ------------   ------------------------------
 STRT.F            0.0000:   START DEPTH
 STOP.F         3040.0000:   STOP DEPTH
 STEP.F            0.5000:   STEP LENGTH
 NULL.          -999.2500:   NO VALUE
 COMP.    FENIX & SCISSON:   COMPANY
 WELL.  FENIX "AX" #43-28:   WELL
 FLD .             TEAPOT:   FIELD
 LOC .      S28 T39N R78W:   LOCATION
 CNTY.            NATRONA:   COUNTY
 STAT.            WYOMING:   STATE
 CTRY. UNITED STATES OF AMERICA:   COUNTRY
 SRVC.              WELEX:   SERVICE COMPANY
 DATE.        20-JUL-1980:   LOGDATE
 API .     49025108450000:   API NUMBER
~CURVE INFORMATION
#MNEM.UNIT       API CODE    CURVE DESCRIPTION
#----------   ------------   ------------------------------
 DEPT.F                  :   
 GRD .GAPI   45 310 01 00:   GAMMA RAY FROM DENSITY LOG
 CALD.IN     45 280 60 00:   CALIPER FROM DENSITY LOG
 RHOB.G/C3   45 350 01 00:   BULK DENSITY
 CORR.G/C3   45 356 01 00:   DENSITY CORRECTION
 SPR .MV     07 010 01 00:   SPONTANEOUS POTENTIAL
 ILD .OHMM   07 120 46 00:   DEEP INDUCTION RESISTIVITY
 ILM .OHMM   07 120 44 00:   INDUCTION LOG MEDIUM RESISTIVITY
 SGRD.OHMM   07 220 05 00:   SHALLOW SHORT GUARD RESISTIVITY
 NEUT.CPS    35 330 30 00:   NEUTRON
~PARAMETER INFORMATION
#MNEM.UNIT          VALUE    DESCRIPTION
#----------   ------------   ------------------------------
 EKB .F         5042.0000:   Kelly bushing
 EGL .F         5032.0000:   Ground level
 EDF .F            0.0000:   Drilling floor
 TD  .F         3038.0000:   Total depth
 DATE.        20-JUL-1980:   Date logged
 CLNT.            A2DTECH:   Client Code
 SL  . 1500' FNL & 2500' FWL:   Surface Location
 PD  .                 GL:   Permanent Datum
 EPD .F              5032:   Elevation Permanent Datum
 LMF .                 KB:   Log Measured From
 DMF .                 KB:   Drilling Measured From
 DD  .F              3000:   Depth driller
 DL  .F              3038:   Depth logger
 BLI .F              3036:   Bottom log interval
 TLI .F               432:   Top log interval
 CS1 .IN            8.625:   Casing size
 CBD1.      8.625" @ 443':   Casing driller 1
 CBL1.F               432:   Casing logger 1
 BS1 .IN            7.875:   Bit size
 BSD1.F              3000:   Depth drilled with bit1
 DFT .     WATER BASE MUD:   Type fluid in hole
 DFD .                9.3:   Density
 DFV .                 45:   Viscosity
 DFPH.                  9:   pH
 DFL .                  8:   Fluid loss
 MSS .                PIT:   Source of sample
 RMS .OHMM           0.85:   Rm
 MST .F                75:   Rm Meas. temp.
 RMF .OHMM           0.68:   Rmf
 MFST.F                75:   Rmf Meas. temp.
 RMC .OHMM           1.02:   Rmc
 MCST.F                75:   Rmc Meas. temp.
 MFSS.               MEAS:   Source Rmf.
 MCSS.               MEAS:   Source Rmc.
 RMB .OHMM           0.57:   Rm. at BHT
 BHT .F               112:   BHT.
 TCS .HRS               3:   Time Circ. stopped
 MRT .F               112:   Maximum recorded temp.
 LUN .               9865:   Logging unit number
 LUL .             CASPER:   Logging unit location
 ENGI.            TOTHILL:   Recorded By
 WITN.           DINSMORE:   Witnessed by
 ORIG.     2.5", 5" PRINT:   Origin of data
 UWI .     49025108450000:   Unique Well ID
 DICO. A2D TECHNOLOGIES, INC.:   Digitizing Company
~OTHER INFORMATION
~A    DEPT     GRD       CALD       RHOB       CORR        SPR        ILD        ILM       SGRD        NEUT  
# ...
 1131.5000    72.9570     9.0660     2.4980    -0.0120   -30.5460    10.5950    10.1720     9.7810   227.6850
 1132.0000    73.0520     9.0680     2.4950    -0.0140   -30.4720    10.7490    10.1970     9.7280   218.2850
 1132.5000    73.1460     9.0700     2.4960    -0.0130   -30.3750    10.8810    10.2100     9.6750   213.6880
 1133.0000    73.2410     9.0710     2.4980    -0.0110   -30.2950    11.0150    10.3910     9.7680   221.9150
 1133.5000    73.3350     9.0730     2.4990    -0.0080   -30.2080    11.1490    10.5500     9.9130   217.3380
 1134.0000    73.4300     9.0750     2.4990    -0.0070   -30.1210    11.2830    10.6570    10.0580   212.7900
 1134.5000    73.5230     9.0760     2.4980    -0.0120   -30.0440    11.4170    10.7450    10.2040   215.0950
 1135.0000    73.6170     9.0780     2.4970    -0.0160   -29.9410    11.5510    10.8330    10.3490   218.1070
 1135.5000    73.6020     9.0800     2.4970    -0.0150   -29.8680    11.6850    10.9200    10.5930   226.2070
 1136.0000    73.4440     9.0810     2.5020    -0.0140   -29.3940    11.8310    11.0080    10.5440   241.4840
 1136.5000    73.2870     9.0810     2.5050    -0.0130   -28.6590    11.8700    11.0960    10.3860   236.5780
 1137.0000    73.1300     9.0810     2.5060    -0.0120   -28.2940    11.9120    11.1840    10.2290   227.7200
 1137.5000    72.9720     9.0810     2.5070    -0.0110   -28.6020    11.9540    11.2710    10.0240   232.4930
 1138.0000    72.8150     9.0810     2.5120    -0.0080   -28.8240    11.9960    11.3590    10.4440   236.6070
 1138.5000    72.6580     9.0810     2.5170    -0.0050   -29.0700    12.0510    11.4030    10.9910   226.1600
 1139.0000    72.5000     9.0810     2.5240    -0.0010   -29.3380    11.9490    11.2640    10.6870   196.4540
 1139.5000    72.3400     9.0810     2.5340     0.0080   -29.4420    11.8010    11.1370    10.4100   208.6920
 1140.0000    72.2110     9.0810     2.5440     0.0150   -29.5940    11.6530    11.0100    10.2100   226.2830
 1140.5000    72.5400     9.0810     2.5480     0.0220   -29.8620    11.5050    10.8830     9.4850   219.8030
 1141.0000    72.8720     9.0810     2.5490     0.0260   -30.1120    11.3580    10.7550    10.5930   208.6100
 1141.5000    73.2010     9.0810     2.5490     0.0300   -30.3440    11.2100    10.6280    10.3040   213.6740
 1142.0000    73.5290     9.0810     2.5460     0.0300   -30.6110    11.0620    10.5010     9.9730   222.4150
 1142.5000    73.8660     9.0810     2.5420     0.0280   -30.5870    10.9140    10.3740     9.6610   235.5750
 1143.0000    74.2040     9.0810     2.5370     0.0250   -30.5440    10.7660    10.2470     9.6610   222.2410
 1143.5000    74.5600     9.0810     2.5330     0.0230   -30.4890    10.6180    10.1190     9.6310   228.0990
 1144.0000    74.9140     9.0810     2.5310     0.0210   -30.4430    10.4700    10.0240     9.5970   247.0830
 1144.5000    75.2690     9.0810     2.5330     0.0240   -30.3920    10.3220    10.0040     9.5620   240.6750
 1145.0000    75.6360     9.0810     2.5340     0.0260   -30.3450    10.2100     9.9580     9.5270   221.4360
 1145.5000    75.6310     9.0810     2.5350     0.0290   -30.2920    10.2100     9.9130     9.4920   213.2960
 1146.0000    75.4200     9.0810     2.5350     0.0290   -30.2340    10.2100     9.8680     9.4570   223.2550
 1146.5000    75.2050     9.0810     2.5360     0.0290   -29.9410    10.2450     9.8230     9.4230   215.0110
 1147.0000    74.9900     9.0810     2.5380     0.0290   -29.5830    10.2880     9.7780     9.3880   224.0110
 1147.5000    74.7750     9.0810     2.5390     0.0290   -29.2270    10.3300     9.7330     9.3530   216.6790
 1148.0000    74.5590     9.0810     2.5420     0.0290   -28.8470    10.3730     9.6620     9.3120   209.9440
 1148.5000    74.3440     9.0810     2.5380     0.0290   -28.6370    10.4160     9.6890     9.3770   200.5610
 1149.0000    74.1290     9.0810     2.5320     0.0250   -28.6630    10.4580     9.7600     9.4560   201.7510
 1149.5000    73.9140     9.0810     2.5320     0.0200   -28.6600    10.5000     9.8310     9.5350   208.0520
 1150.0000    73.6990     9.0810     2.5330     0.0220   -28.6390    10.5430     9.9020     9.6140   215.5940
 1150.5000    73.4850     9.0810     2.5370     0.0250   -28.8620    10.5850     9.9730     9.6760   219.2120
 1151.0000    73.2980     9.0810     2.5410     0.0280   -29.4300    10.6280    10.0440     9.7120   223.6150
 1151.5000    73.1420     9.0810     2.5410     0.0310   -29.9590    10.6700    10.1150     9.7480   231.4510
 1152.0000    72.9850     9.0810     2.5350     0.0240   -30.5040    10.7130    10.1860     9.7840   219.1620
 1152.5000    72.8280     9.0810     2.5300     0.0170   -30.6000    10.7550    10.2560     9.8200   223.2450
 1153.0000    72.6710     9.0810     2.5240     0.0110   -30.5390    10.7900    10.3270     9.8560   226.4670
 1153.5000    72.5140     9.0810     2.5180     0.0100   -30.4860    10.8540    10.4000     9.8920   213.0600
 1154.0000    72.3570     9.0810     2.5170     0.0080   -30.4380    10.9090    10.4340     9.9280   206.5990
 1154.5000    72.2020     9.0810     2.5160     0.0070   -30.3800    10.9630    10.4940     9.9640   215.1580
 1155.0000    72.0470     9.0810     2.5170     0.0050   -30.3370    11.0180    10.5550    10.0010   223.3260
 1155.5000    71.8790     9.0810     2.5180     0.0050   -30.2770    11.0720    10.6250    10.0240   234.4230
 1156.0000    71.3440     9.0810     2.5160     0.0050   -30.2070    11.1270    10.7150    10.0240   230.8420
 1156.5000    70.8200     9.0810     2.5160     0.0060   -29.8240    11.1810    10.8050    10.1780   221.7330
 1157.0000    70.2810     9.0810     2.5200     0.0100   -29.4860    11.2360    10.8950    10.3120   213.7700
 1157.5000    70.1810     9.0810     2.5240     0.0110   -29.1260    11.2900    10.9910    10.4000   218.8470
 1158.0000    70.3770     9.0810     2.5280     0.0110   -28.7830    11.3430    10.9390    10.3130   222.7820
 1158.5000    70.5730     9.0810     2.5320     0.0110   -28.4140    11.4010    10.8840    10.2200   190.6260
 1159.0000    70.7220     9.0810     2.5360     0.0160   -28.2490    11.3840    10.8290    10.1270   193.2480
 1159.5000    70.5310     9.0810     2.5400     0.0220   -28.2640    11.3670    10.7740    10.0340   214.8690
 1160.0000    70.3150     9.0810     2.5440     0.0280   -28.2630    11.3480    10.7190     9.9410   245.1820
 1160.5000    70.0980     9.0810     2.5460     0.0270   -28.2630    11.3290    10.6640     9.8410   240.5360
 1161.0000    69.8810     9.0810     2.5440     0.0240   -28.2470    11.3090    10.6090     9.8410   211.0320
 1161.5000    69.6640     9.0810     2.5470     0.0220   -28.4610    11.2900    10.5930     9.9090   212.5000
 1162.0000    69.4460     9.0810     2.5520     0.0260   -29.1310    11.2710    10.5930    10.1290   231.6630
 1162.5000    69.2540     9.0810     2.5540     0.0290   -29.7650    11.2520    10.5930    10.3490   224.8210
 1163.0000    69.4670     9.0810     2.5550     0.0270   -30.4370    11.2330    10.5930    10.5700   213.9360
 1163.5000    69.6860     9.0810     2.5550     0.0240   -30.6160    11.2140    10.5930    10.7900   200.6050
 1164.0000    69.9030     9.0790     2.5530     0.0220   -30.5450    11.1950    10.5940    10.9910   209.2640
 1164.5000    70.1200     9.0760     2.5490     0.0190   -30.4980    11.1760    10.5850    10.4000   222.6400
 1165.0000    70.3360     9.0730     2.5450     0.0140   -30.4500    11.1570    10.5550    10.3040   233.3540
 1165.5000    70.5530     9.0700     2.5430     0.0100   -30.4010    11.1370    10.5250    10.1050   187.7310
 1166.0000    70.7720     9.0660     2.5480     0.0100   -30.3530    11.1180    10.4950     9.8410   202.2370
 1166.5000    70.9920     9.0630     2.5470     0.0120   -30.2950    11.0990    10.4650    10.0790   224.2960
 1167.0000    71.2130     9.0600     2.5450     0.0090   -30.2760    11.0800    10.4360    10.9620   220.7070
 1167.5000    71.4330     9.0570     2.5400     0.0060   -29.9930    11.0610    10.4060    11.6150   209.2560
