~VERSION INFORMATION
 VERS.                2.0:   CWLS LOG ASCII STANDARD - VERSION 2.0
 WRAP.                 NO:   ONE LINE PER DEPTH STEP
~WELL INFORMATION
#MNEM.UNIT      DATA TYPE    INFORMATION
#----------   ------------   ------------------------------
 STRT.F           50.0000:   START DEPTH
 STOP.F         5698.0000:   STOP DEPTH
 STEP.F            0.5000:   STEP LENGTH
 NULL.          -999.2500:   NO VALUE
 COMP. LAWRENCE - ALLISON:   COMPANY
 WELL. LAWRENCE TPX #57-3:   WELL
 FLD .              NPR 3:   FIELD
 LOC .       S3 T38N R78W:   LOCATION
 CNTY.            NATRONA:   COUNTY
 STAT.            WYOMING:   STATE
 CTRY. UNITED STATES OF AMERICA:   COUNTRY
 SRVC.       SCHLUMBERGER:   SERVICE COMPANY
 DATE.        09-AUG-1982:   LOGDATE
 API .     49025108900000:   API NUMBER
~CURVE INFORMATION
#MNEM.UNIT       API CODE    CURVE DESCRIPTION
#----------   ------------   ------------------------------
 DEPT.F                  :   
 TEND.LBS    45 635 01 00:   TENSION FROM DENSITY LOG
 CALD.IN     45 280 60 00:   CALIPER FROM DENSITY LOG
 NPHI.DEC    42 890 03 00:   NEUTRON POROSITY SANDSTONE
 CORR.G/C3   45 356 01 00:   DENSITY CORRECTION
 RHOB.G/C3   45 350 01 00:   BULK DENSITY
 SPR .MV     11 010 01 00:   SPONTANEOUS POTENTIAL FROM RESISTIVITY
 TENR.LBS    11 635 01 00:   TENSION FROM RESISTIVITY
 GRR .GAPI   11 310 01 00:   GAMMA RAY FROM RESISTIVITY
 LLD .OHMM   11 220 10 00:   LATEROLOG DEEP
 LLS .OHMM   11 220 09 00:   LATEROLOG LOG SHALLOW
 MSFL.OHMM   11 270 04 00:   MICRO SPHERICALLY FOCUSED
~PARAMETER INFORMATION
#MNEM.UNIT          VALUE    DESCRIPTION
#----------   ------------   ------------------------------
 EKB .F         5190.0000:   Kelly bushing
 EGL .F         5180.0000:   Ground level
 EDF .F         5189.0000:   Drilling floor
 TD  .F         5686.0000:   Total depth
 CLNT.            A2DTECH:   Client Code
 SL  . 1002' FSL & 2479' FEL:   Surface Location
 PD  .                 GL:   Permanent Datum
 EPD .F              5180:   Elevation Permanent Datum
 LMF .                 KB:   Log Measured From
 DMF .                 KB:   Drilling Measured From
 DAPD.F                10:   Feet Above Permanent Datum
 DATE.        09-AUG-1982:   Date Logged [DD-MMM-YYYY]
 DD  .F              5685:   Depth driller
 DL  .F              5686:   Depth logger
 BLI .F              5683:   Bottom log interval
 TLI .F               494:   Top log interval
 CS1 .IN            9.625:   Casing size
 CBD1.      9.625" @ 500':   Casing driller 1
 CBL1.F               494:   Casing logger 1
 BS1 .IN             8.75:   Bit size
 BSD1.F              5685:   Depth drilled with bit1
 DFT .                KCL:   Type fluid in hole
 DFD .                9.0:   Density
 DFV .                 38:   Viscosity
 DFPH.                8.5:   pH
 DFL .                9.0:   Fluid loss
 MSS .            MUDTANK:   Source of sample
 RMS .OHMM           0.27:   Rm
 MST .F                79:   Rm Meas. temp.
 RMF .OHMM           0.27:   Rmf
 MFST.F                79:   Rmf Meas. temp.
 MFSS.               MEAS:   Source Rmf.
 RMB .OHMM            .13:   Rm. at BHT
 BHT .F               164:   BHT.
 TCS .HRS            1300:   Time Circ. stopped
 MRT .F               164:   Maximum recorded temp.
 LUN .               8035:   Logging unit number
 LUL .               CSPR:   Logging unit location
 ENGI.            PERAKIS:   Recorded By
 WITN.           L. FIVAS:   Witnessed by
 ORIG.        2" 5" PRINT:   Origin of data
 UWI .     49025108900000:   Unique Well ID
 DICO. A2D TECHNIOLOGIES,INC.:   Digitizing Company
 RMC .OHMM           0.41:   Rmc
 MCST.F                79:   Rmc Meas. temp.
 MCSS.               CALC:   Source Rmc.
 TLAB.HRS            2000:   Time logger at bottom
~OTHER INFORMATION
~A  DEPTH     TEND       CALD       NPHI       CORR       RHOB        SPR       TENR        GRR        LLD        LLS       MSFL
# ...
 3252.5000  1370.5447     9.4174     0.2442     0.0214     2.5241   -76.7324  1298.9490   133.1696     8.5993     8.4819    13.5189
 3253.0000  1364.1566     9.4181     0.2414     0.0207     2.5234   -76.8263  1298.6548   125.9561     9.3587     9.2281    15.1891
 3253.5000  1357.7686     9.4189     0.2273     0.0177     2.5212   -76.9018  1298.3558   121.7591     9.6709     9.6710    14.9903
 3254.0000  1370.1907     9.4345     0.2155     0.0125     2.5197   -76.9003  1298.0056   118.7688     9.4112     9.4761    14.0975
 3254.5000  1394.1143     9.4203     0.2080     0.0036     2.5198   -76.8993  1297.7153   123.3265     8.9715     9.1584    13.2580
 3255.0000  1415.5198     9.4211     0.2097     0.0059     2.5243   -76.9542  1297.4250   126.6710     8.5523     8.7305    12.6414
 3255.5000  1388.1024     9.4218     0.2172     0.0193     2.5321   -77.0381  1297.1348   128.5073     8.4372     8.6131    12.1368
 3256.0000  1362.5502     9.4075     0.2211     0.0328     2.5467   -77.1011  1296.8446   127.6286     8.4401     8.5568    11.5724
 3256.5000  1350.5087     9.4084     0.2235     0.0335     2.5520   -77.0597  1311.5096   127.0450     8.4423     8.6182    11.7527
 3257.0000  1343.6948     9.4091     0.2247     0.0209     2.5446   -76.8823  1311.2108   128.8878     8.3296     8.3867    12.1605
 3257.5000  1336.8809     9.4098     0.2253     0.0068     2.5268   -76.7089  1310.9119   131.0257     8.2742     8.3320    12.3347
 3258.0000  1340.2861     9.4106     0.2258    -0.0021     2.5134   -76.7600  1325.5789   132.2997     8.0525     8.2204    11.5222
 3258.5000  1346.6895     9.4113     0.2257    -0.0028     2.5082   -76.8297  1325.2159   132.5930     7.7800     7.9996    11.3697
 3259.0000  1353.0286     9.4120     0.2266     0.0050     2.5083   -76.8962  1324.9259   133.2226     7.2182     7.4702    11.2225
 3259.5000  1351.2003     9.4128     0.2278     0.0151     2.5106   -76.8405  1324.6356   134.4556     6.4682     6.7402    10.1968
 3260.0000  1344.3105     9.4135     0.2344     0.0218     2.5128   -76.7765  1324.3453   135.9836     6.0401     5.9931     8.6092
 3260.5000  1337.4967     9.4143     0.2440     0.0196     2.5032   -76.7132  1309.1074   132.0948     5.8372     5.8776     8.0773
 3261.0000  1335.3413     9.4150     0.2647     0.0092     2.4988   -76.6266  1308.8171   126.0879     6.2546     6.5631     9.0876
 3261.5000  1335.3413     9.4158     0.2698     0.0026     2.4973   -76.5320  1308.5201   119.4178     7.5321     7.6365    11.8140
 3262.0000  1335.3413     9.4167     0.2559     0.0003     2.5078   -76.6097  1323.1843   116.1923     9.0116     8.9468    14.6353
 3262.5000  1331.8900     9.4174     0.2279    -0.0011     2.5175   -76.8494  1322.8215   118.9335     9.2618     9.1986    15.4738
 3263.0000  1325.5020     9.4181     0.2176    -0.0018     2.5198   -77.1897  1322.5312   125.2946     7.7487     8.5899    13.8672
 3263.5000  1319.1140     9.4339     0.2194     0.0004     2.5213   -77.4464  1322.2411   129.2424     6.7553     7.1802    11.1150
 3264.0000  1316.1625     9.4346     0.2323     0.0020     2.5281   -77.6652  1321.9508   131.3803     5.9298     6.0686     8.8129
 3264.5000  1318.4337     9.4504     0.2455     0.0065     2.5378   -77.8884  1321.6605   134.7249     5.3137     5.4620     8.0628
 3265.0000  1320.7051     9.4662     0.2615     0.0218     2.5408   -77.8185  1321.3702   139.8793     4.8943     5.2785     7.4275
 3265.5000  1322.9763     9.4821     0.2771     0.0234     2.5364   -77.7214  1321.0763   146.0199     5.0323     5.3167     7.0810
 3266.0000  1325.2477     9.4979     0.2885     0.0219     2.5320   -77.7001  1320.7772   146.5684     5.2507     5.4663     7.6442
 3266.5000  1327.5189     9.5136     0.2900     0.0190     2.5208   -77.6998  1320.4270   144.4896     5.3197     5.5055     8.3079
 3267.0000  1329.7903     9.5143     0.2893     0.0168     2.5079   -77.6996  1320.1367   139.9910     5.2125     5.3946     8.6154
 3267.5000  1332.0685     9.5151     0.2887     0.0145     2.4964   -77.6728  1319.8464   135.1907     5.1075     5.2413     8.4928
 3268.0000  1334.3230     9.5158     0.2863     0.0109     2.4942   -77.5995  1319.5562   134.0038     4.9703     4.9026     7.9322
 3268.5000  1335.3586     9.5316     0.2805     0.0080     2.4972   -77.5283  1319.2661   137.6565     4.6734     4.5781     7.3073
 3269.0000  1335.3425     9.5325     0.2796     0.0043     2.4905   -77.3804  1304.0282   140.0965     4.4245     4.3047     7.1118
 3269.5000  1335.3413     9.5332     0.2883     0.0036     2.4846   -77.1915  1303.7369   136.8107     4.2725     4.0754     6.9716
 3270.0000  1335.3413     9.5490     0.2943     0.0066     2.4817   -77.0009  1318.3953   135.0270     4.0767     3.8850     6.7396
 3270.5000  1335.3413     9.5497     0.2936     0.0112     2.4847   -76.8600  1318.0325   133.5450     3.9400     3.7291     6.3726
 3271.0000  1335.3949     9.5654     0.2945     0.0143     2.4885   -76.7755  1317.7423   133.2630     3.8079     3.6773     5.7598
 3271.5000  1332.3318     9.5511     0.2997     0.0127     2.4781   -76.7003  1317.4520   134.8042     3.7056     3.6549     5.1263
 3272.0000  1326.0005     9.5669     0.3071     0.0038     2.4677   -76.6998  1317.1617   137.8470     3.7579     3.8363     5.5715
 3272.5000  1319.5908     9.5526     0.3113    -0.0006     2.4625   -76.7001  1301.9238   140.5882     3.8903     4.0543     6.9020
 3273.0000  1315.2610     9.5535     0.3082     0.0002     2.4678   -76.6914  1301.6337   142.4245     4.0028     4.1971     7.0009
 3273.5000  1315.2610     9.5693     0.3012     0.0040     2.4708   -76.6276  1316.2930   140.3391     4.1411     4.2272     6.5397
 3274.0000  1315.2610     9.5700     0.2823     0.0055     2.4649   -76.5627  1315.9939   141.2769     4.3463     4.2868     6.2787
 3274.5000  1315.2610     9.5707     0.2814     0.0041     2.4627   -76.5067  1315.6379   141.6049     4.5932     4.4388     7.0641
 3275.0000  1315.2610     9.5714     0.2810     0.0026     2.4645   -76.6807  1315.3478   139.2179     4.9553     4.7010     7.7840
 3275.5000  1315.2610     9.5872     0.2765     0.0004     2.4740   -76.8689  1315.0575   134.4176     5.3459     5.0949     8.4598
 3276.0000  1313.8672     9.5881     0.2637    -0.0003     2.4807   -76.9003  1314.7672   130.5223     5.6109     5.3844     8.7014
 3276.5000  1307.8550     9.5736     0.2478     0.0005     2.4852   -76.9007  1314.4769   126.5872     5.8121     5.6513     8.6468
 3277.0000  1301.8427     9.5745     0.2415     0.0006     2.4965   -76.9014  1329.1344   124.5482     5.9316     5.8504     8.6520
 3277.5000  1295.8303     9.5752     0.2366    -0.0009     2.5069   -76.8922  1328.8441   124.8762     6.0153     6.0151     8.5978
 3278.0000  1295.1807     9.5609     0.2339    -0.0008     2.5100   -76.7205  1328.5502   126.7124     6.0584     6.1421     8.4282
 3278.5000  1295.1807     9.5617     0.2345    -0.0001     2.5093   -76.5391  1328.2512   126.1354     6.1439     6.2288     8.4916
 3279.0000  1295.1807     9.5626     0.2363     0.0030     2.5123   -76.6946  1342.9211   123.1450     6.2306     6.2308     8.7944
 3279.5000  1301.2174     9.5633     0.2352     0.0075     2.5280   -76.9707  1342.5582   121.0597     6.3621     6.2754     8.9834
 3280.0000  1307.5983     9.5640     0.2284     0.0113     2.5340   -77.1758  1342.2681   118.9743     6.4519     6.3640     8.9888
 3280.5000  1314.0388     9.5647     0.2265     0.0106     2.5251   -77.2773  1341.9778   127.7295     6.4985     6.4538     8.8710
 3281.0000  1315.2531     9.5655     0.2262     0.0052     2.5065   -77.0885  1341.6876   135.6247     6.4553     6.5000     8.7550
 3281.5000  1315.2610     9.5511     0.2274    -0.0005     2.5006   -76.9022  1341.3973   139.5726     6.4574     6.4572     8.6404
 3282.0000  1315.2610     9.5519     0.2298    -0.0012     2.5014   -76.7462  1341.1062   131.1524     6.4591     6.4625     8.5272
 3282.5000  1315.2610     9.5376     0.2315    -0.0004     2.5022   -76.5920  1340.8071   128.1621     6.4609     6.4168     8.4156
