~VERSION INFORMATION
 VERS.                2.0:   CWLS LOG ASCII STANDARD - VERSION 2.0
 WRAP.                 NO:   ONE LINE PER DEPTH STEP
~WELL INFORMATION
#MNEM.UNIT      DATA TYPE    INFORMATION
#----------   ------------   ------------------------------
 STRT.F          200.0000:   START DEPTH
 STOP.F         3120.0000:   STOP DEPTH
 STEP.F            0.5000:   STEP LENGTH
 NULL.          -999.2500:   NO VALUE
 COMP.    FENIX & SCISSON:   COMPANY
 WELL. FENIX NPR 3 "AX" #83-28:   WELL
 FLD .                NPR:   FIELD
 LOC .      S28 T39N R78W:   LOCATION
 CNTY.            NATRONA:   COUNTY
 STAT.            WYOMING:   STATE
 CTRY. UNITED STATES OF AMERICA:   COUNTRY
 SRVC.              WELEX:   SERVICE COMPANY
 DATE.        29-SEP-1977:   LOGDATE
 API .     49025104240000:   API NUMBER
~CURVE INFORMATION
#MNEM.UNIT       API CODE    CURVE DESCRIPTION
#----------   ------------   ------------------------------
 DEPT.F                  :   
 CALD.IN     45 280 60 00:   CALIPER FROM DENSITY LOG
 GRD .GAPI   45 310 01 00:   GAMMA RAY FROM DENSITY LOG
 RHOB.G/C3   45 350 01 00:   BULK DENSITY
 CORR.G/C3   45 356 01 00:   DENSITY CORRECTION
 SPR .MV     07 010 01 00:   SPONTANEOUS POTENTIAL
 SGRD.MV     07 220 05 00:   SHLLOW GUARD
 ILD .OHMM   07 120 46 00:   DEEP INDUCTION RESISTIVITY
 ILM .OHMM   07 120 44 00:   INDUCTION LOG MEDIUM RESISTIVITY
~PARAMETER INFORMATION
#MNEM.UNIT          VALUE    DESCRIPTION
#----------   ------------   ------------------------------
 EKB .F         5034.0000:   Kelly bushing
 EGL .F         5024.0000:   Ground level
 TD  .F         3110.0000:   Total depth
 DATE.        29-SEP-1977:   Date logged
 CLNT.            A2DTECH:   Client Code
 SL  . 1650' FNL & 330' FEL:   Surface Location
 PD  .                 GL:   Permanent Datum
 EPD .F              5024:   Elevation Permanent Datum
 LMF .                 KB:   Log Measured From
 DMF .                 KB:   Drilling Measured From
 DAPD.F                10:   Feet Above Permanent Datum
 DD  .F              3110:   Depth driller
 DL  .F              3110:   Depth logger
 BLI .F              3108:   Bottom log interval
 TLI .F               210:   Top log interval
 CS1 .IN            8.625:   Casing size
 CBD1.      8.625" @ 201':   Casing driller 1
 CBL1.F               210:   Casing logger 1
 BS1 .IN            7.875:   Bit size
 BSD1.F              3110:   Depth drilled with bit1
 DFT .          KCL/WATER:   Type fluid in hole
 DFD .                  9:   Density
 DFV .                 40:   Viscosity
 DFPH.                 11:   pH
 DFL .                6.4:   Fluid loss
 MSS .            MUD/PIT:   Source of sample
 RMS .OHMM            .56:   Rm
 MST .F                60:   Rm Meas. temp.
 RMF .OHMM            .34:   Rmf
 MFST.F                60:   Rmf Meas. temp.
 RMC .OHMM            .61:   Rmc
 MCST.F                60:   Rmc Meas. temp.
 MFSS.               MEAS:   Source Rmf.
 MCSS.               MEAS:   Source Rmc.
 RMB .OHMM            .28:   Rm. at BHT
 BHT .F               120:   BHT.
 TCS .HRS               3:   Time Circ. stopped
 MRT .F               120:   Maximum recorded temp.
 LUN .               9685:   Logging unit number
 LUL .             CASPER:   Logging unit location
 ENGI. G. BENTSEN/T. JOYNER:   Recorded By
 WITN.         PETTINGILL:   Witnessed by
 ORIG.   1" 2.5" 5" PRINT:   Origin of data
 UWI .     49025104240000:   Unique Well ID
 DICO. A2D TECHNOLOGIES, INC.:   Digitizing Company
~OTHER INFORMATION
~A   DEPT     CALD         GRD      RHOB       CORR        SPR       SGRD        ILD        ILM   
  200.0000  -999.2500    69.9236  -999.2500  -999.2500  -999.2500  -999.2500  -999.2500  -999.2500
  200.5000  -999.2500    68.8175  -999.2500  -999.2500  -999.2500  -999.2500  -999.2500  -999.2500
  201.0000  -999.2500    67.5915  -999.2500  -999.2500  -999.2500  -999.2500  -999.2500  -999.2500
  201.5000  -999.2500    67.5973  -999.2500  -999.2500  -999.2500  -999.2500  -999.2500  -999.2500
  202.0000  -999.2500    67.9966  -999.2500  -999.2500  -999.2500  -999.2500  -999.2500  -999.2500
  202.5000  -999.2500    68.1708  -999.2500  -999.2500  -999.2500  -999.2500  -999.2500  -999.2500
  203.0000  -999.2500    68.3450  -999.2500  -999.2500  -999.2500  -999.2500  -999.2500  -999.2500
  203.5000  -999.2500    68.5192  -999.2500  -999.2500  -999.2500  -999.2500  -999.2500  -999.2500
  204.0000  -999.2500    68.6934  -999.2500  -999.2500  -999.2500  -999.2500  -999.2500  -999.2500
  204.5000  -999.2500    68.8126  -999.2500  -999.2500  -999.2500  -999.2500  -999.2500  -999.2500
  205.0000  -999.2500    69.9933  -999.2500  -999.2500  -999.2500  -999.2500  -999.2500  -999.2500
  205.5000  -999.2500    70.7804  -999.2500  -999.2500    -1.1285  -999.2500  -999.2500  -999.2500
  206.0000  -999.2500    71.5706  -999.2500  -999.2500    -7.1309  -999.2500  -999.2500  -999.2500
  206.5000  -999.2500    73.1392  -999.2500  -999.2500   -12.7296  -999.2500  -999.2500  -999.2500
  207.0000  -999.2500    74.3201  -999.2500  -999.2500   -22.3281  -999.2500  -999.2500  -999.2500
  207.5000  -999.2500    74.7167  -999.2500  -999.2500   -32.1243     0.2137  -999.2500  -999.2500
  208.0000  -999.2500    76.6791  -999.2500  -999.2500   -40.1242     0.2097  -999.2500  -999.2500
  208.5000  -999.2500    77.4665  -999.2500  -999.2500   -46.3253     0.2095  -999.2500  -999.2500
  209.0000  -999.2500    78.2568  -999.2500  -999.2500   -50.9318     0.2891  -999.2500  -999.2500
  209.5000     8.3367    78.6535  -999.2500  -999.2500   -55.0007     0.6644   888.4241   835.9149
  210.0000     8.4933    80.0317     2.1819     0.1662   -59.3420     1.5270   110.9190   144.0086
  210.5000     9.0236    81.2129     2.1819     0.1702   -63.3663     3.3459    57.3933    62.5352
  211.0000     9.5539    82.3942     2.2058     0.1703   -67.3906     3.8744     7.3162    13.5511
  211.5000    10.0587    83.9633     2.2298     0.1663   -69.5624     4.2845     3.4592     4.0995
  212.0000    10.4500    86.7078     2.2537     0.1465   -71.3100     4.6080     3.2953     3.7453
  212.5000    10.7244    89.4525     2.2696     0.1425   -73.0575     4.9560     4.4403     4.0429
  213.0000    10.9203    89.8494     2.3097     0.1227   -74.8051     4.9996     4.5337     4.4561
  213.5000    11.1947    91.2187     2.3498     0.1147   -76.5527     5.2306     4.5337     4.5185
  214.0000    11.3907    88.6922     2.3951     0.1028   -78.3003     5.2750     4.5652     4.5500
  214.5000    11.6260    88.6983     2.4071     0.1029   -80.2352     5.2710     4.8593     4.5817
  215.0000    11.7047    88.7075     2.4071     0.1029   -81.0444     5.2669     4.7592     4.5817
  215.5000    11.9404    88.7136     2.4012     0.1030   -82.2581     5.1668     4.5652     4.5817
  216.0000    11.8625    89.1135     2.4012     0.1070   -83.4667     5.0229     4.3188     4.4561
  216.5000    11.8633    89.1197     2.3993     0.1070   -84.2812     4.6609     3.2499     4.3641
  217.0000    11.9030    89.1288     2.3913     0.1071   -84.4940     4.4881     3.3880     4.3039
  217.5000    11.8647    89.1349     2.3866     0.1071   -85.3085     4.6104     3.6566     4.3039
  218.0000    11.9044    89.9258     2.3834     0.1032   -85.7210     4.7360     4.5024     4.5655
  218.5000    11.9052    89.5411     2.3828     0.1032   -86.7301     5.0478     5.0307     5.0016
  219.0000    11.8667    89.1593     2.3823     0.0993   -86.9429     5.3299     5.2445     5.2327
  219.5000    11.7503    89.9472     2.3817     0.0953   -87.1610     5.5770     5.3343     5.2771
  220.0000    11.5554    91.5200     2.3815     0.0914   -87.5736     5.7820     5.4296     5.2731
  220.5000    11.4778    91.5262     2.3875     0.0755   -87.9862     6.0501     5.3920     5.2208
  221.0000    11.2049    93.0991     2.3895     0.0716   -88.9980     6.2150     5.2083     5.1689
  221.5000    10.9321    94.2780     2.4095     0.0716   -90.0125     6.2102     5.0729     5.1642
  222.0000    10.8936    94.6782     2.4135     0.0717   -90.6249     6.2046     4.8593     5.1611
  222.5000    10.8941    94.2935     2.4155     0.0717   -91.0376     6.1999     4.8257     5.1571
  223.0000    10.7970    93.5209     2.4175     0.0718   -91.2532     6.1951     4.7592     5.1524
  223.5000    10.7976    93.1361     2.4195     0.0718   -91.6659     6.1904     4.6937     5.1485
  224.0000    10.7790    92.7544     2.4235     0.0718   -90.8801     6.1848     4.5652     5.1446
  224.5000    10.7796    93.5425     2.4256     0.0719   -90.8933     5.9564     4.4403     5.1406
  225.0000    10.7804    93.1608     2.4216     0.0679   -89.1165     5.9519     4.2299     4.9959
  225.5000    10.7809    91.9940     2.4117     0.0600   -89.1217     5.9473     4.0575     4.7672
  226.0000    10.8208    90.0482     2.4037     0.0561   -88.1387     5.8874     3.8652     4.5066
  226.5000    10.8214    89.6633     2.3978     0.0561   -87.9520     5.6700     3.7335     4.3010
  227.0000    10.7826    90.0635     2.3938     0.0602   -87.7654     5.5111     3.6313     4.1042
  227.5000    10.7446    89.6786     2.3973     0.0602   -87.7785     5.0213     3.5566     4.0621
  228.0000    10.7454    88.5147     2.3981     0.0602   -87.7917     4.6586     3.5076     4.1728
  228.5000    10.7456    88.5208     2.4024     0.0643   -87.8048     5.0600     3.4833     4.4462
  229.0000    10.7467    88.1389     2.4099     0.0683   -88.2202     6.1901     3.4645     4.4021
  229.5000    10.7473    87.7540     2.4238     0.0684   -88.8301     6.1891     3.5589     4.5234
  230.0000    10.7481    88.1541     2.4298     0.0724   -88.8459     6.0157     3.7239     4.6041
  230.5000    10.7484    87.3781     2.4378     0.0724   -88.8591     6.0093     3.7903     4.7288
  231.0000    10.7883    86.9962     2.4398     0.0685   -88.8723     6.0066     3.9642     4.9481
  231.5000    10.7891    86.6112     2.4438     0.0685   -88.6856     5.9984     3.9997     4.8997
  232.0000    10.7897    87.0113     2.4439     0.0646   -88.7014     5.9956     4.0710     5.1254
  232.5000    10.8487    87.4085     2.4379     0.0646   -88.7146     6.1016     4.2207     5.2176
  233.0000    10.8359    88.1999     2.4320     0.0607   -88.5279     6.1544     4.3358     5.3606
  233.5000    10.8231    87.8148     2.4260     0.0528   -88.1414     6.2603     4.4526     5.4554
  234.0000    10.8118    86.6506     2.4221     0.0528   -87.7575     6.2584     4.4492     5.5526
  234.5000    10.7541    86.2655     2.4141     0.0449   -87.3736     6.2537     4.6107     5.5989
  235.0000    10.7940    88.6215     2.4082     0.0449   -87.5918     6.3068     4.6527     5.6465
  235.5000    10.7555    88.6276     2.4042     0.0410   -87.5997     6.5367     4.6498     5.6962
  236.0000    10.7563    89.4190     2.4043     0.0411   -87.6076     6.6543     4.7306     5.7428
  236.5000    10.7959    89.4251     2.4023     0.0411   -87.6208     6.8991     4.7270     5.7385
  237.0000    10.7577    90.6078     2.4003     0.0411   -87.6392     7.0221     4.8113     5.7341
  237.5000    10.7582    90.6139     2.3984     0.0372   -87.6523     7.0157     4.8091     5.7819
  238.0000    10.7590    91.4055     2.3964     0.0373   -87.6681     7.0104     4.8047     5.7766
  238.5000    10.7596    90.6293     2.3964     0.0373   -87.8811     6.8771     4.8010     5.7740
  239.0000    10.7604    91.4209     2.3984     0.0334   -87.8943     6.6241     4.8403     5.7687
  239.5000    10.7609    91.8182     2.3985     0.0334   -87.9100     6.3199     4.8821     5.7652
  240.0000    10.7617    92.6099     2.4065     0.0334   -87.9232     6.0855     4.8784     5.7582
