~VERSION INFORMATION
 VERS.                2.0:   CWLS LOG ASCII STANDARD - VERSION 2.0
 WRAP.                 NO:   ONE LINE PER DEPTH STEP
~WELL INFORMATION
#MNEM.UNIT      DATA TYPE    INFORMATION
#----------   ------------   ------------------------------
 STRT.F          200.0000:   START DEPTH
 STOP.F         3142.0000:   STOP DEPTH
 STEP.F            0.5000:   STEP LENGTH
 NULL.          -999.2500:   NO VALUE
 COMP.    FENIX & SCISSON:   COMPANY
 WELL.  FENIX "AX" #37-10:   WELL
 FLD .              NPR-3:   FIELD
 LOC .      S10 T38N R78W:   LOCATION
 CNTY.            NATRONA:   COUNTY
 STAT.            WYOMING:   STATE
 CTRY. UNITED STATES OF AMERICA:   COUNTRY
 SRVC.              WELEX:   SERVICE COMPANY
 DATE.        19-SEP-1977:   LOGDATE
 API .     49025104190000:   API NUMBER
~CURVE INFORMATION
#MNEM.UNIT       API CODE    CURVE DESCRIPTION
#----------   ------------   ------------------------------
 DEPT.F                  :   
 CALD.IN     45 280 60 00:   CALIPER FROM DENSITY LOG
 GRD .GAPI   45 310 01 00:   GAMMA RAY FROM DENSITY LOG
 RHOB.G/C3   45 350 01 00:   BULK DENSITY
 CORR.G/C3   45 356 01 00:   DENSITY CORRECTION
 NPHI.DEC    42 890 03 00:   NEUTRON POROSITY SANDSTONE
 SPR .MV     07 010 01 00:   SPONTANEOUS POTENTIAL
 SGRD.OHMM   07 220 05 00:   SHALLOW GUARD RESISTIVITY
 ILD .OHMM   07 120 46 00:   INDUCTION LOG DEEP RESISTIVITY
 ILM .OHMM   07 120 44 00:   INDUCTION LOG MEDIUM RESISTIVITY
 TENR.LBS    07 635 01 00:   TENSION FROM RESISTIVITY
~PARAMETER INFORMATION
#MNEM.UNIT          VALUE    DESCRIPTION
#----------   ------------   ------------------------------
 EKB .F         5221.0000:   Kelly bushing
 EGL .F         5211.0000:   Ground level
 EDF .F            0.0000:   Drilling floor
 TD  .F         3150.0000:   Total depth
 DATE.        19-SEP-1977:   Date logged
 CLNT.            A2DTECH:   Client Code
 SL  . 1190' FSL & 1750' FWL:   Surface Location
 PD  .                 GL:   Permanent Datum
 DD  .F              3150:   Depth driller
 DL  .F              3146:   Depth logger
 BLI .F              3144:   Bottom log interval
 CS1 .IN            8.625:   Casing size
 CBD1.      8.625" @ 215':   Casing driller 1
 BS1 .IN            7.875:   Bit size
 DFT .            KCL/MUD:   Type fluid in hole
 DFD .                8.9:   Density
 TCS .HRS               2:   Time Circ. stopped
 MRT .F               116:   Maximum recorded temp.
 ENGI.            C. DOAK:   Recorded By
 WITN.      B. HARRINGTON:   Witnessed by
 ORIG.           5" PRINT:   Origin of data
 UWI .     49025104190000:   Unique Well ID
 DICO. A2D TECHNOLOGIES, INC.:   Digitizing Company
 DAPD.F                10:   Feet Above Permanent Datum
 BSD1.F              3150:   Depth drilled with bit1
 EPD .F              5211:   Elevation Permanent Datum
 LMF .                 KB:   Log Measured From
 DMF .                 KB:   Drilling Measured From
 TLI .F               200:   Top log interval
 CBL1.                213:   Casing logger 1
 DFV .                 37:   Viscosity
 DFPH.                 11:   pH
 DFL .                5.8:   Fluid loss
 MSS .           MEASURED:   Source of sample
 RMS .               2.82:   Rm
 MST .                 94:   Rm Meas. temp.
 RMF .               1.61:   Rmf
 MFST.                 94:   Rmf Meas. temp.
 MFSS.               MEAS:   Source Rmf.
 RMC .               3.12:   Rmc
 MCST.                 94:   Rmc Meas. temp.
 MCSS.               MEAS:   Source Rmc.
 RMB .               2.28:   Rm. at BHT
 BHT .                116:   BHT.
 LUN .               8611:   Logging unit number
 LUL .             CASPER:   Logging unit location
~OTHER INFORMATION
~A   DEPT       CALD       GRD        RHOB      CORR      NPHI        SPR       SGRD        ILD        ILM       TENR   
# ...
 1171.5000    11.5747    69.6249     2.5029    -0.0009     0.2583   -76.2325     7.1097     5.1986     5.4940  1265.7003
 1172.0000    11.5352    70.8166     2.5049     0.0011     0.2507   -76.2103     7.1100     5.1988     5.4942  1265.6195
 1172.5000    11.3968    71.2170     2.5089     0.0091     0.2467   -76.1880     7.1761     5.1990     5.5967  1285.5189
 1173.0000    11.2190    71.4191     2.5129     0.0111     0.2434   -76.1657     7.1764     5.1993     5.5456  1285.4178
 1173.5000    11.1996    71.6212     2.5168     0.0171     0.2499   -76.1434     7.1767     5.1995     5.6490  1265.3167
 1174.0000    11.2792    71.8233     2.5228     0.0151     0.2624   -76.1212     7.1770     5.1998     5.6491  1265.2156
 1174.5000    11.3786    72.4220     2.5228     0.0152     0.2536   -76.0989     7.1774     5.2000     5.8077  1265.1146
 1175.0000    11.5378    73.0207     2.5248     0.0152     0.2488   -76.0766     7.2440     5.2003     5.8617  1265.0135
 1175.5000    11.6770    73.4211     2.5268     0.0152     0.2464   -76.0544     7.2444     5.2487     5.9162  1264.9126
 1176.0000    11.5581    73.4267     2.5328     0.0152     0.2464   -76.0321     7.1784     5.2975     5.9165  1284.8120
 1176.5000    11.4593    73.6289     2.5348     0.0173     0.2504   -76.0098     7.2450     5.3467     5.9168  1284.7111
 1177.0000    11.3606    73.6327     2.5388     0.0193     0.2545   -75.9875     7.2454     5.3965     5.9171  1264.6096
 1177.5000    11.3013    73.8349     2.5408     0.0233     0.2513   -75.7755     7.2457     5.4466     5.9173  1264.5085
 1178.0000    11.2620    73.8386     2.5448     0.0213     0.2411   -75.7748     7.3130     5.4468     5.8634  1264.4076
 1178.5000    11.2822    74.0392     2.5508     0.0233     0.2436   -75.7740     7.2464     5.5483     5.9726  1264.3066
 1179.0000    11.2826    74.2383     2.5528     0.0214     0.2436   -75.7733     7.3137     5.5486     5.9729  1264.2056
 1179.5000    11.2234    74.4103     2.5468     0.0214     0.2476   -75.7725     7.3140     5.5489     5.9732  1284.1050
 1180.0000    11.2039    74.6474     2.5468     0.0214     0.2500   -75.7717     7.5189     5.5492     5.9735  1264.0037
 1180.5000    11.2043    74.6514     2.5508     0.0214     0.2557   -75.7710     7.5193     5.5494     6.0290  1263.9027
 1181.0000    11.2443    75.2502     2.5568     0.0234     0.2590   -75.7702     7.3826     5.5496     6.0851  1263.8018
 1181.5000    11.2645    75.4524     2.5528     0.0215     0.2646   -75.7690     7.3153     5.5498     6.0854  1263.7007
 1182.0000    11.2057    75.8530     2.5429     0.0175     0.2719   -75.6807     7.5202     5.6015     6.1420  1303.6003
 1182.5000    11.1266    76.0552     2.5330     0.0136     0.2638   -75.5924     7.3836     5.7060     6.1423  1263.5189
 1183.0000    11.1071    76.6533     2.5290     0.0056     0.2583   -75.5042     7.5211     5.7590     6.1994  1283.4183
 1183.5000    11.0678    77.2522     2.5290     0.0057     0.2539   -75.4159     7.5213     5.7593     6.4323  1283.3173
 1184.0000    10.9888    77.2561     2.5330     0.0037     0.2463   -75.3276     7.7321     5.7595     6.6741  1263.2159
 1184.5000    10.9495    77.6567     2.5370     0.0057     0.2431   -75.2393     7.7324     5.7598     6.7984  1263.1149
 1185.0000    10.9498    77.6607     2.5390     0.0037     0.2395   -75.1510     7.7325     5.7601     6.7987  1283.0143
 1185.5000    10.9502    78.4580     2.5390     0.0058     0.2371   -75.0627     7.8767     5.8674     6.7990  1262.9128
 1186.0000    11.0100    78.6602     2.5370     0.0078     0.2375   -74.9744     8.0973     5.9766     6.8623  1282.8123
 1186.5000    11.0699    79.0609     2.5330     0.0177     0.2427   -74.8861     8.1724     6.0882     6.9260  1262.7111
 1187.0000    11.1099    79.0648     2.5311     0.0178     0.2480   -74.7979     8.1727     6.0885     6.9263  1262.6100
 1187.5000    11.1103    79.0688     2.5251     0.0178     0.2516   -74.7096     8.1730     6.0887     6.9265  1282.5094
 1188.0000    11.0908    79.4694     2.5211     0.0158     0.2589   -74.6213     8.0988     6.0890     6.8008  1282.4084
 1188.5000    11.0713    79.6717     2.5172     0.0139     0.2513   -74.7686     8.1740     6.0892     6.8009  1282.3074
 1189.0000    11.0517    80.0724     2.5192     0.0159     0.2481   -74.9662     8.0996     6.1459     6.9277  1262.2061
 1189.5000    11.0520    80.4731     2.5251     0.0219     0.2461   -74.9657     8.1748     6.1462     6.9850  1262.1050
 1190.0000    11.0325    80.8738     2.5291     0.0239     0.2441   -74.8556     8.1003     6.2033     7.0429  1282.0044
 1190.5000    10.9734    80.6794     2.5291     0.0239     0.2364   -74.7454     8.1007     6.2036     7.1012  1281.9034
 1191.0000    10.8944    80.8818     2.5292     0.0220     0.2312   -74.6352     8.1011     6.2039     7.1600  1261.8020
 1191.5000    10.7757    81.2825     2.5252     0.0200     0.2280   -74.5251     8.1763     6.2616     7.2193  1281.7014
 1192.0000    10.6373    81.2865     2.5232     0.0160     0.2300   -74.4149     8.2522     6.2618     7.2790  1281.6003
 1192.5000    10.5979    81.4888     2.5172     0.0141     0.2381   -74.3047     8.5617     6.2622     7.3393  1261.5394
 1193.0000    10.6380    82.2864     2.5133     0.0141     0.2418   -74.1945     8.5621     6.3205     7.4001  1261.4183
 1193.5000    10.6978    82.6871     2.5093     0.0141     0.2406   -74.0844     8.4841     6.5580     7.4605  1261.3173
 1194.0000    10.6388    83.2863     2.5093     0.0161     0.2350   -73.9742     8.1784     6.6189     7.5299  1261.2163
 1194.5000    10.5400    83.4887     2.5133     0.0221     0.2301   -73.8640     8.1785     6.6192     7.5302  1261.1154
 1195.0000    10.5006    83.4927     2.5193     0.0241     0.2285   -73.7688     8.1788     6.6195     7.5305  1281.0146
 1195.5000    10.4811    83.6951     2.5253     0.0242     0.2274   -73.9661     8.4856     6.5592     7.6006  1280.9137
 1196.0000    10.5212    83.6991     2.5193     0.0242     0.2229   -73.9655     8.4860     6.5595     7.7421  1280.8127
 1196.5000    10.6207    84.1000     2.5233     0.0222     0.2173   -73.9182     8.4865     6.5597     7.8142  1280.7117
 1197.0000    10.7003    83.9056     2.5273     0.0222     0.2133   -73.8709     8.4867     6.6207     7.8146  1260.6104
 1197.5000    10.7403    84.3064     2.5293     0.0183     0.2121   -73.8236     8.4872     6.6209     7.8871  1280.5096
 1198.0000    10.8200    84.7073     2.5233     0.0143     0.2093   -73.7763     8.4876     6.6213     7.8876  1280.4087
 1198.5000    10.8402    84.9097     2.5214     0.0143     0.2077   -73.7289     8.4879     6.6829     7.8881  1280.3077
 1199.0000    10.8406    85.1122     2.5214     0.0144     0.2134   -73.6816     8.4884     6.6832     7.8161  1260.2063
 1199.5000    10.8212    85.5131     2.5273     0.0124     0.2170   -73.6343     8.4112     6.6835     7.8164  1280.1057
 1200.0000    10.6628    86.3108     2.5234     0.0045     0.2203   -73.5870     8.7302     6.6226     7.8166  1280.0048
 1200.5000    10.7837    86.3151     2.5234     0.0092     0.2154   -73.5397     8.7307     6.6229     7.8171  1279.9008
 1201.0000    10.8819    86.7142     2.5274     0.0125     0.2114   -73.4953     8.7314     6.6235     7.8179  1259.7915
 1201.5000    10.9021    86.9159     2.5274     0.0166     0.2113   -73.4509     8.7322     6.6239     7.8908  1279.6851
 1202.0000    10.8430    86.9191     2.5215     0.0086     0.2178   -73.4065     8.7329     6.5638     8.1876  1279.5784
 1202.5000    10.9029    87.1208     2.5195     0.0166     0.2235   -73.3640     8.7335     6.5041     8.3402  1279.4718
 1203.0000    10.8636    87.3224     2.5235     0.0187     0.2243   -73.3638     8.8148     6.4449     8.1888  1259.3654
 1203.5000    10.8242    87.7224     2.5275     0.0207     0.2211   -73.5616     8.9795     6.3863     8.4188  1279.2585
 1204.0000    10.7849    88.3209     2.5315     0.0227     0.2163   -73.5613     8.9800     6.2703     8.6553  1279.1519
 1204.5000    10.7457    88.1241     2.5335     0.0228     0.2106   -73.1649     9.0639     6.0998     8.9808  1279.0452
