~VERSION INFORMATION
 VERS.                2.0:   CWLS LOG ASCII STANDARD - VERSION 2.0
 WRAP.                 NO:   ONE LINE PER DEPTH STEP
~WELL INFORMATION
#MNEM.UNIT      DATA TYPE    INFORMATION
#----------   ------------   ------------------------------
 STRT.F            0.0000:   START DEPTH
 STOP.F         4700.0000:   STOP DEPTH
 STEP.F            0.5000:   STEP LENGTH
 NULL.          -999.2500:   NO VALUE
 COMP. LAWRENCE ALLISON & ASSOCIATES:   COMPANY
 WELL. LAWRENCE NPR 3 "X" #33-23:   WELL
 FLD .                NPR:   FIELD
 LOC .      S23 T38N R78W:   LOCATION
 CNTY.            NATRONA:   COUNTY
 STAT.            WYOMING:   STATE
 CTRY. UNITED STATES OF AMERICA:   COUNTRY
 SRVC.      DRESSER ATLAS:   SERVICE COMPANY
 DATE.        12-NOV-1984:   LOGDATE
 API .     49025109930000:   API NUMBER
~CURVE INFORMATION
#MNEM.UNIT       API CODE    CURVE DESCRIPTION
#----------   ------------   ------------------------------
 DEPT.F                  :   
 TEND.LBS    45 635 01 00:   TENSION FROM DENSITY LOG
 CALD.IN     45 280 60 00:   CALIPER FROM DENSITY LOG
 CORR.G/C3   45 356 01 00:   DENSITY CORRECTION
 DEN .G/C3   45 350 01 00:   BULK DENSITY
 CNC .DEC    42 890 03 00:   NEUTRON PORISITY SANDSTONE
 SPR .MV     07 010 01 00:   SPONTANEOUS POTENTIAL
 GRR .GAPI   07 310 01 00:   GAMMA RAY FROM RESISTIVITY
 RFOC.OHMM   07 220 01 00:   RESISTIVITY FOCUSED LOG RES.
 ILM .OHMM   07 120 44 00:   INDUCTION LOG MEDIUM RESISTIVITY
 ILD .OHMM   07 120 46 00:   INDUCTION LOG DEEP RESISTIVITY
 TENS.LBS    60 635 01 00:   TENSION FROM SONIC LOG
 DT  .US/F   60 520 00 00:   DELTA TIME
 TENR.LBS    07 635 01 00:   TENSION
~PARAMETER INFORMATION
#MNEM.UNIT          VALUE    DESCRIPTION
#----------   ------------   ------------------------------
 EKB .F         5308.0000:   Kelly bushing
 EGL .F         5296.0000:   Ground level
 EDF .F            0.0000:   Drilling floor
 EPD .F            0.0000:   Permanent datum
 TD  .F         4695.0000:   Total depth
 DATE.        12-NOV-1984:   Date logged
 CLNT.            A2DTECH:   Client Code
 SL  . 1415' FNL & 1874' FWL:   Surface Location
 PD  .                 GL:   Permanent Datum
 LMF .                 KB:   Log Measured From
 DMF .                 KB:   Drilling Measured From
 DAPD.F                12:   Feet Above Permanent Datum
 DD  .F              4695:   Depth driller
 DL  .F              4694:   Depth logger
 BLI .F              4691:   Bottom log interval
 TLI .F              1205:   Top log interval
 CS1 .IN            8.625:   Casing size
 CBD1.     8.625" @ 1206':   Casing driller 1
 CBL1.F              1205:   Casing logger 1
 BS1 .IN            7.875:   Bit size
 BSD1.F              4695:   Depth drilled with bit1
 DFT .     GFL/KCL/STAFLO:   Type fluid in hole
 DFD .                9.2:   Density
 DFV .                 45:   Viscosity
 DFPH.                  8:   pH
 DFL .                 10:   Fluid loss
 MSS .           FLOWLINE:   Source of sample
 RMS .OHMM            .51:   Rm
 MST .F                72:   Rm Meas. temp.
 RMF .OHMM            .43:   Rmf
 MFST.F                70:   Rmf Meas. temp.
 RMC .OHMM            .64:   Rmc
 MCST.F                72:   Rmc Meas. temp.
 MFSS.               MEAS:   Source Rmf.
 MCSS.               CALC:   Source Rmc.
 RMB .OHMM           .272:   Rm. at BHT
 BHT .F               135:   BHT.
 TCS .HRS               4:   Time Circ. stopped
 MRT .F               135:   Maximum recorded temp.
 LUN .               6274:   Logging unit number
 LUL .               GLTE:   Logging unit location
 ENGI.             RAUTIO:   Recorded By
 ORIG.           5" PRINT:   Origin of data
 UWI .     49025109930000:   Unique Well ID
 DICO. A2D TECHNOLOGIES, INC.:   Digitizing Company
~OTHER INFORMATION
~A    DEPT    TEND       CALD       CORR        DEN        CNC        SPR         GRR      RFOC        ILM        ILD       TENS         DT       TENR   
# ...
 3458.0000    -0.1230    10.2350     0.0310     2.6140     0.1300   -31.6220    81.3740    17.5870    12.1850    11.9730   -77.0040    65.8520   -64.7670
 3458.5000     1.0040    10.2440    -0.0010     2.6120     0.1460   -31.7220    84.7260    16.0750    12.3720    12.5210   -76.4640    67.0300   -65.5530
 3459.0000    -0.9340    10.2530     0.0100     2.6140     0.1530   -31.8600    85.2620    14.7170    12.5210    12.4290   -75.9240    68.2090   -65.5530
 3459.5000    -2.5470    10.2630     0.0270     2.6180     0.1610   -32.1170    85.5090    13.3600    11.8640    11.9960   -75.3840    69.3870   -65.5530
 3460.0000    -4.1590    10.2720     0.0370     2.6120     0.1700   -32.3740    87.2240    12.7490    10.8980    11.2740   -74.8440    70.5650   -65.5530
 3460.5000    -5.7720    10.2810     0.0370     2.5970     0.1810   -32.6340    92.9240    12.1640     9.9320    10.5530   -74.3040    71.7430   -65.5530
 3461.0000    -7.3850    10.2900     0.0390     2.5840     0.1920   -32.8970    98.4870    11.0840     8.9960     9.8310   -73.7640    72.9210   -65.5530
 3461.5000    -8.9980    10.2990     0.0400     2.5750     0.2030   -32.8180   100.9970    10.0440     8.6240     9.1090   -73.2240    74.0990   -65.5530
 3462.0000   -10.6110    10.3080     0.0330     2.5710     0.2060   -32.7000   101.1980     9.5340     8.2960     8.3870   -72.6830    75.2780   -65.5530
 3462.5000   -12.2230    10.3180     0.0240     2.5700     0.2060   -32.5820    99.8780     9.0410     7.9840     8.0580   -72.1430    76.4560   -65.5530
 3463.0000   -13.8360    10.3240     0.0240     2.5720     0.2050   -32.4640    97.3970     8.5490     7.9580     8.0580   -71.6030    77.7260   -65.5530
 3463.5000   -15.4490    10.3260     0.0380     2.5790     0.2030   -32.3460    92.0230     8.2830     7.9010     8.0580   -71.0630    78.1990   -65.5530
 3464.0000   -17.0620    10.3280     0.0470     2.5820     0.2000   -32.2280    87.1700     8.6910     7.8430     8.0020   -70.5230    77.8200   -65.5530
 3464.5000   -18.6750    10.3300     0.0330     2.5810     0.1970   -32.1100    84.8570     9.0140     7.7860     7.7930   -69.9830    77.1360   -65.5530
 3465.0000   -20.2870    10.3330     0.0280     2.5810     0.1940   -31.9910    88.1910     9.3330     7.4720     7.5840   -69.4430    76.6760   -65.5530
 3465.5000   -21.9000    10.3350     0.0230     2.5810     0.1940   -31.7820    90.2740     9.1400     7.1690     7.3740   -68.9030    76.5620   -65.5530
 3466.0000   -23.5130    10.3370     0.0090     2.5810     0.2040   -31.3980    90.0230     8.9210     6.8930     6.9010   -68.3630    76.4480   -65.5530
 3466.5000   -25.1260    10.3390    -0.0080     2.5810     0.2160   -31.0170    90.7080     8.7020     6.3290     6.3940   -67.8230    76.3180   -65.5530
 3467.0000   -26.7390    10.3410    -0.0060     2.5760     0.2270   -30.7060    97.3140     8.4010     5.8130     5.8870   -67.2830    76.7610   -65.5530
 3467.5000   -28.3520    10.3440     0.0130     2.5550     0.2350   -30.4150   104.1780     7.9840     5.0450     5.3800   -66.7430    77.3240   -65.5530
 3468.0000   -29.9640    10.3460     0.0030     2.5390     0.2320   -30.1260   109.1660     6.1460     5.0520     5.1300   -66.2020    79.2330   -65.5530
 3468.5000   -31.5770    10.3480    -0.0040     2.5200     0.2220   -30.0140   107.1550     4.7310     5.0670     5.0910   -65.6620    81.3490   -65.5530
 3469.0000   -33.1900    10.3500    -0.0010     2.5290     0.2100   -30.2250   102.2540     4.8180     5.0810     5.1920   -65.1220    83.4660   -65.5530
 3469.5000   -34.8030    10.3530     0.0030     2.5500     0.1970   -30.4300    97.2790     5.6590     5.1690     5.6140   -64.5820    84.3660   -65.5530
 3470.0000   -36.4160    10.3550     0.0040     2.5680     0.1980   -30.6340    92.4300     6.5640     5.4030     6.0620   -64.0420    82.6060   -65.5530
 3470.5000   -38.0280    10.3570     0.0140     2.5830     0.2070   -30.8420    92.7250     7.4690     5.6370     6.0880   -63.5020    80.8100   -65.5530
 3471.0000   -38.5700    10.3590     0.0270     2.5830     0.2160   -30.7580    95.3650     8.0580     5.9200     6.1170   -62.9620    78.7320   -65.5530
 3471.5000   -36.6160    10.3620     0.0270     2.5710     0.2210   -30.4790    98.1030     7.6630     6.2920     6.3470   -62.4220    78.6540   -65.5530
 3472.0000   -34.6620    10.3640     0.0140     2.5610     0.2170   -30.2080   100.2420     7.1510     6.6650     6.7040   -61.8820    79.3720   -65.5530
 3472.5000   -32.7080    10.3660     0.0050     2.5540     0.2110   -29.6780    99.6230     7.2640     7.0370     7.0970   -61.3420    80.0910   -65.5530
 3473.0000   -30.7540    10.3680     0.0170     2.5670     0.2060   -29.1010    96.0310     7.4630     7.4100     7.4910   -60.8020    80.8090   -65.5530
 3473.5000   -28.8000    10.3700     0.0360     2.5810     0.2060   -28.5200    92.4930     7.8380     7.7830     7.8840   -60.2620    80.2090   -65.5530
 3474.0000   -26.8460    10.3730     0.0350     2.5880     0.1900   -27.9390    89.5200     9.0090     8.1550     8.2780   -59.7210    78.4360   -65.5530
 3474.5000   -24.8920    10.3750     0.0170     2.5790     0.1780   -27.3580    90.0070    10.1800     8.5280     8.6710   -59.1810    76.6640   -65.5530
 3475.0000   -22.9380    10.3770     0.0000     2.5710     0.1890   -26.7880    93.3500    10.5490     8.7900     8.9400   -58.8530    74.8910   -65.5530
 3475.5000   -20.9840    10.3790     0.0000     2.5650     0.1990   -26.5190    96.7560    10.7110     8.8860     9.0030   -58.8530    73.7220   -65.5530
 3476.0000   -19.0760    10.3820     0.0190     2.5680     0.2050   -26.2620    97.4150    10.3440     8.9820     9.0670   -58.8530    74.7480   -65.5530
 3476.5000   -19.4160    10.3840     0.0140     2.5740     0.2110   -26.0060    95.1840    10.0380     9.0780     9.1310   -58.8530    75.7750   -65.5530
 3477.0000   -19.9560    10.3860     0.0090     2.5790     0.2140   -25.7510    93.6530     9.8620     9.1740     9.1950   -58.8530    76.8010   -65.5530
 3477.5000   -20.4970    10.3880    -0.0010     2.5810     0.2110   -25.6750    96.0790     9.8620     9.2480     9.2590   -58.8530    77.5630   -65.5530
 3478.0000   -21.0370    10.3910     0.0080     2.5800     0.1990   -25.8740    97.9940     9.9410     9.1610     9.3330   -58.8530    77.6910   -65.5530
 3478.5000   -21.5780    10.3930     0.0390     2.5980     0.1870   -26.0700    90.8050    10.3870     9.0770     9.1830   -58.8530    76.9820   -65.5530
 3479.0000   -22.1180    10.3950     0.0530     2.6050     0.1870   -26.2680    84.9120    11.1650     8.9960     9.0030   -58.8530    75.9560   -65.5530
 3479.5000   -22.6590    10.3970     0.0570     2.5930     0.1910   -26.4660    83.3560    11.9440     8.0480     8.8330   -58.8530    74.9300   -65.5530
 3480.0000   -23.1990    10.3990     0.0610     2.5770     0.2060   -26.6630    90.3830    12.5210     7.1770     7.8970   -58.8530    73.9030   -65.5530
 3480.5000   -23.7400    10.4020     0.0630     2.5580     0.2280   -26.8630   100.5410    10.5030     6.3490     7.0090   -58.8530    74.4530   -65.5530
 3481.0000   -24.2800    10.4030     0.0300     2.5420     0.2500   -27.0970   110.0460     8.5810     5.5810     6.1220   -58.8530    76.2110   -65.5530
 3481.5000   -24.8210    10.4060     0.0210     2.5150     0.2720   -27.6840   115.8930     6.6600     5.3390     5.4790   -58.8530    79.1740   -65.5530
 3482.0000   -25.3610    10.4090     0.0240     2.5040     0.2880   -28.2660   117.4300     5.1850     5.1380     5.2480   -58.8530    82.8290   -65.5530
 3482.5000   -25.9010    10.4130     0.0190     2.5000     0.2880   -28.8450   116.0430     5.2510     5.1570     5.1380   -58.8530    86.4850   -65.5530
 3483.0000   -26.4420    10.4160     0.0000     2.5170     0.2860   -29.4240   111.9420     5.3120     5.1740     5.3330   -58.8530    88.9940   -65.5530
 3483.5000   -26.9820    10.4200    -0.0100     2.5370     0.2840   -30.0040   107.5730     5.6800     5.2330     5.4850   -58.8530    88.7420   -65.5530
