~VERSION INFORMATION
 VERS.                2.0:   CWLS LOG ASCII STANDARD - VERSION 2.0
 WRAP.                 NO:   ONE LINE PER DEPTH STEP
~WELL INFORMATION
#MNEM.UNIT      DATA TYPE    INFORMATION
#----------   ------------   ------------------------------
 STRT.F            0.0000:   START DEPTH
 STOP.F         1165.5000:   STOP DEPTH
 STEP.F            0.5000:   STEP LENGTH
 NULL.          -999.2500:   NO VALUE
 COMP.   JOHN BROWN E & C:   COMPANY
 WELL. BROWN NPR 3 "X" 1 #63-14:   WELL
 FLD .                NPR:   FIELD
 LOC .      S14 T38N R78W:   LOCATION
 CNTY.            NATRONA:   COUNTY
 STAT.            WYOMING:   STATE
 CTRY. UNITED STATES OF AMERICA:   COUNTRY
 SRVC.     ATLAS WIRELINE:   SERVICE COMPANY
 DATE.        15-JAN-1992:   LOGDATE
 API .     49025224960000:   API NUMBER
~CURVE INFORMATION
#MNEM.UNIT       API CODE    CURVE DESCRIPTION
#----------   ------------   ------------------------------
 DEPT.F                  :   
 GRR .GAPI   07 310 01 00:   GAMMA RAY FROM RESISTIVITY
 RILD.OHMM   07 120 46 00:   INDUCTION LOG DEEP RESISTIVITY
 RILM.OHMM   07 120 44 00:   INDUCTION LOG MEDIUM RESISTIVITY
 TENR.LBS    07 635 01 00:   TENSION
~PARAMETER INFORMATION
#MNEM.UNIT          VALUE    DESCRIPTION
#----------   ------------   ------------------------------
 EKB .F         5270.0000:   Kelly bushing
 EGL .F         5260.0000:   Ground level
 EDF .F         5269.0000:   Drilling floor
 TD  .F         1160.0000:   Total depth
 DATE.        15-JAN-1992:   Date logged
 CLNT.            A2DTECH:   Client Code
 SL  . 1893' FNL & 1971' FEL:   Surface Location
 PD  .                 GL:   Permanent Datum
 EPD .F              5260:   Elevation Permanent Datum
 LMF .                 KB:   Log Measured From
 DMF .                 KB:   Drilling Measured From
 DAPD.F                10:   Feet Above Permanent Datum
 DD  .F              1160:   Depth driller
 DL  .F              1158:   Depth logger
 BLI .F              1150:   Bottom log interval
 CS1 .IN            9.625:   Casing size
 CBD1.       9.625" @ 50':   Casing driller 1
 CBL1.F                48:   Casing logger 1
 BS1 .IN             8.75:   Bit size
 BSD1.F              1160:   Depth drilled with bit1
 DFT .                AIR:   Type fluid in hole
 MRT .F                90:   Maximum recorded temp.
 LUN .            HL-6274:   Logging unit number
 LUL .             CASPER:   Logging unit location
 ENGI.             RAUTIO:   Recorded By
 WITN.        GARY STRONG:   Witnessed by
 ORIG.           5" PRINT:   Origin of data
 UWI .     49025224960000:   Unique Well ID
 DICO. A2D TECHNOLOGIES, INC.:   Digitizing Company
 TLI .F                 0:   Top log interval
~OTHER INFORMATION
~A    DEPT      GRR      RILD       RILM       TENR   
# ...
  146.0000   128.6520     6.6770     6.9190     6.7980
  146.5000   128.0840     6.8210     7.0840     6.7980
  147.0000   124.2230     6.9650     7.2480     6.7980
  147.5000   118.0360     7.0770     7.3450     6.7980
  148.0000   110.4660     7.0570     7.3140     6.7980
  148.5000   102.8290     7.0380     7.2850     6.7980
  149.0000   101.5810     7.0180     7.2550     6.7980
  149.5000   108.7510     7.0120     7.2250     6.7980
  150.0000   116.8640     6.8500     7.1580     6.7980
  150.5000   125.1160     6.7000     6.9840     6.7980
  151.0000   125.2500     6.5500     6.8100     6.7980
  151.5000   122.7490     6.3330     6.6360     6.7980
  152.0000   120.7110     6.0920     6.4620     6.7980
  152.5000   121.9490     5.9890     6.2880     6.7980
  153.0000   124.3590     5.9890     6.1580     6.7980
  153.5000   126.7460     6.0120     6.2600     6.7980
  154.0000   129.1160     6.1200     6.3620     6.7980
  154.5000   127.6180     6.2290     6.4650     6.7980
  155.0000   123.1830     6.3370     6.5670     6.7980
  155.5000   118.8080     6.4460     6.6690     6.7980
  156.0000   118.4600     6.5550     6.7720     6.7980
  156.5000   119.3060     6.6630     6.8830     6.7980
  157.0000   119.9670     6.7720     6.9740     6.7980
  157.5000   120.2180     6.8800     7.0740     6.7980
  158.0000   120.4760     6.9890     7.1740     6.7980
  158.5000   120.5950     7.0980     7.2770     6.7980
  159.0000   119.0900     7.2560     7.5270     6.8720
  159.5000   115.9210     7.4500     7.7830     6.9480
  160.0000   113.6110     7.6440     7.9840     7.0250
  160.5000   114.8240     7.8380     8.0820     7.1010
  161.0000   115.6730     8.0590     8.1780     7.1780
  161.5000   116.1420     8.0590     8.2740     7.2540
  162.0000   116.6140     8.0110     8.2860     7.3310
  162.5000   117.0870     7.9550     8.1650     7.4070
  163.0000   117.5520     7.9000     8.0830     7.4840
  163.5000   117.7410     7.8450     8.0000     7.5600
  164.0000   116.5310     7.7900     7.9180     7.6370
  164.5000   113.7130     7.7050     7.8360     7.7130
  165.0000   111.3980     7.5960     7.7540     7.7900
  165.5000   115.2570     7.4880     7.6710     7.8660
  166.0000   119.6610     7.3790     7.5890     7.9430
  166.5000   123.9130     7.2710     7.5060     8.0190
  167.0000   123.0390     7.1970     7.4230     8.0950
  167.5000   120.9560     7.1680     7.3450     8.1720
  168.0000   118.9340     7.1390     7.3450     8.2480
  168.5000   118.2720     7.1090     7.3450     8.3250
  169.0000   121.7780     7.0770     7.3450     8.4010
  169.5000   124.5570     7.1040     7.3450     8.4780
  170.0000   122.8120     7.1420     7.3450     8.5540
  170.5000   124.4210     7.1790     7.3820     8.6310
  171.0000   126.2150     7.2170     7.4320     8.7070
  171.5000   125.1060     7.2540     7.4820     8.7840
  172.0000   122.7410     7.2770     7.5520     8.8600
  172.5000   120.3920     7.2640     7.5170     8.9370
  173.0000   118.5450     7.2480     7.4580     9.0130
  173.5000   121.9420     7.2310     7.4000     9.0900
  174.0000   125.9120     7.2150     7.3420     9.1660
  174.5000   126.9600     7.1690     7.2840     9.2430
  175.0000   121.8210     7.0840     7.2060     9.3190
  175.5000   118.4780     6.9990     7.1260     9.3950
  176.0000   122.8230     6.9130     7.0460     9.4720
  176.5000   128.3360     6.8280     6.9660     9.5480
  177.0000   129.6320     6.7570     6.8860     9.6250
  177.5000   126.1120     6.7670     6.8200     9.7010
  178.0000   123.3700     6.7760     6.8550     9.7780
  178.5000   121.6760     6.7860     6.8840     9.8540
  179.0000   122.1740     6.7950     6.9140     9.9310
  179.5000   124.6560     6.8040     6.9440    10.0070
  180.0000   128.2490     6.8130     6.9740    10.0840
  180.5000   128.4510     6.8200     7.0030    10.1600
  181.0000   126.9100     6.8730     7.0330    10.2370
  181.5000   124.8920     6.9220     7.0630    10.3130
  182.0000   122.8410     6.9720     7.0930    10.3900
  182.5000   121.9080     7.0220     7.1400    10.4660
  183.0000   121.9230     7.0710     7.1880    10.5420
  183.5000   120.1980     7.1210     7.2360    10.6190
  184.0000   117.9460     7.1700     7.2840    10.6950
  184.5000   118.4900     7.2100     7.3320    10.7720
  185.0000   120.8050     7.2700     7.3800    10.8480
  185.5000   123.1540     7.3310     7.4280    10.9250
  186.0000   125.5260     7.3910     7.4750    11.0010
  186.5000   126.1520     7.4510     7.6220    11.0780
  187.0000   125.5460     7.5560     7.7850    11.1540
  187.5000   125.4430     7.7100     7.9490    11.2310
  188.0000   126.6600     7.8640     8.1120    11.3070
  188.5000   125.9010     8.0180     8.2860    11.3840
  189.0000   125.0870     8.3320     8.6200    11.4600
  189.5000   122.2010     8.7020     8.9770    11.5370
  190.0000   118.1200     9.0730     9.3350    11.6130
  190.5000   112.2420     9.4440     9.6920    11.6900
  191.0000   106.3980     9.8140     9.9900    11.7660
  191.5000   101.8130     9.9750    10.0630    11.8420
  192.0000   100.9660    10.0680    10.1360    11.9190
  192.5000   101.2250     9.7920    10.2570    11.9950
  193.0000   104.9860     9.4340     9.7720    12.0720
  193.5000   111.6410     9.0770     9.4030    12.1480
  194.0000   117.0920     8.7200     9.0350    12.2250
  194.5000   119.6730     8.3630     8.6660    12.3010
  195.0000   120.9060     7.9840     8.2980    12.3780
  195.5000   121.9030     7.8790     8.0440    12.4540
  196.0000   121.7330     7.7380     7.9500    12.5310
  196.5000   121.5950     7.6170     7.9110    12.6070
  197.0000   121.6090     7.5890     7.8720    12.6840
  197.5000   122.2980     7.5600     7.8320    12.7600
  198.0000   122.4520     7.5320     7.7930    12.8370
  198.5000   121.2520     7.5030     7.7540    12.9130
  199.0000   120.1220     7.4820     7.7140    12.9900
  199.5000   121.3400     7.3670     7.6200    13.0660
  200.0000   125.3090     7.2580     7.4670    13.1420
  200.5000   129.3200     7.1490     7.3130    13.2190
  201.0000   129.5480     7.0410     7.2100    13.2950
  201.5000   129.4910     6.9460     7.1400    13.3720
  202.0000   131.0470     6.9350     7.1300    13.4480
  202.5000   133.0700     6.9240     7.1210    13.5250
  203.0000   134.6900     6.9130     7.1110    13.6010
  203.5000   132.1480     6.9020     7.1020    13.6780
  204.0000   128.4680     6.8910     7.0920    13.7540
  204.5000   124.8170     6.8830     7.0830    13.8310
  205.0000   124.0490     6.8660     7.0630    13.9070
  205.5000   127.2850     6.8460     7.0030    13.9840
  206.0000   130.5190     6.8260     6.9430    14.0600
  206.5000   131.0770     6.7340     6.8840    14.1370
  207.0000   130.4630     6.6110     6.8200    14.2130
  207.5000   129.8380     6.4890     6.7230    14.2890
  208.0000   129.0780     6.3660     6.5900    14.3660
  208.5000   122.9840     6.2430     6.4570    14.4420
  209.0000   119.6000     6.1200     6.3240    14.5190
  209.5000   117.3550     5.9970     6.1910    14.5950
  210.0000   119.2130     5.8740     6.0580    14.6720
  210.5000   121.4930     5.7500     5.9250    14.7480
  211.0000   123.7640     5.6270     5.8090    14.8250
  211.5000   125.1450     5.5500     5.7470    14.9010
  212.0000   123.9220     5.5100     5.6840    14.9780
  212.5000   122.4930     5.4590     5.6650    15.0540
  213.0000   122.6990     5.4850     5.6750    15.1310
  213.5000   123.2350     5.5370     5.7580    15.2070
  214.0000   121.7540     5.5980     5.8420    15.2840
  214.5000   117.3400     5.7060     5.9260    15.3600
  215.0000   114.8230     5.8130     6.0100    15.4370
  215.5000   116.9430     5.8920     6.0570    15.5130
  216.0000   118.9790     5.9260     6.0770    15.5890
  216.5000   121.0160     5.9600     6.0980    15.6660
  217.0000   121.7460     5.9930     6.1120    15.7420
  217.5000   122.7390     6.0270     6.1240    15.8190
  218.0000   125.3150     6.0450     6.1360    15.8950
  218.5000   127.9040     6.0450     6.1490    15.9720
