~VERSION INFORMATION
 VERS.                2.0:   CWLS LOG ASCII STANDARD - VERSION 2.0
 WRAP.                 NO:   ONE LINE PER DEPTH STEP
~WELL INFORMATION
#MNEM.UNIT      DATA TYPE    INFORMATION
#----------   ------------   ------------------------------
 STRT.F            0.0000:   START DEPTH
 STOP.F         3205.0000:   STOP DEPTH
 STEP.F            0.5000:   STEP LENGTH
 NULL.          -999.2500:   NO VALUE
 COMP. LAWRENCE-ALLISON AND ASSOCIATES:   COMPANY
 WELL. LAWRENCE "X" #64-28:   WELL
 FLD .          N.P.R. #3:   FIELD
 LOC .      S28 T39N R78W:   LOCATION
 CNTY.            NATRONA:   COUNTY
 STAT.            WYOMING:   STATE
 CTRY. UNITED STATES OF AMERICA:   COUNTRY
 SRVC.      DRESSER ATLAS:   SERVICE COMPANY
 DATE.        25-MAY-1986:   LOGDATE
 API .     49025110730000:   API NUMBER
~CURVE INFORMATION
#MNEM.UNIT       API CODE    CURVE DESCRIPTION
#----------   ------------   ------------------------------
 DEPT.F                  :   
 GRR .GAPI   07 310 01 00:   GAMMA RAY FROM RESISTIVITY
 SPR .MV     07 010 01 00:   SPONTANEOUS POTENTIAL
 RILD.OHMM   07 120 46 00:   DEEP INDUCTION RESISTIVITY
 RILM.OHMM   07 120 44 00:   INDUCTION LOG MEDIUM RESISTIVITY
 RSFL.OHMM   07 221 01 00:   AMPPLIFIED SHALLOW FOCUSED LOG RESISTIVITY
 TENR.LBS    07 635 01 00:   TENSION FROM RESISTIVITY
 CNC .DEC    42 890 03 00:   NEUTRON POROSITY SANDSTONE
 CALD.IN     45 280 60 00:   CALIPER FROM DENSITY LOG
 DEN .G/C3   45 350 01 00:   BULK DENSITY
 CORR.G/C3   45 356 01 00:   DENSITY CORRECTION
 TEND.LBS    45 635 01 00:   TENSION FROM DENSITY LOG
~PARAMETER INFORMATION
#MNEM.UNIT          VALUE    DESCRIPTION
#----------   ------------   ------------------------------
 EKB .F         5070.0000:   Kelly bushing
 EGL .F         5058.0000:   Ground level
 TD  .F         3205.0000:   Total depth
 DATE.        25-MAY-1986:   Date logged
 CLNT.            A2DTECH:   Client Code
 SL  . 2248' FNL & 1636' FEL:   Surface Location
 PD  .                 GL:   Permanent Datum
 EPD .F              5058:   Elevation Permanent Datum
 LMF .                 KB:   Log Measured From
 DMF .                 KB:   Drilling Measured From
 DAPD.F                12:   Feet Above Permanent Datum
 DD  .F              3205:   Depth driller
 DL  .F              3203:   Depth logger
 BLI .F              3201:   Bottom log interval
 CS1 .IN            8.625:   Casing size
 CBD1.      8.625" @ 476':   Casing driller 1
 CBL1.F               478:   Casing logger 1
 BS1 .IN            7.875:   Bit size
 BSD1.F              3205:   Depth drilled with bit1
 DFT .        POLYMER-KCL:   Type fluid in hole
 DFD .                  9:   Density
 DFV .                 37:   Viscosity
 DFPH.                8.5:   pH
 DFL .                 10:   Fluid loss
 MSS .           FLOWLINE:   Source of sample
 RMS .OHMM           0.31:   Rm
 MST .F                69:   Rm Meas. temp.
 RMF .OHMM           0.25:   Rmf
 MFST.F                69:   Rmf Meas. temp.
 RMC .OHMM           0.39:   Rmc
 MCST.F                69:   Rmc Meas. temp.
 MFSS.               MEAS:   Source Rmf.
 MCSS.               CALC:   Source Rmc.
 RMB .OHMM           0.19:   Rm. at BHT
 BHT .F               115:   BHT.
 TCS .HRS               4:   Time Circ. stopped
 MRT .F               115:   Maximum recorded temp.
 LUN .            HL-6274:   Logging unit number
 LUL .           GILLETTE:   Logging unit location
 ENGI.             RAUTIO:   Recorded By
 WITN.             STRONG:   Witnessed by
 ORIG.           5" PRINT:   Origin of data
 UWI .     49025110730000:   Unique Well ID
 DICO. A2D TECHNOLOGIES, INC.:   Digitizing Company
~OTHER INFORMATION
~A    DEPT     GRR        SPR       RILD       RILM       RSFL       TENR        CNC       CALD        DEN       CORR       TEND   
# ...
 2806.0000   126.4730   -50.8330     3.8750     4.0220     5.3220    24.4510     0.3170     9.8540     2.5010    -0.0010   -60.5990
 2806.5000   126.4430   -50.4230     3.9200     4.0220     5.3970    33.6950     0.3160     9.8650     2.5100     0.0080   -58.4170
 2807.0000   126.2770   -50.3760     3.9650     4.0790     5.3630    45.6470     0.3180     9.8780     2.5190     0.0450   -45.7160
 2807.5000   124.4330   -50.4220     4.0090     4.1370     5.3340    57.5990     0.3210     9.8910     2.5240     0.0480   -33.0140
 2808.0000   121.5070   -50.3870     4.0540     4.1960     5.2990    69.5510     0.3210     9.9350     2.5230     0.0390   -23.1850
 2808.5000   118.5390   -50.4070     4.0990     4.2540     5.3820    70.8170     0.3020    10.0160     2.5310     0.0370   -31.2190
 2809.0000   116.8150   -50.4010     4.1430     4.3120     5.4870    64.9110     0.2950    10.0100     2.5390     0.0570   -39.0350
 2809.5000   117.9120   -50.3970     4.1880     4.3710     5.5480    59.0060     0.2830    10.0000     2.5500     0.0740   -41.5240
 2810.0000   118.7380   -50.4060     4.2320     4.4290     5.5480    54.3910     0.2830    10.0090     2.5540     0.0610   -37.4600
 2810.5000   117.1750   -50.3960     4.2770     4.4870     5.5480    59.9530     0.2920    10.0260     2.5530     0.0350   -33.3950
 2811.0000   115.8850   -50.3420     4.3220     4.5450     5.5480    64.3710     0.3030    10.0400     2.5490     0.0320   -29.3310
 2811.5000   116.1800   -50.2390     4.3660     4.6040     5.5480    57.4650     0.3150    10.0470     2.5430     0.0400   -25.2660
 2812.0000   117.8990   -50.1410     4.4090     4.6620     5.5480    50.7720     0.3170    10.0530     2.5360     0.0430   -27.5140
 2812.5000   119.3390   -50.0440     4.4880     4.7200     5.5480    44.0790     0.3080    10.0600     2.5290     0.0950   -42.4570
 2813.0000   118.5950   -49.9410     4.5740     4.7790     5.6330    37.3850     0.2980    10.0670     2.5220     0.1290   -57.4000
 2813.5000   116.5590   -49.8480     4.5740     4.8340     5.8210    30.6920     0.2900    10.0740     2.5240     0.1350   -73.5890
 2814.0000   114.3410   -49.7430     4.5740     4.8340     6.0790    24.4510     0.2850    10.0780     2.5360     0.1030   -65.3700
 2814.5000   113.6340   -49.6490     4.5740     4.8340     6.3680    44.4110     0.2880    10.0790     2.5540     0.0590   -56.4040
 2815.0000   116.3790   -49.5500     4.4740     4.7010     6.2950    35.9020     0.2920    10.0890     2.5640     0.0590   -47.4380
 2815.5000   119.2170   -49.4430     4.3880     4.5970     6.1160    27.9760     0.2960    10.0980     2.5730     0.0930   -44.8810
 2816.0000   117.8860   -49.4110     4.3020     4.4930     5.7870    20.0490     0.3080    10.1080     2.5780     0.1250   -47.7040
 2816.5000   116.3720   -49.3830     4.2160     4.3900     5.4110    14.4710     0.3100    10.1170     2.5710     0.1560   -50.5260
 2817.0000   119.1780   -49.4170     4.1300     4.2860     4.9230    24.9640     0.3060    10.1260     2.5580     0.1870   -53.3490
 2817.5000   122.7250   -49.5820     4.0440     4.1720     4.8780    34.5260     0.3050    10.1360     2.5480     0.1970   -56.1720
 2818.0000   123.3950   -49.8000     3.9930     4.1220     4.8940    44.0880     0.3050    10.1450     2.5440     0.1660   -58.9940
 2818.5000   122.2710   -50.1480     4.0220     4.0590     4.9230    54.3910     0.3020    10.1550     2.5410     0.1420   -61.8170
 2819.0000   120.6460   -50.3800     4.0960     4.1940     4.9690    47.7760     0.2990    10.1680     2.5450     0.1440   -64.3070
 2819.5000   118.1700   -50.3290     4.1840     4.3140     5.1060    40.6050     0.2900    10.1840     2.5520     0.1430   -66.2990
 2820.0000   115.7450   -50.2530     4.3030     4.4350     5.2950    34.4310     0.2810    10.2000     2.5520     0.0960   -68.2910
 2820.5000   114.5170   -50.2110     4.4230     4.5550     5.4830    28.5150     0.2720    10.2160     2.5480     0.0490   -70.2840
 2821.0000   112.5270   -50.2200     4.5420     4.6760     5.6720    23.3220     0.2710    10.2330     2.5480     0.0240   -72.2760
 2821.5000   109.5030   -50.2640     4.6620     4.7960     5.8090    18.1290     0.2770    10.2400     2.5550     0.0230   -74.2690
 2822.0000   106.7020   -50.2840     4.7820     4.9160     5.7320    12.9360     0.2840    10.2430     2.5670     0.0360   -76.2610
 2822.5000   105.3780   -50.3200     4.8610     4.9850     5.6310     7.7430     0.2780    10.2460     2.5680     0.0470   -78.2530
 2823.0000   108.7020   -50.3440     4.9370     5.0140     5.5480     4.4910     0.2710    10.2490     2.5620     0.0380   -80.2460
 2823.5000   112.2960   -50.3800     5.0150     5.0430     5.7050     8.5590     0.2650    10.2520     2.5530     0.0410   -82.2380
 2824.0000   110.2580   -50.3960     4.9620     5.0610     5.8390    12.0210     0.2570    10.2550     2.5460     0.0450   -82.8740
 2824.5000   107.6720   -50.3190     4.9080     4.9890     5.9730    15.4830     0.2480    10.2580     2.5440     0.0490   -80.0520
 2825.0000   107.8730   -50.2390     4.8540     4.9290     5.9990    18.9450     0.2460    10.2580     2.5450     0.0510   -77.2290
 2825.5000   110.2160   -50.1750     4.7890     4.8690     5.8990    22.4070     0.2570    10.2590     2.5480     0.0510   -74.4060
 2826.0000   114.6830   -50.0960     4.5140     4.6890     5.7560    21.8810     0.2710    10.2590     2.5500     0.0460   -71.5840
 2826.5000   118.9330   -50.0310     4.1740     4.3380     5.4780    15.6060     0.2790    10.2590     2.5400     0.0370   -68.7610
 2827.0000   121.5540   -49.9510     3.8410     3.9780     5.2990     9.3310     0.2770    10.2590     2.5250     0.0240   -65.9390
 2827.5000   121.7580   -49.8880     3.4520     3.6070     4.9590     4.4910     0.2820    10.2590     2.5080     0.0110   -63.7900
 2828.0000   123.7220   -49.7950     3.0730     3.2360     4.7450    10.9830     0.2890    10.2590     2.5000    -0.0020   -65.8230
 2828.5000   131.0210   -49.5560     2.7090     2.8660     4.0640    16.2670     0.2960    10.2590     2.4940    -0.0170   -67.8550
 2829.0000   138.1420   -49.2510     2.6060     2.6860     3.5110    21.5520     0.3030    10.2590     2.4730    -0.0330   -69.8870
 2829.5000   147.4230   -48.9630     2.6250     2.7260     2.9590    22.8890     0.3280    10.2590     2.4480    -0.0250   -71.9190
 2830.0000   152.4110   -48.7640     2.7210     2.8280     2.6590    19.4270     0.3450    10.2600     2.4230     0.0260   -73.5890
 2830.5000   142.4030   -48.7120     2.8160     3.0720     3.1560    15.9650     0.3310    10.2640     2.4150     0.0950   -79.8600
 2831.0000   126.4940   -48.6350     2.9110     3.3900     4.1210    12.5030     0.3070    10.2670     2.4410     0.0880   -87.8820
 2831.5000   113.6560   -48.6070     3.2190     3.7070     5.2020     9.0410     0.2910    10.2710     2.4810     0.0360   -95.9040
 2832.0000   108.4580   -48.7910     3.6300     4.0240     5.5480     5.5780     0.2740    10.2750     2.5190     0.0170  -103.8310
 2832.5000   106.2890   -48.9710     4.0410     4.2500     5.4570     8.3170     0.2580    10.2780     2.5310     0.0370   -87.5960
 2833.0000   103.6740   -49.1080     4.3740     4.5680     5.3970    13.8940     0.2520    10.2750     2.5250     0.0280   -71.5510
 2833.5000   102.5270   -49.2900     4.7020     4.7890     5.6210    19.4720     0.2450    10.2720     2.5200    -0.0140   -55.5070
 2834.0000   103.1050   -49.4260     4.7540     4.8720     5.8090    25.0500     0.2460    10.2690     2.5230    -0.0030   -47.4460
 2834.5000   106.9280   -49.6070     4.7430     4.8960     5.8630    30.6280     0.2540    10.2660     2.5270     0.0090   -64.3820
 2835.0000   110.0860   -49.7890     4.6530     4.8070     5.7240    31.6130     0.2600    10.2630     2.5280     0.0120   -81.3170
 2835.5000   111.7700   -49.7450     4.5740     4.7180     5.4550    22.7540     0.2650    10.2600     2.5250     0.0020   -71.7380
 2836.0000   113.6370   -49.6360     4.5390     4.6500     5.1860    13.8960     0.2700    10.2530     2.5200    -0.0090   -57.8810
