~VERSION INFORMATION
 VERS.                2.0:   CWLS LOG ASCII STANDARD - VERSION 2.0
 WRAP.                 NO:   ONE LINE PER DEPTH STEP
~WELL INFORMATION
#MNEM.UNIT      DATA TYPE    INFORMATION
#----------   ------------   ------------------------------
 STRT.F          243.5000:   START DEPTH
 STOP.F         2836.0000:   STOP DEPTH
 STEP.F            0.5000:   STEP LENGTH
 NULL.          -999.2500:   NO VALUE
 COMP. FENIX & SCISSON U. S. NAVY:   COMPANY
 WELL.   FENIX "A" #86-20:   WELL
 FLD .             NPR #3:   FIELD
 LOC .      S20 T39N R78W:   LOCATION
 CNTY.            NATRONA:   COUNTY
 STAT.            WYOMING:   STATE
 CTRY. UNITED STATES OF AMERICA:   COUNTRY
 SRVC.       SCHLUMBERGER:   SERVICE COMPANY
 DATE.        22-MAR-1977:   LOGDATE
 API .     49025103130000:   API NUMBER
~CURVE INFORMATION
#MNEM.UNIT       API CODE    CURVE DESCRIPTION
#----------   ------------   ------------------------------
 DEPT.F                  :   
 SPR .MV     07 010 01 00:   SPONTANEOUS POTENTIAL
 ILD .OHMM   07 120 46 00:   DEEP INDUCTION RESISTIVITY
 ILM .OHMM   07 120 44 00:   INDUCTION LOG MEDIUM RESISTIVITY
 LL8 .OHMM   07 220 08 00:   LATEROLOG-8 RES.
 CALD.IN     45 280 60 00:   CALIPER FROM DENSITY LOG
 GRD .GAPI   45 310 01 00:   GAMMA RAY FROM DENSITY LOG
 RHOB.G/C3   45 350 01 00:   BULK DENSITY
 CORR.G/C3   45 356 01 00:   DENSITY CORRECTION
~PARAMETER INFORMATION
#MNEM.UNIT          VALUE    DESCRIPTION
#----------   ------------   ------------------------------
 EKB .F         5005.0000:   Kelly bushing
 EGL .F         4994.0000:   Ground level
 EDF .F            0.0000:   Drilling floor
 TD  .F         2836.0000:   Total depth
 DATE.        22-MAR-1977:   Date logged
 CLNT.            A2DTECH:   Client Code
 SL  . 330' FEL & 1650' FSL:   Surface Location
 PD  .                 GL:   Permanent Datum
 EPD .F              5005:   Elevation Permanent Datum
 LMF .                 KB:   Log Measured From
 DMF .                 KB:   Drilling Measured From
 DD  .F              2835:   Depth driller
 DL  .F              2836:   Depth logger
 BLI .F              2826:   Bottom log interval
 TLI .F               259:   Top log interval
 CBD1.      8.625" @ 258':   Casing driller 1
 CBL1.F               259:   Casing logger 1
 BS1 .IN            7.875:   Bit size
 DFT .                KCL:   Type fluid in hole
 DFD .                9.1:   Density
 DFV .                 35:   Viscosity
 DFPH.                  9:   pH
 DFL .                8.6:   Fluid loss
 MSS .              CIRC.:   Source of sample
 RMS .OHMM           0.22:   Rm
 MST .F                60:   Rm Meas. temp.
 RMF .OHMM           0.18:   Rmf
 MFST.F                60:   Rmf Meas. temp.
 RMC .OHMM           0.33:   Rmc
 MCST.F                60:   Rmc Meas. temp.
 MFSS.               MEAS:   Source Rmf.
 RMB .OHMM           0.12:   Rm. at BHT
 BHT .F               110:   BHT.
 TCS .HRS            0900:   Time Circ. stopped
 MRT .F               110:   Maximum recorded temp.
 LUN .               7980:   Logging unit number
 LUL .               CSPR:   Logging unit location
 ENGI.                FIX:   Recorded By
 WITN.               JAPP:   Witnessed by
 ORIG.           5" PRINT:   Origin of data
 UWI .     49025103130000:   Unique Well ID
 DICO. A2D TECHNOLOGIES, INC.:   Digitizing Company
 DAPD.                 11:   Feet Above Permanent Datum
 CS1 .              8.625:   Casing size
 BSD1.               2835:   Depth drilled with bit1
 MCSS.               CACL:   Source Rmc.
 TLAB.               1630:   Time logger at bottom
~OTHER INFORMATION
~A   DEPT      SPR        ILD        ILM        LL8       CALD         GRD      RHOB       CORR   
# ...
 1418.0000   -56.3170     6.9260     7.0660    10.1960     8.3820   117.2860     2.5490     0.0260
 1418.5000   -56.2430     6.9260     7.0720    10.2090     8.3850   116.8350     2.5430     0.0380
 1419.0000   -56.1690     6.9260     7.0790    10.2220     8.3880   115.2590     2.5440     0.0300
 1419.5000   -56.0950     6.9260     7.0850    10.2350     8.3900   113.5300     2.5460     0.0260
 1420.0000   -56.0200     6.9260     7.0920    10.2480     8.3930   112.7870     2.5530     0.0480
 1420.5000   -55.9480     6.9260     7.0980    10.2610     8.3960   113.4560     2.5780     0.0550
 1421.0000   -55.8740     6.9260     7.1050    10.2740     8.3980   114.2020     2.5700     0.0510
 1421.5000   -55.7920     6.9260     7.1110    10.2870     8.4010   114.3730     2.5620     0.0480
 1422.0000   -55.7820     6.9260     7.1180    10.3000     8.3910   114.6620     2.5540     0.0370
 1422.5000   -55.8800     6.9260     7.1240    10.3130     8.3760   115.8140     2.5320     0.0170
 1423.0000   -55.9680     6.9260     7.1310    10.3260     8.3610   116.4670     2.5380     0.0120
 1423.5000   -56.0590     6.9260     7.1370    10.3390     8.3460   116.3000     2.5270     0.0070
 1424.0000   -56.1500     6.9260     7.1440    10.3420     8.3310   115.4470     2.5300     0.0090
 1424.5000   -56.2410     6.9250     7.1500    10.3420     8.3000   114.4430     2.5360     0.0290
 1425.0000   -56.3310     6.9280     7.1570    10.3420     8.3030   114.5930     2.5430     0.0240
 1425.5000   -56.4220     6.9220     7.1640    10.3420     8.3040   115.5740     2.5540     0.0150
 1426.0000   -56.5150     6.9310     7.1700    10.3420     8.3050   117.7950     2.5580     0.0280
 1426.5000   -56.5500     6.9130     7.1770    10.3420     8.3060   119.6200     2.5490     0.0190
 1427.0000   -56.5530     7.0700     7.1830    10.3420     8.3070   119.9440     2.5560     0.0330
 1427.5000   -56.5000     7.0610     7.1920    10.3420     8.3080   119.7100     2.5670     0.0460
 1428.0000   -56.4080     7.0730     7.2010    10.3420     8.3090   118.3760     2.5850     0.0530
 1428.5000   -56.3210     7.0820     7.2110    10.3420     8.3090   117.3300     2.5770     0.0570
 1429.0000   -56.2350     7.0920     7.2200    10.3430     8.3100   115.8770     2.5630     0.0400
 1429.5000   -56.1480     7.1010     7.2290    10.3410     8.3110   115.4100     2.5600     0.0360
 1430.0000   -56.0610     7.1100     7.2380    10.3430     8.3120   115.0560     2.5570     0.0360
 1430.5000   -55.9740     7.1180     7.2480    10.3900     8.3130   114.5370     2.5390     0.0310
 1431.0000   -55.8880     7.1270     7.2570    10.5840     8.3140   114.9240     2.5250     0.0190
 1431.5000   -55.7970     7.1360     7.2660    10.7240     8.3150   116.0630     2.5430     0.0290
 1432.0000   -55.7460     7.1450     7.2750    10.7030     8.3150   115.7570     2.5720     0.0420
 1432.5000   -55.7930     7.1540     7.2840    10.6510     8.3160   116.0710     2.5670     0.0350
 1433.0000   -55.8640     7.1630     7.2930    10.6000     8.3170   118.0000     2.5620     0.0330
 1433.5000   -55.9300     7.1720     7.3030    10.5490     8.3180   120.7090     2.5720     0.0560
 1434.0000   -55.9960     7.1800     7.3140    10.4980     8.3190   121.4690     2.5910     0.0640
 1434.5000   -56.0630     7.1820     7.3060    10.4470     8.3200   120.7690     2.5590     0.0430
 1435.0000   -56.1300     7.1510     7.2740    10.3960     8.3210   120.2220     2.5590     0.0360
 1435.5000   -56.1970     7.1150     7.2410    10.3450     8.3220   120.1290     2.5600     0.0290
 1436.0000   -56.2630     7.0790     7.2090    10.2930     8.3220   119.9670     2.5400     0.0130
 1436.5000   -56.3300     7.0430     7.1760    10.2420     8.3230   119.4910     2.5370     0.0190
 1437.0000   -56.3970     7.0060     7.1430    10.1910     8.3240   118.2570     2.5540     0.0350
 1437.5000   -56.4600     6.9700     7.1100    10.1550     8.3250   119.3350     2.5640     0.0510
 1438.0000   -56.5290     6.9340     7.0780    10.1350     8.3260   120.2670     2.5730     0.0640
 1438.5000   -56.4210     6.8980     7.0470    10.1130     8.3270   120.0090     2.5790     0.0710
 1439.0000   -56.2300     6.8610     7.0130    10.0920     8.3280   119.0720     2.5410     0.0300
 1439.5000   -56.0400     6.8250     6.9800    10.0700     8.3280   119.3480     2.5360     0.0190
 1440.0000   -55.8580     6.7890     6.9260    10.0480     8.3290   120.0610     2.5540     0.0260
 1440.5000   -55.6670     6.7530     7.0530    10.0260     8.3300   120.3530     2.5660     0.0350
 1441.0000   -55.4700     6.7170     7.0610    10.0040     8.3310   119.8850     2.5600     0.0380
 1441.5000   -55.3530     6.6780     7.0690     9.9820     8.3320   120.3240     2.5510     0.0250
 1442.0000   -55.5460     6.6890     7.0780     9.9720     8.3330   121.4490     2.5430     0.0220
 1442.5000   -55.7400     6.7070     7.0860     9.8620     8.3340   122.0240     2.5570     0.0360
 1443.0000   -55.9400     6.7250     7.0950     9.6150     8.3340   120.4670     2.5500     0.0220
 1443.5000   -56.1430     6.7440     7.1030     9.6370     8.3350   119.2520     2.5620     0.0490
 1444.0000   -56.3360     6.7630     7.1110     9.7020     8.3360   118.6800     2.5590     0.0350
 1444.5000   -56.5360     6.7820     7.1190     9.7660     8.3370   118.5370     2.5610     0.0200
 1445.0000   -56.5460     6.8010     7.1280     9.8310     8.3380   117.5300     2.5740     0.0390
 1445.5000   -56.5510     6.8200     7.1360     9.8950     8.3390   117.2900     2.5830     0.0550
 1446.0000   -56.5470     6.8390     7.1440     9.9600     8.3400   117.6200     2.5770     0.0550
 1446.5000   -56.5490     6.8570     7.1530    10.0250     8.3410   118.0800     2.5730     0.0560
 1447.0000   -56.5480     6.8750     7.1610    10.0890     8.3410   119.0880     2.5800     0.0510
 1447.5000   -56.5440     6.8990     7.1690    10.1550     8.3430   120.0960     2.5830     0.0460
 1448.0000   -56.4720     6.9270     7.1820    10.1550     8.3470   120.2290     2.5800     0.0410
 1448.5000   -56.3970     6.7890     7.1770    10.1550     8.3500   120.1980     2.5840     0.0350
 1449.0000   -56.3190     6.8080     7.1580    10.1550     8.3530   120.1630     2.5790     0.0340
 1449.5000   -56.2420     6.7980     7.1400    10.1550     8.3560   120.1310     2.5520     0.0250
 1450.0000   -56.1650     6.7990     7.1220    10.1550     8.3600   120.1030     2.5410     0.0150
 1450.5000   -56.0890     6.8000     7.1040    10.1550     8.3630   120.0470     2.5560     0.0340
 1451.0000   -56.0110     6.8010     7.0860    10.1550     8.3660   119.2710     2.5670     0.0340
 1451.5000   -55.9340     6.8010     7.0680    10.1550     8.3700   117.0890     2.5640     0.0470
 1452.0000   -55.8590     6.8010     7.0500    10.1550     8.3730   114.8450     2.5510     0.0240
 1452.5000   -55.7770     6.8010     7.0320    10.1550     8.3760   112.3830     2.5400     0.0360
 1453.0000   -55.7790     6.8010     7.0140     9.8490     8.3790   112.0930     2.5630     0.0560
 1453.5000   -55.8320     6.8010     6.9970     9.5540     8.3780   113.0140     2.5750     0.0610
 1454.0000   -55.8800     6.8010     6.9780     9.2600     8.3670   113.2420     2.5760     0.0570
 1454.5000   -55.9260     6.8010     6.9600     9.1030     8.3570   113.9370     2.5760     0.0500
 1455.0000   -55.9760     6.8000     6.9430     9.5210     8.3460   114.9080     2.5630     0.0410
 1455.5000   -56.0220     6.8010     6.9270     9.9110     8.3360   115.3600     2.5450     0.0330
 1456.0000   -56.0700     6.8020     6.9690    10.3420     8.3250   115.0380     2.5530     0.0350
 1456.5000   -56.1220     6.8270     7.0070    10.3420     8.3150   115.5460     2.5510     0.0320
 1457.0000   -56.1540     6.8560     7.0450    10.2770     8.3040   116.3550     2.5480     0.0320
 1457.5000   -56.1480     6.8850     7.0840    10.2180     8.3030   115.6690     2.5640     0.0420
 1458.0000   -56.1160     6.9140     7.1230    10.1550     8.3050   114.5610     2.5710     0.0510
