~VERSION INFORMATION
 VERS.                2.0:   CWLS LOG ASCII STANDARD - VERSION 2.0
 WRAP.                 NO:   ONE LINE PER DEPTH STEP
~WELL INFORMATION
#MNEM.UNIT      DATA TYPE    INFORMATION
#----------   ------------   ------------------------------
 STRT.F            5.0000:   START DEPTH
 STOP.F         4012.0000:   STOP DEPTH
 STEP.F            0.5000:   STEP LENGTH
 NULL.          -999.2500:   NO VALUE
 COMP.   LAWRENCE ALLISON:   COMPANY
 WELL. LAWRENCE "X" 51 #1-15:   WELL
 FLD .                NPR:   FIELD
 LOC .      S15 T38N R78W:   LOCATION
 CNTY.            NATRONA:   COUNTY
 STAT.            WYOMING:   STATE
 CTRY. UNITED STATES OF AMERICA:   COUNTRY
 SRVC.      DRESSER ATLAS:   SERVICE COMPANY
 DATE.        03-JUN-1985:   LOGDATE
 API .     49025110270000:   API NUMBER
~CURVE INFORMATION
#MNEM.UNIT       API CODE    CURVE DESCRIPTION
#----------   ------------   ------------------------------
 DEPT.F                  :   
 NPHI.DEC    42 890 03 00:   NEUTRON POROSITY SANDSTONE
 RHOB.G/C3   45 350 01 00:   BULK DENSITY
 CORR.G/C3   45 356 01 00:   DENSITY CORRECTION
 TEND.LBS    45 635 01 00:   TENSION FROM DENSITY LOG
 CALD.IN     45 280 60 00:   CALIPER FROM DENSITY LOG
 GRR .GAPI   07 310 01 00:   GAMMA RAY FROM RESISTIVITY
 SPR .MV     07 010 01 00:   SPONTANEOUS POTENTIAL
 RSFL.OHMM   07 220 01 00:   SPHERICALLY FOCUSED LOG RES.
 RILD.OHMM   07 120 46 00:   DEEP INDUCTION RESISTIVITY
 RILM.OHMM   07 120 44 00:   INDUCTION LOG MEDIUM RESISTIVITY
 TENR.LBS    07 635 01 00:   TENSION
~PARAMETER INFORMATION
#MNEM.UNIT          VALUE    DESCRIPTION
#----------   ------------   ------------------------------
 EKB .F         5235.0000:   Kelly bushing
 EGL .F         5222.0000:   Ground level
 EDF .F            0.0000:   Drilling floor
 TD  .F         4010.0000:   Total depth
 DATE.        03-JUN-1985:   Date logged
 CLNT.            A2DTECH:   Client Code
 SL  . 202' FNL & 2478' FEL:   Surface Location
 PD  .                 GL:   Permanent Datum
 EPD .F              5222:   Elevation Permanent Datum
 LMF .                 KB:   Log Measured From
 DMF .                 KB:   Drilling Measured From
 DAPD.F                13:   Feet Above Permanent Datum
 DD  .F              4010:   Depth driller
 DL  .F              4005:   Depth logger
 BLI .F              4003:   Bottom log interval
 CS1 .IN            8.625:   Casing size
 CBD1.      8.625" @ 605':   Casing driller 1
 CBL1.F               608:   Casing logger 1
 BS1 .IN            7.875:   Bit size
 BSD1.F              4010:   Depth drilled with bit1
 DFT .            KCL/GEL:   Type fluid in hole
 DFD .                  9:   Density
 DFV .                 45:   Viscosity
 DFPH.                  8:   pH
 DFL .                9.8:   Fluid loss
 MSS .           FLOWLINE:   Source of sample
 RMS .OHMM            .40:   Rm
 MST .F                65:   Rm Meas. temp.
 RMF .OHMM            .32:   Rmf
 MFST.F                65:   Rmf Meas. temp.
 RMC .OHMM            .50:   Rmc
 MCST.F                65:   Rmc Meas. temp.
 MFSS.               MEAS:   Source Rmf.
 MCSS.               CALC:   Source Rmc.
 RMB .OHMM            .20:   Rm. at BHT
 BHT .F               130:   BHT.
 TCS .HRS               3:   Time Circ. stopped
 MRT .F               130:   Maximum recorded temp.
 LUN .               6274:   Logging unit number
 LUL .               GLTE:   Logging unit location
 ENGI.             RAUTIO:   Recorded By
 WITN.             STRONG:   Witnessed by
 ORIG.     2.5", 5" PRINT:   Origin of data
 UWI .     49025110270000:   Unique Well ID
 DICO. A2D TECHNOLOGIES, INC.:   Digitizing Company
~OTHER INFORMATION
~A    DEPT    NPHI       RHOB       CORR       TEND       CALD        GRR        SPR       RSFL       RILD       RILM       TENR   
# ...
 3512.5000     0.2950     2.3960     0.1950   -40.4190     8.5190   201.5030   -79.0940     3.3340     5.1010     6.1240  -100.1350
 3513.0000     0.2930     2.4190     0.1250   -38.4800     8.5160   117.3950   -79.2170     3.9000     4.9550     6.1810  -104.2380
 3513.5000     0.2910     2.4200     0.0620   -33.6900     8.5140   119.3890   -79.4600     8.3330     4.9090     6.1670   -98.5760
 3514.0000     0.2930     2.4290     0.0200   -28.8990     8.5110   101.9500   -79.7050    12.7140     5.1810     6.1030   -88.1590
 3514.5000     0.2940     2.4370     0.0190   -24.1090     8.5090   109.4990   -79.9500    14.4220     5.5980     6.0680   -77.7410
 3515.0000     0.2870     2.4400     0.0120   -19.3190     8.5060   121.7970   -80.1950    11.4750     6.0150     6.2230   -67.3240
 3515.5000     0.2790     2.4340     0.0150   -14.5280     8.5040   133.8870   -80.4400     9.1080     6.4330     6.4420   -56.9060
 3516.0000     0.2780     2.4290     0.0200    -9.7380     8.5010   139.4980   -80.6840     6.7410     6.8500     6.6610   -46.4880
 3516.5000     0.2790     2.4240     0.0210    -4.9470     8.5000   134.9780   -80.9290     5.5340     7.2280     6.8800   -36.0710
 3517.0000     0.2810     2.4180     0.0170    -0.4990     8.5000   126.8690   -81.0070     6.2120     7.4960     7.0990   -46.3500
 3517.5000     0.2840     2.4140     0.0120    -0.3440     8.5000   118.9810   -80.8600     8.0860     7.7410     7.3840   -59.0000
 3518.0000     0.2940     2.4140     0.0030    -0.1990     8.5000   111.9000   -80.8030     9.9590     7.9860     7.6950   -55.0400
 3518.5000     0.3080     2.4140     0.0060    -0.0540     8.5000   106.1490   -80.6450    12.6770     8.1480     8.0070   -35.0000
 3519.0000     0.3160     2.4140     0.0350     0.0910     8.5000   107.1400   -80.4880    12.6310     7.7890     8.1480   -48.5000
 3519.5000     0.3180     2.4140     0.0440     0.2360     8.5000   118.7540   -80.3310    12.5610     7.4090     8.0730   -66.5710
 3520.0000     0.3200     2.4100     0.0290     0.3810     8.5000   135.2700   -80.1750    10.6960     7.0960     8.0730   -85.0000
 3520.5000     0.3470     2.4050     0.0160     0.5260     8.5000   149.5590   -80.0190     8.7710     7.2410     8.0730   -83.7750
 3521.0000     0.3410     2.4000     0.0280     0.6710     8.5000   149.4710   -79.8540     6.8450     7.4880     8.0730   -82.5260
 3521.5000     0.3290     2.3990     0.0340     0.8160     8.5000   133.3020   -79.4670     6.4720     7.7360     8.1480   -81.2770
 3522.0000     0.3180     2.4000     0.0260     0.9610     8.5000   121.5490   -79.0710     9.0210     7.7810     7.2280   -80.0270
 3522.5000     0.3110     2.4120     0.0280     1.1060     8.5000   114.5300   -78.6760    12.8970     6.3260     6.2490   -78.7780
 3523.0000     0.3150     2.4290     0.0460     1.2510     8.5000   125.3630   -78.2820    16.7720     5.3040     5.2960   -77.5280
 3523.5000     0.3170     2.4460     0.0630     1.3960     8.5000   137.5600   -77.8880    34.2790     4.2810     4.3430   -76.2790
 3524.0000     0.3130     2.4520     0.0800     1.5410     8.5000   159.6000   -77.6910    27.5670     3.2590     3.3900   -75.0300
 3524.5000     0.3010     2.4360     0.0970     1.6860     8.5000   185.3760   -77.7490    14.0130     2.2370     2.4370   -73.7800
 3525.0000     0.2910     2.4080     0.1140     1.8310     8.5000   200.4710   -77.8050     4.1160     2.1030     2.1040   -72.5310
 3525.5000     0.2870     2.4030     0.1280     1.9760     8.5000   204.0630   -77.8590     3.1510     2.0730     2.0850   -71.2810
 3526.0000     0.2900     2.4050     0.1080     2.1210     8.5000   214.3640   -78.1090     2.7520     2.0280     2.2000   -70.0320
 3526.5000     0.2940     2.3980     0.0870     2.2650     8.5000   216.2670   -78.4320     2.3280     2.1930     2.5010   -68.7830
 3527.0000     0.2950     2.3910     0.0980     2.4100     8.5000   191.6870   -78.7560     2.4800     2.4830     3.0680   -67.5330
 3527.5000     0.2960     2.3940     0.1160     2.5550     8.5000   163.6680   -79.0800     3.3580     3.4640     4.1430   -66.2840
 3528.0000     0.2970     2.4170     0.0790     2.7000     8.5000   130.0740   -79.4040     4.8130     4.4980     5.2180   -65.0000
 3528.5000     0.2980     2.4400     0.0420     2.8450     8.5000   103.4780   -79.7300     8.4010     5.5310     6.2930   -64.6890
 3529.0000     0.2990     2.4500     0.0140     2.9900     8.5000    99.4840   -79.8590    12.6100     6.5650     7.3690   -64.3680
 3529.5000     0.2870     2.4470     0.0050     3.1350     8.5000    99.4530   -79.8610    14.3710     7.5990     8.2990   -64.0480
 3530.0000     0.2710     2.4440    -0.0040     3.2800     8.5000   104.3790   -79.8620    14.5560     8.3780     8.8390   -63.7280
 3530.5000     0.2700     2.4360     0.0120     3.4250     8.5000   114.2330   -79.8870    13.4570     8.9970     9.6170   -63.4080
 3531.0000     0.2700     2.4280     0.0310     3.5700     8.5000   124.1530   -79.9120    11.6980     9.1840     9.4900   -63.0870
 3531.5000     0.2710     2.4220     0.0500     3.7150     8.5000   126.6070   -79.9370     9.9400     9.1840     9.3550   -62.7670
 3532.0000     0.2750     2.4170     0.0690     3.8600     8.5000   123.0800   -79.9620     8.2990     8.9440     9.1000   -62.4470
 3532.5000     0.2870     2.4220     0.0560     4.0050     8.5000   120.5890   -79.9870    10.2660     8.6900     8.9340   -62.1270
 3533.0000     0.3000     2.4300     0.0390     4.1500     8.5000   125.5950   -80.0130    12.1080     8.4520     8.8320   -61.8060
 3533.5000     0.3050     2.4280     0.0330     4.2950     8.5000   135.8030   -80.0380    13.3980     8.2230     8.6830   -61.4860
 3534.0000     0.3100     2.4260     0.0420     4.4400     8.5000   141.8790   -80.0230    11.4680     8.1480     8.5320   -61.1660
 3534.5000     0.3270     2.4250     0.0490     4.5850     8.5000   146.2020   -79.7000     9.1840     7.6280     7.9360   -60.8460
 3535.0000     0.3250     2.4350     0.0820     4.7300     8.5000   148.3700   -79.3750    10.1290     7.0090     7.2180   -60.5250
 3535.5000     0.3120     2.4440     0.0940     4.8750     8.4970   155.0320   -79.0510    11.8990     6.3890     6.4990   -60.2050
 3536.0000     0.2950     2.4460     0.1080     5.0200     8.4910   168.4850   -78.7260    13.0330     6.2030     6.1240   -59.8850
 3536.5000     0.2980     2.4350     0.1200     5.1650     8.4850   188.8100   -78.4000    10.8240     6.1810     6.1810   -59.5650
 3537.0000     0.3080     2.4250     0.1190     5.3100     8.4790   196.7920   -78.0900     8.6590     6.3280     6.5690   -59.2440
 3537.5000     0.3230     2.4230     0.1150     5.4550     8.4740   182.2550   -78.2140     5.6370     6.5170     6.9670   -58.9240
 3538.0000     0.3250     2.4350     0.1100     5.5990     8.4690   165.6290   -78.3600     6.8740     7.0830     8.0110   -58.6040
 3538.5000     0.3080     2.4460     0.0970     5.7440     8.4620   133.2640   -78.5040     8.9190     7.8940     9.0550   -58.2840
 3539.0000     0.3050     2.4530     0.0560     5.8890     8.4700   122.9330   -78.6470    10.9650     8.7050    10.0990   -57.9630
 3539.5000     0.3130     2.4510     0.0480     6.0340     8.4920   119.1990   -78.7910    12.9130     9.5160    11.1430   -57.6430
 3540.0000     0.3140     2.4490     0.0500     6.1790     8.5130   118.1130   -78.9340    13.2800    10.3280    12.1870   -57.3230
 3540.5000     0.3030     2.4380     0.0540     6.3240     8.5340   123.3560   -79.0780    13.5170    11.1390    13.1510   -57.0030
 3541.0000     0.2920     2.4270     0.0470     6.4690     8.5550   127.4800   -79.2210    13.7740    11.7720    13.6470   -56.6820
 3541.5000     0.2820     2.4180     0.0380     6.6140     8.5770   128.6630   -79.3650    14.0310    12.1250    13.6470   -56.3620
 3542.0000     0.2770     2.4190     0.0290     6.7590     8.5970   126.5080   -79.5080    14.5740    12.3870    13.6470   -56.0420
 3542.5000     0.2830     2.4240     0.0250     6.9040     8.6190   126.0500   -79.6510    15.9370    12.6500    13.7730   -55.7220
