~VERSION INFORMATION
 VERS.                2.0:   CWLS LOG ASCII STANDARD - VERSION 2.0
 WRAP.                 NO:   ONE LINE PER DEPTH STEP
~WELL INFORMATION
#MNEM.UNIT      DATA TYPE    INFORMATION
#----------   ------------   ------------------------------
 STRT.F          502.0000:   START DEPTH
 STOP.F         4210.0000:   STOP DEPTH
 STEP.F            0.5000:   STEP LENGTH
 NULL.          -999.2500:   NO VALUE
 COMP.   FENIX & SCISSION:   COMPANY
 WELL. FENIX NPR 3 "JX" #43-34:   WELL
 FLD .              N P R:   FIELD
 LOC .      S34 T39N R78W:   LOCATION
 CNTY.            NATRONA:   COUNTY
 STAT.            WYOMING:   STATE
 CTRY. UNITED STATES OF AMERICA:   COUNTRY
 SRVC.              WELEX:   SERVICE COMPANY
 DATE.        05-FEB-1979:   LOGDATE
 API .     49025107690000:   API NUMBER
~CURVE INFORMATION
#MNEM.UNIT       API CODE    CURVE DESCRIPTION
#----------   ------------   ------------------------------
 DEPT.F                  :   
 TENR.LBS    07 635 01 00:   TENSION FROM RESISTIVITY
 SPR .MV     07 010 01 00:   SPONTANEOUS POTENTIAL
 SFL .OHMM   07 220 01 00:   SHALLOW FOCUSED LOG RESISTIVITY
 ILD .OHMM   07 120 46 00:   DEEP INDUCTION RESISTIVITY
 ILM .OHMM   07 120 44 00:   INDUCTION LOG MEDIUM RESISTIVITY
 TEND.LBS    45 635 01 00:   TENSION FROM DENSITY LOG
 CALD.IN     45 280 60 00:   CALIPER FROM DENSITY LOG
 GRD .GAPI   45 310 01 00:   GAMMA RAY FROM DENSITY LOG
 CORR.G/C3   45 356 01 00:   DENSITY CORRECTION
 NPHI.DEC    42 890 03 00:   NEUTRON POROSITY SANDSTONE
 RHOB.G/C3   45 350 01 00:   BULK DENSITY
~PARAMETER INFORMATION
#MNEM.UNIT          VALUE    DESCRIPTION
#----------   ------------   ------------------------------
 EKB .F         5108.0000:   Kelly bushing
 EGL .F         5098.0000:   Ground level
 TD  .F         4204.0000:   Total depth
 DATE.        05-FEB-1979:   Date logged
 CLNT.            A2DTECH:   Client Code
 SL  . 1627' FNL & 2110' FWL:   Surface Location
 PD  .                 GL:   Permanent Datum
 DD  .F              4200:   Depth driller
 DL  .F              4204:   Depth logger
 BLI .F              4202:   Bottom log interval
 CS1 .IN            8.625:   Casing size
 CBD1.      8.625" @ 506':   Casing driller 1
 CBL1.F               506:   Casing logger 1
 BS1 .IN            7.875:   Bit size
 DFT .           CHEM/GEL:   Type fluid in hole
 DFD .                9.2:   Density
 DFV .                 55:   Viscosity
 DFPH.                9.5:   pH
 DFL .                5.7:   Fluid loss
 MSS .            MUD/PIT:   Source of sample
 RMS .OHMM            1.1:   Rm
 MST .F                52:   Rm Meas. temp.
 RMF .OHMM            .45:   Rmf
 MFST.F                52:   Rmf Meas. temp.
 RMC .OHMM            1.8:   Rmc
 MCST.F                52:   Rmc Meas. temp.
 MFSS.               MEAS:   Source Rmf.
 RMB .OHMM           5.06:   Rm. at BHT
 BHT .F               128:   BHT.
 TCS .HRS               8:   Time Circ. stopped
 MRT .F               128:   Maximum recorded temp.
 LUN .               9685:   Logging unit number
 LUL .             CASPER:   Logging unit location
 ENGI.        KEIN/JOINER:   Recorded By
 WITN.        J. DINSMORE:   Witnessed by
 ORIG.           5" PRINT:   Origin of data
 UWI .     49025107690000:   Unique Well ID
 DICO. A2D TECHNOLOGIES, INC.:   Digitizing Company
 DAPD.F                10:   Feet Above Permanent Datum
 BSD1.F              4200:   Depth drilled with bit1
 MCSS.               MEAS:   Source Rmc.
 EPD .F              5098:   Elevation Permanent Datum
 LMF .                 KB:   Log Measured From
 DMF .                 KB:   Drilling Measured From
 TLI .F               500:   Top log interval
~OTHER INFORMATION
~A   DEPT     TENR        SPR        SFL        ILD        ILM        TEND        CALD       GRD        CORR       NPHI       RHOB 
# ...
  990.0000   780.0000   -60.3800     7.3290     6.5860     5.1640   874.8240    12.8910   118.7940     0.1260     0.3280     2.1300
  990.5000   780.0000   -60.3650     7.2500     6.6560     5.1650   875.1140    12.8290   117.8780     0.1200     0.3230     2.0700
  991.0000   780.0000   -60.3510     6.9350     6.6840     5.1610   875.4040    12.7920   116.3760     0.1060     0.3170     2.1290
  991.5000   780.0000   -60.3360     7.0410     6.8360     5.2280   875.6940    12.7500   115.7460     0.1140     0.3110     2.2530
  992.0000   780.0000   -60.3210     7.3060     6.9620     5.2770   875.9850    12.7100   116.5060    -0.0090     0.3020     2.4080
  992.5000   780.0000   -60.3060     7.6830     7.0880     5.3290   876.2750    12.6160   117.1310     0.0130     0.2990     2.4720
  993.0000   780.0000   -60.2910     8.3370     7.2150     5.3800   876.5650    12.4880   116.5180     0.0280     0.2980     2.4700
  993.5000   780.0000   -60.2760     8.5920     7.3410     5.4310   876.8550    12.4160   115.3240     0.0520     0.2910     2.4660
  994.0000   780.0000   -60.2610     8.9110     7.4670     5.4820   877.1460    12.4340   114.1420     0.0510     0.2870     2.4650
  994.5000   780.0000   -60.2460     9.2300     7.5940     5.5340   877.4360    12.4390   115.6920     0.0550     0.2840     2.4630
  995.0000   780.0000   -60.2310     9.4850     7.7450     5.5850   877.7260    12.4480   117.1380     0.0560     0.2840     2.4580
  995.5000   780.0000   -60.2170     8.8890     7.7940     5.6360   878.0160    12.4560   118.1890     0.0680     0.2870     2.4510
  996.0000   780.0000   -60.2020     8.4920     7.9160     5.6870   878.3070    12.4720   118.3870     0.0660     0.2890     2.4940
  996.5000   780.0000   -60.1870     8.4920     8.0390     5.7390   878.5970    12.4980   118.6290     0.0590     0.2910     2.5040
  997.0000   780.0000   -60.1720     9.1370     8.1850     5.7900   878.8870    12.4860   119.4200     0.0620     0.2880     2.5040
  997.5000   780.0000   -60.1570    10.2100     8.1990     5.8410   879.1770    12.4720   120.7640     0.0660     0.2830     2.4980
  998.0000   780.0000   -60.1420    10.2100     8.2340     5.8920   879.4680    12.4600   120.8950     0.0730     0.2850     2.4940
  998.5000   780.0000   -60.1270     9.9110     8.2680     5.9440   879.7580    12.4610   119.9520     0.1050     0.2860     2.4840
  999.0000   780.0000   -60.1120     9.3120     8.3030     5.9850   880.0480    12.4590   118.9880     0.1120     0.2880     2.4780
  999.5000   780.0000   -60.0980     9.6710     8.3370     5.9610   880.3380    12.4610   116.7270     0.1190     0.2910     2.4610
 1000.0000   780.0000   -60.0830    10.2100     7.9780     5.9410   880.6290    12.4640   114.7150     0.1110     0.2990     2.4300
 1000.5000   780.0000   -60.0680     9.6140     7.6190     5.9210   880.9190    12.5260   113.3470     0.1040     0.3050     2.4140
 1001.0000   780.0000   -60.0530     8.9610     7.3290     5.9010   881.2090    12.5740   111.7430     0.1120     0.3120     2.4120
 1001.5000   780.0000   -60.0380     8.3700     7.1950     5.8810   881.4990    12.6530   111.8880     0.1300     0.3180     2.3810
 1002.0000   780.0000   -60.0230     7.8890     7.5370     5.8610   881.7900    12.8160   112.1340     0.1530     0.3260     2.3480
 1002.5000   780.0000   -60.0080     7.8890     7.8890     5.8410   882.0800    13.0700   113.3080     0.1500     0.3260     2.3330
 1003.0000   780.0000   -59.9930     8.2610     7.8890     5.8210   882.3700    13.0910   115.6190     0.1350     0.3270     2.3400
 1003.5000   780.0000   -59.9790     8.6500     7.6410     5.8010   882.6600    13.0650   117.9020     0.1250     0.3260     2.3440
 1004.0000   780.0000   -59.9640     8.4250     7.4650     5.7790   882.9510    13.0240   119.4060     0.1130     0.3250     2.3500
 1004.5000   780.0000   -59.9700     8.1850     7.8880     5.7670   883.2410    12.9820   118.7540     0.1090     0.3230     2.3530
 1005.0000   780.0000   -59.9830     8.8610     8.3010     5.7680   883.5310    13.0020   118.0890     0.1040     0.3220     2.3520
 1005.5000   780.0000   -59.9960     9.3120     8.2310     5.7680   883.8210    13.0180   118.0500     0.1040     0.3230     2.3520
 1006.0000   780.0000   -60.0090     9.3120     8.0920     5.7680   884.1120    13.0200   118.9080     0.1070     0.3230     2.3580
 1006.5000   780.0000   -60.0220     9.3120     7.9520     5.7680   884.4020    13.0200   119.7840     0.1080     0.3200     2.3670
 1007.0000   780.0000   -60.0340     9.3120     7.8260     5.7680   884.6920    13.0200   120.1250     0.1210     0.3160     2.3770
 1007.5000   780.0000   -60.0470     9.0390     7.7090     5.7680   884.9820    13.0210   119.1870     0.1330     0.3120     2.3520
 1008.0000   780.0000   -60.0600     8.8350     7.5930     5.7680   885.2730    13.0350   117.9850     0.1430     0.3200     2.3210
 1008.5000   780.0000   -60.0730     8.5750     7.4770     5.7490   885.5630    13.0510   116.5980     0.1460     0.3210     2.2900
 1009.0000   780.0000   -60.0860     8.3150     7.3510     5.7230   885.8530    13.0640   114.9320     0.1460     0.3220     2.2590
 1009.5000   780.0000   -60.0990     8.0360     7.4000     5.6960   886.1430    13.1090   112.4800     0.1440     0.3250     2.2300
 1010.0000   780.0000   -60.1120     7.8370     7.4980     5.6700   886.4340    13.1480   110.8620     0.1420     0.3280     2.2000
 1010.5000   780.0000   -60.1250     7.6040     7.6040     5.6550   886.7240    13.3990   110.6580     0.1400     0.3290     2.1710
 1011.0000   780.0000   -60.1380     7.7270     7.6040     5.6310   887.0140    13.3270   112.4090     0.1390     0.3250     2.1820
 1011.5000   780.0000   -60.1500     7.8610     7.5290     5.6060   887.3040    13.2680   115.3970     0.1380     0.3220     2.1910
 1012.0000   780.0000   -60.1630     7.9960     7.2880     5.5820   887.5950    13.2730   117.2220     0.1370     0.3180     2.1910
 1012.5000   780.0000   -60.1760     7.7970     7.0470     5.5580   887.8850    13.2960   117.1360     0.1350     0.3150     2.1970
 1013.0000   780.0000   -60.1890     7.4570     6.8060     5.5340   888.1750    13.2070   117.2570     0.1340     0.3130     2.1510
 1013.5000   780.0000   -60.2020     7.1180     6.5650     5.5100   888.4650    13.2410   116.8460     0.1310     0.3130     2.0920
 1014.0000   780.0000   -60.2150     6.8080     6.4420     5.4860   888.7560    13.3840   115.8980     0.1270     0.3120     2.0230
 1014.5000   780.0000   -60.2280     6.9780     6.6480     5.4590   889.0460    13.4980   116.0580     0.1240     0.3100     2.0820
 1015.0000   780.0000   -60.2410     7.2260     6.9490     5.4940   889.3360    13.5620   117.1350     0.1080     0.3080     2.1470
 1015.5000   780.0000   -60.2530     7.4740     7.2490     5.5330   889.6260    13.5340   117.9040     0.0940     0.3040     2.2130
 1016.0000   780.0000   -60.2660     8.2110     7.5490     5.5730   889.9170    13.4160   116.7670     0.0900     0.2950     2.2970
 1016.5000   780.0000   -60.2790     9.6610     7.8890     5.6130   890.2070    13.1930   116.8640     0.1030     0.2880     2.3740
 1017.0000   780.0000   -60.2920    10.0240     7.9290     5.6530   890.4970    12.9500   117.9300     0.1150     0.2790     2.3550
 1017.5000   780.0000   -60.3050     9.7860     7.9750     5.6930   890.7870    12.7460   118.0040     0.1290     0.2760     2.3490
 1018.0000   780.0000   -60.3180     9.4850     8.0210     5.7330   891.0770    12.7430   118.0410     0.1180     0.2780     2.3730
 1018.5000   780.0000   -60.3310    10.4000     8.0670     5.7730   891.3680    12.7400   118.8190     0.1040     0.2810     2.4240
 1019.0000   780.0000   -60.3430    10.0770     8.1130     5.8130   891.6580    12.7180   119.6700     0.1130     0.2830     2.4130
 1019.5000   780.0000   -60.3570     9.4850     8.1590     5.8740   891.9480    12.6480   120.3800     0.1110     0.2820     2.3970
 1020.0000   780.0000   -60.3580     9.5280     8.1850     5.8710   892.2380    12.5830   120.4050     0.1030     0.2810     2.3890
