~VERSION INFORMATION
 VERS.                2.0:   CWLS LOG ASCII STANDARD - VERSION 2.0
 WRAP.                 NO:   ONE LINE PER DEPTH STEP
~WELL INFORMATION
#MNEM.UNIT      DATA TYPE    INFORMATION
#----------   ------------   ------------------------------
 STRT.F            7.5000:   START DEPTH
 STOP.F         3140.0000:   STOP DEPTH
 STEP.F            0.5000:   STEP LENGTH
 NULL.          -999.2500:   NO VALUE
 COMP. LAWRENCE ALLISON WEST:   COMPANY
 WELL. LAWRENCE NPR 3 "AX" #51-3:   WELL
 FLD .                NPR:   FIELD
 LOC .       S3 T38N R78W:   LOCATION
 CNTY.            NATRONA:   COUNTY
 STAT.            WYOMING:   STATE
 CTRY. UNITED STATES OF AMERICA:   COUNTRY
 SRVC.      DRESSER ATLAS:   SERVICE COMPANY
 DATE.        09-NOV-1986:   LOGDATE
 API .     49025111180000:   API NUMBER
~CURVE INFORMATION
#MNEM.UNIT       API CODE    CURVE DESCRIPTION
#----------   ------------   ------------------------------
 DEPT.F                  :   
 CALD.IN     45 280 60 00:   CALIPER FROM DENSITY LOG
 DEN .LBS    45 350 01 00:   BULK DENSITY
 CORR.G/C3   45 356 01 00:   DENSITY CORRECTION
 NPOR.DEC    42 890 03 00:   ALPHA PROCESSED NEUTRON POROSITY
 SPR .MV     07 010 01 00:   SPONTANEOUS POTENTIAL
 GRR .GAPI   07 310 01 00:   GAMMA RAY FROM RESISTIVITY
 SFL .OHMM   07 220 01 00:   SHALLOW FOCUSED LOG RESISTIVITY
 ILD .OHMM   07 120 46 00:   DEEP INDUCTION RESISTIVITY
 ILM .OHMM   07 120 44 00:   INDUCTION LOG MEDIUM RESISTIVITY
 TENR.LBS    07 635 01 00:   TENSION FROM RESISTIVITY
~PARAMETER INFORMATION
#MNEM.UNIT          VALUE    DESCRIPTION
#----------   ------------   ------------------------------
 EKB .F         5132.0000:   Kelly bushing
 EGL .F         5120.0000:   Ground level
 TD  .F         3141.0000:   Total depth
 DATE.        09-NOV-1986:   Date logged
 CLNT.            A2DTECH:   Client Code
 SL  . 249' FNL & 2195' FEL:   Surface Location
 PD  .                 GL:   Permanent Datum
 EPD .F              5120:   Elevation Permanent Datum
 LMF .                 KB:   Log Measured From
 DMF .                 KB:   Drilling Measured From
 DAPD.F                12:   Feet Above Permanent Datum
 DD  .F              3141:   Depth driller
 DL  .F              3132:   Depth logger
 BLI .F              3126:   Bottom log interval
 CS1 .IN            8.625:   Casing size
 CBD1.      8.625" @ 690':   Casing driller 1
 CBL1.F               690:   Casing logger 1
 BS1 .IN            7.875:   Bit size
 BSD1.F              3141:   Depth drilled with bit1
 DFT .        KCL/POLYMER:   Type fluid in hole
 DFD .                8.9:   Density
 DFV .                 34:   Viscosity
 DFPH.                9.5:   pH
 DFL .                9.5:   Fluid loss
 MSS .           FLOWLINE:   Source of sample
 RMS .OHMM           .368:   Rm
 MST .F                66:   Rm Meas. temp.
 RMF .OHMM           .296:   Rmf
 MFST.F                66:   Rmf Meas. temp.
 RMC .OHMM           .468:   Rmc
 MCST.F                66:   Rmc Meas. temp.
 MFSS.               MEAS:   Source Rmf.
 MCSS.               CALC:   Source Rmc.
 RMB .OHMM           .282:   Rm. at BHT
 BHT .F               120:   BHT.
 TCS .HRS             3.5:   Time Circ. stopped
 MRT .F               120:   Maximum recorded temp.
 LUN .            HL-6274:   Logging unit number
 LUL .           GILLETTE:   Logging unit location
 ENGI.             RAUTIO:   Recorded By
 WITN.             STRONG:   Witnessed by
 ORIG.        2" 5" PRINT:   Origin of data
 UWI .     49025111180000:   Unique Well ID
 DICO. A2D TECHNOLOGIES, INC.:   Digitizing Company
~OTHER INFORMATION
~A    DEPT    CALD        DEN       CORR       NPOR        SPR         GRR       SFL        ILD        ILM       TENR   
# ...
 2654.0000     8.6388     2.4464    -0.0030     0.2134   -54.1321   100.6168     9.0822     6.7106     7.4314   -46.2167
 2654.5000     8.6997     2.4545    -0.0028     0.2117   -54.9447   100.6081     9.1643     6.7712     7.4986   -35.6707
 2655.0000     8.6458     2.4596    -0.0128     0.2085   -55.1519   100.5927     9.4200     6.7694     7.4273   -35.5517
 2655.5000     8.6208     2.4637    -0.0128     0.2020   -54.9555   101.3889     9.6828     6.7675     7.2888   -35.3139
 2656.0000     8.6015     2.4748    -0.0026     0.2028   -54.9610   102.5887     9.5909     6.7032     7.0868   -44.9678
 2656.5000     8.5819     2.4728     0.0010     0.2052   -54.7646   103.7884     9.1542     6.5175     6.9547   -54.7407
 2657.0000     8.5829     2.4708     0.0056     0.2108   -55.1736   104.5846     8.7374     6.3959     6.7620   -54.4433
 2657.5000     8.5835     2.4719     0.0118     0.2140   -55.3808   104.5736     8.1110     6.2767     6.6977   -44.0757
 2658.0000     8.5643     2.4719     0.0178     0.2193   -55.3873   106.1768     7.6703     6.2167     6.6337   -33.7081
 2658.5000     8.5845     2.4699    -0.0062     0.2148   -55.1909   107.7800     8.1061     6.2150     6.6319   -33.4108
 2659.0000     8.5858     2.4650     0.0000     0.2111   -54.9946   105.3477     8.8086     6.2712     6.6918   -43.1837
 2659.5000     8.5865     2.4600     0.0040     0.2131   -55.0000   102.1062     9.1387     6.3868     6.7523   -42.8863
 2660.0000     8.5872     2.4529     0.0060     0.2151   -54.8036   104.1130     8.5625     6.4446     6.8134   -42.5889
 2660.5000     8.5673     2.4590     0.0162     0.2155   -54.8090   107.7316     8.2487     6.5635     6.9391   -42.2916
 2661.0000     8.5887     2.4560     0.0184     0.2167   -54.8145   106.1086     8.7178     6.6228     7.0030   -11.7835
 2661.5000     8.5693     2.4631     0.0264     0.2147   -54.6181   101.6589     9.0445     6.7449     7.1309    28.7353
 2662.0000     8.5901     2.4632     0.0346     0.2114   -54.4218   100.4374     9.2969     6.7431     7.0636    99.6432
 2662.5000     8.5903     2.4642     0.0348     0.2070   -54.8307   100.8300     9.3809     6.7413     6.9961    39.5192
 2663.0000     8.5915     2.4612     0.0206     0.2033   -55.0379   103.2401     9.3783     6.6772     6.9296    19.6760
 2663.5000     8.5722     2.4643    -0.0194     0.2069   -55.4468   104.8431     9.2036     6.4922     6.6754    19.9139
 2664.0000     8.5730     2.4724    -0.0154     0.2109   -56.2603   105.6392     8.7050     5.8064     6.4305   -40.1506
 2664.5000     8.5737     2.4795    -0.0154     0.2133   -56.6692   108.8562     7.9808     5.4408     6.2530   -29.7830
 2665.0000     8.5745     2.4886    -0.0112     0.2174   -57.2799   109.6521     7.3169     4.9856     5.5563   -19.4155
 2665.5000     8.5747     2.4967    -0.0092     0.2250   -57.6887   109.2376     6.7083     4.5684     4.9372    -9.0479
 2666.0000     8.5960     2.4967     0.0232     0.2435   -57.6941   109.6301     6.2859     4.1861     4.4322    11.3900
 2666.5000     8.5766     2.4887     0.0374     0.2480   -58.3047   112.4434     5.4688     3.8359     4.0574   -28.5936
 2667.0000     8.5974     2.4787     0.0414     0.2480   -58.3101   113.2349     5.1240     3.5149     3.7143   -38.3665
 2667.5000     8.5775     2.4687     0.0294     0.2467   -58.5151   113.2261     5.2669     3.2208     3.4002   -27.9989
 2668.0000     8.6391     2.4657     0.0014     0.2475   -58.7244   113.2150     5.1206     2.9712     3.0547   -17.6313
 2668.5000     8.5795     2.4607    -0.0126     0.2531   -59.1332   113.2039     5.0260     2.7327     3.0546   -17.2745
 2669.0000     8.6003     2.4537    -0.0046     0.2604   -59.1386   113.9998     4.5101     2.3332     2.6322   -27.0474
 2669.5000     8.5812     2.4446    -0.0064     0.2757   -59.1440   120.0406     4.0471     2.1859     2.3325   -26.7500
 2670.0000     8.6219     2.4346    -0.0084     0.2906   -59.1493   124.0640     3.6317     2.1253     2.2469   -26.4527
 2670.5000     8.6227     2.4055    -0.0064     0.3028   -59.1558   132.5252     3.2478     2.1247     2.2463   -26.1553
 2671.0000     8.6229     2.3914     0.0038     0.3048   -58.7577   141.3898     3.1288     2.2457     2.3964   -15.7877
 2671.5000     8.6040     2.3975     0.0100     0.2934   -57.9551   147.0266     3.1570     2.3736     2.5564   -15.4904
 2672.0000     8.5931     2.4116     0.0242     0.2556   -56.7535   148.2255     3.4627     2.6036     3.0480   -25.2632
 2672.5000     8.5852     2.4842     0.0062     0.2178   -56.5550   130.8665     5.6563     3.0192     3.0479   -35.0361
 2673.0000     8.5861     2.5255    -0.0038     0.1819   -56.1569   114.7181    10.0430     3.7255     3.8774   -44.8090
 2673.5000     8.5868     2.5396    -0.0058     0.1694   -55.9606    91.7086    14.9551     4.9791     5.9389   -44.5116
 2674.0000     8.5875     2.5457    -0.0018     0.1670   -55.9650    90.4919    15.5155     6.0596     6.7930   -44.2143
 2674.5000     8.5880     2.5377    -0.0016     0.1738   -55.9704    91.2879    15.0869     8.1350     7.7699   -43.8575
 2675.0000     8.6091     2.5317     0.0106     0.1842   -55.9747    92.8907    13.3709     8.6797     9.0073   -43.5601
 2675.5000     8.5897     2.5217     0.0206     0.1883   -55.9809    95.3003    11.8500     8.9222     9.1739   -33.1925
 2676.0000     8.5703     2.5157     0.0288     0.1947   -55.9871   100.1268    10.6990     9.0028     9.1714   -32.8952
 2676.5000     8.6002     2.5036     0.0430     0.2076   -55.9934   101.3261    10.2118     9.0004     9.1689   -32.5978
 2677.0000     8.5719     2.5057     0.0170     0.2108   -56.4019   101.7185     9.9292     8.9148     9.1664   -32.3004
 2677.5000     8.5726     2.5107     0.0070     0.2116   -56.6090   102.1110     9.7442     8.8301     9.1638   -32.0031
 2678.0000     8.5732     2.5118    -0.0072     0.2076   -56.6154   102.9068     9.5622     8.8277     9.1613    -1.4950
 2678.5000     8.5740     2.5159    -0.0192     0.2019   -56.6187   103.7026     9.9210     8.7433     9.1583   -21.3381
 2679.0000     8.5747     2.5099    -0.0270     0.2007   -56.6262   104.0950    10.2922     8.7409     9.1558   -21.0408
 2679.5000     8.5553     2.5029    -0.0230     0.2002   -56.6316   103.2773    10.8776     8.7385     9.1533   -30.8137
 2680.0000     8.5561     2.4969     0.0012     0.2002   -56.6370   101.6507    11.3902     8.7361     9.1508   -30.5163
 2680.5000     8.5769     2.5019     0.0134     0.2010   -56.4408   101.2364    11.4931     8.7337     9.0638   -40.2892
 2681.0000     8.5776     2.5040     0.0356     0.2022   -56.4462   101.2254    11.2790     8.7313     9.0614   -39.9324
 2681.5000     8.5983     2.5091     0.0478     0.2038   -56.2499   102.0212    10.6662     8.6484     9.0589   -39.6350
 2682.0000     8.5992     2.5020     0.0418     0.2022   -55.8519   102.0102    10.6633     8.4871     9.0564    -9.1269
 2682.5000     8.5798     2.5021     0.0016     0.2042   -56.2607   101.9993    10.9608     8.4848     8.9703   -28.9701
 2683.0000     8.5806     2.5031    -0.0022     0.2090   -56.1433   101.5850    11.1628     8.4824     8.9679   -18.6025
 2683.5000     8.5814     2.5122    -0.0002     0.2138   -56.0698   101.1707    10.8538     8.6389     8.9654   -18.3051
 2684.0000     8.5821     2.5173     0.0240     0.2130   -56.2769   100.7564    10.2641     8.7982     9.0465   -28.0780
 2684.5000     8.5828     2.5154     0.0322     0.2065   -55.8790   100.3421    10.0729     9.0440     9.1283   -27.7806
 2685.0000     8.6033     2.5053     0.0282     0.2053   -55.6838   100.3312    10.4503     9.2961     9.2961   -27.4833
 2685.5000     8.6044     2.5003     0.0042     0.2077   -55.6892   100.7236    10.8413     9.2936     9.3802   -27.1859
 2686.0000     8.6050     2.4963    -0.0200     0.2085   -55.4929   102.3260    11.1438     9.2910     9.4650   -47.0885
 2686.5000     8.6058     2.4923    -0.0238     0.2084   -55.7000   104.3316    11.1408     9.2885     9.6395   -40.4423
 2687.0000     8.5859     2.4894    -0.0258     0.2056   -55.5016   105.5284    10.9333     9.4598     9.8173   -36.4236
