~VERSION INFORMATION
 VERS.                2.0:   CWLS LOG ASCII STANDARD - VERSION 2.0
 WRAP.                 NO:   ONE LINE PER DEPTH STEP
~WELL INFORMATION
#MNEM.UNIT      DATA TYPE    INFORMATION
#----------   ------------   ------------------------------
 STRT.F            0.5000:   START DEPTH
 STOP.F         3195.0000:   STOP DEPTH
 STEP.F            0.5000:   STEP LENGTH
 NULL.          -999.2500:   NO VALUE
 COMP.   TESORO PETROLEUM:   COMPANY
 WELL. TESORO NPR 3 "A" #15-10:   WELL
 FLD .        TEAPOT DOME:   FIELD
 LOC .      S10 T38N R78W:   LOCATION
 CNTY.            NATRONA:   COUNTY
 STAT.            WYOMING:   STATE
 CTRY. UNITED STATES OF AMERICA:   COUNTRY
 SRVC.       SCHLUMBERGER:   SERVICE COMPANY
 DATE.        03-JUL-1969:   LOGDATE
 API .     49025600130000:   API NUMBER
~CURVE INFORMATION
#MNEM.UNIT       API CODE    CURVE DESCRIPTION
#----------   ------------   ------------------------------
 DEPT.F                  :   
 SPR .MV     05 010 01 00:   SPONTANEOUS POTENTIAL FROM RES.
 ASN .OHMM   05 041 16 00:   AMPLIFIED SHORT NORMAL 16"
 ILD .OHMM   05 120 46 00:   INDUCTION LOG DEEP
 CALD.IN     45 280 60 00:   CALIPER FROM DENSITY LOG
 GRD .GAPI   45 310 01 00:   GAMMA RAY FROM DENSITY LOG
 RHOB.G/C3   45 350 01 00:   BULK DENSITY
~PARAMETER INFORMATION
#MNEM.UNIT          VALUE    DESCRIPTION
#----------   ------------   ------------------------------
 EKB .F         5250.0000:   Kelly bushing
 EGL .F         5237.0000:   Ground level
 EDF .F            0.0000:   Drilling floor
 TD  .F         3200.0000:   Total depth
 CLNT.            A2DTECH:   Client Code
 SL  . 990' FWL & 1980' FSL:   Surface Location
 PD  .                 GL:   Permanent Datum
 EPD .F              5237:   Elevation Permanent Datum
 LMF .                 KB:   Log Measured From
 DMF .                 KB:   Drilling Measured From
 DAPD.F                13:   Feet Above Permanent Datum
 DATE.        03-JUL-1969:   Date Logged [DD-MMM-YYYY]
 DD  .F              3200:   Depth driller
 DL  .F              3196:   Depth logger
 BLI .F              3195:   Bottom log interval
 TLI .F               676:   Top log interval
 CS1 .IN            10.75:   Casing size
 CBD1.      10.75" @ 675':   Casing driller 1
 CBL1.F               676:   Casing logger 1
 BS1 .IN            6.125:   Bit size
 BSD1.F              3200:   Depth drilled with bit1
 DFT .      FRESH GEL MUD:   Type fluid in hole
 DFD .                9.5:   Density
 DFV .                 46:   Viscosity
 DFPH.                9.5:   pH
 DFL .                6.4:   Fluid loss
 MSS .           FLOWLINE:   Source of sample
 RMS .OHMM           2.05:   Rm
 MST .F                76:   Rm Meas. temp.
 RMF .OHMM           1.49:   Rmf
 MFST.F                78:   Rmf Meas. temp.
 MFSS.               MEAS:   Source Rmf.
 RMB .OHMM           1.34:   Rm. at BHT
 BHT .F               116:   BHT.
 TCS .HRS               2:   Time Circ. stopped
 MRT .F               116:   Maximum recorded temp.
 LUN .               4507:   Logging unit number
 LUL .               CSPR:   Logging unit location
 ENGI.             KNOBEL:   Recorded By
 WITN.                MAY:   Witnessed by
 ORIG.        2" 5" PRINT:   Origin of data
 UWI .     49025600130000:   Unique Well ID
 DICO. A2D TECHNOLOGIES, INC.:   Digitizing Company
~OTHER INFORMATION
~A    DEPT     SPR          ASN      ILD       CALD        GRD       RHOB   
# ...
  676.5000   -52.9537     0.0045     0.1888  -999.2500  -999.2500  -999.2500
  677.0000   -54.4375     0.0046     0.1896  -999.2500  -999.2500  -999.2500
  677.5000   -54.7834     0.0288     0.1903  -999.2500  -999.2500  -999.2500
  678.0000   -52.8942     0.4124     2.8777  -999.2500  -999.2500  -999.2500
  678.5000   -40.7047     3.1104     4.4256  -999.2500  -999.2500  -999.2500
  679.0000   -30.7750     6.2725     5.2671  -999.2500  -999.2500  -999.2500
  679.5000   -28.6396     7.1422     5.6411  -999.2500  -999.2500  -999.2500
  680.0000   -26.8242     6.8688     5.7166  -999.2500  -999.2500  -999.2500
  680.5000   -25.4966     6.6173     5.6873  -999.2500  -999.2500  -999.2500
  681.0000   -25.0940     6.4272     5.6333  -999.2500  -999.2500  -999.2500
  681.5000   -24.2954     6.2511     5.4948  -999.2500  -999.2500  -999.2500
  682.0000   -23.8760     6.1519     5.3015  -999.2500  -999.2500  -999.2500
  682.5000   -23.7297     6.1901     5.1230  -999.2500  -999.2500  -999.2500
  683.0000   -24.1152     6.3268     6.2880  -999.2500  -999.2500  -999.2500
  683.5000   -24.4761     7.5793     8.5575  -999.2500  -999.2500  -999.2500
  684.0000   -24.9160     7.9615    10.4688  -999.2500  -999.2500  -999.2500
  684.5000   -24.9173     8.6763     9.0543  -999.2500  -999.2500  -999.2500
  685.0000   -24.9188     9.1486     5.7240  -999.2500  -999.2500  -999.2500
  685.5000   -24.9203     9.3959     5.5008  -999.2500  -999.2500  -999.2500
  686.0000   -24.9217     9.6946     6.2229  -999.2500  -999.2500  -999.2500
  686.5000   -24.9232     9.9553     6.9948  -999.2500  -999.2500  -999.2500
  687.0000   -24.9247     9.0797     7.7866  -999.2500  -999.2500  -999.2500
  687.5000   -25.0741     9.1982     8.3645  -999.2500  -999.2500  -999.2500
  688.0000   -25.1443     9.3282     8.7980  -999.2500  -999.2500  -999.2500
  688.5000   -25.5199     9.5399     9.0874  -999.2500  -999.2500  -999.2500
  689.0000   -25.9646     9.7399     9.3567  -999.2500  -999.2500  -999.2500
  689.5000   -26.3870     9.8933     9.5963  -999.2500  -999.2500  -999.2500
  690.0000   -26.6076    10.1515     9.8358  -999.2500  -999.2500  -999.2500
  690.5000   -26.7075    10.3053    10.0606  -999.2500  -999.2500  -999.2500
  691.0000   -26.7092    10.4583    10.2801  -999.2500  -999.2500  -999.2500
  691.5000   -26.6391    10.6118    10.4649  -999.2500  -999.2500  -999.2500
  692.0000   -26.5641    10.6897    10.6597  -999.2500  -999.2500  -999.2500
  692.5000   -26.5658    10.7671    10.9591  -999.2500  -999.2500  -999.2500
  693.0000   -26.5672    10.8560    10.9896  -999.2500  -999.2500  -999.2500
  693.5000   -26.5687    10.9983    11.1943  -999.2500  -999.2500  -999.2500
  694.0000   -26.5702    11.1162    11.2598  -999.2500  -999.2500  -999.2500
  694.5000   -26.5718    11.2462    11.2604  -999.2500  -999.2500  -999.2500
  695.0000   -26.6470    11.3827    11.3607  -999.2500  -999.2500  -999.2500
  695.5000   -26.7223    11.5360    11.4162  -999.2500  -999.2500  -999.2500
  696.0000   -26.7238    11.5833    11.4867  -999.2500  -999.2500  -999.2500
  696.5000   -26.7253    11.6913    11.5271  -999.2500  -999.2500  -999.2500
  697.0000   -26.7267    11.8451    11.5627  -999.2500  -999.2500  -999.2500
  697.5000   -26.8882    11.8466    11.5634  -999.2500  -999.2500  -999.2500
  698.0000   -27.1730    11.9243    11.5643  -999.2500  -999.2500  -999.2500
  698.5000   -27.3220    11.9264    11.5649  -999.2500  -999.2500  -999.2500
  699.0000   -27.5056    11.9280    11.5657  -999.2500  -999.2500  -999.2500
  699.5000   -27.6204    11.9192    11.5664  -999.2500  -999.2500  -999.2500
  700.0000   -27.6221    11.8560    11.5673  -999.2500  -999.2500  -999.2500
  700.5000   -27.6233    11.8580    11.5828  -999.2500  -999.2500  -999.2500
  701.0000   -27.6248    11.8598    11.6021  -999.2500  -999.2500  -999.2500
  701.5000   -27.4787    11.8618    11.6213  -999.2500  -999.2500  -999.2500
  702.0000   -27.4788    11.8637    11.6405  -999.2500  -999.2500  -999.2500
  702.5000   -27.3813    11.7676    11.5962  -999.2500  -999.2500  -999.2500
  703.0000   -27.2837    11.7159    11.4892  -999.2500  -999.2500  -999.2500
  703.5000   -27.1859    11.5667    11.4909  -999.2500  -999.2500  -999.2500
  704.0000   -27.0885    11.5682    11.4927  -999.2500  -999.2500  -999.2500
  704.5000   -27.0120    11.4185    11.3429  -999.2500  -999.2500  -999.2500
  705.0000   -27.0136    11.2692    11.3243  -999.2500  -999.2500  -999.2500
  705.5000   -27.0137    11.2038    11.1949  -999.2500  -999.2500  -999.2500
  706.0000   -27.0141    11.0354    11.0453  -999.2500  -999.2500  -999.2500
  706.5000   -27.0132    10.8960    10.8955  -999.2500  -999.2500  -999.2500
  707.0000   -27.0130    10.7437    10.7462  -999.2500  -999.2500  -999.2500
  707.5000   -26.8188    10.6566    10.5969  -999.2500  -999.2500  -999.2500
  708.0000   -26.8190    10.5228    10.5357  -999.2500  -999.2500  -999.2500
  708.5000   -26.6086    10.4350    10.4295  -999.2500  -999.2500  -999.2500
  709.0000   -26.5251    10.3536    10.2991  -999.2500  -999.2500  -999.2500
  709.5000   -26.4241    10.2254    10.0659  -999.2500  -999.2500  -999.2500
  710.0000   -26.3966    10.1519     9.8087  -999.2500  -999.2500  -999.2500
  710.5000   -26.3133    10.0777     9.6239  -999.2500  -999.2500  -999.2500
  711.0000   -26.2308    10.0758     9.4746  -999.2500  -999.2500  -999.2500
  711.5000   -26.2231     9.9302     9.4003  -999.2500  -999.2500  -999.2500
  712.0000   -26.2459     9.7803     9.4018  -999.2500  -999.2500  -999.2500
  712.5000   -26.4708     9.6305     9.3279  -999.2500  -999.2500  -999.2500
  713.0000   -26.6169     9.4813     9.2880  -999.2500  -999.2500  -999.2500
  713.5000   -26.6299     9.4444     9.2551  -999.2500  -999.2500  -999.2500
  714.0000   -26.5217     9.3030     9.1813  -999.2500  -999.2500  -999.2500
  714.5000   -26.4938     9.1837     9.1073  -999.2500  -999.2500  -999.2500
  715.0000   -26.5988    10.0644     9.0786  -999.2500  -999.2500  -999.2500
  715.5000   -26.6176     9.8545     8.9591  -999.2500  -999.2500  -999.2500
  716.0000   -26.4268     9.7227     8.9609  -999.2500  -999.2500  -999.2500
  716.5000   -26.4266     9.6064     8.8459  -999.2500  -999.2500  -999.2500
  717.0000   -26.3745     9.5266     8.8125  -999.2500  -999.2500  -999.2500
  717.5000   -26.2322     9.4076     8.8142  -999.2500  -999.2500  -999.2500
  718.0000   -26.1346     9.3242     8.7402  -999.2500  -999.2500  -999.2500
  718.5000   -26.0268     9.2383     8.6662  -999.2500  -999.2500  -999.2500
  719.0000   -25.7650     9.1706     8.6596  -999.2500  -999.2500  -999.2500
  719.5000   -25.6359     9.0936     8.5183  -999.2500  -999.2500  -999.2500
  720.0000   -25.6373     9.0278     8.5196  -999.2500  -999.2500  -999.2500
  720.5000   -25.6384     8.9620     8.5211  -999.2500  -999.2500  -999.2500
  721.0000   -25.6385     8.8904     8.5227  -999.2500  -999.2500  -999.2500
  721.5000   -25.6385     8.8143     8.3731  -999.2500  -999.2500  -999.2500
  722.0000   -25.6385     8.7303     8.2236  -999.2500  -999.2500  -999.2500
  722.5000   -25.6385     8.6383     8.0589  -999.2500  -999.2500  -999.2500
  723.0000   -25.6385     8.5192     7.9245  -999.2500  -999.2500  -999.2500
  723.5000   -25.6385     8.4178     7.6596  -999.2500  -999.2500  -999.2500
  724.0000   -25.6385     8.2985     7.4381  -999.2500  -999.2500  -999.2500
  724.5000   -25.6385     8.1914     7.2493  -999.2500  -999.2500  -999.2500
  725.0000   -25.6385     7.9511     6.9489  -999.2500  -999.2500  -999.2500
  725.5000   -25.6385     7.7618     6.6662  -999.2500  -999.2500  -999.2500
  726.0000   -25.6385     7.4282     6.5599  -999.2500  -999.2500  -999.2500
  726.5000   -25.6385     7.0172     6.4245  -999.2500  -999.2500  -999.2500
  727.0000   -25.6385     7.0068     6.2749  -999.2500  -999.2500  -999.2500
  727.5000   -25.6385     7.1017     6.2764  -999.2500  -999.2500  -999.2500
  728.0000   -25.6385     7.2430     6.2780  -999.2500  -999.2500  -999.2500
