~VERSION INFORMATION
 VERS.                2.0:   CWLS LOG ASCII STANDARD - VERSION 2.0
 WRAP.                 NO:   ONE LINE PER DEPTH STEP
~WELL INFORMATION
#MNEM.UNIT      DATA TYPE    INFORMATION
#----------   ------------   ------------------------------
 STRT.F          204.0000:   START DEPTH
 STOP.F         3040.0000:   STOP DEPTH
 STEP.F            0.5000:   STEP LENGTH
 NULL.          -999.2500:   NO VALUE
 COMP.    FENIX & SCISSON:   COMPANY
 WELL.   FENIX "A" #47-21:   WELL
 FLD .            N P R 3:   FIELD
 LOC .      S21 T39N R78W:   LOCATION
 CNTY.            NATRONA:   COUNTY
 STAT.            WYOMING:   STATE
 CTRY. UNITED STATES OF AMERICA:   COUNTRY
 SRVC.              WELEX:   SERVICE COMPANY
 DATE.        20-JUN-1977:   LOGDATE
 API .     49025103820000:   API NUMBER
~CURVE INFORMATION
#MNEM.UNIT       API CODE    CURVE DESCRIPTION
#----------   ------------   ------------------------------
 DEPT.F                  :   
 SPR .MV     07 010 01 00:   SPONTANEOUS POTENTIAL
 ILM .OHMM   07 120 44 00:   INDUCTION LOG MEDIUM RESISTIVITY
 ILD .OHMM   07 120 46 00:   DEEP INDUCTION RESISTIVITY
 SGRD.OHMM   07 220 05 00:   SHALLOW GUARD LOG RESISTIVITY
 GRD .GAPI   45 310 01 00:   GAMMA RAY FROM DENSITY LOG
 CALD.IN     45 280 60 00:   CALIPER FROM DENSITY LOG
 RHOB.G/C3   45 350 01 00:   BULK DENSITY
 CORR.G/C3   45 356 01 00:   DENSITY CORRECTION
~PARAMETER INFORMATION
#MNEM.UNIT          VALUE    DESCRIPTION
#----------   ------------   ------------------------------
 EKB .F         5010.0000:   Kelly bushing
 EGL .F         5000.0000:   Ground level
 EDF .F            0.0000:   Drilling floor
 TD  .F         3050.0000:   Total depth
 DATE.        20-JUN-1977:   Date logged
 CLNT.            A2DTECH:   Client Code
 SL  . 990' FSL & 2310' FWL:   Surface Location
 PD  .                 GL:   Permanent Datum
 DD  .F              3050:   Depth driller
 DL  .F              3039:   Depth logger
 BLI .F              3037:   Bottom log interval
 CS1 .IN            8.625:   Casing size
 CBD1.      8.625" @ 210':   Casing driller 1
 CBL1.F               215:   Casing logger 1
 BS1 .IN            7.875:   Bit size
 DFT .                KCL:   Type fluid in hole
 DFD .                9.3:   Density
 DFV .                 35:   Viscosity
 DFPH.                7.5:   pH
 DFL .                7.2:   Fluid loss
 MSS .             MUDPIT:   Source of sample
 RMS .OHMM            .22:   Rm
 MST .F                80:   Rm Meas. temp.
 RMF .OHMM            .19:   Rmf
 MFST.F                80:   Rmf Meas. temp.
 RMC .OHMM            .35:   Rmc
 MCST.F                80:   Rmc Meas. temp.
 MFSS.               MEAS:   Source Rmf.
 RMB .OHMM            .15:   Rm. at BHT
 BHT .F               111:   BHT.
 TCS .HRS               4:   Time Circ. stopped
 MRT .F               111:   Maximum recorded temp.
 LUN .               8766:   Logging unit number
 LUL .             CAPSER:   Logging unit location
 ENGI.          T. JOYNER:   Recorded By
 WITN.         PETTINGILL:   Witnessed by
 ORIG.           5" PRINT:   Origin of data
 UWI .     49025103820000:   Unique Well ID
 DICO. A2D TECHNOLOGIES, INC.:   Digitizing Company
 DAPD.                 10:   Feet Above Permanent Datum
 BSD1.               3050:   Depth drilled with bit1
 MCSS.               MEAS:   Source Rmc.
 EPD .               5000:   Elevation Permanent Datum
 LMF .                 KB:   Log Measured From
 DMF .                 KB:   Drilling Measured From
 TLI .                215:   Top log interval
~OTHER INFORMATION
~A   DEPT      SPR        ILM        ILD       SGRD         GRD        CALD       RHOB      CORR  
# ...
 2998.5000   -52.6140     2.6990     2.5430     3.3370   112.4580     7.9490     2.4340     0.0030
 2999.0000   -52.5990     2.7570     2.6230     3.7150   115.5420     7.9490     2.4350     0.0030
 2999.5000   -52.5840     2.8260     2.7030     3.6260   118.5970     7.9490     2.4360     0.0040
 3000.0000   -52.5690     2.9190     2.7830     3.5160   121.7590     7.9490     2.4400     0.0040
 3000.5000   -52.5540     3.0130     2.8620     3.6740   124.8770     7.9490     2.4440     0.0050
 3001.0000   -52.5390     3.1070     2.9420     3.6340   129.6440     7.9490     2.4480     0.0050
 3001.5000   -52.5240     3.2280     3.0220     3.5810   134.4120     7.9490     2.4520     0.0060
 3002.0000   -52.5090     3.4440     3.1590     3.7380   143.2120     7.9490     2.4560     0.0060
 3002.5000   -52.4980     3.6610     3.3090     3.8900   149.7930     7.9490     2.4610     0.0070
 3003.0000   -52.3100     3.8770     3.4580     4.1950   154.0160     7.9490     2.4650     0.0070
 3003.5000   -52.0630     4.1090     3.6080     4.5450   158.7580     7.9490     2.4670     0.0080
 3004.0000   -51.8140     3.9830     3.6810     5.8770   159.1640     7.9490     2.4640     0.0080
 3004.5000   -51.5640     3.8100     3.5440     5.7450   155.9840     7.9490     2.4600     0.0080
 3005.0000   -51.3150     3.6370     3.4390     5.4730   144.4520     7.9490     2.4570     0.0080
 3005.5000   -51.0750     3.4640     3.2690     5.2640   129.1130     7.9490     2.4530     0.0080
 3006.0000   -50.8960     3.2910     2.8830     6.1510   114.3190     7.9490     2.4560     0.0080
 3006.5000   -50.7180     3.1170     2.5940     5.7420   100.4610     7.9490     2.4620     0.0080
 3007.0000   -50.5400     2.9000     2.4810     4.5570    84.9380     7.9490     2.4680     0.0080
 3007.5000   -50.3620     3.0130     2.6510     2.6740    83.6260     7.9480     2.4730     0.0080
 3008.0000   -50.1840     3.1490     2.7990     1.8330    82.8390     7.9470     2.4760     0.0070
 3008.5000   -50.0060     3.6060     2.9460     3.0010    82.6620     7.9460     2.4770     0.0070
 3009.0000   -49.8280     4.0190     3.0940     4.6880    82.3100     7.9450     2.4770     0.0070
 3009.5000   -49.6510     4.4220     3.2370     6.8730    82.7340     7.9440     2.4770     0.0070
 3010.0000   -49.4720     5.0660     3.6820     6.6150    83.1240     7.9430     2.4810     0.0060
 3010.5000   -49.2930     5.6940     4.1160     6.1000    85.5050     7.9420     2.4850     0.0060
 3011.0000   -49.1100     6.0940     4.5490     5.7240    87.3040     7.9410     2.4840     0.0050
 3011.5000   -49.0410     6.0620     4.9830     5.6290    87.6300     7.9400     2.4810     0.0040
 3012.0000   -48.9760     6.0360     5.4610     6.6440    88.1550     7.9390     2.4790     0.0030
 3012.5000   -48.9100     6.0100     5.5250     7.2490    88.6980     7.9380     2.4770     0.0020
 3013.0000   -48.8430     5.9860     5.6180     7.3680    89.0740     7.9370     2.4780     0.0010
 3013.5000   -48.7760     6.1440     5.7110     7.4600    90.0370     7.9360     2.4800     0.0000
 3014.0000   -48.7090     6.3250     5.8230     6.9320    89.8240     7.9350     2.4820    -0.0010
 3014.5000   -48.7280     6.2490     5.7550     7.2580    89.4280     7.9340     2.4840    -0.0010
 3015.0000   -48.7540     6.1530     5.6690     7.1200    85.0010     7.9330     2.4870     0.0000
 3015.5000   -48.7790     6.0580     5.5840     6.8060    79.6860     7.9320     2.4870     0.0010
 3016.0000   -48.8040     5.9620     5.4980     6.9330    68.0190     7.9310     2.4870     0.0020
 3016.5000   -48.8300     5.8670     5.4120     7.0610    45.8560     7.9300     2.4860     0.0030
 3017.0000   -48.8550     5.7710     5.3260     6.3550    25.8750     7.9290     2.4860     0.0030
 3017.5000   -48.8800     5.6990     5.2970     5.8830     1.2250     7.9280     2.4860     0.0040
 3018.0000   -48.9050     5.6580     5.2720     5.7170  -999.2500     7.9270     2.4860     0.0050
 3018.5000   -48.9310     5.6160     5.2470     6.0760  -999.2500     7.9260     2.4850     0.0060
 3019.0000   -48.9560     5.5740     5.2230     6.4980  -999.2500     7.9250     2.4850     0.0070
 3019.5000   -48.9810     5.5330     5.1980     7.1020  -999.2500     7.9240     2.4830     0.0080
 3020.0000   -49.0070     5.4910     5.1730     7.5290  -999.2500     7.9230     2.4780     0.0090
 3020.5000   -49.0320     5.4490     5.1480     7.3120  -999.2500     7.9220     2.4730     0.0090
 3021.0000   -49.0570     5.4080     5.1240     6.9990  -999.2500     7.9200     2.4700     0.0100
 3021.5000   -49.0820     5.3660     5.0990     6.6860  -999.2500     7.9190     2.4690     0.0110
 3022.0000   -49.1080     5.3240     5.0740     6.3970  -999.2500     7.9180     2.4720     0.0120
 3022.5000   -49.1330     5.2830     5.0490     6.1420  -999.2500     7.9170     2.4770     0.0130
 3023.0000   -49.1580     5.2410     5.0160     5.8870  -999.2500     7.9160     2.4820     0.0140
 3023.5000   -49.1840     5.1990     4.9350     5.6870  -999.2500     7.9150     2.4910     0.0150
 3024.0000   -49.2090     5.1580     4.8540     5.5960  -999.2500     7.9140     2.4960     0.0150
 3024.5000   -49.2340     5.1160     4.7740     5.5110  -999.2500     7.9130     2.4930     0.0160
 3025.0000   -49.2590     5.0740     4.6930     5.5420  -999.2500     7.9120     2.4910     0.0160
 3025.5000   -49.2890     5.0330     4.6120     5.8030  -999.2500     7.9110     2.4870     0.0170
 3026.0000   -49.4220     4.9910     4.5310     6.3540  -999.2500     7.9100     2.4860     0.0170
 3026.5000   -49.8870     4.8630     4.4500     6.8060  -999.2500     7.9090     2.4890     0.0180
 3027.0000   -50.3400     4.7120     4.3820     6.2130  -999.2500     7.9090     2.4920     0.0180
 3027.5000   -50.7820     4.5610     4.3100     5.7100  -999.2500     7.9090     2.4890     0.0200
 3028.0000   -51.4780     4.4100     4.2330     5.3620  -999.2500     7.9090     2.4840     0.0200
 3028.5000   -52.2300     4.2950     4.1570     5.1630  -999.2500     7.9090     2.4790     0.0220
 3029.0000   -52.9850     4.2670     4.0810     5.0080  -999.2500     7.9090     2.4770     0.0230
 3029.5000   -53.7420     4.2240     4.0040     4.9300  -999.2500     7.9090     2.4730     0.0250
 3030.0000   -54.5010     4.2690     3.9280     4.8120  -999.2500     7.9090     2.4680     0.0270
 3030.5000   -55.2530     4.3780     3.8190     4.8330  -999.2500     7.9120     2.4630     0.0280
 3031.0000   -55.3510     4.4880     3.8980     4.9110  -999.2500     7.9200     2.4580     0.0300
 3031.5000   -55.4190     4.5970     4.0380     4.9900  -999.2500     7.9300     2.4520     0.0300
 3032.0000   -55.4900     4.7060     4.1780     5.0680  -999.2500     7.9360     2.4450     0.0300
 3032.5000   -55.5610     4.8160     4.3180     5.1460  -999.2500     7.9460     2.4370     0.0300
 3033.0000   -55.6310     4.9250     4.4450     5.2240  -999.2500     7.9570     2.4300     0.0300
 3033.5000   -55.6050     5.0350     4.5350     5.3030  -999.2500     7.9920     2.4260     0.0300
 3034.0000   -55.4000     5.1280     4.6260     5.3810  -999.2500     7.9860     2.4050     0.0300
 3034.5000   -55.1980     5.1600     4.7160     5.4610  -999.2500  -999.2500  -999.2500  -999.2500
 3035.0000   -54.9950     5.1910     4.8060     5.4530  -999.2500  -999.2500  -999.2500  -999.2500
 3035.5000   -54.6890     5.2230     4.8920     5.4450  -999.2500  -999.2500  -999.2500  -999.2500
 3036.0000   -54.2450     5.2640     4.8570     5.4360  -999.2500  -999.2500  -999.2500  -999.2500
 3036.5000   -53.8280     5.2240     4.8090     5.4280  -999.2500  -999.2500  -999.2500  -999.2500
 3037.0000   -52.2760     5.1670     4.5410     5.4190  -999.2500  -999.2500  -999.2500  -999.2500
 3037.5000   -50.3590     5.1090     4.2400     5.4110  -999.2500  -999.2500  -999.2500  -999.2500
 3038.0000   -48.9210     5.0750     4.1850     5.4110  -999.2500  -999.2500  -999.2500  -999.2500
 3038.5000   -48.9170     5.0750     4.1850     5.4110  -999.2500  -999.2500  -999.2500  -999.2500
