~VERSION INFORMATION
 VERS.                2.0:   CWLS LOG ASCII STANDARD - VERSION 2.0
 WRAP.                 NO:   ONE LINE PER DEPTH STEP
~WELL INFORMATION
#MNEM.UNIT      DATA TYPE    INFORMATION
#----------   ------------   ------------------------------
 STRT.F          199.5000:   START DEPTH
 STOP.F         2983.0000:   STOP DEPTH
 STEP.F            0.5000:   STEP LENGTH
 NULL.          -999.2500:   NO VALUE
 COMP.    FENIX & SCISSON:   COMPANY
 WELL. FENIX (UE-49) "AX" #52-29:   WELL
 FLD . U.S. NAVAL PETROLEUM RESERVE #3:   FIELD
 LOC .      S29 T39N R78W:   LOCATION
 CNTY.            NATRONA:   COUNTY
 STAT.            WYOMING:   STATE
 CTRY. UNITED STATES OF AMERICA:   COUNTRY
 SRVC.           BIRDWELL:   SERVICE COMPANY
 DATE.        07-AUG-1977:   LOGDATE
 API .     49025104090000:   API NUMBER
~CURVE INFORMATION
#MNEM.UNIT       API CODE    CURVE DESCRIPTION
#----------   ------------   ------------------------------
 DEPT.F                  :   
 GRD .GAPI   45 310 01 00:   GAMMA RAY FROM DENSITY LOG
 CALD.IN     45 280 60 00:   CALIPER FROM DENSITY LOG
 DEN .G/C3   45 350 01 00:   BULK DENSITY
 DCOR.G/C3   45 356 01 00:   DENSITY CORRECTION
 SN  .OHMM   05 040 16 00:   SHORT NORMAL 16"
 ILD .OHMM   05 120 46 00:   INDUCTION LOG DEEP RESISTIVITY
~PARAMETER INFORMATION
#MNEM.UNIT          VALUE    DESCRIPTION
#----------   ------------   ------------------------------
 EKB .F         4995.0000:   Kelly bushing
 EGL .F         4985.0000:   Ground level
 EDF .F            0.0000:   Drilling floor
 TD  .F         2973.0000:   Total depth
 DATE.         7-AUG-1977:   Date logged
 CLNT.            A2DTECH:   Client Code
 SL  . 1400' FNL & 2380' FEL:   Surface Location
 PD  .                 GL:   Permanent Datum
 EPD .F              4985:   Elevation Permanent Datum
 LMF .                 KB:   Log Measured From
 DMF .                 KB:   Drilling Measured From
 DAPD.F                10:   Feet Above Permanent Datum
 DD  .F              2972:   Depth driller
 DL  .F              2973:   Depth logger
 BLI .F              2968:   Bottom log interval
 TLI .F               216:   Top log interval
 CS1 .IN            8.625:   Casing size
 CBD1.      8.625" @ 216':   Casing driller 1
 CBL1.F               216:   Casing logger 1
 BS1 .IN            7.875:   Bit size
 BSD1.F              2972:   Depth drilled with bit1
 DFT .            GEL-KCL:   Type fluid in hole
 DFD .                8.9:   Density
 DFV .                 33:   Viscosity
 DFL .                  9:   Fluid loss
 MSS .            MUD PIT:   Source of sample
 RMS .OHMM           0.26:   Rm
 MST .F                73:   Rm Meas. temp.
 RMF .OHMM           0.26:   Rmf
 MFST.F                72:   Rmf Meas. temp.
 RMC .OHMM           0.96:   Rmc
 MCST.F                72:   Rmc Meas. temp.
 MFSS.              PRESS:   Source Rmf.
 RMB .OHMM           0.14:   Rm. at BHT
 BHT .F               130:   BHT.
 TCS .HRS               5:   Time Circ. stopped
 MRT .F               130:   Maximum recorded temp.
 LUN .               2958:   Logging unit number
 LUL .             CASPER:   Logging unit location
 ENGI.                LAW:   Recorded By
 WITN.             RHODES:   Witnessed by
 ORIG.           5" PRINT:   Origin of data
 UWI .     49025104090000:   Unique Well ID
 DICO. A2D TECHNOLOGIES, INC.:   Digitizing Company
~OTHER INFORMATION
~A   DEPT       GRD      CALD        DEN       DCOR         SN        ILD   
# ...
 1499.5000    74.0940     9.0570     2.5890     0.0280     7.4930     7.9220
 1500.0000    74.8310     9.0570     2.5870     0.0280     7.4670     7.9410
 1500.5000    75.4020     9.0580     2.5900     0.0220     7.4420     7.9610
 1501.0000    72.8560     9.0590     2.5860     0.0200     7.4170     7.9810
 1501.5000    69.7630     9.0590     2.5870     0.0190     7.3910     7.9990
 1502.0000    66.6880     9.0600     2.5810     0.0270     7.3660     7.9130
 1502.5000    68.1780     9.0610     2.5870     0.0220     7.3400     7.8370
 1503.0000    67.5010     9.0610     2.5830     0.0210     7.3150     7.7600
 1503.5000    69.5590     9.0620     2.5790     0.0230     7.2980     7.7110
 1504.0000    68.3280     9.0630     2.5840     0.0150     7.3420     7.7920
 1504.5000    72.8030     9.0630     2.5720     0.0050     7.3750     7.8520
 1505.0000    71.9680     9.0640     2.5670     0.0050     7.4070     7.9130
 1505.5000    69.7210     9.0650     2.5680     0.0050     7.4330     7.9340
 1506.0000    66.3510     9.0650     2.5700     0.0040     7.4620     7.9470
 1506.5000    66.9250     9.0660     2.5680     0.0030     7.4910     7.9610
 1507.0000    71.9890     9.0670     2.5580     0.0090     7.5200     7.9750
 1507.5000    68.8690     9.0670     2.5600     0.0120     7.5480     7.9880
 1508.0000    70.1640     9.0680     2.5590     0.0140     7.5710     7.9990
 1508.5000    71.3220     9.0680     2.5650     0.0130     7.5420     7.9990
 1509.0000    69.7950     9.0690     2.5630     0.0100     7.5190     7.9990
 1509.5000    70.4930     9.0700     2.5590     0.0140     7.4960     7.9990
 1510.0000    72.0480     9.0700     2.5590     0.0180     7.4730     7.9990
 1510.5000    73.7000     9.0710     2.5680     0.0190     7.4500     7.9980
 1511.0000    73.0800     9.0720     2.5720     0.0170     7.4190     7.9990
 1511.5000    72.2080     9.0720     2.5720     0.0180     7.3690     7.9290
 1512.0000    75.1010     9.0730     2.5760     0.0200     7.3180     7.8810
 1512.5000    72.5040     9.0840     2.5800     0.0160     7.2670     7.8340
 1513.0000    73.2000     9.0970     2.5730     0.0130     7.2270     7.7820
 1513.5000    73.6890     9.1090     2.5660     0.0120     7.2100     7.8530
 1514.0000    72.2810     9.1050     2.5610     0.0180     7.1930     7.7920
 1514.5000    70.6460     9.0950     2.5640     0.0230     7.1770     7.6730
 1515.0000    71.0420     9.0840     2.5710     0.0260     7.1630     7.5680
 1515.5000    73.0970     9.0740     2.5760     0.0220     7.1530     7.5510
 1516.0000    69.9590     9.0780     2.5770     0.0230     7.1440     7.5340
 1516.5000    66.3170     9.0840     2.5830     0.0290     7.1350     7.5160
 1517.0000    68.1850     9.0890     2.5830     0.0270     7.1260     7.4900
 1517.5000    70.3890     9.0950     2.5850     0.0230     7.1170     7.4210
 1518.0000    73.0670     9.1000     2.5770     0.0210     7.1080     7.3650
 1518.5000    69.1610     9.1050     2.5720     0.0240     7.1010     7.3990
 1519.0000    69.7370     9.1120     2.5760     0.0260     7.1410     7.4270
 1519.5000    68.3610     9.0890     2.5790     0.0230     7.1760     7.4550
 1520.0000    67.1400     9.0570     2.5820     0.0210     7.2100     7.4830
 1520.5000    69.8490     9.0300     2.5760     0.0270     7.2450     7.5100
 1521.0000    64.7020     9.0170     2.5810     0.0250     7.2790     7.5380
 1521.5000    65.0310     9.0190     2.5900     0.0260     7.2980     7.5710
 1522.0000    65.2120     9.0290     2.5890     0.0270     7.2180     7.4880
 1522.5000    64.4270     8.9900     2.5910     0.0260     7.1660     7.3900
 1523.0000    63.6470     8.9970     2.5860     0.0220     7.1760     7.2980
 1523.5000    63.7600     9.0110     2.5830     0.0210     7.1880     7.4820
 1524.0000    63.9990     9.0240     2.5840     0.0270     7.2000     7.6680
 1524.5000    60.8370     9.0380     2.5910     0.0340     7.2120     7.8530
 1525.0000    61.2940     9.0510     2.6030     0.0290     7.2230     7.7110
 1525.5000    62.0730     9.0640     2.5950     0.0180     7.2430     7.9990
 1526.0000    63.1480     9.0720     2.5810     0.0140     7.2980     7.9590
 1526.5000    66.5640     9.0660     2.5710     0.0150     7.2890     7.8800
 1527.0000    68.4240     9.0610     2.5730     0.0150     7.2700     7.8020
 1527.5000    70.7550     9.0560     2.5750     0.0160     7.2510     7.7230
 1528.0000    67.3860     9.0530     2.5760     0.0120     7.2320     7.6400
 1528.5000    67.0810     9.0530     2.5730     0.0140     7.2600     7.6400
 1529.0000    69.9180     9.0520     2.5720     0.0160     7.2980     7.6400
 1529.5000    73.6650     9.0510     2.5740     0.0160     7.2390     7.6810
 1530.0000    73.3450     9.0490     2.5760     0.0140     7.1630     7.9260
 1530.5000    74.5000     9.0470     2.5740     0.0140     7.1000     7.6260
 1531.0000    73.7010     9.0450     2.5720     0.0180     7.1310     7.5020
 1531.5000    70.0190     9.0430     2.5750     0.0220     7.1580     7.5020
 1532.0000    71.9650     9.0410     2.5840     0.0220     7.1840     7.5020
 1532.5000    67.6980     9.0390     2.5840     0.0240     7.2100     7.5020
 1533.0000    67.7610     9.0380     2.5890     0.0260     7.2360     7.5020
 1533.5000    70.0280     9.0360     2.5930     0.0270     7.2630     7.5020
 1534.0000    68.0470     9.0340     2.5940     0.0280     7.2980     7.5020
 1534.5000    69.7160     9.0360     2.5910     0.0280     7.2780     7.5020
 1535.0000    67.8510     9.0390     2.5830     0.0230     7.2480     7.5020
 1535.5000    68.5940     9.0410     2.5890     0.0200     7.2170     7.5020
 1536.0000    70.5670     9.0440     2.5780     0.0240     7.1860     7.5430
 1536.5000    72.0450     9.0470     2.5860     0.0250     7.1550     7.6040
 1537.0000    69.2420     9.0490     2.5820     0.0270     7.1240     7.6650
 1537.5000    68.4650     9.0520     2.5780     0.0350     7.0940     7.7260
 1538.0000    72.5170     9.0400     2.5900     0.0290     7.0630     7.7870
 1538.5000    73.6150     9.0360     2.5830     0.0180     7.0260     7.8530
 1539.0000    71.8150     9.0410     2.5700     0.0190     6.9080     7.9010
 1539.5000    72.4910     9.0450     2.5710     0.0150     6.9720     7.9540
 1540.0000    73.8510     9.0500     2.5720     0.0070     7.1000     7.9990
 1540.5000    75.6850     9.0520     2.5550     0.0030     7.1170     7.9840
 1541.0000    77.5010     9.0470     2.5570     0.0160     7.1340     7.9710
 1541.5000    77.6090     9.0410     2.5630     0.0120     7.1510     7.9570
 1542.0000    73.1110     9.0360     2.5610     0.0070     7.1670     7.9440
 1542.5000    68.3930     9.0340     2.5580     0.0120     7.1720     7.9260
 1543.0000    70.8500     9.0340     2.5640     0.0120     7.1780     7.9440
 1543.5000    69.7950     9.0340     2.5620     0.0140     7.1840     7.9740
 1544.0000    70.2510     9.0340     2.5540     0.0200     7.1890     8.0050
 1544.5000    71.0600     9.0340     2.5720     0.0180     7.1950     8.0360
 1545.0000    70.6080     9.0340     2.5780     0.0150     7.2000     8.0670
 1545.5000    70.1780     9.0340     2.5730     0.0170     7.2060     8.0790
 1546.0000    70.6440     9.0340     2.5750     0.0220     7.2120     8.0880
 1546.5000    70.9510     9.0340     2.5760     0.0220     7.2170     8.0960
 1547.0000    70.7550     9.0340     2.5730     0.0210     7.2230     8.1050
 1547.5000    69.9820     9.0340     2.5710     0.0210     7.2290     8.1130
 1548.0000    67.5100     9.0340     2.5710     0.0330     7.2520     8.1220
 1548.5000    71.4600     9.0340     2.5840     0.0360     7.2960     8.1300
 1549.0000    72.3900     9.0340     2.5860     0.0350     7.3410     8.1390
 1549.5000    72.3560     9.0340     2.5860     0.0340     7.3850     8.1470
 1550.0000    68.5340     9.0340     2.5820     0.0280     7.4330     8.1830
 1550.5000    68.6170     9.0340     2.5790     0.0290     7.4200     8.2160
 1551.0000    69.7680     9.0340     2.5840     0.0290     7.4050     8.2490
