~VERSION INFORMATION
 VERS.                2.0:   CWLS LOG ASCII STANDARD - VERSION 2.0
 WRAP.                 NO:   ONE LINE PER DEPTH STEP
~WELL INFORMATION
#MNEM.UNIT      DATA TYPE    INFORMATION
#----------   ------------   ------------------------------
 STRT.F          220.0000:   START DEPTH
 STOP.F         3284.5000:   STOP DEPTH
 STEP.F            0.5000:   STEP LENGTH
 NULL.          -999.2500:   NO VALUE
 COMP.    FENIX & SCISSON:   COMPANY
 WELL. FENIX HARPEL "A" #85-28:   WELL
 FLD .              NPR-3:   FIELD
 LOC .      S28 T39N R78W:   LOCATION
 CNTY.            NATRONA:   COUNTY
 STAT.            WYOMING:   STATE
 CTRY. UNITED STATES OF AMERICA:   COUNTRY
 SRVC.      DRESSER ATLAS:   SERVICE COMPANY
 DATE.        07-AUG-1977:   LOGDATE
 API .     49025104040000:   API NUMBER
~CURVE INFORMATION
#MNEM.UNIT       API CODE    CURVE DESCRIPTION
#----------   ------------   ------------------------------
 DEPT.F                  :   
 GRD .GAPI   45 310 01 00:   GAMMA RAY FROM DENSITY LOG
 CALD.IN     45 280 60 00:   CALIPER FROM DENSITY LOG
 CORR.G/C3   45 356 01 00:   DENSITY CORRECTION
 RHOB.G/C3   45 350 01 00:   BULK DENSITY
 TEND.LBS    45 635 01 00:   TENSION FORM DENSITY LOG
 NPHI.DEC    42 890 03 00:   NEUTRON POROSITY SANDSTONE
 SPR .MV     11 010 01 00:   SPONTANEOUS POTENTIAL FROM RES.
 TENR.LBS    11 635 01 00:   TENSION FROM RES.
 LLD .OHMM   11 220 10 00:   LATEROLOG LOG DEEP
 LLS .OHMM   11 220 09 00:   LATEROLOG SHALLOW
 RXO .OHMM   11 270 04 00:   FLUSHED ZONE RESISTIVITY
~PARAMETER INFORMATION
#MNEM.UNIT          VALUE    DESCRIPTION
#----------   ------------   ------------------------------
 EKB .F         5059.0000:   Kelly bushing
 EGL .F         5049.0000:   Ground level
 EDF .F            0.0000:   Drilling floor
 EPD .F            0.0000:   Permanent datum
 TD  .F         3240.0000:   Total depth
 CLNT.            A2DTECH:   Client Code
 SL  . 2310' FSL & 330' FEL:   Surface Location
 PD  .                 GL:   Permanent Datum
 DAPD.F                10:   Feet Above Permanent Datum
 DATE.        07-AUG-1977:   Date Logged [DD-MMM-YYYY]
 DD  .F              3240:   Depth driller
 DL  .F              3267:   Depth logger
 BLI .F              3265:   Bottom log interval
 TLI .F               224:   Top log interval
 CS1 .IN            8.625:   Casing size
 CBD1.      8.625" @ 254':   Casing driller 1
 CBL1.F               224:   Casing logger 1
 BS1 .IN            7.875:   Bit size
 BSD1.F              3240:   Depth drilled with bit1
 DFT .                KCL:   Type fluid in hole
 DFD .                8.8:   Density
 DFV .                 36:   Viscosity
 DFPH.               10.5:   pH
 DFL .                9.6:   Fluid loss
 MSS .         CIRCULATED:   Source of sample
 RMS .OHMM           0.22:   Rm
 MST .F                78:   Rm Meas. temp.
 RMF .OHMM           0.16:   Rmf
 MFST.F                78:   Rmf Meas. temp.
 MFSS.               MEAS:   Source Rmf.
 RMC .OHMM           0.28:   Rmc
 MCST.F                78:   Rmc Meas. temp.
 MCSS.               MEAS:   Source Rmc.
 RMB .OHMM           0.14:   Rm. at BHT
 BHT .F               125:   BHT.
 TCS .HRS               7:   Time Circ. stopped
 MRT .F               125:   Maximum recorded temp.
 LUN .               6134:   Logging unit number
 LUL .              GLTTE:   Logging unit location
 ENGI.              GOULD:   Recorded By
 WITN.         HARRINGTON:   Witnessed by
 ORIG.      2.5" 5" PRINT:   Origin of data
 UWI .     49025104040000:   Unique Well ID
 DICO. A2D TECHNOLOGIES, INC.:   Digitizing Company
~OTHER INFORMATION
~A   DEPT      GRD       CALD       CORR       RHOB       TEND         NPHI      SPR       TENR        LLD        LLS        RXO   
# ...
  830.0000    47.8218     8.9028     0.0389     2.5279  1049.3663     0.3055   -74.7018   808.5248    12.7060    10.1622     7.4932
  830.5000    46.3864     8.9189     0.0301     2.5160  1047.1882     0.3091   -74.7088   809.9417    12.9189     9.9280     7.4913
  831.0000    46.7057     8.9200     0.0243     2.5086  1075.8619     0.3135   -74.7159   811.3583    12.5271     9.9253     7.5933
  831.5000    45.8239     8.9360     0.0199     2.5004  1102.8022     0.3123   -74.7231   782.8349    12.5334    10.0601     7.4748
  832.0000    46.1480     8.9370     0.0156     2.4923  1100.0795     0.3049   -74.7305   784.4312    13.2566    10.0575     7.1583
  832.5000    46.6175     8.9190     0.0142     2.4983  1113.4386     0.2996   -74.7380   785.9281    13.1841     9.9169     6.9846
  833.0000    46.1861     8.9091     0.0099     2.4954  1110.7158     0.3019   -74.6906   787.4250    12.6270     9.9143     7.0797
  833.5000    45.0040     8.9102     0.0070     2.5128  1093.5452     0.3058   -74.4536   789.2101    12.5143     9.9116     7.2752
  834.0000    44.4177     8.8963     0.0222     2.5226  1091.3671     0.3156   -74.4611   790.6270    12.8611    10.0470     7.3746
  834.5000    45.3377     8.8973     0.0283     2.5100  1089.1890     0.3210   -74.4696   792.0436    12.5088    10.0974     7.3724
  835.0000    44.0054     8.8985     0.0225     2.5168  1071.9640     0.3179   -74.1767   793.4604    11.9996    10.1807     7.3705
  835.5000    44.8203     8.8994     0.0226     2.5199  1069.2959     0.3227   -74.1843   794.9102    12.3327    10.1774     7.3685
  836.0000    46.0002     8.9004     0.0212     2.5110  1067.1178     0.3190   -73.8920   796.4072    12.8510    10.4596     7.2656
  836.5000    46.3195     8.9166     0.0229     2.5126  1064.9397     0.3178   -73.8997   789.7218    12.2967    10.6025     7.2332
  837.0000    44.8371     8.9185     0.0231     2.5179  1062.7616     0.3165   -73.9072   769.1871    11.9899    10.0299     7.1621
  837.5000    45.7618     8.9335     0.0232     2.5165  1060.5835     0.3117   -73.9147   793.4131    11.9874     9.4775     7.0621
  838.0000    46.6818     8.9496     0.0203     2.5144  1058.4054     0.3075   -73.6228   772.7291    12.0626     9.1011     7.0598
  838.5000    47.0011     8.9507     0.0175     2.5128  1041.0782     0.3164   -73.6315   774.1457    11.6561     9.3535     6.9614
  839.0000    47.6208     8.9365     0.0162     2.5085  1039.0568     0.3235   -73.6385   775.5624    11.0285     9.1861     7.0562
  839.5000    49.4417     8.9379     0.0147     2.4974  1066.8636     0.3310   -73.6456   776.9792    10.8754     8.6585     7.0543
  840.0000    45.6585     8.9238     0.0103     2.4869  1064.1409     0.3342   -73.9521   778.4431    11.3324     9.0904     7.1504
  840.5000    45.5727     8.9277     0.0062     2.4938  1061.9629     0.3321   -73.9596   779.9401    11.3120     9.4724     7.1733
  841.0000    47.2434     8.9408     0.0093     2.4984  1059.7848     0.3287   -73.9671   781.4371    11.1729     9.6017     7.3465
  841.5000    44.7147     8.9419     0.0184     2.5052  1057.6069     0.3281   -74.0793   782.9341    11.7560     9.7371     7.2927
  842.0000    43.5278     8.9429     0.0216     2.5113  1055.4288     0.3250   -74.2814   784.4312    12.4704    10.1416     7.3421
  842.5000    44.1522     8.9442     0.0213     2.5032  1053.2233     0.3202   -74.2904   786.1879    11.9621     9.8624     7.3398
  843.0000    47.1743     8.9450     0.0188     2.5032  1066.0652     0.3165   -74.2975   787.6046    12.2942     9.9100     7.3379
  843.5000    46.8704     8.9349     0.0190     2.5056  1078.8795     0.3141   -74.3045   789.0212    12.6355    10.3429     7.3360
  844.0000    47.3894     8.9321     0.0162     2.5032  1076.1567     0.3150   -74.0122   790.4191    12.9863    10.4139     7.3421
  844.5000    49.0380     8.9332     0.0133     2.5005  1073.9786     0.3166   -74.0195   791.9161    12.6218     9.8512     7.4340
  845.0000    47.8559     8.9342     0.0165     2.4969  1056.8081     0.3133   -74.0269   793.4131    12.2844     9.8486     7.5352
  845.5000    46.3734     8.9353     0.0166     2.4962  1054.6300     0.3097   -74.0344   794.9101    12.2818    10.4052     7.4297
  846.0000    47.7438     8.9363     0.0138     2.4955  1052.4519     0.3079   -74.0419   796.4072    12.5189    10.5471     7.4276
  846.5000    48.8139     8.9226     0.0169     2.4934  1050.2251     0.3066   -73.8947   797.9042    12.9729    10.3475     7.3236
  847.0000    50.6300     8.9236     0.0201     2.4972  1063.0883     0.3036   -73.7575   799.6468    12.6170     9.9747     7.3217
  847.5000    46.4497     8.9245     0.0232     2.5026  1060.3657     0.2996   -73.7659   801.0635    12.4418     9.9720     7.3198
  848.0000    43.7660     8.9256     0.0234     2.5117  1058.1876     0.2996   -73.7729   802.4801    12.9647     9.8963     7.3179
  848.5000    45.9005     8.9267     0.0205     2.5147  1056.0095     0.3010   -73.7800   803.8970    13.1421     9.8293     7.4323
  849.0000    45.4354     8.9279     0.0176     2.5085  1053.8314     0.3016   -73.7874   805.3892    12.7472     9.6920     7.5458
  849.5000    47.1313     8.9436     0.0148     2.4947  1066.7167     0.3018   -73.7949   806.8862    12.2615    10.2069     7.6610
  850.0000    48.8927     8.9597     0.0120     2.4932  1064.4678     0.3033   -73.8024   808.3832    12.7192     9.3677     7.7243
  850.5000    49.2663     8.9842     0.0061     2.4978  1077.2821     0.3102   -73.8099   809.8802    12.8918     9.8910     7.5117
  851.0000    47.4902     8.9916     0.0123     2.5249  1074.5594     0.3062   -73.8174   811.3773    11.8999    10.3012     7.4069
  851.5000    46.7547     8.9927     0.0214     2.5408  1072.3816     0.2939   -73.8260   813.1057    12.2510    10.2924     7.3036
  852.0000    45.6498     8.9938     0.0170     2.5183  1070.2035     0.2951   -73.8330   814.5223    12.7662     9.7323     7.2017
  852.5000    45.8258     8.9948     0.0217     2.5153  1066.8922     0.3079   -73.8401   815.9390    12.2462    10.0146     7.1012
  853.0000    47.5773     8.9808     0.0219     2.5095  1068.0234     0.3106   -73.8473   817.3652    12.2495    10.2681     7.0992
  853.5000    48.1984     8.9819     0.0250     2.5035  1065.6409     0.3156   -73.8548   818.8622    12.7848     9.6237     7.2286
  854.0000    47.4682     8.9830     0.0341     2.5291  1063.7347     0.3216   -73.9421   820.3593    12.6631     9.3086     7.3389
  854.5000    45.5368     8.9840     0.0253     2.5195  1061.8286     0.3126   -74.1692   821.8563    11.9429    10.2417     7.3929
  855.0000    46.9086     8.9851     0.0300     2.5240  1059.9225     0.3059   -74.3263   823.3533    11.9858    10.2316     7.2893
  855.5000    45.2775     8.9861     0.0346     2.5294  1058.0164     0.3005   -74.7843   825.1478    12.2962     9.8093     7.1877
  856.0000    45.5983     8.9721     0.0347     2.5339  1056.0721     0.2996   -74.7914   826.5646    11.4137     9.4043     7.2856
  856.5000    46.8200     8.9582     0.0349     2.5370  1069.1965     0.2998   -74.7984   827.9813    11.1011     9.7938     7.3848
  857.0000    45.4595     8.9445     0.0440     2.5446  1082.2828     0.3067   -74.8055   829.3979    11.5676    10.1993     7.3827
  857.5000    44.7589     8.9456     0.0382     2.5589  1109.8851     0.3243   -74.8129   800.8746    11.7259     9.8959     7.3807
  858.0000    46.1359     8.9466     0.0338     2.5357  1107.9789     0.3372   -74.8204   802.3952    11.2176     9.3333     7.3389
  858.5000    47.2075     8.9476     0.0295     2.5238  1121.5419     0.3386   -74.8278   796.1116    11.0921     9.1125     7.2756
  859.0000    47.2280     8.9487     0.0237     2.5059  1104.1666     0.3404   -74.8353   775.1846    11.3799     9.6665     7.1736
  859.5000    47.5488     8.9647     0.0203     2.5029  1057.2830     0.3428   -74.8428   776.9461    11.1568     9.4973     7.1718
  860.0000    47.7143     8.9507     0.0120     2.5075  1040.3844     0.3413   -74.8515   778.7264    11.2387     9.0890     7.1699
