~VERSION INFORMATION
 VERS.                2.0:   CWLS LOG ASCII STANDARD - VERSION 2.0
 WRAP.                 NO:   ONE LINE PER DEPTH STEP
~WELL INFORMATION
#MNEM.UNIT      DATA TYPE    INFORMATION
#----------   ------------   ------------------------------
 STRT.F          520.0000:   START DEPTH
 STOP.F         3092.0000:   STOP DEPTH
 STEP.F            0.5000:   STEP LENGTH
 NULL.          -999.2500:   NO VALUE
 COMP.    FENIX & SCISSON:   COMPANY
 WELL. FENIX 87 "AX" #3-3:   WELL
 FLD .              N P R:   FIELD
 LOC .       S3 T38N R78W:   LOCATION
 CNTY.            NATRONA:   COUNTY
 STAT.            WYOMING:   STATE
 CTRY. UNITED STATES OF AMERICA:   COUNTRY
 SRVC.              WELEX:   SERVICE COMPANY
 DATE.        30-OCT-1980:   LOGDATE
 API .     49025108510000:   API NUMBER
~CURVE INFORMATION
#MNEM.UNIT       API CODE    CURVE DESCRIPTION
#----------   ------------   ------------------------------
 DEPT.F                  :   
 CALD.IN     45 280 60 00:   CALIPER FROM DENSITY LOG
 GRD .GAPI   45 310 01 00:   GAMMA RAY FROM DENSITY LOG
 RHOB.G/C3   45 350 01 00:   BULK DENSITY
 CORR.G/C3   45 356 01 00:   DENSITY CORRECTION
 SPR .MV     07 010 01 00:   SPONTANEOUS POTENTIAL
 ILD .OHMM   07 120 46 00:   DEEP INDUCTION RESISTIVITY
 ILM .OHMM   07 120 44 00:   INDUCTION LOG MEDIUM RESISTIVITY
 SGRD.OHMM   07 220 05 00:   SHALLOW SHORT GUARD RESISTIVITY
~PARAMETER INFORMATION
#MNEM.UNIT          VALUE    DESCRIPTION
#----------   ------------   ------------------------------
 EKB .F         5131.0000:   Kelly bushing
 EGL .F         5121.0000:   Ground level
 TD  .F         3095.0000:   Total depth
 DATE.        30-OCT-1980:   Date logged
 CLNT.            A2DTECH:   Client Code
 SL  . 910' FWL & 95' FEL:   Surface Location
 PD  .                 GL:   Permanent Datum
 EPD .F              5121:   Elevation Permanent Datum
 LMF .                 KB:   Log Measured From
 DMF .                 KB:   Drilling Measured From
 DD  .F              3095:   Depth driller
 DL  .F              3094:   Depth logger
 BLI .F              3092:   Bottom log interval
 TLI .F               525:   Top log interval
 CS1 .IN            9.625:   Casing size
 CBD1.      9.625" @ 525':   Casing driller 1
 CBL1.F               525:   Casing logger 1
 BS1 .IN            7.875:   Bit size
 DFT .          DISPERSED:   Type fluid in hole
 DFD .                  9:   Density
 DFV .                 40:   Viscosity
 DFPH.                 10:   pH
 DFL .                  8:   Fluid loss
 MSS .             MUDPIT:   Source of sample
 RMS .OHMM           2.40:   Rm
 MST .F                68:   Rm Meas. temp.
 MFST.F                68:   Rmf Meas. temp.
 RMC .OHMM            2.8:   Rmc
 MCST.F                68:   Rmc Meas. temp.
 MFSS.F              MEAS:   Source Rmf.
 RMB .OHMM           1.36:   Rm. at BHT
 BHT .F               120:   BHT.
 TCS .HRS             5.5:   Time Circ. stopped
 MRT .F               120:   Maximum recorded temp.
 LUN .               1891:   Logging unit number
 LUL .             CASPER:   Logging unit location
 ENGI.          PFERIMMER:   Recorded By
 WITN.              FIVAS:   Witnessed by
 ORIG.           5" PRINT:   Origin of data
 UWI .     49025108510000:   Unique Well ID
 DICO. A2D TECHNOLOGIES, INC.:   Digitizing Company
 DAPD.F                10:   Feet Above Permanent Datum
 BSD1.F              3095:   Depth drilled with bit1
 RMF .OHMM           1.92:   Rmf
 MCSS.               MEAS:   Source Rmc.
~OTHER INFORMATION
~A   DEPT     CALD        GRD       RHOB       CORR        SPR          ILD        ILM      SGRD  
# ...
 1208.5000     9.2060    80.6630     2.5280     0.0190   -27.6670     7.7890     9.4130    11.1370
 1209.0000     9.2060    81.2680     2.5190     0.0230   -27.6240     7.7440     9.4130    10.7660
 1209.5000     9.2060    80.8600     2.5130     0.0280   -27.5800     7.7000     9.4130    10.4210
 1210.0000     9.2060    80.6450     2.5190     0.0260   -27.5360     7.6550     9.4130    10.3530
 1210.5000     9.1830    80.5090     2.5230     0.0230   -27.4930     7.6110     9.4140    10.2890
 1211.0000     9.1570    80.3740     2.5140     0.0200   -27.4490     7.5670     9.4110    10.2250
 1211.5000     9.1780    80.2400     2.5050     0.0170   -27.4050     7.5220     9.5080    10.1360
 1212.0000     9.2290    80.1050     2.4990     0.0170   -27.4060     7.4780     9.4950    10.2830
 1212.5000     9.2820    79.9710     2.5050     0.0230   -27.4340     7.4340     9.4380    10.4210
 1213.0000     9.2650    79.7790     2.4930     0.0290   -27.4640     7.3850     9.3990    10.2690
 1213.5000     9.2370    79.2390     2.4890     0.0350   -27.4930     7.3330     9.3610    10.0920
 1214.0000     9.2090    78.6950     2.4910     0.0380   -27.5220     7.2660     9.3220     9.9500
 1214.5000     9.1810    78.1520     2.4820     0.0370   -27.5510     7.2660     9.2830    10.0060
 1215.0000     9.1720    77.6070     2.4740     0.0350   -27.5800     7.2660     9.2440    10.0660
 1215.5000     9.1940    77.0650     2.4820     0.0340   -27.6090     7.2660     9.2050    10.1270
 1216.0000     9.2150    76.6280     2.4920     0.0360   -27.6380     7.3330     9.1670    10.1870
 1216.5000     9.2370    76.7850     2.5010     0.0440   -27.6670     7.4190     9.1280    10.2300
 1217.0000     9.2580    76.9310     2.5080     0.0440   -27.6960     7.4830     9.0890    10.2300
 1217.5000     9.2640    77.0750     2.5140     0.0400   -27.7260     7.5470     9.0710    10.3250
 1218.0000     9.2620    77.2200     2.5110     0.0360   -27.7550     7.6110     9.1580    10.3490
 1218.5000     9.2610    77.3640     2.5010     0.0310   -27.7650     7.6750     9.2240    10.3930
 1219.0000     9.2590    77.5080     2.4920     0.0270   -27.6900     7.7390     9.2890    10.4360
 1219.5000     9.2570    77.6530     2.4820     0.0230   -27.6160     7.8030     9.3540    10.4800
 1220.0000     9.2550    77.7960     2.4720     0.0190   -27.5420     7.8750     9.4190    10.5240
 1220.5000     9.2540    77.9370     2.4630     0.0140   -27.4690     7.9500     9.4850    10.5670
 1221.0000     9.2520    78.1030     2.4530     0.0110   -27.3950     8.0440     9.5500    10.6110
 1221.5000     9.2500    78.8840     2.4440     0.0210   -27.3220     8.1180     9.6150    10.6540
 1222.0000     9.2480    79.7030     2.4390     0.0300   -27.2490     8.0440     9.6800    10.6980
 1222.5000     9.2470    80.5200     2.4620     0.0340   -27.2010     8.1250     9.7450    10.7140
 1223.0000     9.2450    81.3390     2.4660     0.0270   -27.2480     8.1390     9.7680    10.5330
 1223.5000     9.2430    82.1520     2.4660     0.0200   -27.2930     8.1540     9.7290    10.4210
 1224.0000     9.2410    82.6890     2.4570     0.0150   -27.3380     8.1680     9.6740    10.3250
 1224.5000     9.2400    82.0150     2.4570     0.0180   -27.3820     8.1830     9.6180    10.3800
 1225.0000     9.2380    81.3660     2.4590     0.0200   -27.4270     8.1970     9.5630    10.4540
 1225.5000     9.2360    80.7200     2.4520     0.0230   -27.4720     8.2120     9.5080    10.5280
 1226.0000     9.2340    80.0750     2.4440     0.0250   -27.5160     8.2260     9.4520    10.6020
 1226.5000     9.2330    79.4290     2.4440     0.0280   -27.5610     8.2410     9.3970    10.6760
 1227.0000     9.2310    78.7820     2.4690     0.0310   -27.6050     8.2550     9.3410    10.7500
 1227.5000     9.2290    78.1370     2.4960     0.0320   -27.6500     8.2700     9.2900    10.8130
 1228.0000     9.2270    77.4930     2.5010     0.0290   -27.6950     8.2840     9.2400    10.9140
 1228.5000     9.2260    77.5220     2.5030     0.0260   -27.7390     8.2990     9.2400    10.6370
 1229.0000     9.2240    78.4000     2.5050     0.0260   -27.7840     8.3130     9.3260    10.4210
 1229.5000     9.2230    79.2730     2.5060     0.0280   -27.8280     8.3280     9.4310    10.4210
 1230.0000     9.2210    80.1290     2.5000     0.0300   -27.8730     8.3470     9.4990    10.7760
 1230.5000     9.2200    80.3760     2.4950     0.0320   -27.9180     8.3490     9.5670    11.1090
 1231.0000     9.2190    79.9630     2.4890     0.0340   -27.9640     8.2630     9.6350    11.4410
 1231.5000     9.2170    79.5520     2.4860     0.0360   -27.9730     8.3270     9.7360    11.7740
 1232.0000     9.2160    79.1340     2.4920     0.0370   -27.9730     8.4270     9.8580    11.9710
 1232.5000     9.2140    78.7170     2.4860     0.0370   -27.9730     8.5260     9.9500    11.4730
 1233.0000     9.2130    78.2990     2.4750     0.0370   -27.9730     8.6260    10.1480    11.0620
 1233.5000     9.2110    77.8820     2.4640     0.0370   -27.9730     8.7260    10.3800    10.6150
 1234.0000     9.2100    77.4650     2.4540     0.0370   -27.9730     8.8260    10.6120    10.5180
 1234.5000     9.2090    77.0470     2.4670     0.0370   -27.9730     8.9260    10.8440    10.4210
 1235.0000     9.2070    76.6320     2.4830     0.0370   -27.9730     9.0250    11.0760    10.5550
 1235.5000     9.2060    76.2100     2.4940     0.0370   -27.9730     9.1250    11.3080    10.6710
 1236.0000     9.2040    76.3050     2.4910     0.0370   -27.9730     9.2250    11.5400    10.7870
 1236.5000     9.2030    76.7870     2.4830     0.0370   -27.9730     9.3250    11.7520    10.9020
 1237.0000     9.2010    77.2730     2.4790     0.0370   -27.9730     9.4240    12.3080    11.0180
 1237.5000     9.2000    77.7610     2.4880     0.0370   -27.9730     9.5240    12.1730    11.1340
 1238.0000     9.1990    78.2470     2.4890     0.0360   -27.9730     9.6240    11.9880    11.2490
 1238.5000     9.1970    78.7340     2.4620     0.0270   -27.9730     9.7240    11.8030    11.3650
 1239.0000     9.1960    79.2230     2.4480     0.0190   -27.9730     9.8230    11.6180    11.4810
 1239.5000     9.1940    79.7150     2.4540     0.0230   -27.9730    10.0420    11.4330    11.5960
 1240.0000     9.1930    80.1070     2.4650     0.0270   -27.9730    10.1360    11.2480    11.7120
 1240.5000     9.1910    79.3710     2.4750     0.0300   -27.9730    10.2300    11.0630    11.8280
 1241.0000     9.1900    78.6510     2.4850     0.0220   -27.9730    10.0110    10.8780    11.9430
 1241.5000     9.1890    78.1150     2.4960     0.0140   -27.9730     9.8170    10.6930    12.0590
 1242.0000     9.1870    78.3510     2.5000     0.0100   -27.9750     9.6230    10.5080    12.1950
 1242.5000     9.1810    78.5710     2.4920     0.0170   -27.8700     9.4290    10.3230    11.9560
 1243.0000     9.1600    78.7900     2.4820     0.0240   -27.8110     9.2350    10.1380    11.6670
 1243.5000     9.1400    79.0090     2.4720     0.0310   -27.9690     9.0410     9.9530    11.3770
 1244.0000     9.1270    79.2270     2.4620     0.0300   -28.1200     8.8460     9.7680    11.0880
 1244.5000     9.1380    79.4420     2.4920     0.0270   -28.2710     8.6520     9.5830    10.8860
 1245.0000     9.1530    79.3900     2.5040     0.0230   -28.3560     8.4580     9.3980    10.7140
 1245.5000     9.1670    79.0350     2.5180     0.0200   -28.1130     8.2640     9.3260    10.5180
 1246.0000     9.1670    78.6830     2.5260     0.0170   -27.8600     8.0700     9.3600    10.5180
 1246.5000     9.1570    78.3300     2.5300     0.0170   -27.8740     7.8960     9.4350    10.5360
 1247.0000     9.1310    77.9800     2.5330     0.0170   -28.0750     7.7510     9.5100    10.5500
 1247.5000     9.1060    77.9210     2.5270     0.0170   -28.1640     7.6800     9.5890    10.5640
 1248.0000     9.0880    78.1890     2.5210     0.0170   -28.0560     7.5390     9.6780    10.5790
 1248.5000     9.0890    78.4540     2.5150     0.0170   -27.9360     7.5390     9.7680    10.5930
