~VERSION INFORMATION
 VERS.                2.0:   CWLS LOG ASCII STANDARD - VERSION 2.0
 WRAP.                 NO:   ONE LINE PER DEPTH STEP
~WELL INFORMATION
#MNEM.UNIT      DATA TYPE    INFORMATION
#----------   ------------   ------------------------------
 STRT.F          705.5000:   START DEPTH
 STOP.F         3212.0000:   STOP DEPTH
 STEP.F            0.5000:   STEP LENGTH
 NULL.          -999.2500:   NO VALUE
 COMP.    FENIX & SCISSON:   COMPANY
 WELL. FENIX 41 "AX" #1-15:   WELL
 FLD .             NPR #3:   FIELD
 LOC .      S15 T38N R78W:   LOCATION
 CNTY.            NATRONA:   COUNTY
 STAT.            WYOMING:   STATE
 CTRY. UNITED STATES OF AMERICA:   COUNTRY
 SRVC.              WELEX:   SERVICE COMPANY
 DATE.        18-NOV-1980:   LOGDATE
 API .     49025108530000:   API NUMBER
~CURVE INFORMATION
#MNEM.UNIT       API CODE    CURVE DESCRIPTION
#----------   ------------   ------------------------------
 DEPT.F                  :   
 SPR .MV     07 010 01 00:   SPONTANEOUS POTENTIAL
 ILD .OHMM   07 120 46 00:   INDUCTION LOG DEEP RESISTIVITY
 ILM .OHMM   07 120 44 00:   INDUCTION LOG MEDIUM RESISTIVITY
 SGRD.OHMM   07 220 05 00:   SHORT GUARD RESISTIVITY
 GRD .GAPI   45 310 01 00:   GAMMA RAY FROM DENSITY LOG
 CALD.IN     45 280 60 00:   CALIPER FROM DENSITY LOG
 RHOB.G/C3   45 350 01 00:   BULK DENSITY
 NPHI.DEC    42 890 03 00:   NEUTRON POROSITY SANDSTONE
~PARAMETER INFORMATION
#MNEM.UNIT          VALUE    DESCRIPTION
#----------   ------------   ------------------------------
 EKB .F         5252.0000:   Kelly bushing
 EGL .F         5242.0000:   Ground level
 EDF .F            0.0000:   Drilling floor
 TD  .F         3214.0000:   Total depth
 CLNT.            A2DTECH:   Client Code
 SL  . 2150' FWL & 550' FNL:   Surface Location
 PD  .                 GL:   Permanent Datum
 EPD .F              5242:   Elevation Permanent Datum
 LMF .                 KB:   Log Measured From
 DMF .                 KB:   Drilling Measured From
 DATE.        18-NOV-1980:   Date Logged [DD-MMM-YYYY]
 DD  .F              3210:   Depth driller
 DL  .F              3214:   Depth logger
 BLI .F              3212:   Bottom log interval
 TLI .F               734:   Top log interval
 CS1 .IN            8.625:   Casing size
 CBD1.      8.625" @ 709':   Casing driller 1
 CBL1.F               734:   Casing logger 1
 BS1 .IN            7.875:   Bit size
 BSD1.F              3210:   Depth drilled with bit1
 DFT .          FRESH MUD:   Type fluid in hole
 DFD .                8.8:   Density
 DFV .                 45:   Viscosity
 DFPH.               10.5:   pH
 DFL .                 12:   Fluid loss
 MSS .           FLOWLINE:   Source of sample
 RMS .OHMM           1.25:   Rm
 MST .F                70:   Rm Meas. temp.
 RMF .OHMM           1.25:   Rmf
 MFST.F                70:   Rmf Meas. temp.
 MFSS.               MEAS:   Source Rmf.
 RMB .OHMM           0.78:   Rm. at BHT
 BHT .F               112:   BHT.
 TCS .HRS               7:   Time Circ. stopped
 MRT .F               112:   Maximum recorded temp.
 LUN .               1892:   Logging unit number
 LUL .             CASPER:   Logging unit location
 ENGI.               REIN:   Recorded By
 WITN.              SCOTT:   Witnessed by
 ORIG.      2.5" 5" PRINT:   Origin of data
 UWI .     49025108530000:   Unique Well ID
 DICO. A2D TECHNOLOGIES, INC.:   Digitizing Company
 DAPD.                 10:   Feet Above Permanent Datum
~OTHER INFORMATION
~A   DEPT      SPR        ILD        ILM       SGRD         GRD      CALD       RHOB       NPHI   
# ...
  867.5000   -40.5956     6.1848     6.4520     6.2747    88.1218     9.1837     2.5289     0.2871
  868.0000   -40.6000     6.1501     6.2740     6.1872    85.8948     9.1821     2.5159     0.2919
  868.5000   -40.6044     6.0130     6.1009     6.1009    84.3295     9.1655     2.5105     0.2900
  869.0000   -40.6088     5.8876     5.9326     5.9994    83.4260     9.1492     2.5081     0.2898
  869.5000   -40.6132     5.5992     5.7639     5.8295    82.7426     9.1329     2.5057     0.2870
  870.0000   -40.6184     5.3074     5.5994     5.5618    83.3785     9.1314     2.5018     0.2869
  870.5000   -40.6227     5.0913     5.4396     5.4288    84.2397     9.1298     2.4949     0.2900
  871.0000   -40.6270     5.0896     5.2648     5.3482    87.9685     9.1281     2.4803     0.2921
  871.5000   -40.6313     5.0879     5.1336     5.3075    90.1533     9.1409     2.4658     0.2931
  872.0000   -40.6356     5.1566     5.0851     5.3057    91.8968     9.1246     2.4518     0.2875
  872.5000   -40.6398     5.0845     5.0830     5.3043    91.8161     9.1381     2.4420     0.2904
  873.0000   -40.6441     5.0826     5.0809     5.2304    89.8640     9.1362     2.4298     0.2942
  873.5000   -40.6485     5.0073     5.0089     5.1575    88.5193     9.1493     2.4115     0.3011
  874.0000   -40.6529     4.9246     5.0069     5.0161    87.6158     9.1473     2.4562     0.3015
  874.5000   -40.3628     4.7281     4.8021     4.8785    86.9329     9.1608     2.4652     0.3025
  875.0000   -40.3676     4.6423     4.7344     4.7448    86.4706     9.1739     2.4765     0.3028
  875.5000   -40.3721     4.5073     4.5408     4.6147    86.6700     9.1719     2.4901     0.2999
  876.0000   -40.2667     4.3761     4.3550     4.4799    87.7465     9.1850     2.5059     0.2938
  876.5000   -40.0868     4.2663     4.2349     4.3650    88.8283     9.1996     2.5226     0.2907
  877.0000   -40.0912     4.4790     4.3652     4.3041    89.4743     9.2259     2.5544     0.2898
  877.5000   -40.0956     4.7020     4.5449     4.3827    89.2272     9.2386     2.5823     0.2864
  878.0000   -40.1008     4.9280     4.7395     4.4834    88.5354     9.2517     2.6028     0.2971
  878.5000   -40.1051     4.9261     4.8532     4.6205    87.6355     9.2501     2.5989     0.2995
  879.0000   -40.1094     4.9928     4.9451     4.7693    87.1732     9.2485     2.5889     0.3022
  879.5000   -40.1137     5.0600     4.9844     4.9324    87.1521     9.2469     2.5752     0.3042
  880.0000   -40.1179     5.0583     4.9824     4.9994    88.2339     9.2450     2.5644     0.3051
  880.5000   -40.1222     5.0566     5.0491     4.9981    89.3157     9.2287     2.5575     0.2996
  881.0000   -40.1265     5.0549     5.0471     4.9967    89.5151     9.2431     2.5543     0.2974
  881.5000   -40.1309     5.0568     5.0450     4.9954    88.8269     9.2567     2.5489     0.2943
  882.0000   -40.1353     5.1924     5.0430     4.9941    88.1440     9.2554     2.5412     0.2896
  882.5000   -40.1400     5.1905     5.1111     4.9927    87.2405     9.2543     2.5305     0.2884
  883.0000   -40.1441     5.2607     5.1089     4.9914    86.3370     9.2533     2.5187     0.2954
  883.5000   -40.1485     5.2587     5.1069     4.9992    86.3159     9.2522     2.5151     0.2982
  884.0000   -40.1529     5.2569     5.1048     5.0579    88.1384     9.2362     2.5363     0.2889
  884.5000   -40.1574     5.2551     5.1027     5.1267    90.6801     9.2351     2.5461     0.2861
  885.0000   -40.1618     5.2533     5.1005     5.1251    92.2031     9.2341     2.5513     0.2835
  885.5000   -40.1662     5.2515     5.1199     5.1734    93.2849     9.2183     2.5542     0.2790
  886.0000   -40.1714     5.3220     5.2392     5.2269    92.3814     9.2173     2.5572     0.2840
  886.5000   -40.1757     5.3202     5.2689     5.2638    91.0367     9.2162     2.5593     0.2806
  887.0000   -40.1800     5.4667     5.3072     5.2621    89.8765     9.2151     2.5630     0.2863
  887.5000   -40.1843     5.4649     5.3786     5.3336    88.7832     9.1991     2.5675     0.2904
  888.0000   -40.1885     5.4631     5.3024     5.3322    87.8797     9.1834     2.5735     0.2886
  888.5000   -40.1928     5.4613     5.3003     5.4048    87.4174     9.1676     2.5765     0.2852
  889.0000   -40.1971     5.4594     5.2982     5.4032    86.9551     9.1519     2.5809     0.2868
  889.5000   -40.2015     5.4547     5.2961     5.4018    86.9338     9.1508     2.5549     0.2912
  890.0000   -40.2059     5.3812     5.2214     5.4003    86.9075     9.1645     2.5100     0.2938
  890.5000   -40.2103     5.3059     5.2194     5.3988    87.1070     9.1634     2.4925     0.2987
  891.0000   -40.2147     5.3041     5.2172     5.3974    87.3064     9.1645     2.5063     0.2992
  891.5000   -40.2191     5.3023     5.2150     5.3959    87.5112     9.1760     2.5409     0.2955
  892.0000   -40.2235     5.3005     5.2129     5.3944    87.7059     9.1896     2.5681     0.2996
  892.5000   -40.2279     5.2986     5.2107     5.3683    88.1254     9.2029     2.5787     0.3057
  893.0000   -40.2324     5.2968     5.2086     5.3080    88.3248     9.2166     2.5702     0.3017
  893.5000   -40.2368     5.2950     5.2064     5.2565    88.5242     9.2155     2.5633     0.2997
  894.0000   -40.2421     5.3664     5.2043     5.2421    88.4978     9.2142     2.5570     0.2985
  894.5000   -40.2463     5.4389     5.2021     5.2404    88.9179     9.2281     2.5509     0.2948
  895.0000   -40.2506     5.4367     5.1996     5.2390    89.1176     9.2267     2.5485     0.2917
  895.5000   -40.2549     5.4349     5.1975     5.2376    89.3167     9.2257     2.5507     0.2886
  896.0000   -40.2592     5.3589     5.1954     5.2362    88.6285     9.2099     2.5582     0.2990
  896.5000   -40.2634     5.2840     5.1934     5.2348    87.7251     9.1795     2.5635     0.2991
  897.0000   -40.2677     5.2822     5.1913     5.2334    87.0421     9.1784     2.5367     0.2988
  897.5000   -39.9779     5.2805     5.1892     5.2320    86.8004     9.1918     2.5222     0.2976
  898.0000   -40.2765     5.2066     5.1871     5.2306    87.2204     9.1907     2.5411     0.2876
  898.5000   -40.2809     5.2048     5.1849     5.2291    88.8074     9.1897     2.5623     0.2920
  899.0000   -40.2853     5.2030     5.1828     5.2277    91.3641     9.1886     2.5713     0.2961
  899.5000   -40.2897     5.1302     5.1806     5.2262    92.0100     9.1876     2.5211     0.2975
  900.0000   -40.2941     5.1997     5.1785     5.2248    88.2334     9.1862     2.5301     0.2984
  900.5000   -40.2985     5.1976     5.0773     5.2234    88.1744     9.1994     2.5543     0.2953
  901.0000   -40.3029     5.1959     5.0335     5.2219    89.9467     9.1970     2.5724     0.2900
  901.5000   -40.3074     5.2660     5.0314     5.2205    91.4680     9.1951     2.5640     0.2876
  902.0000   -40.3118     5.2642     5.1208     5.2188    92.7687     9.1928     2.5248     0.2964
  902.5000   -40.3169     5.2620     5.1678     5.2174    92.8196     9.2060     2.5075     0.3037
  903.0000   -40.3212     5.2603     5.1654     5.2883    87.2026     9.2183     2.5143     0.3050
  903.5000   -40.3255     5.2585     5.2651     5.2869    84.5327     9.2164     2.5279     0.3022
  904.0000   -40.3298     5.2568     5.1641     5.3589    83.6275     9.2140     2.5384     0.2910
  904.5000   -40.3341     5.3279     5.2340     5.3573    84.4875     9.1974     2.5459     0.2976
  905.0000   -40.3383     5.3997     5.3049     5.3559    85.5614     9.1955     2.5504     0.2989
  905.5000   -40.3427     5.3979     5.3031     5.4287    86.6415     9.1936     2.5449     0.2987
  906.0000   -40.3471     5.4708     5.4495     5.5025    87.9422     9.1912     2.5418     0.2984
  906.5000   -40.3515     5.4791     5.5287     5.5161    88.8022     9.1893     2.5562     0.2947
  907.0000   -40.3559     5.5428     5.5982     5.6531    89.6612     9.1874     2.5713     0.2904
  907.5000   -40.3603     5.5407     5.5961     5.6513    88.7503     9.1855     2.5679     0.2857
