~VERSION INFORMATION
 VERS.                2.0:   CWLS LOG ASCII STANDARD - VERSION 2.0
 WRAP.                 NO:   ONE LINE PER DEPTH STEP
~WELL INFORMATION
#MNEM.UNIT      DATA TYPE    INFORMATION
#----------   ------------   ------------------------------
 STRT.F          204.0000:   START DEPTH
 STOP.F         3024.0000:   STOP DEPTH
 STEP.F            0.5000:   STEP LENGTH
 NULL.          -999.2500:   NO VALUE
 COMP.    FENIX & SCISSON:   COMPANY
 WELL. FENIX NPR 3 "AX" #87-33:   WELL
 FLD .      NPR - WILDCAT:   FIELD
 LOC .      S33 T39N R78W:   LOCATION
 CNTY.            NATRONA:   COUNTY
 STAT.            WYOMING:   STATE
 CTRY. UNITED STATES OF AMERICA:   COUNTRY
 SRVC.              WELEX:   SERVICE COMPANY
 DATE.        20-JUN-1977:   LOGDATE
 API .     49025103840000:   API NUMBER
~CURVE INFORMATION
#MNEM.UNIT       API CODE    CURVE DESCRIPTION
#----------   ------------   ------------------------------
 DEPT.F                  :   
 SPR .MV     07 010 01 00:   SPONTANEOUS POTENTIAL
 ILD .OHMM   07 120 46 00:   DEEP INDUCTION RESISTIVITY
 ILM .OHMM   07 120 44 00:   INDUCTION LOG MEDIUM RESISTIVITY
 SGRD.OHMM   07 220 05 00:   SHALLOW SHORT GUARD RESISTIVITY
 CALD.IN     45 280 60 00:   CALIPER FROM DENSITY LOG
 GRD .GAPI   45 310 01 00:   GAMMA RAY FROM DENSITY LOG
 RHOB.G/C3   45 350 01 00:   BULK DENSITY
 CORR.G/C3   45 356 01 00:   DENSITY CORRECTION
~PARAMETER INFORMATION
#MNEM.UNIT          VALUE    DESCRIPTION
#----------   ------------   ------------------------------
 EKB .F         5170.0000:   Kelly bushing
 EGL .F         5160.0000:   Ground level
 TD  .F         3040.0000:   Total depth
 DATE.        20-JUN-1977:   Date logged
 CLNT.            A2DTECH:   Client Code
 SL  . 800' FSL & 100' FEL:   Surface Location
 PD  .                 GL:   Permanent Datum
 EPD .F              5160:   Elevation Permanent Datum
 LMF .                 KB:   Log Measured From
 DMF .                 KB:   Drilling Measured From
 DD  .F              3040:   Depth driller
 DL  .F              3027:   Depth logger
 BLI .F              3025:   Bottom log interval
 TLI .F               200:   Top log interval
 CS1 .IN            8.625:   Casing size
 CBD1.      8.625" @ 230':   Casing driller 1
 CBL1.F               210:   Casing logger 1
 BS1 .IN            7.875:   Bit size
 BSD1.F              3040:   Depth drilled with bit1
 DFT .                KCL:   Type fluid in hole
 DFD .                9.2:   Density
 DFV .                 38:   Viscosity
 DFPH.                7.5:   pH
 DFL .                5.4:   Fluid loss
 MSS .           FLOWLINE:   Source of sample
 RMS .OHMM            .60:   Rm
 MST .F                92:   Rm Meas. temp.
 RMF .OHMM            .29:   Rmf
 MFST.F                92:   Rmf Meas. temp.
 RMC .OHMM            .76:   Rmc
 MCST.F                92:   Rmc Meas. temp.
 MFSS.               MEAS:   Source Rmf.
 MCSS.               MEAS:   Source Rmc.
 RMB .OHMM            .49:   Rm. at BHT
 BHT .F               112:   BHT.
 TCS .HRS               2:   Time Circ. stopped
 MRT .F               112:   Maximum recorded temp.
 LUN .               8611:   Logging unit number
 LUL .           GILLETTE:   Logging unit location
 ENGI.            C. DOAK:   Recorded By
 WITN.      B. HARRINGTON:   Witnessed by
 ORIG.     2.5", 5" PRINT:   Origin of data
 UWI .     49025103840000:   Unique Well ID
 DICO. A2D TECHNOLOGIES, INC.:   Digitizing Company
~OTHER INFORMATION
~A   DEPT      SPR        ILD        ILM       SGRD         CALD       GRD        RHOB      CORR  
# ...
  568.5000   -47.7130    11.5270    10.6590    10.2670    11.4260    84.2950     2.4700     0.0350
  569.0000   -47.5590    11.3550    10.6830    10.2830    11.4820    82.4670     2.4750     0.0360
  569.5000   -47.4040    11.2090    10.7080    10.3000    11.5430    81.8360     2.4710     0.0370
  570.0000   -47.2610    11.3580    10.7320    10.3160    11.5950    81.2480     2.4540     0.0380
  570.5000   -47.1020    11.4880    10.7560    10.3320    11.6340    81.3300     2.4360     0.0370
  571.0000   -47.1330    11.6220    10.7810    10.3480    11.6620    81.4530     2.4170     0.0320
  571.5000   -47.3550    11.4550    10.8030    10.3640    11.7010    81.5720     2.4050     0.0230
  572.0000   -47.4810    11.2090    10.7900    10.3800    11.7790    82.3780     2.4130     0.0140
  572.5000   -47.6500    11.3290    10.7630    10.3970    11.8610    83.7960     2.4290     0.0080
  573.0000   -47.8470    11.6220    10.7350    10.4120    11.9270    85.2280     2.4390     0.0070
  573.5000   -48.0460    11.5000    10.7080    10.4230    11.8650    86.6910     2.4490     0.0060
  574.0000   -48.2400    11.2930    10.6810    10.3850    11.7190    86.2390     2.4500     0.0080
  574.5000   -48.4360    11.1500    10.6540    10.3530    11.6590    86.1920     2.4520     0.0090
  575.0000   -48.6350    11.0510    10.6270    10.3180    11.6240    88.2150     2.4620     0.0110
  575.5000   -48.8280    10.9520    10.6160    10.2850    11.6300    88.3620     2.4740     0.0120
  576.0000   -49.0110    10.8530    10.4850    10.2520    11.6390    88.0080     2.4790     0.0140
  576.5000   -49.0390    10.7530    10.3750    10.1610    11.6470    89.2760     2.4700     0.0140
  577.0000   -49.0770    10.6540    10.2650    10.0340    11.6560    90.5180     2.4690     0.0140
  577.5000   -49.1050    10.5400    10.1560     9.9070    11.6670    91.7490     2.4720     0.0140
  578.0000   -49.1380    10.4160    10.0460     9.7790    11.6860    92.7660     2.4660     0.0140
  578.5000   -49.1690    10.2920     9.9360     9.6520    11.7040    93.7440     2.4600     0.0140
  579.0000   -49.2010    10.1680     9.8270     9.5240    11.7230    93.8790     2.4620     0.0150
  579.5000   -49.2330    10.0440     9.7170     9.3970    11.7410    93.5910     2.4710     0.0190
  580.0000   -49.2640     9.9200     9.6070     9.2700    11.7600    93.1690     2.4770     0.0220
  580.5000   -49.2960     9.8150     9.4970     9.1420    11.7780    92.7540     2.4810     0.0250
  581.0000   -49.3270     9.7220     9.3860     9.0210    11.7790    92.3380     2.4810     0.0280
  581.5000   -49.3590     9.6280     9.2750     8.9340    11.7760    91.8090     2.4740     0.0280
  582.0000   -49.3900     9.5350     9.1630     8.8510    11.7740    91.9600     2.4650     0.0280
  582.5000   -49.4370     9.4410     9.0520     8.7670    11.7710    92.9860     2.4480     0.0240
  583.0000   -49.5270     9.3530     8.9410     8.6840    11.7690    94.0060     2.4320     0.0200
  583.5000   -49.6150     9.2330     8.8490     8.6010    11.7660    95.0260     2.4330     0.0160
  584.0000   -49.7050     9.1210     8.8090     8.5180    11.7640    96.0460     2.4500     0.0130
  584.5000   -49.7930     9.0080     8.7690     8.3910    11.7610    96.6060     2.4550     0.0120
  585.0000   -49.8840     8.8950     8.7290     8.4040    11.7590    95.7020     2.4530     0.0120
  585.5000   -49.9720     8.8590     8.7070     8.4320    11.7560    94.7820     2.4560     0.0120
  586.0000   -50.0590     8.8810     8.7300     8.4590    11.7540    93.8620     2.4640     0.0150
  586.5000   -50.1590     8.9260     8.7540     8.4870    11.7510    92.9430     2.4760     0.0170
  587.0000   -50.1400     8.9710     8.7770     8.5140    11.7490    92.0230     2.4700     0.0200
  587.5000   -49.9980     9.0210     8.8010     8.5440    11.7470    91.1350     2.4630     0.0230
  588.0000   -49.8690     9.0210     8.8240     8.5440    11.7440    91.5040     2.4640     0.0260
  588.5000   -49.7390     9.0210     8.8590     8.5440    11.7420    92.1560     2.4700     0.0320
  589.0000   -49.6070     8.9300     8.7800     8.5440    11.7320    92.8150     2.4760     0.0380
  589.5000   -49.4770     8.8290     8.6250     8.4240    11.7200    93.4930     2.4660     0.0450
  590.0000   -49.3460     8.7280     8.4700     8.2550    11.7080    92.4000     2.4490     0.0490
  590.5000   -49.2160     8.5300     8.3140     8.0870    11.6960    91.2590     2.4290     0.0530
  591.0000   -49.0850     8.2940     7.9270     7.9180    11.6840    89.9700     2.4070     0.0490
  591.5000   -48.9530     8.0580     7.4190     7.7250    11.6860    90.2220     2.3850     0.0430
  592.0000   -48.8250     7.7990     7.0110     7.4830    11.6910    91.1030     2.3660     0.0360
  592.5000   -48.6890     7.3930     7.0280     7.2410    11.6960    91.9570     2.3760     0.0300
  593.0000   -48.6250     7.4300     7.0640     7.0570    11.7010    92.7100     2.3900     0.0300
  593.5000   -48.7660     7.4980     7.1000     6.9220    11.6810    92.4290     2.4090     0.0300
  594.0000   -48.8920     7.5670     7.1300     6.7530    11.6590    91.6580     2.4280     0.0340
  594.5000   -49.3590     7.6650     7.1840     6.8370    11.6370    90.8900     2.4340     0.0380
  595.0000   -49.6470     7.6380     7.2300     7.1300    11.6250    91.0340     2.4300     0.0420
  595.5000   -49.9000     7.5880     7.2600     7.0550    11.6330    93.2710     2.4210     0.0460
  596.0000   -50.1330     7.5390     7.0820     6.8460    11.6410    95.5150     2.3990     0.0450
  596.5000   -50.3860     7.3360     6.7670     6.6320    11.6240    97.0640     2.3720     0.0390
  597.0000   -50.6280     7.1300     5.3380     6.6320    11.6000    96.9810     2.3480     0.0330
  597.5000   -50.8740     5.6480     5.5130     6.6320    11.5750    96.8830     2.3380     0.0210
  598.0000   -51.1200     4.6180     5.9780     6.6320    11.5500    96.7890     2.3790     0.0030
  598.5000   -51.3620     6.7790     6.4420     6.7360    11.5230    96.6920     2.4240    -0.0050
  599.0000   -51.6140     7.8470     6.8760     6.8240    11.4940    96.9600     2.4580    -0.0030
  599.5000   -51.8470     8.3910     7.2880     6.9920    11.4650    97.5740     2.4670     0.0000
  600.0000   -52.1260     8.8590     7.7010     7.2830    11.4360    98.1650     2.4730     0.0010
  600.5000   -52.1460     9.0260     8.0220     7.5740    11.4060    98.3170     2.4800     0.0010
  601.0000   -52.1540     9.2350     8.2080     7.8050    11.4050    97.7810     2.4840     0.0020
  601.5000   -52.1450     9.4440     8.3910     7.9930    11.4050    97.1800     2.4820     0.0030
  602.0000   -52.1460     9.5240     8.5690     8.2250    11.4050    96.5750     2.4760     0.0070
  602.5000   -52.0020     9.5240     8.7450     8.4570    11.4060    95.9700     2.4780     0.0110
  603.0000   -51.8190     9.5240     9.0210     8.5930    11.4210    95.3640     2.4800     0.0140
  603.5000   -51.6370     9.5240     8.9860     8.7000    11.4780    95.5770     2.4810     0.0160
  604.0000   -51.4560     9.5520     8.9050     8.6840    11.5340    96.5460     2.4810     0.0180
  604.5000   -51.2740     9.5950     8.8590     8.6130    11.5820    96.5740     2.4750     0.0200
  605.0000   -51.0920     9.6390     8.7950     8.5430    11.5540    94.9090     2.4630     0.0220
  605.5000   -50.9100     9.6980     8.7330     8.4720    11.4980    93.3040     2.4400     0.0230
  606.0000   -50.7300     9.2940     8.6710     8.3910    11.4430    91.9030     2.4310     0.0250
  606.5000   -50.5450     8.7000     8.6100     8.3680    11.4070    91.8920     2.4230     0.0270
  607.0000   -50.3670     8.7000     8.5480     8.3410    11.4190    91.8960     2.4220     0.0280
  607.5000   -50.2080     8.7000     8.4860     8.3120    11.4300    91.8980     2.4280     0.0280
  608.0000   -50.2780     8.7000     8.4230     8.2850    11.4400    92.0160     2.4320     0.0280
  608.5000   -50.3480     8.7000     8.3910     8.2570    11.4620    92.8860     2.4270     0.0280
