~VERSION INFORMATION
 VERS.                2.0:   CWLS LOG ASCII STANDARD - VERSION 2.0
 WRAP.                 NO:   ONE LINE PER DEPTH STEP
~WELL INFORMATION
#MNEM.UNIT      DATA TYPE    INFORMATION
#----------   ------------   ------------------------------
 STRT.F          200.0000:   START DEPTH
 STOP.F         3248.0000:   STOP DEPTH
 STEP.F            0.5000:   STEP LENGTH
 NULL.          -999.2500:   NO VALUE
 COMP.    FENIX & SCISSON:   COMPANY
 WELL.   FENIX "AX" #28-3:   WELL
 FLD .              NPR-3:   FIELD
 LOC .       S3 T38N R78W:   LOCATION
 CNTY.            NATRONA:   COUNTY
 STAT.            WYOMING:   STATE
 CTRY. UNITED STATES OF AMERICA:   COUNTRY
 SRVC.              WELEX:   SERVICE COMPANY
 DATE.        30-JUN-1977:   LOGDATE
 API .     49025104200000:   API NUMBER
~CURVE INFORMATION
#MNEM.UNIT       API CODE    CURVE DESCRIPTION
#----------   ------------   ------------------------------
 DEPT.F                  :   
 CALD.IN     45 280 60 00:   CALIPER FROM DENSITY LOG
 GRD .GAPI   45 310 01 00:   GAMMA RAY FROM DENSITY LOG
 RHOB.G/C3   45 350 01 00:   BULK DENSITY
 CORR.G/C3   45 356 01 00:   DENSITY CORRECTION
 SPR .MV     07 010 01 00:   SPONTANEOUS POTENTIAL
 ILD .OHMM   07 120 46 00:   DEEP INDUCTION RESISTIVITY
 ILM .OHMM   07 120 44 00:   INDUCTION LOG MEDIUM RESISTIVITY
 SGRD.OHMM   07 220 05 00:   SHALLOW SHORT GUARD RESISTIVITY
~PARAMETER INFORMATION
#MNEM.UNIT          VALUE    DESCRIPTION
#----------   ------------   ------------------------------
 EKB .F         4969.0000:   Kelly bushing
 EGL .F         4959.0000:   Ground level
 TD  .F         3250.0000:   Total depth
 CLNT.            A2DTECH:   Client Code
 SL  . 500' FSL & 800' FWL:   Surface Location
 PD  .                 GL:   Permanent Datum
 EPD .F              4959:   Elevation Permanent Datum
 LMF .                 KB:   Log Measured From
 DMF .                 KB:   Drilling Measured From
 DAPD.F                10:   Feet Above Permanent Datum
 DATE.        30-JUN-1977:   Date Logged [DD-MMM-YYYY]
 DD  .F              3250:   Depth driller
 DL  .F              3250:   Depth logger
 BLI .F              3248:   Bottom log interval
 TLI .F               200:   Top log interval
 CS1 .IN            8.625:   Casing size
 CBD1.      8.625" @ 217':   Casing driller 1
 CBL1.F               225:   Casing logger 1
 BS1 .IN            7.875:   Bit size
 BSD1.F              3250:   Depth drilled with bit1
 DFT .                KCL:   Type fluid in hole
 DFD .                8.9:   Density
 RMS .OHMM           1.76:   Rm
 MST .F                63:   Rm Meas. temp.
 TCS .HRS             2.5:   Time Circ. stopped
 MRT .F                68:   Maximum recorded temp.
 LUN .               8611:   Logging unit number
 ENGI.         G. BENTSEN:   Recorded By
 WITN.         PETTINGILL:   Witnessed by
 ORIG.         2.5" PRINT:   Origin of data
 UWI .     49025104200000:   Unique Well ID
 DICO. A2D TECHNOLOGIES, INC.:   Digitizing Company
 DFV .                 30:   Viscosity
 DFPH.                  7:   pH
 DFL .                 10:   Fluid loss
 MSS .                PIT:   Source of sample
 RMF .OHMM           1.09:   Rmf
 MFST.F                68:   Rmf Meas. temp.
 MFSS.               MEAS:   Source Rmf.
 RMC .OHMM           2.01:   Rmc
 MCST.F                68:   Rmc Meas. temp.
 MCSS.               MEAS:   Source Rmc.
 RMB .OHMM           1.01:   Rm. at BHT
 BHT .F               118:   BHT.
 LUL .             CASPER:   Logging unit location
~OTHER INFORMATION
~A   DEPT       CALD       GRD        RHOB      CORR       SPR        ILD        ILM       SGRD   
# ...
 2184.5000     8.0384   139.0208     2.4650     0.0096   -55.1851    11.9532    14.9286    22.6585
 2185.0000     8.0365   137.7807     2.4685     0.0111   -55.4793    11.9532    15.1469    19.1964
 2185.5000     8.0349   135.8919     2.4731     0.0126   -55.7736    11.9532    15.4536    20.9108
 2186.0000     8.0333   134.0042     2.4741     0.0125   -56.0758    11.9532    15.4557    25.5960
 2186.5000     8.0317   133.5405     2.4740     0.0110   -56.3621    11.9532    15.2470    26.3074
 2187.0000     8.0301   134.2691     2.4677     0.0088   -56.6564    11.9408    15.2491    25.5960
 2187.5000     8.0575   137.6510     2.4559     0.0078   -56.6556    11.7701    14.8381    24.2306
 2188.0000     8.0559   140.5378     2.4444     0.0070   -56.7179    11.6020    14.6378    22.3177
 2188.5000     8.0543   143.6008     2.4466     0.0062   -57.0257    11.2803    14.0492    20.0000
 2189.0000     8.0820   144.0320     2.4606     0.0062   -57.2435    11.0082    13.3004    17.9265
 2189.5000     8.0804   141.2656     2.4695     0.0077   -57.3469    10.8110    13.1208    15.2049
 2190.0000     8.0789   138.4337     2.4738     0.0092   -57.5370    10.6565    13.1288    15.2049
 2190.5000     8.0773   134.6207     2.4738     0.0122   -57.5361    10.5641    13.3058    18.9330
 2191.0000     8.0757   131.5940     2.4717     0.0122   -57.5354    10.5641    13.4915    20.5558
 2191.5000     8.0741   130.8170     2.4674     0.0121   -57.5347    10.6387    13.4934    20.2760
 2192.0000     8.0725   132.7695     2.4527     0.0090   -57.5339    10.7101    13.4952    20.0000
 2192.5000     8.0709   133.9597     2.4461     0.0075   -57.5331    10.8581    13.4971    19.4592
 2193.0000     8.0693   133.9450     2.4501     0.0074   -57.5323    10.8581    13.6855    20.0000
 2193.5000     8.0677   132.1231     2.4583     0.0058   -57.5316    11.0082    13.6874    20.0000
 2194.0000     8.0661   130.2927     2.4674     0.0074   -57.5309    11.0082    13.6893    20.0000
 2194.5000     8.0645   128.4040     2.4735     0.0088   -57.2352    11.0082    13.6911    19.6966
 2195.0000     8.0629   126.6566     2.4812     0.0102   -57.2345    11.1603    13.6930    19.4592
 2195.5000     8.0613   125.9358     2.4888     0.0116   -56.6438    11.3146    13.6949    19.7869
 2196.0000     8.0596   124.2169     2.4918     0.0133   -56.6431    11.3146    13.8864    20.0737
 2196.5000     8.0577   124.0325     2.4811     0.0117   -57.2344    11.3146    13.8883    20.7365
 2197.0000     8.0562   122.7793     2.4764     0.0102   -57.5266    11.3146    14.0821    21.2339
 2197.5000     8.0546   122.3645     2.4733     0.0086   -57.5258    11.3146    14.0840    21.7142
 2198.0000     8.0530   122.0165     2.4703     0.0086   -57.5251    11.1603    14.2806    21.5762
 2198.5000     8.0515   122.3343     2.4672     0.0085   -57.4672    11.1603    14.4799    21.3081
 2199.0000     8.0499   123.8594     2.4678     0.0085   -57.2287    11.1603    14.6820    21.1587
 2199.5000     8.0483   125.3134     2.4778     0.0069   -57.5280    11.1603    14.4838    20.5558
 2200.0000     8.0468   127.0203     2.4692     0.0054   -57.6204    11.0082    14.0935    17.3700
 2200.5000     8.0461   128.5290     2.4636     0.0059   -57.9235    11.4717    13.7137    16.2885
 2201.0000     8.0453   130.1150     2.4642     0.0083   -58.2262    11.3012    13.7340    17.9985
 2201.5000     8.0445   130.1115     2.4751     0.0098   -58.3916    11.0104    13.9349    20.8566
 2202.0000     8.0438   130.1084     2.4856     0.0104   -58.3864    10.8325    14.1012    20.5778
 2202.5000     8.0724   128.6095     2.4884     0.0112   -58.0863    10.6784    13.8666    20.6551
 2203.0000     8.1009   127.6928     2.4833     0.0111   -57.7851    10.5267    13.4899    20.8738
 2203.5000     8.1001   126.7598     2.4788     0.0111   -57.7801    10.4250    13.3593    20.4004
 2204.0000     8.1286   126.8270     2.4772     0.0095   -57.4800    10.4258    13.1133    17.6360
 2204.5000     8.1221   127.0813     2.4741     0.0094   -57.4750    10.4265    13.0034    16.4476
 2205.0000     8.1154   126.4754     2.4714     0.0094   -57.1749    10.4272    12.8287    16.5552
 2205.5000     8.1087   125.8700     2.4670     0.0093   -57.1699    10.5721    13.0087    18.4249
 2206.0000     8.1020   125.2646     2.4592     0.0078   -56.8699    10.6575    13.2933    19.7938
 2206.5000     8.0953   125.2616     2.4488     0.0046   -57.1598    10.8679    13.3768    19.7991
 2207.0000     8.0887   125.2587     2.4545     0.0015   -57.1547    10.8687    13.5644    19.8044
 2207.5000     8.0820   124.0509     2.4605     0.0015   -57.1497    11.0196    13.7547    20.0831
 2208.0000     8.0753   122.8431     2.4510     0.0014   -57.4396    11.0204    13.7574    20.3657
 2208.5000     8.0686   121.0329     2.4416     0.0014   -57.4591    10.8708    13.5726    20.3711
 2209.0000     8.0629   119.2227     2.4344    -0.0002   -57.7245    10.8716    13.3903    20.3766
 2209.5000     8.0621   118.0149     2.4435    -0.0003   -57.7190    10.8723    13.3930    19.8309
 2210.0000     8.0614   119.2168     2.4358    -0.0003   -57.7777    10.7248    13.2131    19.5662
 2210.5000     8.0734   121.6234     2.4235     0.0012   -58.0043    10.7255    13.0355    19.0294
 2211.0000     8.0892   124.0301     2.4237     0.0011   -58.0886    10.7263    13.0382    19.0736
 2211.5000     8.0884   125.8487     2.4316     0.0011   -58.2892    10.5807    12.8630    19.8525
 2212.0000     8.0877   127.7353     2.4403     0.0041   -58.5792    10.5815    12.6902    19.8580
 2212.5000     8.1162   130.0453     2.4464     0.0057   -58.5730    10.4379    12.6930    19.5263
 2213.0000     8.1154   130.0422     2.4556     0.0070   -58.5678    10.4387    12.4861    19.3308
 2213.5000     8.1146   129.3502     2.4831     0.0072   -58.5627    10.4394    12.1428    19.3369
 2214.0000     8.1433   128.7273     2.4984     0.0100   -58.5575    10.4401    12.0219    18.6158
 2214.5000     8.1424   128.2259     2.5014     0.0118   -58.2564    10.4408    11.9668    17.8201
 2215.0000     8.1417   127.6205     2.5014     0.0129   -57.9564    10.4415    11.8628    17.8250
 2215.5000     8.1410   126.8563     2.4967     0.0129   -57.3613    10.4423    11.7040    18.0760
 2216.0000     8.1403   125.6303     2.4952     0.0108   -57.3563    10.4430    11.7064    16.8843
 2216.5000     8.1396   125.2018     2.4768     0.0082   -57.0563    10.4438    11.9592    15.3437
 2217.0000     8.1389   125.1988     2.4522     0.0066   -56.7562    10.4445    12.1348    17.1264
 2217.5000     8.1381   125.1958     2.4415     0.0065   -57.0465    10.5896    12.5462    19.6475
 2218.0000     8.1374   125.1928     2.4369     0.0043   -57.3363    10.7367    12.7222    20.2541
 2218.5000     8.1367   126.3266     2.4338     0.0027   -57.6261    10.7374    12.7247    20.1626
 2219.0000     8.1360   127.5964     2.4399     0.0032   -57.9195    10.7381    12.7273    20.4886
 2219.5000     8.1352   126.9874     2.4536     0.0063   -58.2222    10.7388    12.7298    19.4008
 2220.0000     8.1345   125.1807     2.4643     0.0078   -58.4958    10.5931    12.7324    18.8812
 2220.5000     8.1338   123.2940     2.4674     0.0077   -58.4904    10.5939    12.7350    19.1470
 2221.0000     8.1330   122.0503     2.4705     0.0068   -58.4853    10.5946    12.5639    19.1523
 2221.5000     8.1323   120.9543     2.4719     0.0061   -58.4801    10.5953    12.3951    18.8200
 2222.0000     8.1316   120.9513     2.4737     0.0060   -58.4749    10.5960    12.3977    17.5544
 2222.5000     8.1308   122.7556     2.4764     0.0060   -58.4698    10.5715    12.4002    16.9431
 2223.0000     8.1301   123.3554     2.4729     0.0075   -58.1696    10.4529    12.5742    18.0523
 2223.5000     8.1294   123.9548     2.4702     0.0089   -58.0438    10.4537    12.7506    18.5849
 2224.0000     8.1287   125.1563     2.4769     0.0120   -57.8643    10.4545    12.7532    19.1332
 2224.5000     8.1279   124.5509     2.4838     0.0119   -57.8591    10.4552    12.7059    19.8450
