~VERSION INFORMATION
 VERS.                2.0:   CWLS LOG ASCII STANDARD - VERSION 2.0
 WRAP.                 NO:   ONE LINE PER DEPTH STEP
~WELL INFORMATION
#MNEM.UNIT      DATA TYPE    INFORMATION
#----------   ------------   ------------------------------
 STRT.F          190.0000:   START DEPTH
 STOP.F         3050.0000:   STOP DEPTH
 STEP.F            0.5000:   STEP LENGTH
 NULL.          -999.2500:   NO VALUE
 COMP.    FENIX & SCISSON:   COMPANY
 WELL. FENIX NPR 3 "AX" #86-29:   WELL
 FLD .      NPR - WILDCAT:   FIELD
 LOC .      S29 T39N R78W:   LOCATION
 CNTY.            NATRONA:   COUNTY
 STAT.            WYOMING:   STATE
 CTRY. UNITED STATES OF AMERICA:   COUNTRY
 SRVC.              WELEX:   SERVICE COMPANY
 DATE.        24-JUN-1977:   LOGDATE
 API .     49025103830000:   API NUMBER
~CURVE INFORMATION
#MNEM.UNIT       API CODE    CURVE DESCRIPTION
#----------   ------------   ------------------------------
 DEPT.F                  :   
 SPR .MV     07 010 01 00:   SPONTANEOUS POTENTIAL
 ILD .OHMM   07 120 46 00:   DEEP INDUCTION RESISTIVITY
 ILM .OHMM   07 120 44 00:   INDUCTION LOG MEDIUM RESISTIVITY
 SGRD.OHMM   07 220 05 00:   SHALLOW SHORT GUARD RESISTIVITY
 GRD .GAPI   45 310 01 00:   GAMMA RAY FROM DENSITY LOG
 CALD.IN     45 280 60 00:   CALIPER FROM DENSITY LOG
 RHOB.G/C3   45 350 01 00:   BULK DENSITY
 CORR.G/C3   45 356 01 00:   DENSITY CORRECTION
~PARAMETER INFORMATION
#MNEM.UNIT          VALUE    DESCRIPTION
#----------   ------------   ------------------------------
 EKB .F         5056.0000:   Kelly bushing
 EGL .F         5046.0000:   Ground level
 EDF .F            0.0000:   Drilling floor
 TD  .F         3051.0000:   Total depth
 DATE.        24-JUN-1977:   Date logged
 CLNT.            A2DTECH:   Client Code
 SL  . 1746' FSL & 534' FEL:   Surface Location
 PD  .                 GL:   Permanent Datum
 EPD .F              5046:   Elevation Permanent Datum
 LMF .                 KB:   Log Measured From
 DMF .                 KB:   Drilling Measured From
 DAPD.F                10:   Feet Above Permanent Datum
 DD  .F              3038:   Depth driller
 DL  .F              3051:   Depth logger
 BLI .F              3049:   Bottom log interval
 TLI .F               200:   Top log interval
 CS1 .IN            8.625:   Casing size
 CBD1.      8.625" @ 217':   Casing driller 1
 CBL1.F               213:   Casing logger 1
 BS1 .IN            7.875:   Bit size
 BSD1.F              3038:   Depth drilled with bit1
 DFT .            KCL/MUD:   Type fluid in hole
 DFD .                8.7:   Density
 DFV .                134:   Viscosity
 DFPH.                7.5:   pH
 DFL .                7.2:   Fluid loss
 MSS .           FLOWLINE:   Source of sample
 RMS .OHMM            .62:   Rm
 MST .F                82:   Rm Meas. temp.
 RMF .OHMM            .28:   Rmf
 MFST.F                82:   Rmf Meas. temp.
 RMC .OHMM            .78:   Rmc
 MCST.F                82:   Rmc Meas. temp.
 MFSS.               MEAS:   Source Rmf.
 MCSS.               MEAS:   Source Rmc.
 RMB .OHMM            .45:   Rm. at BHT
 BHT .F               111:   BHT.
 TCS .HRS               2:   Time Circ. stopped
 MRT .F               111:   Maximum recorded temp.
 LUN .               8766:   Logging unit number
 LUL .             CASPER:   Logging unit location
 ENGI.          D. LAWSON:   Recorded By
 WITN.      B. HARRINGTON:   Witnessed by
 ORIG.           5" PRINT:   Origin of data
 UWI .     49025103830000:   Unique Well ID
 DICO. A2D TECHNOLOGIES, INC.:   Digitizing Company
~OTHER INFORMATION
~A   DEPT      SPR        ILD        ILM       SGRD        GRD       CALD         RHOB      CORR  
# ...
 1121.5000   -62.2970     8.8660     9.9980    12.6480    75.2420     8.6620     2.5000     0.0290
 1122.0000   -62.3420     8.8340    10.1030    12.7130    74.7630     8.6650     2.5020     0.0300
 1122.5000   -62.3520     8.8020    10.1510    12.7820    74.2830     8.6670     2.5000     0.0300
 1123.0000   -62.3520     8.7700    10.0780    12.8820    73.8340     8.6700     2.4970     0.0290
 1123.5000   -62.3520     8.7380    10.0230    12.5330    73.9520     8.6730     2.4930     0.0280
 1124.0000   -62.3520     8.7060     9.9680    12.7340    74.0880     8.6750     2.4890     0.0270
 1124.5000   -62.3520     8.6740     9.9140    13.0010    74.2220     8.6780     2.4850     0.0260
 1125.0000   -62.3520     8.6430     9.8760    12.6990    74.3560     8.6800     2.4830     0.0230
 1125.5000   -62.3520     8.6110     9.9140    12.4690    74.4890     8.6830     2.4810     0.0200
 1126.0000   -62.3520     8.6630     9.9490    12.3050    74.6230     8.6850     2.4800     0.0170
 1126.5000   -62.3520     8.7260     9.9840    12.6480    74.7570     8.6840     2.4800     0.0140
 1127.0000   -62.3520     8.7880    10.0180    12.2300    74.8880     8.6780     2.4790     0.0120
 1127.5000   -62.3520     8.8470    10.0530    12.6090    74.9390     8.6710     2.4800     0.0110
 1128.0000   -62.3520     8.8470    10.0830    12.9010    74.5400     8.6640     2.4830     0.0110
 1128.5000   -62.3520     8.8470    10.1120    13.1200    74.1530     8.6570     2.4850     0.0120
 1129.0000   -62.3520     8.8630    10.1400    12.0820    73.9060     8.6510     2.4860     0.0140
 1129.5000   -62.3520     8.9310    10.2860    12.2020    74.5700     8.6530     2.4850     0.0160
 1130.0000   -62.3520     8.9980    10.5000    12.4820    75.2240     8.6630     2.4840     0.0140
 1130.5000   -62.3520     9.0660    10.7130    12.5910    75.7370     8.6730     2.4840     0.0120
 1131.0000   -62.3520     9.1340    10.9270    12.8210    75.3730     8.6840     2.4880     0.0110
 1131.5000   -62.3520     9.2010    11.2280    13.6610    74.9990     8.6940     2.4920     0.0120
 1132.0000   -62.3520     9.2690    11.1570    14.6460    74.6260     8.7040     2.4970     0.0130
 1132.5000   -62.3520     9.3360    11.0380    14.5510    74.9390     8.7070     2.4980     0.0140
 1133.0000   -62.3520     9.4330    10.9200    14.3050    75.3080     8.7030     2.4980     0.0170
 1133.5000   -62.3520     9.3830    10.7410    14.0020    75.6710     8.6990     2.4990     0.0200
 1134.0000   -62.3520     9.2950    10.8240    13.4080    76.5250     8.6950     2.5020     0.0230
 1134.5000   -62.3520     9.2070    11.2280    12.8820    77.5790     8.6900     2.5050     0.0260
 1135.0000   -62.3520     9.1190    11.0340    12.9890    78.5170     8.6860     2.5090     0.0290
 1135.5000   -62.3520     9.0310    10.6780    13.1200    78.1990     8.6820     2.5130     0.0320
 1136.0000   -62.3520     8.9430    10.1510    12.9530    77.8470     8.6780     2.5160     0.0310
 1136.5000   -62.3520     8.8470    10.2180    12.4420    78.0990     8.6740     2.5120     0.0300
 1137.0000   -62.3520     8.8140    10.3460    12.1930    78.6000     8.6700     2.5090     0.0290
 1137.5000   -62.3520     8.7780    10.4740    12.0820    79.1080     8.6690     2.5060     0.0260
 1138.0000   -62.3520     8.7410    10.6020    12.5130    79.6150     8.6730     2.5010     0.0230
 1138.5000   -62.3520     8.7050    10.7310    13.3630    80.1210     8.6770     2.4900     0.0200
 1139.0000   -62.3520     8.6680    10.8230    13.1430    80.5520     8.6810     2.4830     0.0160
 1139.5000   -62.3520     8.6290    10.6020    12.6480    79.6930     8.6850     2.4790     0.0130
 1140.0000   -62.3520     8.5890    10.3490    12.6750    78.7210     8.6850     2.4760     0.0120
 1140.5000   -62.3520     8.5500    10.0960    12.7650    77.7530     8.6780     2.4740     0.0110
 1141.0000   -62.3520     8.5070    10.0580    12.5750    76.9220     8.6700     2.4720     0.0110
 1141.5000   -62.3520     8.4590    10.0580    12.0820    76.2050     8.6620     2.4720     0.0100
 1142.0000   -62.3520     8.4120    10.0580    12.2030    75.4430     8.6540     2.4720     0.0080
 1142.5000   -62.3520     8.3640    10.0580    12.4840    74.6790     8.6470     2.4730     0.0060
 1143.0000   -62.3520     8.3030    10.0580    12.6480    73.9190     8.6390     2.4750     0.0050
 1143.5000   -62.3520     8.3290    10.0580    12.3510    73.1580     8.6310     2.4820     0.0080
 1144.0000   -62.3520     8.3810    10.0770    11.8620    72.3970     8.6240     2.4890     0.0110
 1144.5000   -62.3520     8.4330    10.1690    11.9710    71.6360     8.6160     2.4930     0.0140
 1145.0000   -62.3520     8.4860    10.2620    13.2080    70.8750     8.6080     2.4910     0.0140
 1145.5000   -62.3520     8.5440    10.3390    13.6100    70.1120     8.6000     2.4900     0.0140
 1146.0000   -62.3610     8.6300    10.5910    12.9950    69.3540     8.5930     2.4920     0.0150
 1146.5000   -62.3730     8.7160    10.8500    12.7650    68.7500     8.5850     2.4960     0.0170
 1147.0000   -62.3850     8.8030    11.1090    13.1030    69.0930     8.5770     2.5010     0.0200
 1147.5000   -62.3960     8.8890    11.2280    13.7170    69.4410     8.5690     2.5060     0.0230
 1148.0000   -62.4080     8.9760    10.9480    14.2480    69.7860     8.5780     2.5050     0.0260
 1148.5000   -62.4200     9.0620    10.7250    13.8790    70.1310     8.5890     2.4930     0.0300
 1149.0000   -62.4320     9.1480    10.8660    13.1200    70.4770     8.5990     2.4870     0.0290
 1149.5000   -62.4440     9.2350    11.0190    13.1200    70.8210     8.6090     2.4810     0.0270
 1150.0000   -62.4560     9.3210    11.1720    13.8270    71.0670     8.6150     2.4770     0.0250
 1150.5000   -62.4670     9.3570    11.3250    14.3800    70.9030     8.6210     2.4730     0.0230
 1151.0000   -62.4790     9.3700    11.4780    14.2650    70.7200     8.6270     2.4710     0.0240
 1151.5000   -62.4910     9.3830    11.6300    14.0360    70.8340     8.6330     2.4710     0.0260
 1152.0000   -62.5030     9.3970    11.4670    13.7360    71.1600     8.6400     2.4740     0.0280
 1152.5000   -62.5150     9.4100    11.2670    13.8090    71.4880     8.6460     2.4770     0.0310
 1153.0000   -62.5260     9.4240    11.0660    13.9140    71.8040     8.6490     2.4800     0.0310
 1153.5000   -62.5380     9.4330    10.9230    13.9900    71.5120     8.6510     2.4810     0.0290
 1154.0000   -62.5500     9.4170    10.9730    13.3230    72.7010     8.6530     2.4790     0.0270
 1154.5000   -62.5620     9.4010    11.0120    12.8820    74.1020     8.6550     2.4750     0.0250
 1155.0000   -62.5740     9.3860    11.0500    12.8820    75.3730     8.6570     2.4710     0.0230
 1155.5000   -62.5860     9.3710    11.0890    13.4860    75.0100     8.6600     2.4690     0.0200
 1156.0000   -62.5970     9.3560    11.1250    13.2410    74.1950     8.6620     2.4680     0.0180
 1156.5000   -62.6090     9.3400    10.9330    13.4950    73.3890     8.6640     2.4700     0.0200
 1157.0000   -62.6210     9.3250    10.7550    13.9900    72.6330     8.6660     2.4710     0.0210
 1157.5000   -62.6330     9.3100    10.5760    13.9900    72.2170     8.6670     2.4750     0.0220
 1158.0000   -62.6450     9.2950    10.3390    13.5480    71.8230     8.6650     2.4790     0.0230
 1158.5000   -62.6570     9.2790    10.4030    13.3100    71.4290     8.6630     2.4830     0.0240
 1159.0000   -62.6680     9.2640    10.4980    13.1950    71.0690     8.6610     2.4880     0.0280
 1159.5000   -62.6800     9.2440    10.6270    13.0810    71.0610     8.6600     2.4950     0.0320
 1160.0000   -62.6920     9.2050    10.5740    12.9670    71.0630     8.6580     2.5010     0.0360
 1160.5000   -62.7040     9.1670    10.4950    12.8820    71.0630     8.6560     2.5050     0.0350
 1161.0000   -62.7160     9.1280    10.4160    12.9700    71.0630     8.6540     2.5060     0.0340
 1161.5000   -62.7270     9.0890    10.3370    13.0400    71.0640     8.6530     2.5070     0.0330
