~VERSION INFORMATION
 VERS.                2.0:   CWLS LOG ASCII STANDARD - VERSION 2.0
 WRAP.                 NO:   ONE LINE PER DEPTH STEP
~WELL INFORMATION
#MNEM.UNIT      DATA TYPE    INFORMATION
#----------   ------------   ------------------------------
 STRT.F           36.0000:   START DEPTH
 STOP.F         3488.0000:   STOP DEPTH
 STEP.F            0.5000:   STEP LENGTH
 NULL.          -999.2500:   NO VALUE
 COMP. LAWRENCE - ALLISON  & ASSOCIATE:   COMPANY
 WELL. LAWRENCE "STX" #76-23:   WELL
 FLD .              NPR 3:   FIELD
 LOC .      S23 T38N R78W:   LOCATION
 CNTY.            NATRONA:   COUNTY
 STAT.            WYOMING:   STATE
 CTRY. UNITED STATES OF AMERICA:   COUNTRY
 SRVC.       SCHLUMBERGER:   SERVICE COMPANY
 DATE.        07-MAY-1982:   LOGDATE
 API .     49025108920000:   API NUMBER
~CURVE INFORMATION
#MNEM.UNIT       API CODE    CURVE DESCRIPTION
#----------   ------------   ------------------------------
 DEPT.F                  :   
 CORR.G/C3   45 356 01 00:   DENSITY CORRECTION
 CALD.IN     45 280 60 00:   CALIPER FROM DENSITY LOG
 GRD .GAPI   45 310 01 00:   GAMMA RAY FROM DENSITY LOG
 RHOB.G/C3   45 350 01 00:   BULK DENSITY
 SFL .OHMM   07 220 01 00:   SHALLOW FOCUSED LOG RESISTIVITY
 ILD .OHMM   07 120 46 00:   DEEP INDUCTION RESISTIVITY
 ILM .OHMM   07 120 44 00:   INDUCTION LOG MEDIUM RESISTIVITY
 TENR.LBS    07 635 01 00:   TENSION
 SPR .MV     07 010 01 00:   SPONTANEOUS POTENTIAL
 NPHI.DEC    42 890 03 00:   NEUTRON POROSITY SANDSTONE
 TEND.LBS    45 635 01 00:   TENSION FROM DENSITY LOG
~PARAMETER INFORMATION
#MNEM.UNIT          VALUE    DESCRIPTION
#----------   ------------   ------------------------------
 EKB .F         5441.0000:   Kelly bushing
 EGL .F         5431.0000:   Ground level
 EDF .F            0.0000:   Drilling floor
 EPD .F            0.0000:   Permanent datum
 TD  .F         3788.0000:   Total depth
 DATE.        07-MAY-1982:   Date logged
 CLNT.            A2DTECH:   Client Code
 SL  . 1327' FSL & 1190' FEL:   Surface Location
 PD  .                 GL:   Permanent Datum
 DAPD.F                10:   Feet Above Permanent Datum
 DD  .F              3788:   Depth driller
 DL  .F              3478:   Depth logger
 BLI .F              3471:   Bottom log interval
 TLI .F              1615:   Top log interval
 CS1 .IN            9.625:   Casing size
 CBD1.     9.625" @ 1603':   Casing driller 1
 CBL1.F              1615:   Casing logger 1
 BS1 .IN            7.875:   Bit size
 BSD1.F              3788:   Depth drilled with bit1
 DFT .                AIR:   Type fluid in hole
 TCS .HRS            1230:   Time Circ. stopped
 TLAB.HRS            1500:   Time logger at bottom
 MRT .F               125:   Maximum recorded temp.
 LUN .               8035:   Logging unit number
 LUL .               CSPR:   Logging unit location
 ENGI.              PENNY:   Recorded By
 WITN.    JENNINGS/STRONG:   Witnessed by
 ORIG.       2.5"5" PRINT:   Origin of data
 UWI .     49025108920000:   Unique Well ID
 DICO. A2D TECHNOLOGIES, INC.:   Digitizing Company
~OTHER INFORMATION
~A   DEPT       CORR     CALD        GRD         RHOB      SFL        ILD        ILM       TENR        SPR        NPHI      TEND   
# ...
 1378.0000     0.0160    13.1580   113.5880     2.5030     6.2540     5.8740     6.1120  1020.9420   -10.1700     0.3200  1377.0610
 1378.5000     0.0150    13.1790   113.9080     2.4930     6.1920     5.8170     6.0490  1021.6040   -10.1660     0.3330  1376.8190
 1379.0000     0.0180    13.1990   113.2030     2.4970     6.1300     5.7590     5.9860  1022.2660   -10.2890     0.3380  1376.5760
 1379.5000     0.0170    13.2300   112.1270     2.4970     6.0680     5.7020     5.9230  1022.9290   -10.4410     0.3320  1376.3330
 1380.0000     0.0080    13.2370   111.9110     2.4880     6.0380     5.6440     5.8600  1023.5910   -10.5910     0.3240  1376.0900
 1380.5000     0.0010    13.2460   112.8320     2.4780     6.0380     5.5020     5.8180  1024.2540   -10.7390     0.3160  1375.8480
 1381.0000    -0.0030    13.2540   114.8880     2.4760     6.1510     5.4010     5.6230  1024.9160   -10.8890     0.3190  1375.6050
 1381.5000    -0.0040    13.2620   116.8680     2.4780     5.8620     5.1220     5.4150  1025.5790   -11.0380     0.3130  1375.3621
 1382.0000     0.0010    13.2700   117.9120     2.4800     5.6270     4.8900     5.2060  1026.2410   -11.1890     0.3110  1375.1190
 1382.5000     0.0060    13.2780   117.3820     2.4810     5.3920     4.6580     4.9980  1026.9041   -11.3350     0.3170  1374.8770
 1383.0000     0.0110    13.2850   118.0610     2.4820     5.1570     4.4250     4.7900  1027.5660   -11.4870     0.3240  1374.6340
 1383.5000     0.0150    13.3030   119.3930     2.4680     4.7950     4.1930     4.5810  1028.2260   -11.6400     0.3420  1374.3910
 1384.0000     0.0090    13.3210   119.9150     2.4540     4.4010     3.9600     4.3730  1028.2260   -11.6890     0.3660  1374.1479
 1384.5000     0.0030    13.2590   117.4110     2.4490     4.0070     3.7280     4.0880  1028.2260   -11.4230     0.3900  1373.9060
 1385.0000     0.0000    13.1830   114.9760     2.4570     3.3950     3.4590     4.1310  1028.2260   -11.1590     0.3710  1373.6630
 1385.5000     0.0010    13.1070   112.8730     2.4810     3.6940     3.8490     4.3110  1028.2260   -10.8900     0.3510  1373.4200
 1386.0000     0.0090    13.0300   114.0800     2.5050     4.3620     4.3130     4.4910  1028.2260   -10.6210     0.3300  1373.1770
 1386.5000     0.0160    13.0050   115.4260     2.5220     5.0310     4.7770     4.6720  1028.2260   -10.3420     0.3100  1372.9351
 1387.0000     0.0240    12.9970   117.6340     2.5290     5.6990     5.1440     4.8520  1028.2260   -10.2400     0.3020  1372.6920
 1387.5000     0.0270    12.9900   119.7540     2.5280     6.1510     5.2680     5.0140  1028.2260   -10.5370     0.3170  1372.4490
 1388.0000     0.0210    12.9830   120.6060     2.5190     6.1220     5.3930     5.2860  1028.2260   -10.8150     0.3300  1372.2061
 1388.5000     0.0140    12.9760   118.8850     2.5020     6.0280     5.5020     5.5020  1028.2260   -11.0990     0.3390  1371.9640
 1389.0000     0.0090    12.9690   116.5320     2.4850     5.9350     5.5860     5.6920  1028.2260   -11.4140     0.3300  1371.7209
 1389.5000     0.0060    12.9610   116.2400     2.4740     5.8410     5.6610     5.8610  1028.2260   -11.6720     0.3240  1371.4780
 1390.0000     0.0030    12.9540   117.4960     2.4750     5.9200     5.7350     6.0290  1028.2260   -13.0680     0.3230  1371.2350
 1390.5000     0.0070    12.9470   118.5870     2.4870     6.0560     5.8100     6.1980  1028.2260   -14.7360     0.3240  1370.9930
 1391.0000     0.0150    12.9400   116.8210     2.4990     6.1920     5.8840     6.3670  1028.2260   -16.3740     0.3250  1370.7500
 1391.5000     0.0210    12.9330   114.9760     2.5120     6.3280     5.9590     6.5030  1028.2260   -15.1130     0.3260  1370.5070
 1392.0000     0.0220    12.9250   113.1930     2.5190     6.4650     6.0340     6.3510  1028.2260   -13.7260     0.3190  1370.2650
 1392.5000     0.0130    12.9180   113.7370     2.5130     6.6250     6.1510     6.1510  1028.2260   -12.4250     0.3060  1370.0220
 1393.0000     0.0020    12.9120   114.4280     2.5030     6.6250     6.1310     6.1560  1028.2260   -11.4110     0.3030  1369.7791
 1393.5000     0.0010    12.9040   112.9550     2.4980     6.5930     6.0840     6.1680  1028.2260   -13.2070     0.3030  1369.5360
 1394.0000     0.0050    12.8960   110.7190     2.4990     6.5620     6.0370     6.1800  1028.2260   -13.6120     0.3140  1369.2939
 1394.5000     0.0080    12.8880   108.4820     2.5080     6.5320     5.9900     6.1920  1028.2260   -11.8610     0.3230  1369.0510
 1395.0000     0.0010    12.8800   109.1580     2.5140     6.5030     5.9430     6.2050  1028.2260   -10.2080     0.3240  1368.8080
 1395.5000    -0.0070    12.8720   112.2950     2.5120     6.5380     5.8970     6.2170  1028.2260   -10.2950     0.3210  1368.5649
 1396.0000    -0.0070    12.8640   114.2390     2.5140     6.6250     5.8180     6.2290  1028.2260   -11.8920     0.3240  1368.3230
 1396.5000     0.0100    12.8560   114.0790     2.5240     6.5870     5.8240     6.2410  1028.2260   -13.6750     0.3350  1368.0800
 1397.0000     0.0180    12.8530   114.0190     2.5330     6.3840     5.8430     6.2530  1028.2260   -12.6440     0.3320  1367.8370
 1397.5000     0.0170    12.8550   115.4690     2.5340     6.3920     5.8630     6.2660  1028.2260   -11.5570     0.3280  1367.5940
 1398.0000     0.0150    12.8560   116.9630     2.5230     6.4170     5.8830     6.2660  1028.2260   -11.1810     0.3240  1367.3521
 1398.5000     0.0120    12.8580   117.4520     2.5140     6.4420     5.9020     6.2660  1028.2260   -10.7400     0.3210  1367.1090
 1399.0000     0.0090    12.8590   116.0680     2.5100     6.4680     5.9220     6.2660  1028.2260   -10.5440     0.3240  1366.8660
 1399.5000     0.0050    12.8610   114.7170     2.5160     6.4930     5.9270     6.2660  1028.2260   -10.8580     0.3270  1366.6230
 1400.0000     0.0120    12.8620   113.8490     2.5300     6.5030     5.9270     6.2660  1028.2260   -11.2180     0.3310  1366.3810
 1400.5000     0.0210    12.8640   115.0500     2.5390     6.3590     5.9280     6.2670  1028.2260   -11.6470     0.3280  1366.1379
 1401.0000     0.0170    12.8650   116.5130     2.5280     6.2660     5.9290     6.2660  1028.2260   -11.4790     0.3240  1365.8950
 1401.5000     0.0100    12.8670   115.0130     2.5090     6.3510     5.9270     6.2690  1028.2260   -10.9080     0.3200  1365.6520
 1402.0000     0.0070    12.8680   111.4000     2.4980     6.4520     5.9210     6.2760  1028.2260   -10.5550     0.3190  1365.4100
 1402.5000     0.0140    12.8700   108.4840     2.5080     6.5530     5.9270     6.1510  1028.2260   -10.5070     0.3210  1365.1670
 1403.0000     0.0280    12.8710   110.3640     2.5160     6.7490     5.4980     5.9070  1028.2260   -10.4250     0.3360  1364.9240
 1403.5000     0.0500    12.8750   115.3190     2.5170     6.7490     5.1010     5.6630  1028.2260   -10.3620     0.3550  1364.6810
 1404.0000     0.0380    12.8860   119.3180     2.4810     6.2420     4.8320     5.4190  1028.2260   -10.2980     0.3800  1364.4390
 1404.5000     0.0160    12.8980   121.0890     2.4500     5.3560     4.7650     5.1760  1028.2260   -10.2220     0.4180  1364.1960
 1405.0000    -0.0020    12.9100   118.8300     2.4440     4.0880     4.6940     4.9220  1028.2260   -10.1660     0.4100  1363.9530
 1405.5000    -0.0010    12.9220   116.5880     2.4680     4.4370     4.6230     4.8600  1028.2260   -10.2080     0.3950  1363.7100
 1406.0000     0.0100    12.9330   114.3550     2.4890     5.0510     4.5520     4.7940  1028.2260   -11.0030     0.3790  1363.6400
 1406.5000     0.0210    12.9450   114.0980     2.5040     5.6660     4.4810     4.7290  1028.2260   -12.3220     0.3700  1364.9060
 1407.0000     0.0270    12.9570   114.3810     2.5070     6.2660     4.4090     4.6640  1028.2260   -13.5910     0.3850  1366.1720
 1407.5000     0.0240    12.9680   113.9000     2.4820     5.7860     4.3380     4.5990  1028.2260   -15.2810     0.4010  1367.4370
 1408.0000     0.0170    12.9840   112.4170     2.4550     5.0240     4.2430     4.5340  1028.2260   -17.8730     0.4170  1368.7030
