~VERSION INFORMATION
 VERS.                2.0:   CWLS LOG ASCII STANDARD - VERSION 2.0
 WRAP.                 NO:   ONE LINE PER DEPTH STEP
~WELL INFORMATION
#MNEM.UNIT      DATA TYPE    INFORMATION
#----------   ------------   ------------------------------
 STRT.F           53.0000:   START DEPTH
 STOP.F         3110.0000:   STOP DEPTH
 STEP.F            0.5000:   STEP LENGTH
 NULL.          -999.2500:   NO VALUE
 COMP. LAWRENCE ALLISON & ASSOCIATES W:   COMPANY
 WELL. LAWRENCE NPR 3 "AX" #31-34:   WELL
 FLD .      NPR - WILDCAT:   FIELD
 LOC .      S34 T39N R78W:   LOCATION
 CNTY.            NATRONA:   COUNTY
 STAT.            WYOMING:   STATE
 CTRY. UNITED STATES OF AMERICA:   COUNTRY
 SRVC.      DRESSER ATLAS:   SERVICE COMPANY
 DATE.        11-JUL-1986:   LOGDATE
 API .     49025111020000:   API NUMBER
~CURVE INFORMATION
#MNEM.UNIT       API CODE    CURVE DESCRIPTION
#----------   ------------   ------------------------------
 DEPT.F                  :   
 DEN .G/C3   45 350 01 00:   BULK DENSITY
 TEND.LBS    45 635 01 00:   TENSION FROM DENSITY LOG
 CORR.G/C3   45 356 01 00:   DENSITY CORRECTION
 NPHI.DEC    42 890 03 00:   NEUTRON POROSITY SANDSTONE
 SPR .MV     07 010 01 00:   SPONTANEOUS POTENTIAL
 RILM.OHMM   07 120 44 00:   INDUCTION LOG MEDIUM RESISTIVITY
 RILD.OHMM   07 120 46 00:   DEEP INDUCTION RESISTIVITY
 RFOC.OHMM   07 220 04 00:   RESISTIVITY FOCUSED LOG RES.
 TENR.LBS    07 635 01 00:   TENSION FROM RESISTIVITY
 GRR .GAPI   07 310 01 00:   GAMMA RAY FROM RESISTIVITY
 CALR.IN     07 280 01 00:   CALIPER FROM RESISTIVITY
~PARAMETER INFORMATION
#MNEM.UNIT          VALUE    DESCRIPTION
#----------   ------------   ------------------------------
 EKB .F          5074.800:   Kelly bushing
 EGL .F          5063.000:   Ground level
 EDF .F            0.0000:   Drilling floor
 EPD .F            0.0000:   Permanent datum
 TD  .F         3108.0000:   Total depth
 DATE.        11-JUL-1986:   Date logged
 CLNT.            A2DTECH:   Client Code
 SL  . 1796' FWL & 318' FNL:   Surface Location
 PD  .                 GL:   Permanent Datum
 DAPD.F                11:   Feet Above Permanent Datum
 DD  .F              3103:   Depth driller
 DL  .F              3108:   Depth logger
 BLI .F              3106:   Bottom log interval
 CS1 .IN            8.625:   Casing size
 CBD1.      8.625" @ 602':   Casing driller 1
 CBL1.F               596:   Casing logger 1
 BS1 .IN            7.875:   Bit size
 BSD1.F              3103:   Depth drilled with bit1
 DFT .            KCL/GEL:   Type fluid in hole
 DFD .                  9:   Density
 DFV .                 42:   Viscosity
 MSS .           MUD/TANK:   Source of sample
 RMS .OHMM           .352:   Rm
 MST .F                82:   Rm Meas. temp.
 RMF .OHMM           .264:   Rmf
 MFST.F                82:   Rmf Meas. temp.
 RMC .OHMM            .44:   Rmc
 MCST.F                82:   Rmc Meas. temp.
 MFSS.               CALC:   Source Rmf.
 MCSS.               CALC:   Source Rmc.
 RMB .OHMM            .23:   Rm. at BHT
 BHT .F               115:   BHT.
 TCS .HRS               3:   Time Circ. stopped
 MRT .F               115:   Maximum recorded temp.
 LUN .            HL-6264:   Logging unit number
 LUL .           GILLETTE:   Logging unit location
 ENGI.     P. M. FASHSING:   Recorded By
 WITN.             STRONG:   Witnessed by
 ORIG.           5" PRINT:   Origin of data
 UWI .     49025111020000:   Unique Well ID
 DICO. A2D TECHNOLOGIES, INC.:   Digitizing Company
~OTHER INFORMATION
~A   DEPT      DEN       TEND       CORR       NPHI        SPR       RILM       RILD       RFOC       TENR         GRR      CALR   
# ...
 2249.0000  -999.2500  -999.2500  -999.2500  -999.2500   -92.6550     5.5620     5.3710     6.5740   -88.9640   117.6930    10.2140
 2249.5000  -999.2500  -999.2500  -999.2500  -999.2500   -92.4640     5.8190     5.5770     6.9530   -88.9640   113.2440    10.2010
 2250.0000  -999.2500  -999.2500  -999.2500  -999.2500   -92.2320     6.0770     5.7830     7.3310   -88.9640   108.9890    10.1890
 2250.5000  -999.2500  -999.2500  -999.2500  -999.2500   -92.0040     6.3350     6.0270     7.7100   -88.9640   113.0200    10.1770
 2251.0000  -999.2500  -999.2500  -999.2500  -999.2500   -91.7760     6.5920     6.3530     8.0230   -88.9640   118.3030    10.1640
 2251.5000  -999.2500  -999.2500  -999.2500  -999.2500   -91.5480     6.8010     6.6790     8.2540   -88.9640   123.2370    10.1520
 2252.0000  -999.2500  -999.2500  -999.2500  -999.2500   -91.3210     6.8660     7.0040     8.1890   -88.9640   125.9990    10.1400
 2252.5000  -999.2500  -999.2500  -999.2500  -999.2500   -91.0920     6.9320     7.1680     8.1070   -88.9640   127.9090    10.1280
 2253.0000  -999.2500  -999.2500  -999.2500  -999.2500   -90.8630     6.9980     7.2410     8.0260   -88.9640   126.7880    10.1150
 2253.5000  -999.2500  -999.2500  -999.2500  -999.2500   -90.6590     7.0560     7.3130     7.9550   -88.9640   121.6080    10.1030
 2254.0000  -999.2500  -999.2500  -999.2500  -999.2500   -90.9950     7.0050     7.3890     7.9550   -88.9640   113.6550    10.0900
 2254.5000  -999.2500  -999.2500  -999.2500  -999.2500   -91.3640     6.9600     7.3890     8.5520   -88.9640   105.7170    10.0840
 2255.0000  -999.2500  -999.2500  -999.2500  -999.2500   -91.7310     6.9140     7.3890     8.8850   -88.9640   101.2990    10.0780
 2255.5000  -999.2500  -999.2500  -999.2500  -999.2500   -92.0990     6.8690     7.3890     8.6130   -88.9640   102.2520    10.0720
 2256.0000  -999.2500  -999.2500  -999.2500  -999.2500   -92.4640     6.8240     7.3890     8.4070   -88.9640   105.6130    10.0660
 2256.5000  -999.2500  -999.2500  -999.2500  -999.2500   -92.8180     6.7380     7.3890     8.4070   -88.9640   113.0270    10.0600
 2257.0000  -999.2500  -999.2500  -999.2500  -999.2500   -93.0090     6.8560     7.3890     8.2660   -88.9640   117.8900    10.0540
 2257.5000  -999.2500  -999.2500  -999.2500  -999.2500   -92.9310     6.9460     7.3990     8.0700   -88.9640   120.0900    10.0480
 2258.0000  -999.2500  -999.2500  -999.2500  -999.2500   -92.8500     7.0360     7.4120     8.0280   -88.9640   117.0600    10.0410
 2258.5000  -999.2500  -999.2500  -999.2500  -999.2500   -92.7660     7.1880     7.4250     8.7220   -88.9640   113.7250    10.0350
 2259.0000  -999.2500  -999.2500  -999.2500  -999.2500   -92.6840     7.1480     7.4380     9.2180   -88.9640   112.3640    10.0290
 2259.5000  -999.2500  -999.2500  -999.2500  -999.2500   -92.5610     7.1010     7.4510     9.6540   -88.9640   114.5330    10.0230
 2260.0000  -999.2500  -999.2500  -999.2500  -999.2500   -92.3960     7.0530     7.4580     9.2900   -88.9640   119.5910    10.0170
 2260.5000  -999.2500  -999.2500  -999.2500  -999.2500   -92.2290     7.0060     7.4300     8.7820   -88.9640   124.4950    10.0110
 2261.0000  -999.2500  -999.2500  -999.2500  -999.2500   -92.0620     6.9590     7.4090     8.2740   -88.9640   128.4680    10.0050
 2261.5000  -999.2500  -999.2500  -999.2500  -999.2500   -91.8950     6.9120     7.3890     8.1780   -88.9640   124.6780     9.9990
 2262.0000  -999.2500  -999.2500  -999.2500  -999.2500   -91.7250     6.8650     7.3120     8.2370   -88.9640   117.2550     9.9930
 2262.5000  -999.2500  -999.2500  -999.2500  -999.2500   -91.5620     6.8180     7.2370     8.2780   -88.9640   109.8330     9.9860
 2263.0000  -999.2500  -999.2500  -999.2500  -999.2500   -91.3160     6.7710     7.1630     8.3190   -88.9640   106.6750     9.9800
 2263.5000  -999.2500  -999.2500  -999.2500  -999.2500   -91.0720     6.7240     7.0560     8.3960   -88.9640   105.5210     9.9740
 2264.0000  -999.2500  -999.2500  -999.2500  -999.2500   -90.8600     6.6770     7.0990     8.8110   -88.9640   105.3460     9.9680
 2264.5000  -999.2500  -999.2500  -999.2500  -999.2500   -91.0420     6.7520     7.1720     9.2190   -88.9640   105.9860     9.9620
 2265.0000  -999.2500  -999.2500  -999.2500  -999.2500   -91.2350     6.8270     7.2460     8.8990   -88.9640   106.6010     9.9560
 2265.5000  -999.2500  -999.2500  -999.2500  -999.2500   -91.4270     6.9020     7.3190     8.5150   -88.9640   106.1820     9.9500
 2266.0000  -999.2500  -999.2500  -999.2500  -999.2500   -91.6150     6.9780     7.3930     8.1030   -88.9640   101.7620     9.9500
 2266.5000  -999.2500  -999.2500  -999.2500  -999.2500   -91.7980     7.0530     7.4670     8.0280   -88.9640    96.1940     9.9500
 2267.0000  -999.2500  -999.2500  -999.2500  -999.2500   -91.9690     7.1280     7.5270     8.8640   -88.9640    93.0640     9.9500
 2267.5000  -999.2500  -999.2500  -999.2500  -999.2500   -91.7920     7.1880     7.5700     9.4850   -88.9640    96.3370     9.9500
 2268.0000  -999.2500  -999.2500  -999.2500  -999.2500   -91.6120     7.1570     7.6240     9.8340   -88.9640   108.5850     9.9510
 2268.5000  -999.2500  -999.2500  -999.2500  -999.2500   -91.4620     7.1320     7.6790     9.8340   -88.9640   120.9160     9.9520
 2269.0000  -999.2500  -999.2500  -999.2500  -999.2500   -91.4660     7.1070     7.7380     9.8340   -88.9640   129.0790     9.9540
 2269.5000  -999.2500  -999.2500  -999.2500  -999.2500   -91.4660     7.0810     7.7190     9.6020   -88.9640   133.5120     9.9560
 2270.0000  -999.2500  -999.2500  -999.2500  -999.2500   -91.4650     7.0560     7.6840     9.2830   -88.9640   130.7110     9.9580
 2270.5000  -999.2500  -999.2500  -999.2500  -999.2500   -91.4070     7.0310     7.6490     8.8850   -88.9640   127.6200     9.9600
 2271.0000  -999.2500  -999.2500  -999.2500  -999.2500   -91.2130     7.0060     7.6140     9.0520   -88.9640   124.4190     9.9620
 2271.5000  -999.2500  -999.2500  -999.2500  -999.2500   -91.0220     6.9810     7.5790     9.2560   -88.9640   124.2640     9.9630
 2272.0000  -999.2500  -999.2500  -999.2500  -999.2500   -90.8310     6.9550     7.5430     9.4780   -88.9640   124.8600     9.9650
 2272.5000  -999.2500  -999.2500  -999.2500  -999.2500   -90.6440     6.9300     7.5080     9.1760   -88.9640   126.5360     9.9670
 2273.0000  -999.2500  -999.2500  -999.2500  -999.2500   -90.4270     6.9050     7.4730     8.8450   -88.9640   130.0220     9.9690
 2273.5000  -999.2500  -999.2500  -999.2500  -999.2500   -89.8510     6.8800     7.4380     8.5640   -88.9640   131.3340     9.9710
 2274.0000  -999.2500  -999.2500  -999.2500  -999.2500   -89.3540     6.8550     7.4030     8.7230   -88.9640   126.7160     9.9720
 2274.5000  -999.2500  -999.2500  -999.2500  -999.2500   -89.4890     6.8300     7.3680     8.9190   -88.9640   121.5130     9.9740
 2275.0000  -999.2500  -999.2500  -999.2500  -999.2500   -89.7970     6.8040     7.3330     9.1350   -88.9640   120.2080     9.9760
 2275.5000  -999.2500  -999.2500  -999.2500  -999.2500   -90.1100     6.7790     7.2970     9.0070   -88.9640   120.1640     9.9780
 2276.0000  -999.2500  -999.2500  -999.2500  -999.2500   -90.4210     6.7540     7.2620     8.8260   -88.9640   119.2210     9.9800
 2276.5000  -999.2500  -999.2500  -999.2500  -999.2500   -90.4630     6.7380     7.2280     8.6460   -88.9640   116.2510     9.9820
 2277.0000  -999.2500  -999.2500  -999.2500  -999.2500   -90.4630     6.7730     7.1940     8.4650   -88.9640   113.0480     9.9830
 2277.5000  -999.2500  -999.2500  -999.2500  -999.2500   -90.4620     6.8010     7.1600     8.3300   -88.9640   109.8280     9.9850
 2278.0000  -999.2500  -999.2500  -999.2500  -999.2500   -90.4620     6.7420     7.1250     8.9450   -88.5340   106.7080     9.9870
 2278.5000  -999.2500  -999.2500  -999.2500  -999.2500   -90.4620     6.6750     7.0910     8.8090   -88.1280   109.6830     9.9890
 2279.0000  -999.2500  -999.2500  -999.2500  -999.2500   -90.4610     6.6070     7.0570     8.5820   -87.7220   114.2690     9.9910
