~VERSION INFORMATION
 VERS.                2.0:   CWLS LOG ASCII STANDARD - VERSION 2.0
 WRAP.                 NO:   ONE LINE PER DEPTH STEP
~WELL INFORMATION
#MNEM.UNIT      DATA TYPE    INFORMATION
#----------   ------------   ------------------------------
 STRT.F            0.5000:   START DEPTH
 STOP.F         1380.0000:   STOP DEPTH
 STEP.F            0.5000:   STEP LENGTH
 NULL.          -999.2500:   NO VALUE
 COMP.       FLUOR DANIEL:   COMPANY
 WELL. FLUOR 84 "X" #1-14:   WELL
 FLD .          N.P.R. #3:   FIELD
 LOC .      S14 T38N R78W:   LOCATION
 CNTY.            NATRONA:   COUNTY
 STAT.            WYOMING:   STATE
 CTRY. UNITED STATES OF AMERICA:   COUNTRY
 SRVC.     ATLAS WIRELINE:   SERVICE COMPANY
 DATE.        24-AUG-1994:   LOGDATE
 API .     49025226370000:   API NUMBER
~CURVE INFORMATION
#MNEM.UNIT       API CODE    CURVE DESCRIPTION
#----------   ------------   ------------------------------
 DEPT.F                  :   
 GRR .GAPI   07 310 01 00:   GAMMA RAY FROM RESISTIVITY
 RILD.OHMM   07 120 46 00:   INDUCTION LOG DEEP RESISTIVITY
 RILM.OHMM   07 120 44 00:   INDUCTION LOG MEDIUM RESISTIVITY
 TENR.LBS    07 635 01 00:   TENSION FROM RESISTIVITY
~PARAMETER INFORMATION
#MNEM.UNIT          VALUE    DESCRIPTION
#----------   ------------   ------------------------------
 EKB .F         5326.0000:   Kelly bushing
 EGL .F         5316.0000:   Ground level
 EDF .F         5325.0000:   Drilling floor
 TD  .F         1368.0000:   Total depth
 CLNT.            A2DTECH:   Client Code
 PD  .                 GL:   Permanent Datum
 EPD .F              5316:   Elevation Permanent Datum
 LMF .                 KB:   Log Measured From
 DMF .                 KB:   Drilling Measured From
 DAPD.F                10:   Feet Above Permanent Datum
 DATE.        24-AUG-1994:   Date Logged [DD-MMM-YYYY]
 DD  .F              1368:   Depth driller
 DL  .F              1364:   Depth logger
 BLI .F              1356:   Bottom log interval
 TLI .F                 0:   Top log interval
 CS1 .IN            9.625:   Casing size
 CBD1.       9.625" @ 56':   Casing driller 1
 CBL1.F                56:   Casing logger 1
 BS1 .IN             8.75:   Bit size
 BSD1.F              1368:   Depth drilled with bit1
 DFT .                AIR:   Type fluid in hole
 LUN .            HL 6530:   Logging unit number
 LUL .             CASPER:   Logging unit location
 WITN.        GARY STRONG:   Witnessed by
 ORIG.         2.5" PRINT:   Origin of data
 UWI .     49025226370000:   Unique Well ID
 DICO. A2D TECHNOLOGIES, INC.:   Digitizing Company
 SL  . 2551' FNL & 575' FEL:   Surface Location
~OTHER INFORMATION
~A    DEPT      GRR      RILD       RILM       TENR   
# ...
  438.5000   120.3933     6.4634     6.2885   -60.5341
  439.0000   124.9241     6.4612     6.2868   -60.3857
  439.5000   127.9072     6.4589     6.2851   -60.2374
  440.0000   127.5848     6.5467     6.2830   -60.0890
  440.5000   127.3603     6.5701     6.3687   -59.9407
  441.0000   129.0958     6.6609     6.5444   -59.7923
  441.5000   129.0928     6.7529     6.6333   -59.6439
  442.0000   122.5227     6.8138     6.7234   -59.4955
  442.5000   120.7030     6.9061     6.8147   -59.3472
  443.0000   123.0952     6.9033     6.7197   -59.1988
  443.5000   125.4875     6.8064     6.5354   -59.0504
  444.0000   125.4845     6.7643     6.3562   -56.3296
  444.5000   124.2839     6.6167     6.2676   -43.9169
  445.0000   123.0834     6.5238     6.1802   -43.7685
  445.5000   122.4816     6.4323     6.1785   -43.6202
  446.0000   122.3074     6.3855     6.1770   -58.3253
  446.5000   123.0744     6.3398     6.1752   -58.1602
  447.0000   124.2691     6.3376     6.1735   -58.0119
  447.5000   125.4637     6.3355     6.1718   -57.8635
  448.0000   123.6643     6.3333     6.1701   -57.7151
  448.5000   123.0626     6.3307     6.1684   -57.5668
  449.0000   123.6587     6.3285     6.1667   -57.4184
  449.5000   123.0566     6.4146     6.2505   -57.2700
  450.0000   121.8560     6.4120     6.2488   -57.1217
  450.5000   120.0567     6.4098     6.2471   -56.9733
  451.0000   118.2573     6.4076     6.3042   -56.8249
  451.5000   118.2543     6.4054     6.3767   -56.6765
  452.0000   117.0537     6.4921     6.4233   -56.5282
  452.5000   113.4579     6.5803     6.5124   -56.3798
  453.0000   112.2574     6.7617     6.7055   -56.2314
  453.5000   114.6496     6.9484     7.0596   -56.0831
  454.0000   116.4430     7.1402     7.2547   -55.9347
  454.5000   115.2425     7.3374     7.3715   -55.7863
  455.0000   113.4431     7.5399     7.4633   -55.6380
  455.5000   112.2425     7.6420     7.5773   -55.4896
  456.0000   112.8544     7.7456     7.6571   -55.3412
  456.5000   114.6487     7.7428     7.6275   -55.1929
  457.0000   115.8523     7.6342     7.4163   -55.0445
  457.5000   117.0210     7.5271     7.2109   -54.8961
  458.0000   113.4251     7.5245     7.0420   -54.7478
  458.5000   116.0818     7.4189     6.9115   -54.5994
  459.0000   120.6666     7.3148     6.8133   -54.4510
  459.5000   119.6488     7.3076     6.6592   -54.3027
  460.0000   114.6108     7.1110     6.6574   -54.1543
  460.5000   116.6708     7.1001     6.6555   -54.0059
  461.0000   121.1796     6.9128     6.6537   -53.8576
  461.5000   126.5781     6.8039     6.6519   -53.7092
  462.0000   125.1457     6.7201     6.6500   -53.5608
  462.5000   123.5778     6.7178     6.6482   -53.4125
  463.0000   123.7086     6.7155     6.6464   -53.2641
  463.5000   125.6537     6.7132     6.6445   -53.1157
  464.0000   129.8603     6.7109     6.6427   -52.9674
  464.5000   131.3507     6.8020     6.7329   -52.8190
  465.0000   132.1158     6.8941     6.7307   -52.6706
  465.5000   133.3194     6.7970     6.7289   -52.5223
  466.0000   131.7883     6.7947     6.6351   -52.3739
  466.5000   125.7616     6.7619     6.6333   -52.2255
  467.0000   121.7550     6.6970     6.5408   -52.0771
  467.5000   126.3722     6.6030     6.5390   -51.9288
  468.0000   127.7371     6.5381     6.4478   -51.7804
  468.5000   124.8732     6.5081     6.3579   -51.6320
  469.0000   122.4572     6.4168     6.2693   -51.4837
  469.5000   120.5419     6.3267     6.2676   -51.3353
  470.0000   123.4531     6.2841     6.2659   -51.1869
  470.5000   124.1287     6.2358     6.2642   -51.0386
  471.0000   123.5708     6.2337     6.2625   -50.8902
  471.5000   121.4411     6.3180     6.2608   -50.7418
  472.0000   122.9142     6.3158     6.2591   -50.5935
  472.5000   124.1168     6.3137     6.2573   -50.4451
  473.0000   124.1138     6.3115     6.2556   -50.2967
  473.5000   126.5519     6.3089     6.2539   -50.1484
  474.0000   132.2874     6.3067     6.2522   -50.0000
  474.5000   135.9043     6.3333     6.2505   -49.8516
  475.0000   137.2755     6.3903     6.2488   -49.7033
  475.5000   137.8712     6.4768     6.4233   -49.5549
  476.0000   136.0713     6.5641     6.6026   -49.4065
  476.5000   130.0803     6.6533     6.7814   -49.2582
  477.0000   125.8857     6.8367     6.9688   -49.1098
  477.5000   125.2839     7.0254     7.0738   -48.9614
  478.0000   124.0833     7.1205     7.1712   -48.8131
  478.5000   120.4876     7.2171     7.3714   -50.0503
  479.0000   120.4846     7.4162     7.5606   -63.3610
  479.5000   121.6792     7.5166     7.6634   -63.2048
  480.0000   125.2691     7.6185     7.6611   -61.0783
  480.5000   123.4697     7.8286     7.6589   -48.0712
  481.0000   121.0715     7.8260     7.6568   -47.9228
  481.5000   119.8709     7.7162     7.6547   -47.7745
  482.0000   118.6703     7.6079     7.6526   -47.6261
  482.5000   118.5529     7.5012     7.5459   -47.4777
  483.0000   120.4608     7.3959     7.5438   -47.3294
  483.5000   122.2542     7.3934     7.5418   -47.1810
  484.0000   125.2453     7.4935     7.5397   -47.0326
  484.5000   124.6435     7.5949     7.5376   -61.7397
  485.0000   122.8441     7.5923     7.5355   -61.5727
  485.5000   122.8412     7.5896     7.5335   -61.4243
  486.0000   124.6346     7.6925     7.5314   -65.6278
  486.5000   128.2244     7.6764     7.6337   -75.9870
  487.0000   124.6287     7.5818     7.6316   -60.9792
  487.5000   122.8293     7.5792     7.6295   -60.8309
  488.0000   121.6287     7.5766     7.6274   -60.6825
  488.5000   121.6257     7.5740     7.6253   -60.5341
  489.0000   122.2235     7.5714     7.6232   -60.3858
  489.5000   124.0369     7.5687     7.6211   -60.2374
  490.0000   123.3334     7.5661     7.5144   -60.0890
  490.5000   117.9052     7.5635     7.5123   -59.9407
  491.0000   113.8264     7.4261     7.4076   -59.7923
  491.5000   115.0679     7.3198     7.2045   -59.6439
  492.0000   117.6367     7.1163     7.0069   -59.4956
  492.5000   120.4691     6.9534     6.9092   -59.3472
  493.0000   121.0002     6.8558     6.7197   -59.1988
  493.5000   120.9970     6.7596     6.5354   -59.0504
  494.0000   123.9883     6.6648     6.4443   -58.9021
  494.5000   121.7854     6.5712     6.3545   -58.7537
  495.0000   117.0658     6.4790     6.3527   -58.6053
  495.5000   115.5958     6.4768     6.3510   -58.4570
  496.0000   117.0460     6.4746     6.4373   -58.3086
  496.5000   118.7205     6.5622     6.4355   -58.1602
  497.0000   119.3254     6.5599     6.4338   -58.0119
  497.5000   120.6836     6.5577     6.4320   -57.8635
  498.0000   124.0200     6.5554     6.4303   -61.8701
  498.5000   127.1277     6.5527     6.4285   -72.4252
  499.0000   128.3313     6.3723     6.4268   -72.2552
  499.5000   128.7460     6.3701     6.3372   -67.3593
  500.0000   127.4204     5.7822     6.0791   -57.1462
  500.5000   123.0447     5.7810     5.9648   -57.9003
  501.0000   118.6689     5.7798     5.7991   -58.5472
  501.5000   113.7350     5.7787     5.7162   -59.1941
  502.0000   114.3220     5.7775     5.4814   -59.8410
  502.5000   117.9030     5.6192     5.3291   -60.4879
  503.0000   120.2863     5.3904     5.1470   -61.1348
  503.5000   119.0769     5.1709     5.0756   -61.7817
  504.0000   116.6699     5.0293     5.1158   -62.4286
  504.5000   116.6580     5.0981     5.1438   -63.0755
  505.0000   117.8438     5.1678     5.1426   -63.7224
  505.5000   118.4308     5.2385     5.2130   -64.3693
  506.0000   121.4130     5.3121     5.3572   -65.0162
  506.5000   122.5988     5.4617     5.5057   -65.6631
  507.0000   121.9780     5.6089     5.6582   -66.3100
  507.5000   120.7535     5.6856     5.7356   -66.9569
  508.0000   120.1677     5.7634     5.7343   -67.6038
  508.5000   119.5020     5.7621     5.7332   -65.5537
  509.0000   120.4232     5.8410     5.7320   -38.2789
  509.5000   124.4082     5.8397     5.7308   -38.0564
  510.0000   123.5130     5.8385     5.7297   -37.8338
  510.5000   121.1907     5.8373     5.7285   -52.4806
  511.0000   121.6827     5.8361     5.7250   -67.0981
