~VERSION INFORMATION
 VERS.                2.0:   CWLS LOG ASCII STANDARD - VERSION 2.0
 WRAP.                 NO:   ONE LINE PER DEPTH STEP
~WELL INFORMATION
#MNEM.UNIT      DATA TYPE    INFORMATION
#----------   ------------   ------------------------------
 STRT.F          195.5000:   START DEPTH
 STOP.F         3197.0000:   STOP DEPTH
 STEP.F            0.5000:   STEP LENGTH
 NULL.          -999.2500:   NO VALUE
 COMP.    FENIX & SCISSON:   COMPANY
 WELL.  FENIX "AX" #17-11:   WELL
 FLD .              NPR-3:   FIELD
 LOC .      S11 T38N R78W:   LOCATION
 CNTY.            NATRONA:   COUNTY
 STAT.            WYOMING:   STATE
 CTRY. UNITED STATES OF AMERICA:   COUNTRY
 SRVC.              WELEX:   SERVICE COMPANY
 DATE.        16-SEP-1977:   LOGDATE
 API .     49025104170000:   API NUMBER
~CURVE INFORMATION
#MNEM.UNIT       API CODE    CURVE DESCRIPTION
#----------   ------------   ------------------------------
 DEPT.F                  :   
 GRD .GAPI   45 310 01 00:   GAMMA RAY FROM DENSITY LOG
 CALD.IN     45 280 60 00:   CALIPER FROM DENSITY LOG
 CORR.G/C3   45 356 01 00:   DENSITY CORRECTION
 TEND.LBS    45 635 01 00:   TENSION FORM DENSITY LOG
 RHOB.G/C3   45 350 01 00:   BULK DENSITY
 SPR .MV     07 010 01 00:   SPONTANEOUS POTENTIAL
 TENR.LBS    07 635 01 00:   TENSION FROM RESISTIVITY
 ILD .OHMM   07 120 46 00:   DEEP INDUCTION RESISTIVITY
 ILM .OHMM   07 120 44 00:   INDUCTION LOG MEDIUM RESISTIVITY
 SGRD.OHMM   07 220 05 00:   SHALLOW SHORT GUARD RESISTIVITY
~PARAMETER INFORMATION
#MNEM.UNIT          VALUE    DESCRIPTION
#----------   ------------   ------------------------------
 EKB .F         5212.0000:   Kelly bushing
 EGL .F         5202.0000:   Ground level
 TD  .F         3195.0000:   Total depth
 CLNT.            A2DTECH:   Client Code
 SL  . 1090' FSL & 330' FWL:   Surface Location
 PD  .                 GL:   Permanent Datum
 EPD .F              5202:   Elevation Permanent Datum
 LMF .                 KB:   Log Measured From
 DMF .                 KB:   Drilling Measured From
 DAPD.F                10:   Feet Above Permanent Datum
 DATE.        16-SEP-1977:   Date Logged [DD-MMM-YYYY]
 DD  .F              3195:   Depth driller
 DL  .F              3195:   Depth logger
 BLI .F              3193:   Bottom log interval
 TLI .F               217:   Top log interval
 CS1 .IN            8.625:   Casing size
 CBD1.      8.625" @ 216':   Casing driller 1
 CBL1.F               217:   Casing logger 1
 BS1 .IN            7.875:   Bit size
 BSD1.F              3195:   Depth drilled with bit1
 DFT .            KCL MUD:   Type fluid in hole
 DFD .                9.2:   Density
 DFV .                 36:   Viscosity
 DFPH.                 11:   pH
 DFL .                8.8:   Fluid loss
 MSS .           FLOWLINE:   Source of sample
 RMS .OHMM           2.76:   Rm
 MST .F                99:   Rm Meas. temp.
 RMF .OHMM           1.54:   Rmf
 MFST.F                99:   Rmf Meas. temp.
 MFSS.               MEAS:   Source Rmf.
 RMC .OHMM           3.01:   Rmc
 MCST.F                99:   Rmc Meas. temp.
 MCSS.               MEAS:   Source Rmc.
 RMB .OHMM           2.40:   Rm. at BHT
 BHT .F               112:   BHT.
 TCS .HRS               6:   Time Circ. stopped
 MRT .F               112:   Maximum recorded temp.
 LUN .               8611:   Logging unit number
 LUL .             CASPER:   Logging unit location
 ENGI.          D. LAWSON:   Recorded By
 WITN.         HARRINGTON:   Witnessed by
 ORIG.           5" PRINT:   Origin of data
 UWI .     49025104170000:   Unique Well ID
 DICO. A2D TECHNOLOGIES, INC.:   Digitizing Company
~OTHER INFORMATION
~A   DEPT       GRD      CALD       CORR       TEND       RHOB        SPR       TENR        ILD        ILM       SGRD   
# ...
  430.0000    73.6343    13.5867     0.0532  1229.1219     2.3539   -40.1818  1024.0099    10.6350     6.5215    11.1732
  430.5000    74.0835    13.6011     0.0468  1229.5658     2.3464   -39.8616  1009.6179    10.5602     6.7974    11.1714
  431.0000    70.9106    13.4946     0.0336  1215.0367     2.3509   -39.6758  1010.1960    10.5588     6.9921    11.3254
  431.5000    68.0404    13.4335     0.0290  1215.6688     2.3606   -39.6803  1010.7784    10.4121     7.2327    11.7223
  432.0000    66.6786    13.3989     0.0259  1216.1744     2.3608   -39.6858  1011.4967    10.3389     6.3396    11.8024
  432.5000    64.7134    13.3820     0.0244  1216.6917     2.3538   -39.6901  1012.0748    10.1950     5.9554    11.7191
  433.0000    63.8041    13.3559     0.0243  1217.3121     2.3476   -39.6945  1012.6529    10.1233     5.8727    12.0473
  433.5000    64.8544    13.3250     0.0257  1217.8177     2.3463   -39.6985   998.1165    10.1219     6.2498    12.1282
  434.0000    65.7550    13.2941     0.0256  1218.2634     2.3470   -39.7033   998.8391     9.9814     6.9817    11.7141
  434.5000    66.0534    13.2783     0.0254  1218.8290     2.3403   -39.7077   999.4171     9.7748     8.2289    11.3930
  435.0000    66.0479    13.3078     0.0225  1219.3767     2.3343   -39.7121  1014.9701     9.5065    10.3607    11.5501
  435.5000    66.6468    13.3221     0.0179  1219.8354     2.3373   -39.7176  1015.6879     9.3098    11.7357    11.8728
  436.0000    67.5474    13.3413     0.0163  1205.3757     2.3417   -39.7220  1031.2360     9.1802    10.7978    11.7891
  436.5000    68.9205    13.3808     0.0118  1205.9131     2.3463   -39.7263  1031.7366     9.1157     9.5301    11.4659
  437.0000    70.5542    13.4253     0.0102  1206.5134     2.3522   -39.7307  1032.3921     9.1144    10.0025    11.7043
  437.5000    71.4548    13.4548     0.0086  1206.9611     2.3582   -39.7351  1032.9702     9.1769    11.8931    11.8661
  438.0000    71.6023    13.3784     0.0130  1207.5247     2.3634   -39.7394  1033.5483     9.1753    12.6827    12.1132
  438.5000    70.6919    13.2420     0.0160  1193.0602     2.3686   -39.7439  1034.1317     9.1741    13.1014    11.8625
  439.0000    69.6317    13.1357     0.0204  1193.5629     2.3738   -39.7494  1034.8490     9.1095    13.1907    11.6981
  439.5000    68.5715    13.0293     0.0233  1179.0172     2.3821   -39.7530  1035.4271     8.9828    13.0070    11.7777
  440.0000    67.8130    12.9985     0.0263  1179.6407     2.3850   -39.7582  1036.0052     8.6759    12.7377    12.1175
  440.5000    67.1850    12.9977     0.0277  1180.1970     2.3835   -39.7626  1036.5833     8.3795    12.6480    12.4442
  441.0000    67.6523    12.9970     0.0276  1180.7448     2.3820   -39.7669  1037.1614     8.1495    12.8228    12.3564
  441.5000    68.2512    12.9810     0.0275  1196.2203     2.3767   -39.7713  1037.7395     8.0363    13.7407    11.9349
  442.0000    68.6993    12.9955     0.0274  1211.6766     2.3640   -39.7758  1038.3232     7.9798    15.2439    12.0161
  442.5000    68.3933    12.9946     0.0274  1204.7780     2.3490   -39.7812  1039.0402     8.0342    19.9719    12.1822
  443.0000    67.6348    12.9788     0.0273  1196.8765     2.3430   -39.7856  1039.6183     8.0328    24.9273    12.1802
  443.5000    67.4696    12.9328     0.0272  1183.3085     2.3408   -39.7900  1040.1963     8.0879    32.8858    12.0868
  444.0000    68.1087    12.8869     0.0271  1183.8324     2.3446   -39.7944  1040.7744     8.1993    56.8503    11.7627
  444.5000    70.4863    12.8704     0.0271  1184.3564     2.3475   -39.7988  1041.3525     8.3703    28.2275    11.9249
  445.0000    72.7444    12.8249     0.0285  1184.9161     2.3482   -40.1062  1041.9307     8.6042    18.3657    12.1737
  445.5000    74.0975    12.7789     0.0293  1185.5060     2.3467   -40.1106  1042.5149     8.7837    15.1188    12.1717
  446.0000    74.8472    12.7179     0.0313  1185.9282     2.3482   -40.4191  1043.2313     8.9050    13.6639    11.8380
  446.5000    74.6920    12.6870     0.0328  1186.4521     2.3512   -40.7265  1028.8394     8.9654    12.5399    11.7549
  447.0000    73.4810    12.6561     0.0333  1187.0651     2.3564   -41.1854  1029.4175     8.9023    14.3024    11.7533
  447.5000    71.6667    12.6553     0.0341  1172.4741     2.3653   -41.4928  1014.8810     8.9011    15.0113    11.7514
  448.0000    69.9426    12.6230     0.0355  1173.0640     2.3784   -41.9518  1015.6036     8.8385    15.4312    11.5086
  448.5000    68.3386    12.5873     0.0339  1173.5779     2.3893   -41.9562  1016.1816     8.7764    15.6445    11.3490
  449.0000    68.9375    12.5748     0.0324  1174.1174     2.3915   -42.2636  1016.7665     8.7752    15.7512    11.1145
  449.5000    69.6884    12.5467     0.0308  1171.5342     2.3847   -42.5721  1017.4824     8.7737    15.7486    11.0365
  450.0000    67.5381    12.5007     0.0262  1160.1797     2.3765   -42.2736  1018.0122     8.9104    14.7943    11.0350
  450.5000    66.9636    12.4516     0.0247  1160.7036     2.3675   -42.2838  1018.5903     9.0156    13.9950    11.1900
  451.0000    65.7526    12.4016     0.0216  1161.2275     2.3615   -42.4455  1019.1684     8.9482    16.5248    11.4112
  451.5000    66.7185    12.3613     0.0184  1161.7515     2.3554   -42.4561  1019.7604     9.0062    16.8702    11.7257
  452.0000    69.3627    12.3166     0.0139  1162.3075     2.3492   -42.6199  1020.4691     8.9388    14.7800    11.9673
  452.5000    69.9616    12.2706     0.0124  1162.8131     2.3544   -42.6301  1021.0472     8.9347    12.6011    12.0447
  453.0000    71.0130    12.2096     0.0123  1163.3234     2.3722   -42.9433  1006.5107     8.8689    12.1685    11.9548
  453.5000    72.2153    12.1875     0.0137  1163.9507     2.3942   -43.2565  1007.2333     8.7428    11.9972    11.7810
  454.0000    73.2678    12.1629     0.0190  1164.3712     2.4062   -43.7213  1007.8114     8.6784    11.8284    11.6981
  454.5000    69.7933    12.1621     0.0256  1164.8953     2.4166   -43.9040  1008.3895     8.5487    11.6619    11.7741
  455.0000    67.7979    12.1463     0.0301  1165.4677     2.4211   -44.1988   993.9975     8.4325    11.4977    11.8503
  455.5000    65.5602    12.1454     0.0359  1165.9431     2.4143   -44.2089   994.7201     8.1983    11.2569    11.7617
  456.0000    66.4608    12.1448     0.0388  1166.5210     2.4030   -44.2191   995.2982     8.0260    11.1755    11.6752
  456.5000    67.9647    12.1440     0.0417  1166.9911     2.4014   -44.2293   995.8763     7.9669    11.5651    11.5894
  457.0000    68.4140    12.1432     0.0417  1167.5150     2.4022   -44.5425   996.4543     7.9082    12.2193    11.5838
  457.5000    66.7494    12.1576     0.0431  1168.0389     2.4051   -44.5707   997.0325     7.8463    12.8216    11.5772
  458.0000    66.8958    12.1870     0.0445  1168.5629     2.4029   -45.1715   997.6105     7.7375    13.1781    11.6535
  458.5000    68.1191    12.2331     0.0411  1179.4088     2.3930   -45.4848   998.2036     7.7339    13.1578    11.7289
  459.0000    70.2042    12.2672     0.0264  1184.5808     2.3893   -45.7980   998.9113     7.7303    12.5444    11.8047
  459.5000    70.6535    12.2904     0.0203  1185.1049     2.3892   -46.1112   999.4893     7.7267    12.1979    11.7166
  460.0000    69.5922    12.2744     0.0172  1185.6288     2.3899   -46.1214  1000.0674     7.7231    12.1097    11.6304
  460.5000    70.0403    12.2586     0.0142  1186.1527     2.3898   -46.4348  1000.6455     7.8271    11.8570    11.6248
  461.0000    71.0917    12.2126     0.0126  1186.6766     2.3921   -46.4473  1001.2236     7.9317    11.7713    11.6182
  461.5000    71.9923    12.1365     0.0080  1187.2007     2.4063   -46.6090  1001.8017     7.9280    11.4461    11.5328
  462.0000    72.4405    12.0103     0.0109  1187.7246     2.4161   -46.7708  1002.3952     7.9243    11.4413    11.2129
  462.5000    71.6566    11.8332     0.0139  1188.2749     2.4220   -46.7809  1003.1024     7.8116    11.4375    11.2077
  463.0000    71.0731    11.7269     0.0198  1188.7805     2.4295   -46.7911  1003.6804     7.7006    11.4337    11.2025
