~VERSION INFORMATION
 VERS.                2.0:   CWLS LOG ASCII STANDARD - VERSION 2.0
 WRAP.                 NO:   ONE LINE PER DEPTH STEP
~WELL INFORMATION
#MNEM.UNIT      DATA TYPE    INFORMATION
#----------   ------------   ------------------------------
 STRT.F          200.0000:   START DEPTH
 STOP.F         3060.0000:   STOP DEPTH
 STEP.F            0.5000:   STEP LENGTH
 NULL.          -999.2500:   NO VALUE
 COMP.    FENIX & SCISSON:   COMPANY
 WELL. FENIX NPR 3 "AX" #58-21:   WELL
 FLD .      NPR - WILDCAT:   FIELD
 LOC .      S21 T39N R78W:   LOCATION
 CNTY.            NATRONA:   COUNTY
 STAT.            WYOMING:   STATE
 CTRY. UNITED STATES OF AMERICA:   COUNTRY
 SRVC.              WELEX:   SERVICE COMPANY
 DATE.        12-JUN-1977:   LOGDATE
 API .     49025103790000:   API NUMBER
~CURVE INFORMATION
#MNEM.UNIT       API CODE    CURVE DESCRIPTION
#----------   ------------   ------------------------------
 DEPT.F                  :   
 CALD.IN     45 280 60 00:   CALIPER FROM DENSITY LOG
 GRD .GAPI   45 310 01 00:   GAMMA RAY FROM DENSITY LOG
 CORR.G/C3   45 356 01 00:   DENSITY CORRECTION
 RHOB.G/C3   45 350 01 00:   BULK DENSITY
 SPR .MV     07 010 01 00:   SPONTANEOUS POTENTIAL
 ILD .OHMM   07 120 46 00:   DEEP INDUCTION RESISTIVITY
 GURD.OHMM   07 220 05 00:   GUARD LOG RESISTIVITY
 ILM .OHMM   07 120 44 00:   INDUCTION LOG MEDIUM RESISTIVITY
 DT  .US/F   60 520 00 00:   DELTA TIME
 SPHI.DEC    60 890 00 00:   SONIC POROSITY
~PARAMETER INFORMATION
#MNEM.UNIT          VALUE    DESCRIPTION
#----------   ------------   ------------------------------
 EKB .F         5016.0000:   Kelly bushing
 EGL .F         5006.0000:   Ground level
 EDF .F            0.0000:   Drilling floor
 EPD .F            0.0000:   Permanent datum
 TD  .F         3062.0000:   Total depth
 DATE.        12-JUN-1977:   Date logged
 CLNT.            A2DTECH:   Client Code
 SL  . 280' FSL & 2160' FEL:   Surface Location
 PD  .                 GL:   Permanent Datum
 DD  .F              3060:   Depth driller
 DL  .F              3062:   Depth logger
 BLI .F              3060:   Bottom log interval
 TLI .F              2450:   Top log interval
 CS1 .IN            8.625:   Casing size
 CBD1.      8.625" @ 200':   Casing driller 1
 CBL1.F               218:   Casing logger 1
 BS1 .IN            7.875:   Bit size
 BSD1.F              3060:   Depth drilled with bit1
 DFT .            KCL/MUD:   Type fluid in hole
 DFD .                8.7:   Density
 DFV .                 33:   Viscosity
 DFPH.                7.5:   pH
 DFL .                 36:   Fluid loss
 MSS .           FLOWLINE:   Source of sample
 TCS .HRS             4.5:   Time Circ. stopped
 MRT .F               110:   Maximum recorded temp.
 LUN .               8611:   Logging unit number
 LUL .           GILLETTE:   Logging unit location
 ENGI.            C. DOAK:   Recorded By
 WITN.            RHOADES:   Witnessed by
 ORIG.           5" PRINT:   Origin of data
 UWI .     49025103790000:   Unique Well ID
 DICO. A2D TECHNOLOGIES, INC.:   Digitizing Company
 DAPD.                 10:   Feet Above Permanent Datum
 RMS .OHMM            1.3:   Rm
 MST .F                84:   Rm Meas. temp.
 RMF .OHMM            .52:   Rmf
 MFST.F                84:   Rmf Meas. temp.
 MFSS.               FANN:   Source Rmf.
 RMC .OHMM           1.43:   Rmc
 MCST.F                84:   Rmc Meas. temp.
 MCSS.                KIT:   Source Rmc.
 RMB .OHMM            .99:   Rm. at BHT
 BHT .F               110:   BHT.
~OTHER INFORMATION
~A   DEPT     CALD         GRD      CORR       RHOB        SPR        ILD       GURD        ILM         DT       SPHI   
# ...
 1540.0000     9.0030    99.4590     0.0140     2.5180   -65.8430     8.8330    10.7900     9.3060  -999.2500  -999.2500
 1540.5000     9.0010    99.2650     0.0160     2.5230   -65.8280     8.7950    10.7280     9.3300  -999.2500  -999.2500
 1541.0000     8.9980    99.5660     0.0190     2.5200   -65.8150     8.7580    10.4570     9.1240  -999.2500  -999.2500
 1541.5000     8.9950   100.0650     0.0220     2.5160   -65.8690     8.7190    10.0240     9.1480  -999.2500  -999.2500
 1542.0000     8.9920   100.5630     0.0210     2.5090   -65.9250     8.6810    10.0740     9.1390  -999.2500  -999.2500
 1542.5000     8.9890   101.0380     0.0160     2.4980   -65.9840     8.6500    10.2000     9.1550  -999.2500  -999.2500
 1543.0000     8.9850   101.5670     0.0110     2.4890   -66.0410     8.6890    10.3260     9.1650  -999.2500  -999.2500
 1543.5000     8.9850   101.9230     0.0070     2.4790   -66.0980     8.7390    10.4520     9.1740  -999.2500  -999.2500
 1544.0000     8.9760   102.3520     0.0020     2.4690   -66.1560     8.7900    10.5790     9.1810  -999.2500  -999.2500
 1544.5000     8.9620   102.3520    -0.0030     2.4600   -66.2130     8.8400    10.7900     9.1900  -999.2500  -999.2500
 1545.0000     8.9500   102.4840    -0.0060     2.4620   -66.2710     8.8910    10.7030     9.1980  -999.2500  -999.2500
 1545.5000     8.9370   102.9100    -0.0060     2.4670   -66.3280     8.9420    10.4320     9.2060  -999.2500  -999.2500
 1546.0000     8.9240   103.0830    -0.0060     2.4720   -66.3860     8.9770    10.1620     9.2140  -999.2500  -999.2500
 1546.5000     8.9110   103.8320    -0.0060     2.4770   -66.4420     8.9570    10.0240     9.2230  -999.2500  -999.2500
 1547.0000     8.8990   104.4840    -0.0060     2.4770   -66.5000     8.9180    10.3170     9.2310  -999.2500  -999.2500
 1547.5000     8.8860   104.9620    -0.0060     2.4770   -66.5620     8.8800    10.5880     9.2390  -999.2500  -999.2500
 1548.0000     8.8720   105.4600    -0.0060     2.4770   -66.5390     8.8410    10.7900     9.2470  -999.2500  -999.2500
 1548.5000     8.8660   105.9360    -0.0060     2.4770   -66.2900     8.8030    10.7900     9.2560  -999.2500  -999.2500
 1549.0000     8.8880   106.3020    -0.0060     2.4790   -66.0550     8.7650    10.3980     9.2640  -999.2500  -999.2500
 1549.5000     8.9080   106.4610    -0.0070     2.4820   -65.8230     8.7280    10.0240     9.2730  -999.2500  -999.2500
 1550.0000     8.9290   104.7590    -0.0080     2.4800   -65.8130     8.6900    10.0240     9.2790  -999.2500  -999.2500
 1550.5000     8.9500   103.1140    -0.0080     2.4730   -65.8080     8.6480    10.0960     9.2880  -999.2500  -999.2500
 1551.0000     8.9730   104.5730    -0.0090     2.4740   -65.8120     8.6530    10.2790     9.3020  -999.2500  -999.2500
 1551.5000     8.9860   105.5260    -0.0100     2.4780   -65.8100     8.7200    10.4610     9.3000  -999.2500  -999.2500
 1552.0000     8.9810   104.9520    -0.0110     2.4810   -65.8100     8.7760    10.6430     9.3260  -999.2500  -999.2500
 1552.5000     8.9760   103.8690    -0.0110     2.4780   -65.8100     8.8320    10.8250     9.1830  -999.2500  -999.2500
 1553.0000     8.9710   102.7990    -0.0120     2.4740   -65.8100     8.8880    11.0080     9.2770  -999.2500  -999.2500
 1553.5000     8.9650   101.7800    -0.0130     2.4700   -65.8100     8.9450    11.1950     9.3540  -999.2500  -999.2500
 1554.0000     8.9600   100.6990    -0.0140     2.4720   -65.8100     9.0020    11.1950     9.4300  -999.2500  -999.2500
 1554.5000     8.9550    99.7020    -0.0140     2.4790   -65.8100     9.0590    11.1950     9.5060  -999.2500  -999.2500
 1555.0000     8.9500    98.5160    -0.0150     2.4770   -65.8100     9.1160    11.8700     9.5820  -999.2500  -999.2500
 1555.5000     8.9450    98.4610    -0.0160     2.4780   -65.8100     9.1730    12.7360     9.6610  -999.2500  -999.2500
 1556.0000     8.9390    98.8940    -0.0170     2.4850   -65.8100     9.2300    11.9640     9.8410  -999.2500  -999.2500
 1556.5000     8.9340    99.4020    -0.0170     2.4940   -65.8100     9.3110    11.1570     9.7800  -999.2500  -999.2500
 1557.0000     8.9290   100.0750    -0.0180     2.4850   -65.8100     9.2970    10.7900     9.7270  -999.2500  -999.2500
 1557.5000     8.9240   100.9390    -0.0180     2.4750   -65.8100     9.2680    10.7900     9.6750  -999.2500  -999.2500
 1558.0000     8.9190   100.1120    -0.0170     2.4660   -65.8100     9.2390    10.9660     9.6220  -999.2500  -999.2500
 1558.5000     8.9130    99.4860    -0.0120     2.4790   -65.8100     9.2100    11.1520     9.5690  -999.2500  -999.2500
 1559.0000     8.9080    98.7940    -0.0070     2.4890   -65.8100     9.1800    11.3390     9.5170  -999.2500  -999.2500
 1559.5000     8.9050    98.1680    -0.0020     2.5010   -65.8100     9.1510    11.5260     9.4640  -999.2500  -999.2500
 1560.0000     8.9120    97.5010     0.0030     2.5110   -65.8100     9.1220    11.6150     9.4110  -999.2500  -999.2500
 1560.5000     8.9180    96.8090     0.0080     2.5120   -65.8100     9.0930    10.7900     9.3580  -999.2500  -999.2500
 1561.0000     8.9240    97.7130     0.0100     2.5090   -65.8100     9.0640    10.7900     9.3130  -999.2500  -999.2500
 1561.5000     8.9300   100.5540     0.0100     2.5070   -65.8100     9.0360    11.3670     9.3350  -999.2500  -999.2500
 1562.0000     8.9370   102.3130     0.0100     2.5090   -65.8100     9.0070    11.8310     9.3550  -999.2500  -999.2500
 1562.5000     8.9430   101.8550     0.0100     2.5150   -65.8100     8.9750    10.8470     9.3750  -999.2500  -999.2500
 1563.0000     8.9490   101.3560     0.0100     2.5140   -65.8100     8.9920    10.4000     9.3960  -999.2500  -999.2500
 1563.5000     8.9560   100.7230     0.0100     2.5110   -65.8100     9.0260    10.5720     9.4170  -999.2500  -999.2500
 1564.0000     8.9620    99.7350     0.0160     2.5110   -65.8100     9.0610    10.8190     9.4370  -999.2500  -999.2500
 1564.5000     8.9680    98.5190     0.0220     2.5180   -65.8100     9.0970    11.0670     9.4580  -999.2500  -999.2500
 1565.0000     8.9750    99.4000     0.0280     2.5300   -65.8100     9.1400    11.4570     9.4840  -999.2500  -999.2500
 1565.5000     8.9810    99.9540     0.0350     2.5410   -65.8100     9.1180    12.0000     9.4780  -999.2500  -999.2500
 1566.0000     8.9870    99.9480     0.0340     2.5520   -65.8100     9.0820    12.5030     9.4650  -999.2500  -999.2500
 1566.5000     8.9930    99.5020     0.0240     2.5370   -65.8100     9.0450    11.3190     9.4530  -999.2500  -999.2500
 1567.0000     9.0000    99.2740     0.0150     2.5290   -65.8100     9.0090     9.8410     9.4410  -999.2500  -999.2500
 1567.5000     9.0060    98.5860     0.0070     2.5120   -65.8100     8.9730     9.9640     9.4290  -999.2500  -999.2500
 1568.0000     9.0120    98.5340    -0.0020     2.4960   -65.8100     8.9370    10.4370     9.4170  -999.2500  -999.2500
 1568.5000     9.0190   100.2760    -0.0020     2.4810   -65.8100     8.9010    10.7900     9.4060  -999.2500  -999.2500
 1569.0000     9.0240   100.7850    -0.0020     2.4800   -65.8100     8.8650    10.7900     9.3940  -999.2500  -999.2500
 1569.5000     9.0220   100.8180    -0.0010     2.4780   -65.8100     8.8290    10.4870     9.3820  -999.2500  -999.2500
 1570.0000     9.0180   100.9340     0.0000     2.4780   -65.8100     8.7930    10.2100     9.3700  -999.2500  -999.2500
 1570.5000     9.0140   102.8610     0.0000     2.4840   -65.8100     8.7570    10.4710     9.3580  -999.2500  -999.2500
 1571.0000     9.0100   104.6120     0.0010     2.4910   -65.8100     8.7210    10.8800     9.3460  -999.2500  -999.2500
 1571.5000     9.0060   105.2110     0.0020     2.4930   -65.8100     8.6860    11.1380     9.3340  -999.2500  -999.2500
 1572.0000     9.0020   103.9330     0.0030     2.4910   -65.8100     8.6510    10.8910     9.3230  -999.2500  -999.2500
 1572.5000     8.9980   102.7660     0.0030     2.4940   -65.8100     8.6510    10.6430     9.3110  -999.2500  -999.2500
 1573.0000     8.9940   102.7540     0.0040     2.4980   -65.8100     8.6580    10.4000     9.2990  -999.2500  -999.2500
