~VERSION INFORMATION
 VERS.                2.0:   CWLS LOG ASCII STANDARD - VERSION 2.0
 WRAP.                 NO:   ONE LINE PER DEPTH STEP
~WELL INFORMATION
#MNEM.UNIT      DATA TYPE    INFORMATION
#----------   ------------   ------------------------------
 STRT.F           32.0000:   START DEPTH
 STOP.F         5116.0000:   STOP DEPTH
 STEP.F            0.5000:   STEP LENGTH
 NULL.          -999.2500:   NO VALUE
 COMP. LAWRENCE ALLISON AND ASSOCIATES:   COMPANY
 WELL. LAWRENCE "X" #11-26:   WELL
 FLD .       N.P.R. NO. 3:   FIELD
 LOC .      S26 T38N R78W:   LOCATION
 CNTY.            NATRONA:   COUNTY
 STAT.            WYOMING:   STATE
 CTRY. UNITED STATES OF AMERICA:   COUNTRY
 SRVC.      DRESSER ATLAS:   SERVICE COMPANY
 DATE.        03-DEC-1984:   LOGDATE
 API .     49025110120000:   API NUMBER
~CURVE INFORMATION
#MNEM.UNIT       API CODE    CURVE DESCRIPTION
#----------   ------------   ------------------------------
 DEPT.F                  :   
 CALD.IN     45 280 60 00:   CALIPER FROM DENSITY LOG
 TEND.LBS    45 635 01 00:   TENSION FORM DENSITY LOG
 CORR.G/C3   45 356 01 00:   DENSITY CORRECTION
 DEN .G/C3   45 350 01 00:   BULK DENSITY
 NPHI.DEC    42 890 03 00:   NEUTRON POROSITY SANDSTONE
 GRR .GAPI   07 310 01 00:   GAMMA RAY FROM RESISTIVITY
 SPR .MV     07 010 01 00:   SPONTANEOUS POTENTIAL
 CALR.IN     07 280 01 00:   CALIPER FROM RESISTIVITY
 TENR.LBS    07 635 01 00:   TENSION FROM RESISTIVITY
 RILD.OHMM   07 120 46 00:   INDUCTION LOG DEEP RESISTIVITY
 RILM.OHMM   07 120 44 00:   INDUCTION LOG MEDIUM RESISTIVITY
 RFOC.OHMM   07 220 04 00:   RESISTIVITY FOCUSED LOG RES.
 TENS.LBS    60 635 01 00:   TENSION FROM SONIC
 DT  .US/F   60 520 00 00:   DELTA TIME
~PARAMETER INFORMATION
#MNEM.UNIT          VALUE    DESCRIPTION
#----------   ------------   ------------------------------
 EKB .F         5321.0000:   Kelly bushing
 EGL .F         5309.0000:   Ground level
 EDF .F         5320.0000:   Drilling floor
 TD  .F         5104.0000:   Total depth
 CLNT.            A2DTECH:   Client Code
 SL  . 509' FWL & 22' FNL:   Surface Location
 PD  .                 GL:   Permanent Datum
 EPD .F              5309:   Elevation Permanent Datum
 LMF .                 KB:   Log Measured From
 DMF .                 KB:   Drilling Measured From
 DAPD.F                12:   Feet Above Permanent Datum
 DATE.        03-DEC-1984:   Date Logged [DD-MMM-YYYY]
 DD  .F              5100:   Depth driller
 DL  .F              5104:   Depth logger
 BLI .F              5102:   Bottom log interval
 TLI .F              1400:   Top log interval
 CS1 .IN            9.625:   Casing size
 CBD1.     9.625' @ 1657':   Casing driller 1
 CBL1.F              1652:   Casing logger 1
 BS1 .IN            7.875:   Bit size
 DFT .            KCL GEL:   Type fluid in hole
 DFD .                90.:   Density
 DFV .                 41:   Viscosity
 DFPH.                8.9:   pH
 DFL .               12.6:   Fluid loss
 MSS .           FLOWLINE:   Source of sample
 RMS .OHMM           .327:   Rm
 MST .F                84:   Rm Meas. temp.
 RMF .OHMM            .29:   Rmf
 MFST.F                84:   Rmf Meas. temp.
 MFSS.               CALC:   Source Rmf.
 RMC .OHMM            .42:   Rmc
 MCST.F                84:   Rmc Meas. temp.
 MCSS.               CALC:   Source Rmc.
 RMB .OHMM            .23:   Rm. at BHT
 BHT .F               142:   BHT.
 TCS .HRS               4:   Time Circ. stopped
 MRT .F               142:   Maximum recorded temp.
 LUN .               6307:   Logging unit number
 LUL .               CLTE:   Logging unit location
 WITN.             STRONG:   Witnessed by
 ORIG.           5" PRINT:   Origin of data
 UWI .     49025110120000:   Unique Well ID
 DICO. A2D TECHNOLOGIES, INC.:   Digitizing Company
~OTHER INFORMATION
~A  DEPTH     CALD       TEND       CORR        DEN       NPHI        GRR        SPR       CALR       TENR       RILD       RILM       RFOC       TENS         DT
# ...
 2702.5000  -999.2500  -999.2500  -999.2500  -999.2500  -999.2500    91.0855   -43.3115    11.2299   -69.0501     6.1134     5.6358     6.3565  -999.2500  -999.2500
 2703.0000  -999.2500  -999.2500  -999.2500  -999.2500  -999.2500    88.4788   -42.8482    11.1706   -53.8930     6.1974     5.7104     6.4607  -999.2500  -999.2500
 2703.5000  -999.2500  -999.2500  -999.2500  -999.2500  -999.2500    88.1879   -42.5356    11.1114   -53.7509     6.2219     5.7104     6.6282  -999.2500  -999.2500
 2704.0000  -999.2500  -999.2500  -999.2500  -999.2500  -999.2500    90.9206   -42.2229    11.0820   -68.6239     6.3387     5.7901     6.7727  -999.2500  -999.2500
 2704.5000  -999.2500  -999.2500  -999.2500  -999.2500  -999.2500    93.3696   -42.2086    11.0828   -68.4462     6.4555     5.8708     6.9116  -999.2500  -999.2500
 2705.0000  -999.2500  -999.2500  -999.2500  -999.2500  -999.2500    92.4610   -42.1972    11.0836   -68.3041     6.5318     5.9941     7.0578  -999.2500  -999.2500
 2705.5000  -999.2500  -999.2500  -999.2500  -999.2500  -999.2500    91.5703   -42.1857    11.0677   -68.1620     6.5286     6.0357     7.1572  -999.2500  -999.2500
 2706.0000  -999.2500  -999.2500  -999.2500  -999.2500  -999.2500    92.1879   -42.1743    11.0593   -53.0030     6.4362     6.1199     7.2580  -999.2500  -999.2500
 2706.5000  -999.2500  -999.2500  -999.2500  -999.2500  -999.2500    92.2021   -42.3226    11.0509   -52.8273     6.4335     6.2053     7.3097  -999.2500  -999.2500
 2707.0000  -999.2500  -999.2500  -999.2500  -999.2500  -999.2500    89.8067   -42.7509    11.0425   -52.6851     6.3421     6.2053     7.3107  -999.2500  -999.2500
 2707.5000  -999.2500  -999.2500  -999.2500  -999.2500  -999.2500    87.1060   -43.3419    11.0341   -67.5581     6.3399     6.1199     7.1612  -999.2500  -999.2500
 2708.0000  -999.2500  -999.2500  -999.2500  -999.2500  -999.2500    88.0253   -43.9329    11.0248   -82.4324     6.2499     6.0357     6.9663  -999.2500  -999.2500
 2708.5000  -999.2500  -999.2500  -999.2500  -999.2500  -999.2500    92.5644   -44.6744    11.0253   -97.3039     6.1615     5.9941     6.8679  -999.2500  -999.2500
 2709.0000  -999.2500  -999.2500  -999.2500  -999.2500  -999.2500    97.8766   -45.4160    11.0410   -97.1263     6.1590     5.9116     6.7779  -999.2500  -999.2500
 2709.5000  -999.2500  -999.2500  -999.2500  -999.2500  -999.2500   100.7413   -45.7057    11.0416   -96.9842     6.0714     5.8708     6.7788  -999.2500  -999.2500
 2710.0000  -999.2500  -999.2500  -999.2500  -999.2500  -999.2500    98.3423   -45.6914    11.0423   -81.8271     6.0693     5.8708     6.7796  -999.2500  -999.2500
 2710.5000  -999.2500  -999.2500  -999.2500  -999.2500  -999.2500    95.3400   -45.6800    11.0428   -81.6817     6.0247     5.8708     6.7805  -999.2500  -999.2500
 2711.0000  -999.2500  -999.2500  -999.2500  -999.2500  -999.2500    94.7509   -45.5179    11.0434   -81.5074     5.9808     5.8708     6.7816  -999.2500  -999.2500
 2711.5000  -999.2500  -999.2500  -999.2500  -999.2500  -999.2500    92.6571   -45.0518    11.0440   -80.8029     5.9783     5.8708     6.7825  -999.2500  -999.2500
 2712.0000  -999.2500  -999.2500  -999.2500  -999.2500  -999.2500    90.5598   -44.7392    11.0446   -79.9631     5.9755     5.8708     6.7894  -999.2500  -999.2500
 2712.5000  -999.2500  -999.2500  -999.2500  -999.2500  -999.2500    89.9672   -44.5929    11.0453   -79.1233     5.9689     5.8708     6.8040  -999.2500  -999.2500
 2713.0000  -999.2500  -999.2500  -999.2500  -999.2500  -999.2500    93.3032   -44.3846    11.0459   -78.2835     5.9297     5.8303     6.8324  -999.2500  -999.2500
 2713.5000  -999.2500  -999.2500  -999.2500  -999.2500  -999.2500    96.6393   -44.0317    11.0464   -77.4437     5.9270     5.7901     6.7861  -999.2500  -999.2500
 2714.0000  -999.2500  -999.2500  -999.2500  -999.2500  -999.2500    97.2569   -43.8725    11.0470   -76.6039     5.9659     5.7901     6.7401  -999.2500  -999.2500
 2714.5000  -999.2500  -999.2500  -999.2500  -999.2500  -999.2500    99.3828   -43.7133    11.0476   -75.7641     5.9633     5.7901     6.6482  -999.2500  -999.2500
 2715.0000  -999.2500  -999.2500  -999.2500  -999.2500  -999.2500   100.9053   -43.7047    11.0482   -74.9243     6.0251     5.8303     6.5125  -999.2500  -999.2500
 2715.5000  -999.2500  -999.2500  -999.2500  -999.2500  -999.2500   102.2052   -43.3928    11.0489   -74.0845     6.0835     5.8708     6.4684  -999.2500  -999.2500
 2716.0000  -999.2500  -999.2500  -999.2500  -999.2500  -999.2500   105.1607   -43.3842    11.0645   -73.2447     6.1233     5.9544     6.5144  -999.2500  -999.2500
 2716.5000  -999.2500  -999.2500  -999.2500  -999.2500  -999.2500   103.3650   -43.3765    11.0651   -72.4049     6.1717     6.0357     6.6062  -999.2500  -999.2500
 2717.0000  -999.2500  -999.2500  -999.2500  -999.2500  -999.2500    99.4577   -43.3675    11.0807   -71.5650     6.2038     6.0912     6.7459  -999.2500  -999.2500
 2717.5000  -999.2500  -999.2500  -999.2500  -999.2500  -999.2500    97.3603   -43.3584    11.0814   -70.7252     6.2373     6.1751     6.8901  -999.2500  -999.2500
 2718.0000  -999.2500  -999.2500  -999.2500  -999.2500  -999.2500    96.4732   -43.3477    11.1121   -69.8854     6.2848     6.1743     7.0833  -999.2500  -999.2500
 2718.5000  -999.2500  -999.2500  -999.2500  -999.2500  -999.2500    96.1822   -43.3391    11.1127   -68.9751     6.2822     6.1735     7.1335  -999.2500  -999.2500
 2719.0000  -999.2500  -999.2500  -999.2500  -999.2500  -999.2500    98.6133   -43.3306    11.1434   -76.2762     6.3234     6.1727     7.1840  -999.2500  -999.2500
 2719.5000  -999.2500  -999.2500  -999.2500  -999.2500  -999.2500   100.1358   -43.6235    11.1610   -76.0510     6.3649     6.1291     7.1354  -999.2500  -999.2500
 2720.0000  -999.2500  -999.2500  -999.2500  -999.2500  -999.2500    97.7404   -43.9158    11.2049   -75.7866     6.3617     6.0860     6.9766  -999.2500  -999.2500
 2720.5000  -999.2500  -999.2500  -999.2500  -999.2500  -999.2500    93.5314   -44.3569    11.2356   -75.5724     6.3592     6.0015     6.7525  -999.2500  -999.2500
 2721.0000  -999.2500  -999.2500  -999.2500  -999.2500  -999.2500    92.0339   -44.8001    11.2512   -82.9193     6.3566     6.0007     6.7066  -999.2500  -999.2500
 2721.5000  -999.2500  -999.2500  -999.2500  -999.2500  -999.2500    92.0517   -44.7915    11.2518   -82.6516     6.3540     5.9373     6.7543  -999.2500  -999.2500
 2722.0000  -999.2500  -999.2500  -999.2500  -999.2500  -999.2500    93.7215   -45.0843    11.2373   -74.9249     6.3513     5.9164     6.8977  -999.2500  -999.2500
 2722.5000  -999.2500  -999.2500  -999.2500  -999.2500  -999.2500    95.7001   -45.2262    11.2078   -74.6622     6.3486     5.8342     6.9460  -999.2500  -999.2500
 2723.0000  -999.2500  -999.2500  -999.2500  -999.2500  -999.2500    93.3047   -45.0648    11.1782   -74.4481     6.3460     5.7932     6.7105  -999.2500  -999.2500
 2723.5000  -999.2500  -999.2500  -999.2500  -999.2500  -999.2500    92.7120   -44.7550    11.1338   -66.7264     6.3434     5.7525     6.5279  -999.2500  -999.2500
 2724.0000  -999.2500  -999.2500  -999.2500  -999.2500  -999.2500    93.0435   -44.5958    11.0892   -74.0240     6.2880     5.7120     6.4837  -999.2500  -999.2500
 2724.5000  -999.2500  -999.2500  -999.2500  -999.2500  -999.2500    93.9543   -44.2298    11.0426   -88.8205     6.2507     5.7510     6.4846  -999.2500  -999.2500
 2725.0000  -999.2500  -999.2500  -999.2500  -999.2500  -999.2500    95.1752   -43.8235    11.0001   -88.5529     6.2483     5.7900     6.5307  -999.2500  -999.2500
 2725.5000  -999.2500  -999.2500  -999.2500  -999.2500  -999.2500    96.6978   -43.5137    11.0007   -80.8312     6.2458     5.8296     6.6227  -999.2500  -999.2500
 2726.0000  -999.2500  -999.2500  -999.2500  -999.2500  -999.2500    96.1087   -43.2039    10.9860   -73.1095     6.0722     5.9100     6.6697  -999.2500  -999.2500
 2726.5000  -999.2500  -999.2500  -999.2500  -999.2500  -999.2500    92.2050   -42.8941    11.0018   -65.3879     6.0279     5.9916     6.7169  -999.2500  -999.2500
