~VERSION INFORMATION
 VERS.                2.0:   CWLS LOG ASCII STANDARD - VERSION 2.0
 WRAP.                 NO:   ONE LINE PER DEPTH STEP
~WELL INFORMATION
#MNEM.UNIT      DATA TYPE    INFORMATION
#----------   ------------   ------------------------------
 STRT.F           13.0000:   START DEPTH
 STOP.F         2858.0000:   STOP DEPTH
 STEP.F            0.5000:   STEP LENGTH
 NULL.          -999.2500:   NO VALUE
 COMP.    FENIX & SCISSON:   COMPANY
 WELL. FENIX & SCISSON "AX" #16-21:   WELL
 FLD .  TEAPOT DOME NRP-3:   FIELD
 LOC .      S21 T39N R78W:   LOCATION
 CNTY.            NATRONA:   COUNTY
 STAT.            WYOMING:   STATE
 CTRY. UNITED STATES OF AMERICA:   COUNTRY
 SRVC.           BIRDWELL:   SERVICE COMPANY
 DATE.        17-JUL-1978:   LOGDATE
 API .     49025106590000:   API NUMBER
~CURVE INFORMATION
#MNEM.UNIT       API CODE    CURVE DESCRIPTION
#----------   ------------   ------------------------------
 DEPT.F                  :   
 GRD .GAPI   45 310 01 00:   GAMMA RAY FROM DENSITY LOG
 CALD.IN     45 280 60 00:   CALIPER FROM DENSITY LOG
 CORR.G/C3   45 356 01 00:   DENSITY CORRECTION
 RHOB.G/C3   45 350 01 00:   BULK DENSITY
 SPR .MV     05 010 01 00:   SPONTANEOUS POTENTIAL FROM RES.
 ILD .OHMM   05 120 46 00:   INDUCTION LOG DEEP
 SN  .OHMM   05 041 16 00:   SHORT NORMAL 16"
~PARAMETER INFORMATION
#MNEM.UNIT          VALUE    DESCRIPTION
#----------   ------------   ------------------------------
 EKB .F         5003.0000:   Kelly bushing
 EGL .F         4993.0000:   Ground level
 EDF .F            0.0000:   Drilling floor
 EPD .F         4993.0000:   Permanent datum
 TD  .F         2858.0000:   Total depth
 CLNT.            A2DTECH:   Client Code
 SL  . 1420' FSL & 200' FWL:   Surface Location
 DATE.        17-JUL-1978:   Date Logged [DD-MMM-YYYY]
 DD  .F              2855:   Depth driller
 DL  .F              2858:   Depth logger
 BLI .F              2858:   Bottom log interval
 TLI .F                20:   Top log interval
 CS1 .              8.625:   Casing size
 CBD1.      8.625" @ 200':   Casing driller 1
 CBL1.IN              228:   Casing logger 1
 BS1 .IN            7.875:   Bit size
 BSD1.F              2855:   Depth drilled with bit1
 DFT .            MUD GEL:   Type fluid in hole
 DFD .                9.9:   Density
 DFV .                 32:   Viscosity
 DFPH.               10.5:   pH
 DFL .                7.2:   Fluid loss
 MSS .           FLOWLINE:   Source of sample
 RMS .OHMM            1.3:   Rm
 MST .F                80:   Rm Meas. temp.
 RMF .OHMM           0.77:   Rmf
 MFST.F                74:   Rmf Meas. temp.
 MFSS.               MEAS:   Source Rmf.
 RMC .OHMM            1.5:   Rmc
 MCST.F                73:   Rmc Meas. temp.
 MCSS.               MEAS:   Source Rmc.
 TCS .HRS               1:   Time Circ. stopped
 MRT .F               118:   Maximum recorded temp.
 LUN .               2958:   Logging unit number
 LUL .               CASP:   Logging unit location
 ENGI.              HONEA:   Recorded By
 WITN.           MCGINLEY:   Witnessed by
 ORIG.        2" 5" PRINT:   Origin of data
 UWI .     49025106590000:   Unique Well ID
 DICO. A2D TECHNOLOGIES, INC.:   Digitizing Company
 PD  .                 GL:   Permanent Datum
 DAPD.                 10:   Feet Above Permanent Datum
~OTHER INFORMATION
~A   DEPT       GRD      CALD       CORR       RHOB        SPR        ILD         SN   
# ...
  741.0000    68.5938    10.3828     0.0278     2.5251   -32.6640     8.8508     8.5587
  741.5000    70.2121    10.3838     0.0280     2.5371   -32.6465     8.8573     8.4455
  742.0000    73.6638    10.3845     0.0281     2.5104   -32.6291     8.8639     8.4489
  742.5000    79.5802    10.3852     0.0283     2.5194   -32.6112     8.8704     8.3944
  743.0000    81.9963    10.3859     0.0225     2.5226   -32.5935     8.8147     8.3404
  743.5000    81.4272    10.3865     0.0107     2.5338   -32.5724     8.7028     8.2299
  744.0000    78.1716    10.3872     0.0049     2.5375   -32.5550     8.5907     8.2341
  744.5000    75.2146    10.3879     0.0110     2.5220   -32.5375     8.5380     8.2374
  745.0000    74.9370    10.3885     0.0052     2.5035   -32.6728     8.5446     8.2407
  745.5000    74.0765    10.3892    -0.0006     2.4999   -32.6510     8.4925     8.2440
  746.0000    70.8209    10.3895     0.0070     2.4851   -32.6336     8.4989     8.2474
  746.5000    69.7971    10.3895     0.0116     2.4964   -32.7688     8.4470     8.2507
  747.0000    69.3843    10.3895     0.0133     2.4987   -32.7470     8.3398     8.2540
  747.5000    69.7108    10.3895     0.0134     2.4995   -32.8784     8.2323     8.2574
  748.0000    72.8731    10.3895     0.0120     2.5048   -32.8605     8.1821     8.2607
  748.5000    77.0802    10.3895     0.0047     2.5094   -32.8427     8.1882     8.2641
  749.0000    77.5560    10.3895     0.0094     2.5072   -32.8250     8.1943     8.3245
  749.5000    77.2855    10.3895     0.0199     2.4915   -32.8039     8.2003     8.3286
  750.0000    75.3731    10.3895     0.0245     2.4993   -32.9391     8.2064     8.3090
  750.5000    73.9086    10.3895     0.0247     2.5113   -32.9173     8.2689     8.2209
  751.0000    76.0268    10.3894     0.0189     2.5143   -33.0526     8.3320     8.2237
  751.5000    76.5269    10.3894     0.0146     2.5152   -33.1836     8.3381     8.3402
  752.0000    76.2383    10.3894     0.0132     2.5063   -33.0134     8.4017     8.4005
  752.5000    76.4156    10.3894     0.0163     2.5005   -32.9959     8.4892     8.5196
  753.0000    77.1898    10.3894     0.0195     2.4976   -32.9771     8.5866     8.5812
  753.5000    75.5760    10.3894     0.0241     2.5014   -32.9642     8.6588     8.6432
  754.0000    73.8060    10.3894     0.0228     2.5097   -32.9495     8.7269     8.7057
  754.5000    75.9305    10.3894     0.0229     2.5202   -32.9347     8.7340     8.8292
  755.0000    76.2570    10.3894     0.0231     2.5204   -32.9200     8.8012     8.8937
  755.5000    75.5387    10.3900     0.0247     2.5159   -32.9053     8.8689     8.8967
  756.0000    75.4104    10.3923     0.0263     2.5093   -32.8899     8.8760     8.8997
  756.5000    75.7439    10.3945     0.0324     2.5141   -33.0222     8.9443     8.9027
  757.0000    75.0257    10.3969     0.0340     2.5214   -33.1546     8.9516     8.9056
  757.5000    72.0686    10.3996     0.0342     2.5252   -33.2870     8.9588     8.9086
  758.0000    73.7383    10.4019     0.0343     2.5275   -33.4193     8.9660     8.9116
  758.5000    76.4529    10.4042     0.0345     2.5224   -33.3993     8.9733     8.9146
  759.0000    78.8689    10.4064     0.0348     2.5210   -33.3833     8.9806     8.9176
  759.5000    79.0462    10.4087     0.0362     2.5226   -33.2189     8.9263     8.9206
  760.0000    77.4324    10.4110     0.0275     2.5316   -33.0545     8.9337     8.9237
  760.5000    79.5507    10.4132     0.0217     2.5399   -32.7418     8.8798     8.9274
  761.0000    79.3521    10.4155     0.0159     2.5288   -32.7257     8.8872     8.9304
  761.5000    78.4118    10.4178     0.0101     2.5170   -32.7097     8.8960     8.9334
  762.0000    78.2906    10.4046     0.0103     2.5082   -32.6937     8.9032     8.9364
  762.5000    80.1166    10.3925     0.0104     2.5016   -32.6777     8.9104     8.9394
  763.0000    83.8759    10.3799     0.0106     2.5130   -32.6617     8.8549     8.8804
  763.5000    84.5009    10.3673     0.0107     2.5181   -32.7940     8.8639     8.8841
  764.0000    80.6483    10.3845     0.0094     2.5197   -32.7774     8.8711     8.8871
  764.5000    74.7062    10.3858     0.0095     2.5228   -32.7580     8.8782     8.8901
  765.0000    74.4286    10.3843     0.0098     2.5147   -32.7420     8.8854     8.8322
  765.5000    76.2547    10.3829     0.0117     2.5051   -32.7260     8.8926     8.7147
  766.0000    79.1185    10.3814     0.0219     2.4985   -32.7100     8.8372     8.7183
  766.5000    80.4897    10.3799     0.0205     2.4941   -32.6940     8.8462     8.7212
  767.0000    80.5443    10.3785     0.0177     2.5136   -32.6779     8.8533     8.7242
  767.5000    79.0532    10.3770     0.0104     2.5315   -32.6606     8.8605     8.7271
  768.0000    75.7976    10.3755     0.0046     2.5204   -32.7943     8.8677     8.7300
  768.5000    74.4823    10.3741     0.0167     2.5012   -32.7783     8.8142     8.7931
  769.0000    75.7083    10.3726     0.0227     2.4939   -32.9109     8.8232     8.8560
  769.5000    75.8815    10.3712     0.0244     2.5052   -32.8946     8.8303     8.7990
  770.0000    74.5073    10.3697     0.0216     2.5120   -32.8783     8.8374     8.8020
  770.5000    71.7693    10.3682     0.0217     2.5157   -32.8620     8.7824     8.8050
  771.0000    70.4431    10.3668     0.0309     2.5099   -32.8426     8.7913     8.8080
  771.5000    73.0154    10.3653     0.0354     2.5159   -32.8266     8.7366     8.8116
  772.0000    76.6255    10.3638     0.0310     2.5324   -32.8106     8.7454     8.8753
  772.5000    79.3400    10.3624     0.0238     2.5443   -32.7945     8.7525     8.8175
  773.0000    80.2635    10.3609     0.0195     2.5229   -32.6302     8.7596     8.8205
  773.5000    79.6945    10.3594     0.0196     2.5162   -32.4658     8.7050     8.8235
  774.0000    78.2299    10.3580     0.0153     2.5186   -32.1530     8.7138     8.8264
  774.5000    74.9743    10.3586     0.0125     2.5142   -32.1370     8.7209     8.7682
  775.0000    73.8083    10.3590     0.0141     2.5046   -32.1210     8.7279     8.7719
  775.5000    72.7915    10.3579     0.0158     2.4988   -32.1050     8.7351     8.7749
  776.0000    76.1031    10.3569     0.0233     2.4929   -32.3857     8.7423     8.7778
  776.5000    80.4594    10.3558     0.0324     2.4994   -32.5181     8.7509     8.7809
  777.0000    78.5471    10.3547     0.0340     2.5102   -32.5014     8.7580     8.7844
  777.5000    76.7840    10.3536     0.0281     2.5371   -32.6344     8.7651     8.7874
  778.0000    76.5115    10.3526     0.0237     2.5469   -32.6144     8.7722     8.7903
  778.5000    76.3923    10.3515     0.0211     2.5261   -32.5984     8.7793     8.7324
  779.0000    77.0596    10.3504     0.0228     2.5084   -32.7347     8.7864     8.6755
  779.5000    79.2455    10.3494     0.0229     2.5032   -32.7147     8.7935     8.6792
  780.0000    82.3041    10.3483     0.0216     2.5212   -32.8511     8.7387     8.6219
  780.5000    83.2276    10.3472     0.0187     2.5242   -32.8310     8.6878     8.5665
  781.0000    83.7034    10.3461     0.0159     2.5199   -32.8150     8.6337     8.5694
  781.5000    80.1492    10.3451     0.0161     2.5155   -32.7990     8.5832     8.4553
  782.0000    75.1026    10.3440     0.0281     2.5015   -32.7830     8.5316     8.4003
  782.5000    74.2351    10.3429     0.0386     2.4993   -32.7670     8.4224     8.3456
  783.0000    73.8083    10.3418     0.0389     2.5235   -32.6024     8.3716     8.3491
  783.5000    73.6870    10.3407     0.0329     2.5471   -32.5861     8.3786     8.3519
  784.0000    74.3190    10.3578     0.0287     2.5398   -32.4182     8.3279     8.2975
  784.5000    74.9440    10.3750     0.0318     2.5302   -32.4022     8.3363     8.2428
  785.0000    74.9720    10.3732     0.0349     2.5273   -32.2378     8.3431     8.1891
  785.5000    74.7015    10.3713     0.0351     2.5118   -32.2218     8.2911     8.1925
  786.0000    73.3862    10.3694     0.0352     2.5089   -32.2058     8.2428     8.1953
