~VERSION INFORMATION
 VERS.                2.0:   CWLS LOG ASCII STANDARD - VERSION 2.0
 WRAP.                 NO:   ONE LINE PER DEPTH STEP
~WELL INFORMATION
#MNEM.UNIT      DATA TYPE    INFORMATION
#----------   ------------   ------------------------------
 STRT.F            0.0000:   START DEPTH
 STOP.F         1077.0000:   STOP DEPTH
 STEP.F            0.5000:   STEP LENGTH
 NULL.          -999.2500:   NO VALUE
 COMP.         JOHN BROWN:   COMPANY
 WELL.       JOHN X #66-2:   WELL
 FLD .                NPR:   FIELD
 LOC .       S2 T38N R78W:   LOCATION
 CNTY.            NATRONA:   COUNTY
 STAT.            WYOMING:   STATE
 CTRY. UNITED STATES OF AMERICA:   COUNTRY
 SRVC.     ATLAS WIRELINE:   SERVICE COMPANY
 DATE.        04-DEC-1991:   LOGDATE
 API .     49025224820000:   API NUMBER
~CURVE INFORMATION
#MNEM.UNIT       API CODE    CURVE DESCRIPTION
#----------   ------------   ------------------------------
 DEPT.F                  :   
 TENR.LBS    07 635 01 00:   TENSION
 RILD.OHMM   07 120 46 00:   INDUCTION LOG DEEP RESISTIVITY
 RILM.OHMM   07 120 44 00:   INDUCTION LOG MEDIUM RESISTIVITY
 GRR .GAPI   07 310 01 00:   GAMMA RAY FROM RESISTIVITY
~PARAMETER INFORMATION
#MNEM.UNIT          VALUE    DESCRIPTION
#----------   ------------   ------------------------------
 EKB .F         5189.0000:   Kelly bushing
 EGL .F         5179.0000:   Ground level
 EDF .F         5188.0000:   Drilling floor
 EPD .F         5179.0000:   Permanent datum
 TD  .F         1072.0000:   Total depth
 DATE.        04-DEC-1991:   Date logged
 CLNT.            A2DTECH:   Client Code
 SL  . 1893' FSL & 1937' FEL:   Surface Location
 PD  .                 GL:   Permanent Datum
 LMF .                 KB:   Log Measured From
 DMF .                 KB:   Drilling Measured From
 DAPD.F                10:   Feet Above Permanent Datum
 DD  .F              1072:   Depth driller
 DL  .F              1073:   Depth logger
 BLI .F              1071:   Bottom log interval
 CS1 .IN            9.625:   Casing size
 CBD1.       9.625" @ 40':   Casing driller 1
 CBL1.F                50:   Casing logger 1
 BS1 .IN            7.875:   Bit size
 BSD1.F              1072:   Depth drilled with bit1
 DFT .                AIR:   Type fluid in hole
 LUN .            HL 6387:   Logging unit number
 LUL .             CASPER:   Logging unit location
 WITN.        GARY STRONG:   Witnessed by
 ORIG.         2.5" PRINT:   Origin of data
 UWI .     49025224820000:   Unique Well ID
 DICO. A2D TECHNOLOGIES, INC.:   Digitizing Company
~OTHER INFORMATION
~A    DEPT    TENR       RILD       RILM         GRR  
# ...
  584.0000   -46.2870     6.8420     7.1400   146.8380
  584.5000   -46.2410     6.8800     7.2120   144.3490
  585.0000   -46.1960     6.9250     7.2850   139.9160
  585.5000   -46.1500     6.9790     7.3570   135.4370
  586.0000   -46.1050     7.0440     7.4290   137.1380
  586.5000   -46.0590     7.1090     7.5010   142.7280
  587.0000   -46.0140     7.1740     7.5820   148.4980
  587.5000   -45.9680     7.2390     7.6410   153.9970
  588.0000   -45.9230     7.3040     7.7080   156.3360
  588.5000   -45.8770     7.3690     7.7750   149.9050
  589.0000   -45.8320     7.4340     7.8420   142.5370
  589.5000   -45.7860     7.4990     7.9090   136.7260
  590.0000   -45.7410     7.5640     7.9760   136.8680
  590.5000   -45.6950     7.6290     8.1120   144.9810
  591.0000   -45.6500     7.6940     8.3010   149.1360
  591.5000   -45.6040     7.7980     8.4530   145.2210
  592.0000   -45.5590     7.9300     8.4530   142.2290
  592.5000   -45.5130     8.0620     8.4530   144.6250
  593.0000   -45.4680     8.1940     8.5040   146.9140
  593.5000   -45.4220     8.3260     8.6240   145.1480
  594.0000   -45.3760     8.4580     8.7430   143.8660
  594.5000   -45.3310     8.6080     8.8630   143.6020
  595.0000   -45.2850     8.8760     9.1370   142.7270
  595.5000   -45.2400     9.1850     9.5810   140.7930
  596.0000   -45.1940     9.4940    10.0260   140.1720
  596.5000   -45.1490     9.9510    10.5080   134.8900
  597.0000   -45.1030     9.8900    10.3970   125.7800
  597.5000   -45.0580     9.7710    10.2760   120.8630
  598.0000   -45.0120     9.6530    10.1540   121.6100
  598.5000   -44.9670     9.5350    10.0330   129.0960
  599.0000   -44.9210     9.4170     9.9120   136.0620
  599.5000   -44.8760     9.2980     9.7910   138.4130
  600.0000   -44.8300     9.1800     9.6700   138.6390
  600.5000   -44.7850     9.0620     9.5490   139.0920
  601.0000   -44.7390     8.9440     9.4280   139.8480
  601.5000   -44.6940     8.8260     9.3070   141.9610
  602.0000   -44.6480     8.7070     9.1860   141.5830
  602.5000   -44.6030     8.5890     9.0650   139.1740
  603.0000   -44.5570     8.4530     8.9260   139.7810
  603.5000   -44.5120     8.4530     8.8800   141.9100
  604.0000   -44.4660     8.4530     8.7790   143.8800
  604.5000   -44.4210     8.4540     8.6780   142.4220
  605.0000   -44.3750     8.4530     8.5780   140.3680
  605.5000   -44.3300     8.4530     8.4770   135.9320
  606.0000   -44.2840     8.4530     8.3760   133.5000
  606.5000   -44.2390     8.4530     8.2750   136.0250
  607.0000   -44.1930     8.4530     8.1740   137.1470
  607.5000   -44.1480     8.4530     8.0740   136.5620
  608.0000   -44.1020     8.4530     8.0060   136.5400
  608.5000   -44.0560     8.4530     7.9910   138.4950
  609.0000   -44.0110     8.4530     7.9750   146.9780
  609.5000   -43.9650     8.4530     7.9590   154.4460
  610.0000   -43.9200     8.4520     7.9440   158.0110
  610.5000   -43.8740     8.4530     7.9280   153.5090
  611.0000   -43.8290     8.4120     7.9120   148.8070
  611.5000   -43.7830     8.3580     7.8960   145.2910
  612.0000   -43.7380     8.3040     7.8810   148.1470
  612.5000   -43.6920     8.2510     7.8620   151.4970
  613.0000   -43.6470     8.1970     7.8200   149.7980
  613.5000   -43.6010     8.1430     7.7180   148.2230
  614.0000   -43.5560     8.0900     7.6150   147.9760
  614.5000   -43.5100     8.0360     7.5120   148.1720
  615.0000   -43.4650     8.0060     7.4100   147.7770
  615.5000   -43.4190     7.8230     7.3070   150.6610
  616.0000   -43.3740     7.6460     7.2040   155.7740
  616.5000   -43.3280     7.4700     7.1020   158.2400
  617.0000   -43.2830     7.2940     6.9990   155.6060
  617.5000   -43.2370     7.1180     6.8960   152.5770
  618.0000   -43.1920     6.9420     6.7940   151.8260
  618.5000   -43.1460     6.6780     6.6910   154.0770
  619.0000   -43.1010     6.7160     6.5580   151.4900
  619.5000   -43.0550     6.7920     6.6520   148.3670
  620.0000   -43.0100     6.8680     6.7850   145.3410
  620.5000   -42.9640     6.9440     6.9180   142.0710
  621.0000   -42.9190     7.0200     7.0520   139.1120
  621.5000   -42.8730     7.0960     7.1850   133.1970
  622.0000   -42.8280     7.1720     7.3180   126.2550
  622.5000   -42.7820     7.2480     7.4510   128.0240
  623.0000   -42.7370     7.4390     7.5840   137.8110
  623.5000   -42.6910     7.4270     7.7200   144.4550
  624.0000   -42.6450     7.4030     7.6450   148.7480
  624.5000   -42.6000     7.3790     7.5680   150.7130
  625.0000   -42.5540     7.3560     7.4910   147.9280
  625.5000   -42.5090     7.3320     7.4140   140.3250
  626.0000   -42.4630     7.3080     7.3370   133.0540
  626.5000   -42.4180     7.2840     7.2600   134.3490
  627.0000   -42.3720     7.2600     7.1820   137.9600
  627.5000   -42.3270     7.2360     7.1050   142.7890
  628.0000   -42.2810     7.2120     7.0280   143.7370
  628.5000   -42.2360     7.1800     6.9250   142.7320
  629.0000   -42.1900     7.2650     6.9980   141.9250
  629.5000   -42.1450     7.3940     7.2800   142.2600
  630.0000   -42.0990     7.5230     7.5610   143.6090
  630.5000   -42.0540     7.6520     7.8420   145.4880
  631.0000   -42.0080     7.7810     8.1520   147.1610
  631.5000   -41.9630     7.9100     8.1140   148.0260
  632.0000   -41.9170     8.0390     8.0720   143.1220
  632.5000   -41.8720     8.1520     8.0300   135.7860
  633.0000   -41.8260     8.1040     7.9870   135.6090
  633.5000   -41.7810     8.0380     7.9450   138.1880
  634.0000   -41.7350     7.9730     7.9030   140.9370
  634.5000   -41.6900     7.9070     7.8610   140.1050
  635.0000   -41.6440     7.8410     7.8180   136.0580
  635.5000   -41.5990     7.7750     7.7760   133.4240
  636.0000   -41.5530     7.7090     7.7340   133.6480
  636.5000   -41.5080     7.6430     7.6910   145.6780
  637.0000   -41.4620     7.5770     7.6490   151.8750
  637.5000   -41.4170     7.5110     7.6070   149.7210
  638.0000   -41.3710     7.4460     7.5800   143.5940
  638.5000   -41.3260     7.4260     7.5820   144.0340
  639.0000   -41.2800     7.4060     7.5820   144.1890
  639.5000   -41.2340     7.3860     7.5820   145.1350
  640.0000   -41.1890     7.3670     7.5820   148.6930
  640.5000   -41.1430     7.3470     7.5820   153.8420
  641.0000   -41.0980     7.3270     7.5820   153.2710
  641.5000   -41.0520     7.3080     7.5820   149.7970
  642.0000   -41.0070     7.2880     7.5820   146.6970
  642.5000   -40.9610     7.2690     7.5820   147.4750
  643.0000   -40.9160     7.2490     7.5820   148.2300
  643.5000   -40.8700     7.2290     7.5820   149.2480
  644.0000   -40.8250     7.2100     7.5820   149.3250
  644.5000   -40.7790     7.1890     7.5810   148.2880
  645.0000   -40.7340     7.1800     7.5810   149.0760
  645.5000   -40.6880     7.1810     7.5470   151.8310
  646.0000   -40.6430     7.1800     7.4980   151.8830
  646.5000   -40.5970     7.1800     7.4490   149.6280
  647.0000   -40.5520     7.1800     7.4000   147.8040
  647.5000   -40.5060     7.1800     7.3510   145.8830
  648.0000   -40.4610     7.1800     7.3030   146.5590
  648.5000   -40.4150     7.1800     7.2540   147.4250
  649.0000   -40.3700     7.1800     7.2050   148.2320
  649.5000   -40.3240     7.1810     7.1560   150.3580
  650.0000   -40.2790     7.1800     7.1070   154.3150
  650.5000   -40.2330     7.1810     7.0580   157.9930
  651.0000   -40.1880     7.1800     7.0100   157.9400
  651.5000   -40.1420     7.1800     6.9610   157.5320
  652.0000   -40.0970     7.1920     6.9250   156.6500
  652.5000   -40.0510     7.2340     6.9530   158.6580
  653.0000   -40.0060     7.2760     6.9850   154.2870
  653.5000   -39.9600     7.3190     7.0170   147.3760
  654.0000   -39.9140     7.3610     7.0510   145.4240
  654.5000   -39.8690     7.4030     7.2250   143.5150
  655.0000   -39.8230     7.4460     7.4120   142.7260
  655.5000   -39.7780     7.4890     7.5990   143.8130
  656.0000   -39.7320     7.5310     7.7870   148.6170
  656.5000   -39.6870     7.5820     7.8620   151.7600
