~VERSION INFORMATION
 VERS.                2.0:   CWLS LOG ASCII STANDARD - VERSION 2.0
 WRAP.                 NO:   ONE LINE PER DEPTH STEP
~WELL INFORMATION
#MNEM.UNIT      DATA TYPE    INFORMATION
#----------   ------------   ------------------------------
 STRT.F           95.0000:   START DEPTH
 STOP.F          866.5000:   STOP DEPTH
 STEP.F            0.5000:   STEP LENGTH
 NULL.          -999.2500:   NO VALUE
 COMP.          U.S. NAVY:   COMPANY
 WELL. U.S NAVY RES 3 TEAPOT DOM "SX" #41-2:   WELL
 FLD .        TEAPOT DOME:   FIELD
 LOC .       S2 T38N R78W:   LOCATION
 CNTY.            NATRONA:   COUNTY
 STAT.            WYOMING:   STATE
 CTRY. UNITED STATES OF AMERICA:   COUNTRY
 SRVC.       SCHLUMBERGER:   SERVICE COMPANY
 DATE.        20-JUL-1953:   LOGDATE
 API .     49025064770000:   API NUMBER
~CURVE INFORMATION
#MNEM.UNIT       API CODE    CURVE DESCRIPTION
#----------   ------------   ------------------------------
 DEPT.F                  :   
 SPR .MV     05 010 01 00:   SPONTANEOUS POTENTIAL FROM RES.
 ASN .OHMM   05 041 16 00:   AMPLIFIED SHORT NORMAL 16"
 ILD .OHMM   05 120 46 00:   INDUCTION LOG DEEP
 GR  .GAPI   30 310 01 00:   GAMMA RAY
~PARAMETER INFORMATION
#MNEM.UNIT          VALUE    DESCRIPTION
#----------   ------------   ------------------------------
 EKB .F         5140.0000:   Kelly bushing
 EGL .F         5135.0000:   Ground level
 TD  .F          862.0000:   Total depth
 DATE.        20-JUL-1953:   Date logged
 CLNT.            A2DTECH:   Client Code
 DD  .F               862:   Depth driller
 DL  .F               855:   Depth logger
 BLI .F               654:   Bottom log interval
 TLI .F                50:   Top log interval
 CS1 .IN            8.625:   Casing size
 CBD1.       8.625" @ 10':   Casing driller 1
 BS1 .IN             6.75:   Bit size
 BSD1.F               862:   Depth drilled with bit1
 DFT .            GEL-OIL:   Type fluid in hole
 DFD .                9.4:   Density
 DFV .                 50:   Viscosity
 DFPH.                8.0:   pH
 DFL .                3.1:   Fluid loss
 RMS .OHMM           1.83:   Rm
 MST .F                96:   Rm Meas. temp.
 RMF .OHMM           1.56:   Rmf
 MFST.F                96:   Rmf Meas. temp.
 TCS .HRS               1:   Time Circ. stopped
 LUN .               4507:   Logging unit number
 LUL .               CSPR:   Logging unit location
 ENGI.            WINKLER:   Recorded By
 WITN.          JORGENSON:   Witnessed by
 ORIG.           5" PRINT:   Origin of data
 UWI .     49025064770000:   Unique Well ID
 DICO. A2D TECHNOLOGIES, INC.:   Digitizing Company
 MSS .           FLOWLINE:   Source of sample
~OTHER INFORMATION
~A  DEPTH      SPR        ASN        ILD         GR
# ...
  752.0000   -50.0298    10.7663    10.0808    85.8420
  752.5000   -50.0374    11.1377    10.4554    82.8614
  753.0000   -50.0458    11.4337    10.6807    81.5201
  753.5000   -50.0530    11.5066    10.6076    84.6498
  754.0000   -49.9107    11.5780    10.4595    83.9046
  754.5000   -49.7687    11.6500    10.3117    79.1356
  755.0000   -49.7771    11.7219    10.2386    78.6885
  755.5000   -49.6343    11.7934    10.2405    81.3711
  756.0000   -49.6439    11.9401    10.4658    79.2847
  756.5000   -49.5012    12.2361    10.8404    77.3472
  757.0000   -49.5096    12.8320    11.9613    70.7899
  757.5000   -49.6656    13.8770    14.0525    66.7660
  758.0000   -50.1205    15.5957    16.5913    53.0551
  758.5000   -51.0206    18.2120    18.0107    50.3726
  759.0000   -52.9623    19.9307    19.0569    47.5410
  759.5000   -56.0946    21.5745    20.1031    39.6423
  760.0000   -58.9292    24.7153    21.5971    38.7481
  760.5000   -62.8055    27.1824    22.4941    41.7288
  761.0000   -64.5996    26.9550    22.6450    42.0268
  761.5000   -64.9032    25.0055    22.4224    41.5797
  762.0000   -64.3164    24.7031    22.1253    45.6036
  762.5000   -62.8356    24.6259    21.8283    46.9449
  763.0000   -63.1404    25.3710    21.7551    48.2861
  763.5000   -64.7846    27.0148    22.0553    43.8152
  764.0000   -65.9835    28.2095    23.1018    42.3249
  764.5000   -65.9907    28.7300    24.0734    42.9210
  765.0000   -65.6991    29.6253    24.8957    45.1565
  765.5000   -66.0052    31.3440    25.7181    47.8390
  766.0000   -66.3100    33.1375    26.5343    46.3487
  766.5000   -67.3601    34.3321    27.4374    44.4113
  767.0000   -68.2602    35.3018    28.6331    43.9642
  767.5000   -68.7138    35.4496    30.0525    44.2623
  768.0000   -68.2747    35.5959    31.3226    45.9016
  768.5000   -67.0914    36.8649    31.7718    46.6468
  769.0000   -66.7998    38.2093    31.6984    45.3055
  769.5000   -68.4464    39.2543    31.5506    41.4307
  770.0000   -69.7929    39.9246    32.2986    37.5559
  770.5000   -70.2465    39.9975    33.5689    38.4501
  771.0000   -69.8073    39.4696    33.8689    40.6855
  771.5000   -68.7729    38.6434    33.1241    42.7720
  772.0000   -68.7801    37.7423    31.8569    46.6468
  772.5000   -68.6397    36.7663    30.9628    45.3055
  773.0000   -68.0517    35.2659    29.3971    49.3294
  773.5000   -68.5054    34.2899    29.0998    54.6945
  774.0000   -69.4055    33.8379    29.0266    55.4396
  774.5000   -68.3710    32.4128    29.1032    54.5455
  775.0000   -67.1878    32.1105    28.6569    56.4829
  775.5000   -66.0058    31.8082    27.6136    58.2712
  776.0000   -66.3106    30.9066    26.5703    57.3770
  776.5000   -67.8059    28.6582    25.3031    58.8674
  777.0000   -68.5572    26.9337    22.5436    57.9732
  777.5000   -67.8204    25.6584    21.2017    59.9106
  778.0000   -66.0431    23.6345    20.0092    57.2280
  778.5000   -65.4551    22.3591    19.1897    57.8241
  779.0000   -64.7183    21.1581    18.5942    60.5067
  779.5000   -63.0886    19.8828    17.8493    63.0402
  780.0000   -60.5661    19.3559    16.9555    57.5261
  780.5000   -58.7876    18.9039    16.2853    54.2474
  781.0000   -58.1984    18.5267    15.8388    54.5455
  781.5000   -58.2080    18.0747    15.5417    53.2042
  782.0000   -58.3641    17.7719    15.4686    49.1803
  782.5000   -58.5201    17.5444    15.5449    49.4784
  783.0000   -58.8249    17.5415    15.7702    50.0745
  783.5000   -59.1298    17.5386    15.9958    46.9449
  784.0000   -59.4358    17.6110    16.2958    50.0745
  784.5000   -59.5919    17.7574    16.5211    53.2042
  785.0000   -59.8967    17.8298    16.7464    55.1416
  785.5000   -60.3504    17.9761    17.0464    54.0984
  786.0000   -61.1017    18.1229    17.3464    53.5022
  786.5000   -62.3006    18.1195    17.4973    53.5022
  787.0000   -62.4554    18.1166    17.5734    54.8435
  787.5000   -61.7198    17.9640    17.5748    57.6751
  788.0000   -60.5366    17.8109    17.4268    61.2519
  788.5000   -59.6509    17.6582    17.3536    62.5931
  789.0000   -59.2117    17.5056    17.1312    60.5067
  789.5000   -59.0714    17.3530    16.9836    59.6125
  790.0000   -59.0786    17.2004    16.8358    60.8048
  790.5000   -59.0718    17.1222    16.6867    56.3338
  791.0000   -58.7942    16.9695    16.5402    54.5455
  791.5000   -58.3562    16.8169    16.4671    55.8867
  792.0000   -58.0658    16.6643    16.3193    58.5693
  792.5000   -57.9231    16.4951    16.0225    60.5067
  793.0000   -57.7815    16.2842    15.6510    62.1460
  793.5000   -57.9399    15.9814    15.3540    62.5931
  794.0000   -58.3936    15.7540    15.0463    60.2086
  794.5000   -58.8472    15.5265    14.6106    59.9106
  795.0000   -59.0033    15.2991    14.3136    57.0790
  795.5000   -59.1605    15.0716    14.0909    57.9732
  796.0000   -59.0165    14.9190    13.8687    59.3145
  796.5000   -58.7273    14.7659    13.7212    54.2474
  797.0000   -58.1405    14.6886    13.6477    53.8003
  797.5000   -57.7001    14.6104    13.5748    54.2474
  798.0000   -57.4098    14.6075    13.5016    53.9493
  798.5000   -57.1218    14.5297    13.5031    53.6513
  799.0000   -56.9778    14.6021    13.5792    54.8435
  799.5000   -56.9874    14.5982    13.7301    56.0358
  800.0000   -57.2817    14.5953    13.8807    56.4829
  800.5000   -57.5924    14.3006    14.0286    55.7377
  801.0000   -57.5958    14.0797    13.9521    56.7809
  801.5000   -57.4489    13.9330    13.7268    61.2519
  802.0000   -57.0063    13.7875    13.4266    62.8912
  802.5000   -56.4139    13.6421    13.2759    63.7854
  803.0000   -55.8215    13.4954    13.1914    61.9970
  803.5000   -55.0808    13.3499    13.0491    60.9538
  804.0000   -54.6368    13.2545    12.9731    62.7422
  804.5000   -54.1932    13.1325    12.8967    62.2951
  805.0000   -53.7497    13.0607    12.7460    60.8048
  805.5000   -53.1578    12.9159    12.7448    60.2086
  806.0000   -52.7147    12.8731    12.6685    49.3294
  806.5000   -52.5683    12.7317    12.6671    49.3294
  807.0000   -52.4224    12.5525    12.4415  -999.2500
  807.5000   -52.4257    12.5567    12.2162  -999.2500
  808.0000   -52.4291    12.5603    12.0655  -999.2500
  808.5000   -52.7296    12.4885    11.8402  -999.2500
  809.0000   -52.8813    12.4927    11.6896  -999.2500
  809.5000   -52.5865    12.3472    11.5388  -999.2500
  810.0000   -52.2913    12.2760    11.4625  -999.2500
  810.5000   -51.6999    12.2042    11.3866  -999.2500
  811.0000   -51.3877    12.1205    11.3103  -999.2500
  811.5000   -50.9616    11.9868    11.2343  -999.2500
  812.0000   -50.8152    11.9156    11.2326  -999.2500
  812.5000   -50.5204    11.7707    11.1565  -999.2500
  813.0000   -50.3754    11.7744    11.1551  -999.2500
  813.5000   -50.2290    11.7025    11.0791  -999.2500
  814.0000   -49.9348    11.7067    11.0775  -999.2500
  814.5000   -49.8828    11.7110    11.0759  -999.2500
  815.0000   -49.6429    11.6385    11.0745  -999.2500
  815.5000   -49.4888    11.5685    11.0731  -999.2500
  816.0000   -49.3229    11.5721    11.0716  -999.2500
  816.5000   -49.2054    11.5015    11.0701  -999.2500
  817.0000   -49.0591    11.4303    11.0684  -999.2500
  817.5000   -49.2113    11.4339    11.0670  -999.2500
  818.0000   -49.0658    11.3620    11.0655  -999.2500
  818.5000   -49.0687    11.3660    10.9895  -999.2500
  819.0000   -49.0716    11.2944    10.8385  -999.2500
  819.5000   -48.6285    11.2993    10.7624  -999.2500
  820.0000   -47.5897    11.3024    10.6117  -999.2500
  820.5000   -46.8485    11.3061    10.5358  -999.2500
  821.0000   -47.0002    11.3101    10.4596  -999.2500
  821.5000   -47.3007    11.3143    10.3835  -999.2500
  822.0000   -47.1553    11.3174    10.3072  -999.2500
  822.5000   -46.8605    11.3211    10.3060  -999.2500
  823.0000   -46.3877    11.2503    10.3043  -999.2500
  823.5000   -45.6758    11.2540    10.3030  -999.2500
  824.0000   -44.6375    11.2576    10.3015  -999.2500
  824.5000   -43.8963    11.2629    10.3746  -999.2500
