~VERSION INFORMATION
 VERS.                2.0:   CWLS LOG ASCII STANDARD - VERSION 2.0
 WRAP.                 NO:   ONE LINE PER DEPTH STEP
~WELL INFORMATION
#MNEM.UNIT      DATA TYPE    INFORMATION
#----------   ------------   ------------------------------
 STRT.F          200.0000:   START DEPTH
 STOP.F         3196.5000:   STOP DEPTH
 STEP.F            0.5000:   STEP LENGTH
 NULL.          -999.2500:   NO VALUE
 COMP.    FENIX & SCISSON:   COMPANY
 WELL. FENIX & SCISSON #82-15:   WELL
 FLD .                NPR:   FIELD
 LOC .      S15 T38N R78W:   LOCATION
 CNTY.            NATRONA:   COUNTY
 STAT.            WYOMING:   STATE
 CTRY. UNITED STATES OF AMERICA:   COUNTRY
 SRVC.              WELEX:   SERVICE COMPANY
 DATE.        14-AUG-1977:   LOGDATE
 API .     49025104100000:   API NUMBER
~CURVE INFORMATION
#MNEM.UNIT       API CODE    CURVE DESCRIPTION
#----------   ------------   ------------------------------
 DEPT.F                  :   
 CALD.IN     45 280 60 00:   CALIPER FROM DENSITY LOG
 GRD .GAPI   45 310 01 00:   GAMMA RAY FROM DENSITY LOG
 RHOB.G/C3   45 350 01 00:   BULK DENSITY
 CORR.G/C3   45 356 01 00:   DENSITY CORRECTION
 SPR .MV     07 010 01 00:   SPONTANEOUS POTENTIAL
 ILD .OHMM   07 120 46 00:   DEEP INDUCTION RESISTIVITY
 ILM .OHMM   07 120 44 00:   INDUCTION LOG MEDIUM RESISTIVITY
 GURD.OHMM   07 220 05 00:   GUARD LOG RESISTIVITY
~PARAMETER INFORMATION
#MNEM.UNIT          VALUE    DESCRIPTION
#----------   ------------   ------------------------------
 EKB .F         5259.0000:   Kelly bushing
 EGL .F         5249.0000:   Ground level
 EDF .F            0.0000:   Drilling floor
 EPD .F            0.0000:   Permanent datum
 TD  .F         3197.0000:   Total depth
 CLNT.            A2DTECH:   Client Code
 SL  . 990' FNL & 330' FEL:   Surface Location
 PD  .                 GL:   Permanent Datum
 DAPD.F                10:   Feet Above Permanent Datum
 DATE.        14-AUG-1977:   Date Logged [DD-MMM-YYYY]
 DD  .F              3197:   Depth driller
 DL  .F              3200:   Depth logger
 BLI .F              3198:   Bottom log interval
 TLI .F               200:   Top log interval
 CS1 .IN            8.625:   Casing size
 CBD1.      8.625" @ 236':   Casing driller 1
 CBL1.F               220:   Casing logger 1
 BS1 .IN            7.875:   Bit size
 BSD1.F              3197:   Depth drilled with bit1
 DFT .            KCL MUD:   Type fluid in hole
 DFD .                9.1:   Density
 DFV .                 42:   Viscosity
 DFPH.               10.5:   pH
 DFL .                7.2:   Fluid loss
 MSS .           FLOWLINE:   Source of sample
 RMS .OHMM          0.240:   Rm
 MST .F                92:   Rm Meas. temp.
 RMF .OHMM          0.160:   Rmf
 MFST.F                92:   Rmf Meas. temp.
 MFSS.               MEAS:   Source Rmf.
 RMC .OHMM          0.238:   Rmc
 MCST.F                92:   Rmc Meas. temp.
 MCSS.               MEAS:   Source Rmc.
 RMB .OHMM          0.194:   Rm. at BHT
 BHT .F               114:   BHT.
 TCS .HRS               3:   Time Circ. stopped
 MRT .F               114:   Maximum recorded temp.
 LUN .               9685:   Logging unit number
 LUL .             CASPER:   Logging unit location
 ENGI.            C. DOAK:   Recorded By
 WITN.      W. PETTINGILL:   Witnessed by
 ORIG.           5" PRINT:   Origin of data
 UWI .     49025104100000:   Unique Well ID
 DICO. A2D TECHNOLOGIES, INC.:   Digitizing Company
~OTHER INFORMATION
~A   DEPT       CALD       GRD        RHOB      CORR       SPR        ILD        ILM       GURD   
# ...
  969.5000    14.1636   103.0821     2.4723     0.0157   -63.5746     6.1004     6.8991     6.1846
  970.0000    14.1951   103.0893     2.4746     0.0204   -63.5573     6.2325     7.1474     6.1883
  970.5000    14.2114   103.3950     2.4799     0.0250   -63.7000     6.2367     7.1021     6.1492
  971.0000    14.2427   103.7006     2.4859     0.0266   -63.8216     6.1979     7.0096     6.1106
  971.5000    14.2740   104.0062     2.4897     0.0253   -63.7999     6.2021     6.7305     6.1569
  972.0000    14.2903   103.5623     2.4890     0.0254   -63.6331     6.2064     6.4614     6.2042
  972.5000    14.3216   103.1183     2.4830     0.0240   -63.4663     6.2980     6.2895     6.2946
  973.0000    14.3245   103.1255     2.4768     0.0226   -63.4489     6.3023     6.2087     6.3862
  973.5000    14.3395   103.1313     2.4724     0.0228   -63.4316     6.3065     6.2133     6.4792
  974.0000    14.3408   103.1371     2.4674     0.0229   -63.1072     6.2230     6.2611     6.6192
  974.5000    14.3268   103.1429     2.4644     0.0246   -62.4958     6.3150     6.3093     6.6692
  975.0000    14.2981   103.1487     2.4712     0.0264   -62.3289     6.4966     6.4466     6.7663
  975.5000    14.2844   103.1545     2.4712     0.0323   -62.1621     6.5916     6.4962     6.8176
  976.0000    14.2640   103.3103     2.4694     0.0361   -62.1448     6.6880     6.5916     6.8226
  976.5000    14.2574   103.6173     2.4694     0.0416   -62.1275     6.6926     6.5965     6.8267
  977.0000    14.2590   103.7730     2.4743     0.0462   -62.1102     6.6519     6.5506     6.8309
  977.5000    14.2601   104.0786     2.4826     0.0463   -62.2423     6.5196     6.3386     6.7868
  978.0000    14.2766   104.2343     2.4893     0.0480   -62.5196     6.3459     6.1700     6.6985
  978.5000    14.2779   104.3900     2.4931     0.0511   -62.9507     6.2187     6.1746     6.6104
  979.0000    14.2792   104.0960     2.4924     0.0527   -63.3818     6.1800     6.1354     6.5234
  979.5000    14.2955   103.1839     2.4902     0.0574   -63.5183     6.1852     6.0975     6.5275
  980.0000    14.3118   103.0581     2.4848     0.0575   -63.4966     6.1466     6.1032     6.5323
  980.5000    14.3135   103.2152     2.4797     0.0546   -63.3298     6.1508     6.1077     6.4901
  981.0000    14.3148   103.3695     2.4753     0.0518   -63.1629     6.1551     6.1548     6.4950
  981.5000    14.3011   103.2254     2.4719     0.0519   -63.2951     6.1601     6.1168     6.4989
  982.0000    14.2574   102.7828     2.4701     0.0475   -63.2735     6.1643     6.1224     6.5029
  982.5000    14.1837   101.1395     2.4731     0.0402   -63.2561     6.1684     6.1270     6.5068
  983.0000    14.1251   100.0770     2.4776     0.0344   -63.2407     6.2154     6.2170     6.5108
  983.5000    14.0814  -999.2500     2.4784     0.0285   -63.0720     6.2196     6.2216     6.5148
  984.0000    14.0231  -999.2500     2.4747     0.0241   -63.0547     6.2238     6.3131     6.5196
  984.5000    13.9944  -999.2500     2.4687     0.0228   -63.0373     6.3148     6.4059     6.5235
  985.0000    13.9657  -999.2500     2.4613     0.0232   -63.0194     6.3191     6.3224     6.5275
  985.5000    13.9517  -999.2500     2.4553     0.0261   -62.9983     6.3235     6.3732     6.5314
  986.0000    13.9383  -999.2500     2.4471     0.0262   -62.9810     6.3726     6.4203     6.5354
  986.5000    13.9396  -999.2500     2.4344     0.0263   -62.9637     6.3769     6.4261     6.5393
  987.0000    13.9559  -999.2500     2.4397     0.0264   -62.9477     6.3812     6.3865     6.5433
  987.5000    13.9573  -999.2500     2.4337     0.0279   -62.9290     6.3855     6.3459     6.5474
  988.0000    13.9738  -999.2500     2.4277     0.0298   -62.6127     6.3898     6.3068     6.5522
  988.5000    13.9751   198.2061     2.4338     0.0329   -62.5780     6.4385     6.2679     6.6017
  989.0000    13.9764   197.5266     2.4458     0.0375   -62.4243     6.5326     6.2737     6.6057
  989.5000    13.9777   195.3945     2.4570     0.0421   -62.4069     6.5370     6.2784     6.6097
  990.0000    13.9791   191.0651     2.4699     0.0437   -62.5434     6.5415     6.2831     6.6137
  990.5000    13.9728   186.8787     2.4736     0.0379   -62.8250     6.5924     6.2888     6.6177
  991.0000    13.9724   182.5889     2.4729     0.0350   -62.9572     6.5968     6.2069     6.7141
  991.5000    13.9833   178.2091     2.4703     0.0321   -63.0852     6.6013     6.2115     6.7658
  992.0000    13.9996   176.7215     2.4669     0.0323   -63.3666     6.6057     6.1732     6.7699
  992.5000    14.0309   166.2383     2.4662     0.0309   -63.3450     6.6561     6.1340     6.7739
  993.0000    14.0472   155.1554     2.4670     0.0326   -63.3276     6.6605     6.0135     6.7780
  993.5000    14.0785   145.5718     2.4717     0.0342   -63.3103     6.6650     5.9762     6.7821
  994.0000    14.0798   132.3900     2.4761     0.0373   -63.2930     6.6695     5.9395     6.7862
  994.5000    14.0811   112.9954     2.4768     0.0389   -63.2756     6.6741     5.9440     6.7903
  995.0000    14.0827   105.1296     2.4739     0.0391   -63.2583     6.6796     5.9073     6.7945
  995.5000    14.0840   103.3392     2.4694     0.0362   -63.2407     6.6841     5.9539     6.7996
  996.0000    14.0703   103.9534     2.4627     0.0319   -63.2193     6.6886     6.0414     6.8037
  996.5000    14.0716   104.8646     2.4567     0.0275   -63.2020     6.6000     6.1302     6.8078
  997.0000    14.0729   105.1760     2.4522     0.0246   -63.0352     6.6056     6.2203     6.7639
  997.5000    14.0742   105.1876     2.4508     0.0218   -63.0178     6.6100     6.1393     6.7690
  998.0000    14.0756   105.8271     2.4535     0.0204   -63.1500     6.6145     6.0174     6.6797
  998.5000    14.0618   107.3125     2.4583     0.0221   -63.1327     6.6190     5.9801     6.6839
  999.0000    14.0635   107.3241     2.4621     0.0237   -63.4143     6.6235     6.0265     6.6382
  999.5000    14.0495   104.9369     2.4636     0.0268   -63.5464     6.5833     6.1161     6.5092
 1000.0000    14.0267   103.4464     2.4644     0.0262   -63.0778     6.4961     6.0773     6.6506
 1000.5000    13.9706   105.2161     2.4690     0.0214   -62.9109     6.5009     6.2091     6.5182
 1001.0000    13.9186   105.9120     2.4616     0.0167   -63.0434     6.4603     6.2137     6.4775
 1001.5000    13.9049   105.3411     2.4619     0.0109   -63.3246     6.4657     6.2174     6.4371
 1002.0000    13.9216   104.7630     2.4716     0.0141   -63.6313     6.2934     6.2644     6.3970
 1002.5000    13.9229   104.7990     2.4732     0.0172   -64.0328     6.2976     6.3118     6.4023
 1003.0000    13.9242   106.0273     2.4725     0.0174   -64.4682     6.3018     6.2287     6.3624
 1003.5000    13.9255   107.2924     2.4726     0.0190   -64.7498     6.3060     6.2325     6.3667
 1004.0000    13.8821   108.1911     2.4742     0.0177   -65.0314     6.2616     6.2363     6.4152
 1004.5000    13.8084   107.9201     2.4818     0.0178   -65.0096     6.2719     6.1969     6.4195
 1005.0000    13.7648   107.6418     2.4913     0.0225   -64.9922     6.3197     6.1588     6.4283
 1005.5000    13.6911   108.2776     2.5000     0.0301   -64.9746     6.4566     6.1625     6.5188
 1006.0000    13.6624   108.6063     2.5128     0.0362   -64.9531     6.5058     6.1663     6.5232
 1006.5000    13.6637   107.4357     2.4964     0.0319   -64.7863     6.5101     6.1700     6.5729
 1007.0000    13.6801   107.4717     2.4830     0.0216   -64.6194     6.5145     6.1737     6.5773
 1007.5000    13.6966   107.5006     2.4704     0.0127   -64.6020     6.5190     6.1774     6.6274
 1008.0000    13.7279   107.8293     2.4577     0.0037   -64.4351     6.5243     6.0961     6.6318
 1008.5000    13.7442   108.1579     2.4438    -0.0049   -64.4177     6.5287     5.9332     6.6364
 1009.0000    13.7455   108.7865     2.4295    -0.0033   -64.5501     6.5330     5.8551     6.6418
 1009.5000    13.7618   109.1154     2.4236     0.0014   -64.5325     6.5374     5.8191     6.5538
