~VERSION INFORMATION
 VERS.                2.0:   CWLS LOG ASCII STANDARD - VERSION 2.0
 WRAP.                 NO:   ONE LINE PER DEPTH STEP
~WELL INFORMATION
#MNEM.UNIT      DATA TYPE    INFORMATION
#----------   ------------   ------------------------------
 STRT.F          212.0000:   START DEPTH
 STOP.F         3042.0000:   STOP DEPTH
 STEP.F            0.5000:   STEP LENGTH
 NULL.          -999.2500:   NO VALUE
 COMP.    FENIX & SCISSON:   COMPANY
 WELL.   FENIX "A" #74-28:   WELL
 FLD .             NPR #3:   FIELD
 LOC .      S28 T39N R78W:   LOCATION
 CNTY.            NATRONA:   COUNTY
 STAT.            WYOMING:   STATE
 CTRY. UNITED STATES OF AMERICA:   COUNTRY
 SRVC.              WELEX:   SERVICE COMPANY
 DATE.        03-AUG-1977:   LOGDATE
 API .     49025104080000:   API NUMBER
~CURVE INFORMATION
#MNEM.UNIT       API CODE    CURVE DESCRIPTION
#----------   ------------   ------------------------------
 DEPT.F                  :   
 SPR .MV     07 010 01 00:   SPONTANEOUS POTENTIAL
 ILD .OHMM   07 120 46 00:   INDUCTION LOG DEEP RESISTIVITY
 ILM .OHMM   07 120 44 00:   INDUCTION LOG MEDIUM RESISTIVITY
 SFLU.OHMM   07 220 01 00:   SPHERICALLY FOCUSED LOG UNAVERAGED RESISTIVITY
 CALD.IN     45 280 60 00:   CALIPER FROM DENSITY LOG
 GRD .GAPI   45 310 01 00:   GAMMA RAY FROM DENSITY LOG
 CORR.G/C3   45 356 01 00:   DENSITY CORRECTION
 RHOB.G/C3   45 350 01 00:   BULK DENSITY
~PARAMETER INFORMATION
#MNEM.UNIT          VALUE    DESCRIPTION
#----------   ------------   ------------------------------
 EKB .F         5050.0000:   Kelly bushing
 EGL .F         5040.0000:   Ground level
 EDF .F            0.0000:   Drilling floor
 TD  .F         3044.0000:   Total depth
 DATE.        03-AUG-1977:   Date logged
 CLNT.            A2DTECH:   Client Code
 SL  . 2310' FNL & 930' FEL:   Surface Location
 PD  .                 GL:   Permanent Datum
 EPD .F              5040:   Elevation Permanent Datum
 LMF .                 KB:   Log Measured From
 DMF .                 KB:   Drilling Measured From
 DAPD.F                10:   Feet Above Permanent Datum
 DD  .F              3044:   Depth driller
 DL  .F              3044:   Depth logger
 BLI .F              3042:   Bottom log interval
 TLI .F               238:   Top log interval
 CS1 .IN            8.625:   Casing size
 CBD1.      8.625" @ 220':   Casing driller 1
 CBL1.F               238:   Casing logger 1
 BS1 .IN            7.875:   Bit size
 BSD1.F              3044:   Depth drilled with bit1
 DFT .            KCL MUD:   Type fluid in hole
 DFV .                 35:   Viscosity
 DFPH.               10.5:   pH
 DFL .                7.2:   Fluid loss
 MSS .           FLOWLINE:   Source of sample
 RMS .OHMM           1.13:   Rm
 MST .F                84:   Rm Meas. temp.
 RMF .OHMM           0.77:   Rmf
 MFST.F                70:   Rmf Meas. temp.
 MFSS.           FANN KIT:   Source Rmf.
 MCSS.           FANN KIT:   Source Rmc.
 RMB .OHMM            .82:   Rm. at BHT
 BHT .F               118:   BHT.
 TCS .HRS               7:   Time Circ. stopped
 MRT .F               116:   Maximum recorded temp.
 LUN .               8611:   Logging unit number
 LUL .             CASPER:   Logging unit location
 ENGI.            C. DOAK:   Recorded By
 WITN.      W. PETTINGILL:   Witnessed by
 ORIG.         2.5" PRINT:   Origin of data
 UWI .     49025104080000:   Unique Well ID
 DICO. A2D TECHNOLOGIES, INC.:   Digitizing Company
~OTHER INFORMATION
~A   DEPT      SPR        ILD        ILM       SFLU         CALD       GRD       CORR        RHOB 
# ...
 1508.0000   -54.5680     6.4150     7.5150    10.5120     9.1310   123.5680     0.0230     2.4800
 1508.5000   -54.4930     6.4430     7.5150    10.5120     9.1360   123.7900     0.0230     2.4840
 1509.0000   -54.4170     6.4720     7.5150    10.5120     9.1420   124.0340     0.0220     2.4940
 1509.5000   -54.3410     6.4360     7.5150    11.1710     9.1480   124.1160     0.0280     2.5110
 1510.0000   -54.2650     6.3990     7.5150    10.7560     9.1540   124.5720     0.0340     2.5280
 1510.5000   -54.1890     6.3610     7.5150    10.1270     9.1600   125.0220     0.0400     2.5390
 1511.0000   -54.1120     6.3230     7.5150    10.4980     9.1650   125.5600     0.0450     2.5350
 1511.5000   -54.0380     6.2850     7.5150    10.9110     9.1710   124.1620     0.0420     2.5250
 1512.0000   -53.9580     6.2470     7.5150    10.7310     9.1770   121.8330     0.0380     2.5150
 1512.5000   -53.8880     6.2100     7.5150    10.1610     9.1830   119.6210     0.0340     2.5040
 1513.0000   -53.8110     6.1720     7.5150     9.7820     9.1890   117.7650     0.0310     2.4990
 1513.5000   -53.9350     6.1340     7.5150     9.8710     9.1930   118.6820     0.0270     2.4940
 1514.0000   -54.0850     6.1210     7.5150     9.9600     9.1930   120.3770     0.0230     2.4890
 1514.5000   -54.2410     6.1220     7.5150    10.0490     9.1930   122.0050     0.0190     2.4900
 1515.0000   -54.3880     6.1220     7.5150    10.1380     9.1930   123.5830     0.0220     2.4960
 1515.5000   -54.5460     6.1220     7.5150    10.2270     9.1930   125.1130     0.0280     2.5020
 1516.0000   -54.6040     6.1220     7.5150    10.3150     9.1930   127.0440     0.0330     2.5080
 1516.5000   -54.5950     6.1220     7.5150    10.4040     9.1930   125.7670     0.0380     2.5130
 1517.0000   -54.5280     6.1220     7.5150    10.4930     9.1930   123.0340     0.0380     2.5200
 1517.5000   -54.4590     6.1220     7.5150    10.5120     9.1930   120.2920     0.0380     2.5270
 1518.0000   -54.3870     6.1220     7.5150    10.5120     9.1930   120.2440     0.0380     2.5260
 1518.5000   -54.3180     6.1220     7.5150    10.5120     9.1930   120.2980     0.0380     2.5210
 1519.0000   -54.2420     6.1220     7.5150    10.5120     9.1930   120.5190     0.0380     2.5170
 1519.5000   -54.1860     6.1220     7.5150    10.5120     9.1930   120.6230     0.0380     2.5130
 1520.0000   -54.1590     6.1210     7.5150    10.5120     9.1930   120.7760     0.0380     2.5080
 1520.5000   -54.1270     6.1360     7.5150    10.5120     9.1930   120.9210     0.0380     2.5030
 1521.0000   -54.0950     6.1820     7.5140    10.5120     9.1930   121.0560     0.0380     2.4990
 1521.5000   -54.0640     6.2270     7.5280    10.5110     9.1930   121.2050     0.0380     2.5010
 1522.0000   -54.0330     6.2730     7.5720    10.5120     9.1930   121.3480     0.0380     2.5030
 1522.5000   -54.0010     6.3190     7.6160    10.5340     9.1930   121.4700     0.0380     2.5050
 1523.0000   -53.9700     6.3650     7.6600    10.6100     9.1930   121.6820     0.0340     2.5020
 1523.5000   -53.9390     6.4110     7.7040    10.7050     9.1930   121.1870     0.0300     2.4970
 1524.0000   -53.9070     6.4720     7.7460    10.5750     9.1930   120.2080     0.0270     2.4920
 1524.5000   -53.8760     6.4610     7.7970    10.3180     9.1930   119.3090     0.0230     2.4870
 1525.0000   -53.8440     6.4390     7.7830    10.4510     9.1930   118.3900     0.0190     2.4830
 1525.5000   -53.8130     6.4170     7.7650    10.7800     9.1930   117.6770     0.0150     2.4800
 1526.0000   -53.7820     6.3950     7.7440    11.1170     9.1930   117.2900     0.0140     2.4790
 1526.5000   -53.7500     6.3730     7.7250    10.7110     9.1900   116.7680     0.0180     2.4880
 1527.0000   -53.7190     6.3520     7.7060    10.2960     9.1620   116.2810     0.0220     2.5000
 1527.5000   -53.6880     6.3300     7.6880     9.9400     9.1390   115.7650     0.0250     2.5050
 1528.0000   -53.6560     6.3090     7.6690    10.0890     9.1130   115.3040     0.0290     2.5090
 1528.5000   -53.6250     6.2870     7.5130    10.2900     9.0880   115.3780     0.0320     2.5130
 1529.0000   -53.5940     6.2650     7.5170    10.5120     9.0630   116.6970     0.0340     2.5150
 1529.5000   -53.5620     6.2430     7.5130    10.1930     9.0380   117.8510     0.0340     2.5150
 1530.0000   -53.5310     6.2360     7.5160     9.9470     9.0320   119.0780     0.0340     2.5140
 1530.5000   -53.5000     6.2370     7.5140     9.9730     9.0320   120.2680     0.0340     2.5130
 1531.0000   -53.4680     6.2370     7.5150     9.9990     9.0320   121.4610     0.0340     2.5110
 1531.5000   -53.4380     6.2370     7.5150    10.0240     9.0320   122.6750     0.0340     2.5120
 1532.0000   -53.4000     6.2370     7.5150    10.0500     9.0320   123.8690     0.0340     2.5130
 1532.5000   -53.4300     6.2370     7.5150    10.0760     9.0320   124.8610     0.0340     2.5150
 1533.0000   -53.5050     6.2370     7.5150    10.1010     9.0320   124.6820     0.0340     2.5120
 1533.5000   -53.5780     6.2370     7.5150    10.1270     9.0320   124.4080     0.0340     2.5090
 1534.0000   -53.6500     6.2370     7.5150     9.9500     9.0320   124.1170     0.0340     2.5050
 1534.5000   -53.7240     6.2370     7.5150     9.6500     9.0320   124.1520     0.0300     2.5010
 1535.0000   -53.7970     6.2370     7.5150     9.3990     9.0320   124.8170     0.0270     2.4960
 1535.5000   -53.8700     6.2370     7.5150     9.6560     9.0320   125.4310     0.0240     2.4910
 1536.0000   -53.9440     6.2370     7.5150     9.8830     9.0320   126.0710     0.0210     2.4890
 1536.5000   -54.0170     6.2370     7.5150    10.1160     9.0320   126.7030     0.0170     2.4880
 1537.0000   -54.0890     6.2370     7.5160    10.3490     9.0320   127.3330     0.0140     2.4880
 1537.5000   -54.1670     6.2370     7.5150    10.5300     9.0320   127.9460     0.0170     2.4870
 1538.0000   -54.1960     6.2370     7.5150    10.5910     9.0320   128.6560     0.0230     2.4930
 1538.5000   -54.1740     6.2370     7.5580    10.6530     9.0320   128.5750     0.0290     2.5010
 1539.0000   -54.1590     6.2370     7.7100    10.7100     9.0320   127.7030     0.0340     2.5090
 1539.5000   -54.1430     6.2370     7.9470     9.7560     9.0320   126.9280     0.0400     2.5170
 1540.0000   -54.1260     6.2370     7.9000    10.0330     9.0320   126.0910     0.0450     2.5260
 1540.5000   -54.1100     6.2370     7.7930    10.5030     9.0320   125.6740     0.0500     2.5290
 1541.0000   -54.0930     6.2370     7.6860    10.4660     9.0320   126.0050     0.0490     2.5270
 1541.5000   -54.0770     6.2460     7.5150    10.4300     9.0320   126.1990     0.0470     2.5260
 1542.0000   -54.0600     6.2870     7.5470    10.3930     9.0320   126.4280     0.0460     2.5250
 1542.5000   -54.0440     6.3290     7.6270    10.3560     9.0320   125.0010     0.0440     2.5220
 1543.0000   -54.0270     6.3710     7.7060    10.3180     9.0320   123.2780     0.0430     2.5190
 1543.5000   -54.0110     6.4130     7.7860    10.5980     9.0320   121.4300     0.0410     2.5250
 1544.0000   -53.9940     6.4550     7.8660    11.3260     9.0320   121.5820     0.0400     2.5290
 1544.5000   -53.9780     6.4740     7.9460    11.0550     9.0320   124.7120     0.0390     2.5170
 1545.0000   -53.9610     6.4740     8.0260    10.5120     9.0320   125.7400     0.0370     2.5050
 1545.5000   -53.9450     6.4730     8.0970    10.7410     9.0320   125.5500     0.0350     2.5040
 1546.0000   -53.9280     6.4740     7.8520    11.1170     9.0320   125.4550     0.0330     2.5030
 1546.5000   -53.9120     6.4740     7.6310    10.7940     9.0320   125.3430     0.0310     2.5020
 1547.0000   -53.8960     6.4740     7.4110    10.3180     9.0320   125.2350     0.0290     2.5000
 1547.5000   -53.8790     6.4740     7.1900    10.3500     9.0320   125.1120     0.0260     2.5000
 1548.0000   -53.8630     6.4730     6.9690    10.3880     9.0320   125.0050     0.0240     2.5030
