~VERSION INFORMATION
 VERS.                2.0:   CWLS LOG ASCII STANDARD - VERSION 2.0
 WRAP.                 NO:   ONE LINE PER DEPTH STEP
~WELL INFORMATION
#MNEM.UNIT      DATA TYPE    INFORMATION
#----------   ------------   ------------------------------
 STRT.F          637.0000:   START DEPTH
 STOP.F         3158.0000:   STOP DEPTH
 STEP.F            0.5000:   STEP LENGTH
 NULL.          -999.2500:   NO VALUE
 COMP.    FENIX & SCISSON:   COMPANY
 WELL.  FENIX "AX" #34-33:   WELL
 FLD .             NPR #3:   FIELD
 LOC .      S33 T39N R78W:   LOCATION
 CNTY.            NATRONA:   COUNTY
 STAT.            WYOMING:   STATE
 CTRY. UNITED STATES OF AMERICA:   COUNTRY
 SRVC.       SCHLUMBERGER:   SERVICE COMPANY
 DATE.        15-APR-1977:   LOGDATE
 API .     49025103450000:   API NUMBER
~CURVE INFORMATION
#MNEM.UNIT       API CODE    CURVE DESCRIPTION
#----------   ------------   ------------------------------
 DEPT.F                  :   
 CALD.IN     45 280 60 00:   CALIPER FROM DENSITY LOG
 GRD .GAPI   45 310 01 00:   GAMMA RAY FROM DENSITY LOG
 RHOB.G/C3   45 350 01 00:   BULK DENSITY
 CORR.G/C3   45 356 01 00:   DENSITY CORRECTION
 SPR .MV     07 010 01 00:   SPONTANEOUS POTENTIAL
 SFLU.OHMM   07 220 01 00:   SPHERICALLY FOCUSED LOG UNAVERAGED RESISTIVITY
 ILD .OHMM   07 120 46 00:   INDUCTION LOG DEEP RESISTIVITY
 ILM .OHMM   07 120 44 00:   INDUCTION LOG MEDIUM RESISTIVITY
~PARAMETER INFORMATION
#MNEM.UNIT          VALUE    DESCRIPTION
#----------   ------------   ------------------------------
 EKB .F         5196.0000:   Kelly bushing
 EGL .F         5185.0000:   Ground level
 EDF .F            0.0000:   Drilling floor
 TD  .F         3159.0000:   Total depth
 DATE.        15-APR-1977:   Date logged
 CLNT.            A2DTECH:   Client Code
 SL  . 2132' FNL & 1750' FWL:   Surface Location
 PD  .                 GL:   Permanent Datum
 EPD .F              5185:   Elevation Permanent Datum
 LMF .                 KB:   Log Measured From
 DMF .                 KB:   Drilling Measured From
 DAPD.F                11:   Feet Above Permanent Datum
 DD  .F              3156:   Depth driller
 DL  .F              3159:   Depth logger
 BLI .F              3153:   Bottom log interval
 TLI .F               637:   Top log interval
 CS1 .IN            8.625:   Casing size
 CBD1.      8.625" @ 637':   Casing driller 1
 CBL1.F               637:   Casing logger 1
 BS1 .IN            7.875:   Bit size
 BSD1.F              3156:   Depth drilled with bit1
 DFT .                FGM:   Type fluid in hole
 DFD .                7.5:   Density
 DFV .                 35:   Viscosity
 DFPH.                8.5:   pH
 DFL .                  9:   Fluid loss
 MSS .                PIT:   Source of sample
 RMS .OHMM            .48:   Rm
 MST .F                60:   Rm Meas. temp.
 RMF .OHMM            .28:   Rmf
 MFST.F                60:   Rmf Meas. temp.
 MFSS.               MEAS:   Source Rmf.
 RMB .OHMM            .24:   Rm. at BHT
 BHT .F               120:   BHT.
 TCS .HRS            0200:   Time Circ. stopped
 MRT .F               120:   Maximum recorded temp.
 LUN .               7680:   Logging unit number
 LUL .               CSPR:   Logging unit location
 ENGI.             TAYLOR:   Recorded By
 WITN.         PETTINGILL:   Witnessed by
 ORIG.           5" PRINT:   Origin of data
 UWI .     49025103450000:   Unique Well ID
 DICO. A2D TECHNOLOGIES, INC.:   Digitizing Company
 TLAB.               0530:   Time logger at bottom
~OTHER INFORMATION
~A   DEPT       CALD      GRD       RHOB       CORR        SPR         SFLU        ILD        ILM 
# ...
 1609.0000     9.0046    90.5791     2.5697     0.0149   -52.3794     7.0991     6.0247     5.7440
 1609.5000     9.0047    92.5676     2.5637     0.0139   -52.3794     7.1644     6.0018     5.7437
 1610.0000     9.0049    93.9599     2.5687     0.0279   -52.3794     7.0335     5.9791     5.6909
 1610.5000     9.0050    97.3391     2.5767     0.0359   -52.5778     6.9049     5.9585     5.6629
 1611.0000     9.0052   100.5198     2.5877     0.0479   -52.7762     6.8413     5.9582     5.6382
 1611.5000     9.0053   100.1233     2.5918     0.0319   -52.5778     6.8410     5.9929     5.6380
 1612.0000     9.0054    99.7254     2.6028     0.0570   -52.7762     6.9039     6.0279     5.6377
 1612.5000     9.0056   105.0923     2.5948     0.0469   -52.7762     7.0318     6.0630     5.6374
 1613.0000     9.0057   104.6966     2.5778     0.0309   -52.9746     7.1621     6.0983     5.7948
 1613.5000     9.0058   102.7104     2.5708     0.0269   -53.1730     7.1618     6.1236     5.8483
 1614.0000     9.0060   102.7115     2.5868     0.0239   -53.3714     7.1615     6.0673     6.0118
 1614.5000     8.9863    98.7376     2.5748     0.0169   -53.3714     7.4296     6.1290     6.0671
 1615.0000     8.9864   100.1304     2.5648     0.0260   -53.1730     7.7078     6.1914     6.0668
 1615.5000     8.9866   101.3235     2.5758     0.0290   -53.1730     7.7074     6.2544     6.0665
 1616.0000     8.9867   103.3100     2.5788     0.0370   -53.3714     7.6365     6.3180     6.0662
 1616.5000     8.9868   100.3320     2.5888     0.0410   -53.3714     7.7067     6.3823     6.0659
 1617.0000     8.9870    99.7370     2.5738     0.0240   -53.3714     7.7064     6.4689     6.0656
 1617.5000     8.9871    99.1419     2.5618     0.0230   -53.1730     7.6354     6.4687     6.0653
 1618.0000     8.9872    96.5607     2.5678     0.0180   -52.9746     7.4959     6.4684     6.0650
 1618.5000     8.9874    95.3695     2.5768     0.0260   -52.7762     7.6347     6.4681     6.1209
 1619.0000     8.9875    91.5960     2.5859     0.0230   -52.7762     7.7762     6.4678     6.1152
 1619.5000     8.9877    91.0012     2.5989     0.0460   -52.7762     7.9203     6.4675     6.1096
 1620.0000     8.9878    91.5983     2.5989     0.0250   -52.7762     7.9932     6.4672     6.1039
 1620.5000     8.9879    92.7914     2.5769     0.0280   -52.5778     7.9195     6.4669     6.0983
 1621.0000     8.9881    94.9776     2.5809     0.0300   -52.5778     7.7748     6.4666     6.0927
 1621.5000     8.9882    97.5610     2.5989     0.0541   -52.5778     7.7744     6.4664     6.0871
 1622.0000     8.9884    99.9457     2.6099     0.0591   -52.7762     7.7740     6.4069     6.0814
 1622.5000     8.9885    98.9535     2.5999     0.0501   -52.7762     7.7737     6.4169     6.0758
 1623.0000     8.9887    97.5641     2.5909     0.0461   -52.7762     7.7733     6.4269     6.0702
 1623.5000     8.9888    96.1748     2.5819     0.0351   -52.7762     7.7730     6.4369     6.0646
 1624.0000     8.9889    95.3813     2.5939     0.0251   -52.7762     7.7726     6.4470     6.0616
 1624.5000     8.9891    99.3548     2.5969     0.0338   -52.9746     7.7011     6.4570     6.0614
 1625.0000     8.9892    99.5544     2.5869     0.0291   -53.1730     7.7719     6.4643     6.0186
 1625.5000     8.9893   100.1512     2.5799     0.0151   -53.3714     7.8434     6.4903     6.0055
 1626.0000     8.9895    99.7550     2.5619     0.0201   -53.5698     8.0626     6.5163     6.0402
 1626.5000     9.0492    96.9757     2.5549     0.0071   -53.5698     8.0622     6.5425     6.0752
 1627.0000     9.0493    95.9838     2.5760     0.0021   -53.3714     7.9880     6.5688     6.1104
 1627.5000     9.0495    95.7863     2.6030     0.0421   -53.3714     7.9877     6.5828     6.1457
 1628.0000     9.0496    96.5817     2.6130     0.0551   -53.5698     7.9873     6.5736     6.1813
 1628.5000     9.0497    99.1644     2.5790     0.0341   -53.5698     8.0608     6.5643     6.2286
 1629.0000     9.0499    98.5696     2.5660     0.0241   -53.5698     8.0602     6.5550     6.2284
 1629.5000     9.0500    96.1877     2.5580     0.0161   -53.3714     8.0600     6.5458     6.2283
 1630.0000     9.0502    95.9902     2.5680     0.0071   -53.3714     7.9126     6.5365     6.2280
 1630.5000     9.0503    98.9698     2.5630     0.0161   -53.3714     7.8398     6.5273     6.2398
 1631.0000     9.0505    99.9636     2.5620     0.0262   -53.3714     7.7676     6.5205     6.2515
 1631.5000     9.0506    98.9718     2.5910     0.0372   -53.3714     7.8390     6.5203     6.2633
 1632.0000     9.0507    96.7887     2.6071     0.0602   -53.1730     8.1326     6.5221     6.2751
 1632.5000     9.0509    93.8116     2.6161     0.0522   -53.1730     8.2075     6.5239     6.2869
 1633.0000     9.0510    95.4011     2.6271     0.0462   -52.9746     8.1319     6.5256     6.2988
 1633.5000     9.0511    96.9904     2.6371     0.0602   -52.7762     8.1315     6.5274     6.3106
 1634.0000     9.0513    98.5802     2.5991     0.0802   -52.9746     7.9829     6.5292     6.3225
 1634.5000     9.0514    94.6106     2.6151     0.0612   -52.9746     7.9093     6.5309     6.3344
 1635.0000     9.0516    93.8171     2.6171     0.0672   -52.9746     7.7647     6.5327     6.2825
 1635.5000     9.0517    93.2226     2.6091     0.0812   -52.9746     7.7644     6.5345     6.2823
 1636.0000     9.0518    89.0547     2.6001     0.0582   -52.7762     7.9814     6.5363     6.2656
 1636.5000     9.0520    90.8426     2.5861     0.0712   -52.9746     8.0548     6.5380     6.2489
 1637.0000     9.0521    91.6378     2.6081     0.0807   -53.1730     8.0545     6.5398     6.2323
 1637.5000     9.0523    93.8227     2.6151     0.0883   -53.3714     7.9071     6.5416     6.2236
 1638.0000     9.0523    95.8089     2.6191     0.0933   -53.5698     7.6915     6.5433     6.2233
 1638.5000     9.0515    98.9861     2.5961     0.0743   -53.5698     7.3453     6.5451     6.2231
 1639.0000     9.0506    99.1856     2.6122     0.0753   -53.5698     7.1449     6.5469     6.2101
 1639.5000     9.0498    99.1866     2.6212     0.0613   -53.5698     7.2108     6.5487     6.1972
 1640.0000     9.0489    99.1876     2.6032     0.0573   -53.7683     7.2772     6.5504     6.1842
 1640.5000     9.0480    96.8073     2.6132     0.0403   -53.7683     7.9779     6.5522     6.1713
 1641.0000     9.0472    95.0205     2.6242     0.0383   -53.7683     8.1259     6.5540     6.2216
 1641.5000     9.0463    95.4179     2.6222     0.0333   -53.5698     8.0511     6.5558     6.2213
 1642.0000     9.0454    96.2129     2.6112     0.0473   -53.3714     7.8315     6.5575     6.2210
 1642.5000     9.0446    97.2065     2.5832     0.0283   -53.3714     7.8311     6.5593     6.2207
 1643.0000     9.0437    97.9370     2.5582     0.0293   -53.3714     7.8308     6.5611     6.2289
 1643.5000     9.0428    99.4600     2.5802     0.0423   -53.3714     7.8304     6.5629     6.2372
 1644.0000     9.0420   102.9654     2.5922     0.0423   -53.5698     7.8300     6.5646     6.2454
 1644.5000     9.0411   101.3796     2.6012     0.0253   -53.1730     7.8297     6.5664     6.2537
 1645.0000     9.0402   100.1901     2.5782     0.0243   -53.1730     7.9017     6.5682     6.2620
 1645.5000     9.0394    98.2065     2.5832     0.0253   -52.9746     8.0482     6.5700     6.2702
 1646.0000     9.0385    95.0306     2.6012     0.0263   -52.9746     8.0478     6.5717     6.2762
 1646.5000     9.0377    98.8039     2.6163     0.0324   -52.9746     8.1218     6.5714     6.2760
 1647.0000     9.0368    98.8049     2.5933     0.0153   -53.1730     8.0470     6.5710     6.2815
 1647.5000     9.0359    97.0200     2.5763     0.0143   -52.9746     7.8275     6.6315     6.2870
 1648.0000     9.0351    92.6541     2.5552     0.0104   -52.9746     7.6844     6.6312     6.2926
 1648.5000     9.0342    93.0537     2.5793     0.0424   -53.1730     7.6841     6.6922     6.2981
 1649.0000     9.0333    93.4517     2.5953     0.0434   -53.3714     7.7548     6.6772     6.3036
