~VERSION INFORMATION
 VERS.                2.0:   CWLS LOG ASCII STANDARD - VERSION 2.0
 WRAP.                 NO:   ONE LINE PER DEPTH STEP
~WELL INFORMATION
#MNEM.UNIT      DATA TYPE    INFORMATION
#----------   ------------   ------------------------------
 STRT.F           60.0000:   START DEPTH
 STOP.F         3758.0000:   STOP DEPTH
 STEP.F            0.5000:   STEP LENGTH
 NULL.          -999.2500:   NO VALUE
 COMP. LAWRENCE ALLISON & ASSOCIATES:   COMPANY
 WELL. LAWRENCE "MX" #72-10:   WELL
 FLD .            N P R 3:   FIELD
 LOC .      S10 T38N R78W:   LOCATION
 CNTY.            NATRONA:   COUNTY
 STAT.            WYOMING:   STATE
 CTRY. UNITED STATES OF AMERICA:   COUNTRY
 SRVC.       SCHLUMBERGER:   SERVICE COMPANY
 DATE.        03-JUL-1982:   LOGDATE
 API .     49025108910000:   API NUMBER
~CURVE INFORMATION
#MNEM.UNIT       API CODE    CURVE DESCRIPTION
#----------   ------------   ------------------------------
 DEPT.F                  :   
 GRD .GAPI   45 310 01 00:   GAMMA RAY FROM DENSITY LOG
 NPHI.DEC    42 890 03 00:   NEUTRON POROSITY SANDSTONE
 CALD.IN     45 280 60 00:   CALIPER FROM DENSITY LOG
 RHOB.G/C3   45 350 01 00:   BULK DENSITY
 DRHO.G/C3   45 356 01 00:   DENSITY CORRECTION
 TEND.LBS    45 635 01 00:   TENSION FROM DENSITY LOG
 SPR .MV     07 010 01 00:   SPONTANEOUS POTENTIAL
 SFL .OHMM   07 220 01 00:   SHALLOW FOCUSED LOG RESISTIVITY
 ILD .OHMM   07 120 46 00:   DEEP INDUCTION RESISTIVITY
 ILM .OHMM   07 120 44 00:   INDUCTION LOG MEDIUM RESISTIVITY
 TENR.LBS    07 635 01 00:   TENSION FROM RESISTIVITY
~PARAMETER INFORMATION
#MNEM.UNIT          VALUE    DESCRIPTION
#----------   ------------   ------------------------------
 EKB .F         5182.0000:   Kelly bushing
 EGL .F         5172.0000:   Ground level
 EDF .F            0.0000:   Drilling floor
 EPD .F            0.0000:   Permanent datum
 TD  .F         3770.0000:   Total depth
 DATE.        03-JUL-1982:   Date logged
 CLNT.            A2DTECH:   Client Code
 SL  . 1119' FNL & 21' FEL:   Surface Location
 PD  .                 GL:   Permanent Datum
 DD  .F              3770:   Depth driller
 DL  .F              3750:   Depth logger
 BLI .F              3744:   Bottom log interval
 CS1 .IN            9.625:   Casing size
 CBD1.      9.625" @ 473':   Casing driller 1
 CBL1.F               482:   Casing logger 1
 BS1 .IN            7.875:   Bit size
 DFT .                GEL:   Type fluid in hole
 DFD .                9.1:   Density
 DFV .                 34:   Viscosity
 DFPH.               10.5:   pH
 DFL .                 12:   Fluid loss
 MSS .            MUD PIT:   Source of sample
 RMS .OHMM           1.50:   Rm
 MST .F                84:   Rm Meas. temp.
 RMF .OHMM           1.37:   Rmf
 MFST.F                83:   Rmf Meas. temp.
 RMC .OHMM           1.20:   Rmc
 MCST.F                83:   Rmc Meas. temp.
 MFSS.               MEAS:   Source Rmf.
 RMB .OHMM              1:   Rm. at BHT
 BHT .F               130:   BHT.
 TCS .HRS            1500:   Time Circ. stopped
 MRT .F               130:   Maximum recorded temp.
 LUN .               8039:   Logging unit number
 LUL .               CSPR:   Logging unit location
 ENGI. CONOSCENTI/PIRAKIS:   Recorded By
 WITN.             STRONG:   Witnessed by
 ORIG.       2.5"5" PRINT:   Origin of data
 UWI .     49025108910000:   Unique Well ID
 DICO. A2D TECHNOLOGIES, INC.:   Digitizing Company
 DAPD.                 10:   Feet Above Permanent Datum
 BSD1.               3770:   Depth drilled with bit1
 MCSS.               CALC:   Source Rmc.
 TLI .                482:   Top log interval
 TLAB.HR             1800:   Time logger at bottom
~OTHER INFORMATION
~A   DEPT      GRD       NPHI       CALD       RHOB       DRHO       TEND        SPR        SFL        ILD        ILM       TENR   
# ...
 2439.0000   103.2720     0.2380    12.8490     2.5500     0.0100  1460.0000   -52.1030     8.6970     7.3450     7.4540  1402.0690
 2439.5000   104.0770     0.2420    12.8450     2.5390     0.0020  1460.0000   -52.0770     8.4160     7.4880     7.5150  1401.9680
 2440.0000   108.3880     0.2450    12.8420     2.5320    -0.0050  1460.0000   -52.0500     8.0110     7.4990     7.5770  1401.8680
 2440.5000   111.0590     0.2520    12.8380     2.5280    -0.0040  1460.0000   -52.0240     7.5630     7.5110     7.6380  1401.7670
 2441.0000   111.8610     0.2570    12.8350     2.5230    -0.0010  1460.0000   -51.9970     7.6160     7.5230     7.6990  1401.6670
 2441.5000   110.8020     0.2570    12.8310     2.5210     0.0020  1460.0000   -51.9710     7.6880     7.5340     7.7600  1401.5660
 2442.0000   110.2540     0.2560    12.8270     2.5210     0.0050  1460.0000   -51.9440     7.9630     7.5460     7.7660  1401.4659
 2442.5000   111.4030     0.2610    12.8240     2.5240     0.0080  1460.0000   -51.9170     8.2840     7.5530     7.6950  1401.3650
 2443.0000   112.5630     0.2680    12.8200     2.5290     0.0120  1460.0000   -51.8910     8.1910     7.4970     7.7200  1401.2650
 2443.5000   113.6760     0.2740    12.8170     2.5300     0.0150  1460.0000   -51.8640     8.0900     7.4540     7.6790  1401.1639
 2444.0000   114.7830     0.2810    12.8130     2.5310     0.0190  1460.0000   -51.8380     7.9840     7.4110     7.6370  1401.0640
 2444.5000   112.3680     0.2870    12.8100     2.5380     0.0210  1460.0000   -51.8110     7.8380     7.3670     7.5960  1400.9630
 2445.0000   108.4270     0.2920    12.8050     2.5440     0.0210  1460.0000   -51.7850     7.8970     7.3240     7.5540  1400.8630
 2445.5000   106.7040     0.2810    12.8060     2.5500     0.0180  1460.0000   -51.7730     8.0000     7.2800     7.4940  1400.7620
 2446.0000   106.1110     0.2690    12.8120     2.5420     0.0150  1460.0000   -51.7860     8.1020     7.1930     7.3910  1400.6620
 2446.5000   108.8160     0.2670    12.8180     2.5340     0.0120  1460.0000   -51.7980     8.2050     7.1060     7.2880  1400.5620
 2447.0000   112.6870     0.2700    12.8240     2.5240     0.0150  1460.0000   -51.8110     8.2840     7.0180     7.1850  1400.4611
 2447.5000   115.6000     0.2760    12.8290     2.5310     0.0220  1460.0000   -51.8230     7.9940     6.9300     7.0820  1400.3610
 2448.0000   118.0440     0.2810    12.8350     2.5420     0.0260  1460.0000   -51.8360     7.7570     6.8420     6.9790  1400.2600
 2448.5000   119.6570     0.2840    12.8410     2.5340     0.0220  1460.0000   -51.8480     7.5200     6.7540     6.8760  1400.1600
 2449.0000   119.1710     0.2820    12.8460     2.5200     0.0110  1460.0000   -51.8610     7.3480     6.6670     6.7730  1400.0590
 2449.5000   117.8850     0.2800    12.8520     2.5180     0.0010  1460.0000   -51.8740     7.4120     6.5790     6.6390  1399.9590
 2450.0000   113.0170     0.2870    12.8580     2.5250     0.0020  1460.0000   -51.8860     7.4620     6.5170     6.6570  1399.8580
 2450.5000   105.4990     0.2970    12.8630     2.5320     0.0170  1460.0000   -51.8990     7.5120     6.5820     6.6940  1399.7581
 2451.0000   106.1150     0.2920    12.8690     2.5310     0.0270  1460.0000   -51.9110     7.5620     6.6320     6.7310  1399.6570
 2451.5000   107.1920     0.2840    12.8750     2.5260     0.0190  1460.0000   -51.9240     7.6120     6.6820     6.7690  1399.5570
 2452.0000   110.3890     0.2760    12.8800     2.5190     0.0100  1460.0000   -51.9360     7.6620     6.7330     6.8060  1399.4561
 2452.5000   113.7340     0.2680    12.8860     2.5110     0.0040  1460.0000   -51.9490     7.6950     6.7830     6.8430  1399.3560
 2453.0000   115.2910     0.2700    12.8920     2.5090     0.0040  1460.0000   -51.9620     7.5130     6.8290     6.8800  1399.2550
 2453.5000   115.3220     0.2730    12.8970     2.5130     0.0040  1460.0000   -51.9650     7.3480     6.8540     6.9180  1399.1550
 2454.0000   115.5990     0.2780    12.9030     2.5190     0.0050  1460.0000   -51.9650     7.5070     6.8800     6.9550  1399.0540
 2454.5000   115.7850     0.2830    12.9090     2.5270     0.0080  1460.0000   -51.9650     7.7140     6.9050     6.9920  1398.9540
 2455.0000   116.0170     0.2800    12.9140     2.5340     0.0110  1460.0000   -51.9650     7.8230     6.9310     7.0290  1398.8540
 2455.5000   115.8890     0.2780    12.9200     2.5410     0.0110  1460.0000   -51.9650     7.6950     6.9560     7.0660  1398.7531
 2456.0000   113.9130     0.2750    12.9260     2.5360     0.0110  1460.0000   -51.9650     7.6470     6.9820     7.1040  1398.6530
 2456.5000   111.7380     0.2730    12.9310     2.5320     0.0080  1460.0000   -51.9650     7.5540     7.0070     7.1410  1398.5520
 2457.0000   110.1020     0.2670    12.9370     2.5450     0.0210  1460.0000   -51.9650     7.6330     7.0700     7.1780  1398.4520
 2457.5000   110.0750     0.2580    12.9420     2.5660     0.0420  1460.0000   -51.9650     7.8140     7.1530     7.2130  1398.3510
 2458.0000   110.1010     0.2500    12.9490     2.5830     0.0620  1460.0000   -51.9640     7.9840     7.2370     7.2580  1398.2510
 2458.5000   111.2120     0.2450    12.9540     2.5760     0.0830  1460.0000   -51.9810     7.8940     7.3210     7.3010  1398.1500
 2459.0000   112.8730     0.2510    12.9590     2.5550     0.0680  1460.0000   -52.0000     7.7660     7.3480     7.3430  1398.0500
 2459.5000   112.8450     0.2590    12.9270     2.5350     0.0380  1460.0000   -52.0200     7.8500     7.3480     7.3860  1397.9490
 2460.0000   112.5530     0.2550    12.8830     2.5200     0.0190  1460.0000   -52.0390     8.0210     7.2530     7.4160  1397.8490
 2460.5000   112.2730     0.2490    12.8410     2.5280     0.0180  1460.0000   -52.0580     8.2080     7.1170     7.2800  1397.7480
 2461.0000   112.0100     0.2440    12.7970     2.5420     0.0240  1460.0000   -52.0780     7.9100     6.9810     6.8880  1397.6479
 2461.5000   112.9580     0.2480    12.7560     2.5360     0.0290  1460.0000   -52.0970     7.5520     6.8450     6.9520  1397.5470
 2462.0000   115.7720     0.2580    12.7090     2.5240     0.0170  1460.0000   -52.1170     6.9890     6.7080     6.8070  1397.4470
 2462.5000   115.8620     0.2720    12.6870     2.5130     0.0060  1460.0000   -52.1360     6.3980     6.5720     6.7000  1397.3470
 2463.0000   115.5790     0.2650    12.6990     2.5000     0.0020  1460.0000   -52.1570     6.7460     6.4480     6.6290  1397.2460
 2463.5000   115.3490     0.2590    12.7050     2.5010     0.0020  1460.0000   -52.1160     7.1120     6.3880     6.5710  1397.1460
 2464.0000   115.1610     0.2490    12.7160     2.5030     0.0030  1460.0000   -52.0540     7.4850     6.3280     6.5130  1397.0450
 2464.5000   117.6680     0.2520    12.7190     2.5050     0.0040  1460.0000   -51.9910     7.0800     6.2680     6.4550  1396.9449
 2465.0000   121.1460     0.2600    12.7560     2.5020     0.0050  1460.0000   -51.9280     6.6660     6.2080     6.3960  1396.8440
 2465.5000   124.4890     0.2680    12.8160     2.4990     0.0060  1460.0000   -51.8650     6.3390     6.1480     6.3380  1396.7440
 2466.0000   127.8920     0.2700    12.8700     2.4950     0.0110  1460.0000   -51.8020     6.5550     6.0880     6.2800  1396.6429
 2466.5000   131.2570     0.2730    12.9280     2.4990     0.0200  1460.0000   -51.7390     6.7620     6.0530     6.2230  1396.5430
 2467.0000   134.0650     0.2920    12.9830     2.5020     0.0300  1460.0000   -51.6760     6.2450     6.0680     6.2560  1396.4420
 2467.5000   131.7760     0.3100    13.0350     2.4880     0.0340  1460.0000   -51.6140     5.7430     6.0810     6.3090  1396.3420
 2468.0000   125.7280     0.3140    13.0380     2.4720     0.0220  1460.0000   -51.5510     5.2710     6.0930     6.3610  1396.2410
 2468.5000   120.0790     0.3160    13.0370     2.4650     0.0080  1460.0000   -51.4880     5.6360     6.1050     6.4130  1396.1410
 2469.0000   113.7110     0.2960    13.0360     2.4870     0.0080  1460.0000   -51.4250     6.1870     6.1860     6.4660  1396.0400
