~VERSION INFORMATION
 VERS.                2.0:   CWLS LOG ASCII STANDARD - VERSION 2.0
 WRAP.                 NO:   ONE LINE PER DEPTH STEP
~WELL INFORMATION
#MNEM.UNIT      DATA TYPE    INFORMATION
#----------   ------------   ------------------------------
 STRT.F           42.0000:   START DEPTH
 STOP.F         2778.0000:   STOP DEPTH
 STEP.F            0.5000:   STEP LENGTH
 NULL.          -999.2500:   NO VALUE
 COMP.    FENIX & SCISSON:   COMPANY
 WELL. FENIX & SCISSON SHX #56-23:   WELL
 FLD .        TEAPOT DOME:   FIELD
 LOC .      S23 T38N R78W:   LOCATION
 CNTY.            NATRONA:   COUNTY
 STAT.            WYOMING:   STATE
 CTRY. UNITED STATES OF AMERICA:   COUNTRY
 SRVC.           BIRDWELL:   SERVICE COMPANY
 DATE.        29-AUG-1979:   LOGDATE
 API .     49025107920000:   API NUMBER
~CURVE INFORMATION
#MNEM.UNIT       API CODE    CURVE DESCRIPTION
#----------   ------------   ------------------------------
 DEPT.F                  :   
 GRD .GAPI   45 310 01 00:   GAMMA RAY FROM DENSITY LOG
 CALD.IN     45 280 60 00:   CALIPER FROM DENSITY LOG
 RHOB.G/C3   45 350 01 00:   BULK DENSITY
 CORR.G/C3   45 356 01 00:   DENSITY CORRECTION
 ILD .OHMM   07 120 46 00:   DEEP INDUCTION RESISTIVITY
 SFL .OHMM   07 220 01 00:   SHALLOW FOCUSED LOG RESISTIVITY
 SPR .MV     07 010 01 00:   SPONTANEOUS POTENTIAL
~PARAMETER INFORMATION
#MNEM.UNIT          VALUE    DESCRIPTION
#----------   ------------   ------------------------------
 EKB .F         5361.0000:   Kelly bushing
 EGL .F         5351.0000:   Ground level
 EDF .F         5360.0000:   Drilling floor
 TD  .F         1465.0000:   Total depth
 DATE.        29-AUG-1979:   Date logged
 CLNT.            A2DTECH:   Client Code
 PD  .                 GL:   Permanent Datum
 EPD .F              5351:   Elevation Permanent Datum
 LMF .                 KB:   Log Measured From
 DMF .                 KB:   Drilling Measured From
 DAPD.F                 9:   Feet Above Permanent Datum
 DD  .F              1465:   Depth driller
 DL  .F              1462:   Depth logger
 BLI .F              1457:   Bottom log interval
 TLI .F                40:   Top log interval
 CBD1.F                40:   Casing driller 1
 CBL1.F                40:   Casing logger 1
 BS1 .IN            12.25:   Bit size
 BSD1.F              1465:   Depth drilled with bit1
 DFT .            GEL/MUD:   Type fluid in hole
 DFD .                9.5:   Density
 DFV .                 40:   Viscosity
 DFPH.                9.0:   pH
 DFL .                 40:   Fluid loss
 MSS .            MUD PIT:   Source of sample
 RMS .OHMM            2.6:   Rm
 MST .F                68:   Rm Meas. temp.
 RMF .OHMM            1.8:   Rmf
 MFST.F                78:   Rmf Meas. temp.
 RMC .OHMM            2.8:   Rmc
 MCST.F                76:   Rmc Meas. temp.
 MFSS.               MEAS:   Source Rmf.
 MCSS.               MEAS:   Source Rmc.
 RMB .OHMM           1.96:   Rm. at BHT
 BHT .F                90:   BHT.
 TCS .HRS               5:   Time Circ. stopped
 MRT .F                90:   Maximum recorded temp.
 LUN .               2959:   Logging unit number
 LUL .             CASPER:   Logging unit location
 ENGI.         B. ROLLINS:   Recorded By
 WITN.              AMEND:   Witnessed by
 ORIG.           5" PRINT:   Origin of data
 UWI .     49025107920000:   Unique Well ID
 DICO. A2D TECHNOLOGIES, INC.:   Digitizing Company
~OTHER INFORMATION
~A   DEPT       GRD      CALD       RHOB         CORR      ILD        SFL         SPR  
# ...
 1725.5000   162.2920    10.2730     2.5340     0.3130  -999.2500  -999.2500  -999.2500
 1726.0000   162.6910    10.2660     2.5240     0.3050  -999.2500  -999.2500  -999.2500
 1726.5000   161.1670    10.2540     2.5200     0.2990  -999.2500  -999.2500  -999.2500
 1727.0000   155.3460    10.2480     2.5400     0.3100  -999.2500  -999.2500  -999.2500
 1727.5000   150.3300    10.2450     2.5620     0.3260  -999.2500  -999.2500  -999.2500
 1728.0000   148.3870    10.3130     2.5570     0.3410  -999.2500  -999.2500  -999.2500
 1728.5000   147.7940    10.3430     2.5520     0.3510  -999.2500  -999.2500  -999.2500
 1729.0000   146.8400    10.4020     2.5480     0.3630  -999.2500  -999.2500  -999.2500
 1729.5000   146.8990    10.4510     2.5310     0.3600  -999.2500  -999.2500  -999.2500
 1730.0000   147.7590    10.5050     2.5120     0.3560  -999.2500  -999.2500  -999.2500
 1730.5000   157.6850    10.5590     2.5180     0.3500  -999.2500  -999.2500  -999.2500
 1731.0000   162.5550    10.5970     2.4940     0.3490  -999.2500  -999.2500  -999.2500
 1731.5000   164.1560    10.5960     2.4730     0.3600  -999.2500  -999.2500  -999.2500
 1732.0000   164.1180    10.6080     2.4820     0.3800  -999.2500  -999.2500  -999.2500
 1732.5000   161.5740    10.6280     2.5160     0.3980  -999.2500  -999.2500  -999.2500
 1733.0000   161.5140    10.6460     2.5550     0.4100  -999.2500  -999.2500  -999.2500
 1733.5000   161.6780    10.6630     2.5950     0.3940  -999.2500  -999.2500  -999.2500
 1734.0000   156.2010    10.6820     2.5360     0.3520  -999.2500  -999.2500  -999.2500
 1734.5000   153.2170    10.7700     2.4770     0.3440  -999.2500  -999.2500  -999.2500
 1735.0000   158.3690    11.0160     2.4270     0.3890  -999.2500  -999.2500  -999.2500
 1735.5000   163.5700    11.2960     2.3360     0.4350  -999.2500  -999.2500  -999.2500
 1736.0000   165.9750    11.5740     2.2350     0.4830  -999.2500  -999.2500  -999.2500
 1736.5000   159.7450    11.7970     2.1330     0.4980  -999.2500  -999.2500  -999.2500
 1737.0000   151.5650    12.2200     2.0410     0.4970  -999.2500  -999.2500  -999.2500
 1737.5000   149.2110    11.2460     2.3740     0.4980  -999.2500  -999.2500  -999.2500
 1738.0000   150.0290    10.4980     2.5290     0.4930  -999.2500  -999.2500  -999.2500
 1738.5000   150.0170    10.8150     2.5210     0.4710  -999.2500  -999.2500  -999.2500
 1739.0000   148.1800    10.7170     2.5420     0.4910  -999.2500  -999.2500  -999.2500
 1739.5000   143.3930    10.4830     2.5500     0.5000  -999.2500  -999.2500  -999.2500
 1740.0000   142.5090    10.4360     2.5490     0.5000  -999.2500  -999.2500  -999.2500
 1740.5000   143.2020    10.5370     2.4780     0.5000  -999.2500  -999.2500  -999.2500
 1741.0000   145.7170    10.8340     2.4650     0.5000  -999.2500  -999.2500  -999.2500
 1741.5000   149.8970    10.9970     2.4530     0.5000  -999.2500  -999.2500  -999.2500
 1742.0000   154.4570    10.9930     2.3620     0.5000  -999.2500  -999.2500  -999.2500
 1742.5000   153.4350    11.1020     2.2870     0.4930  -999.2500  -999.2500  -999.2500
 1743.0000   147.5630    11.1810     2.1780     0.4930  -999.2500  -999.2500  -999.2500
 1743.5000   143.4030    12.0020     2.2460     0.5000  -999.2500  -999.2500  -999.2500
 1744.0000   142.7330    11.8460     2.3670     0.4990  -999.2500  -999.2500  -999.2500
 1744.5000   144.9620    11.0980     2.4410     0.4950  -999.2500  -999.2500  -999.2500
 1745.0000   148.6690    10.6480     2.4470     0.4900  -999.2500  -999.2500  -999.2500
 1745.5000   152.2620    10.6730     2.3820     0.4840  -999.2500  -999.2500  -999.2500
 1746.0000   155.2740    10.5990     2.3110     0.4900  -999.2500  -999.2500  -999.2500
 1746.5000   154.6570    10.5620     2.2450     0.5000  -999.2500  -999.2500  -999.2500
 1747.0000   151.2860    10.5150     2.3510     0.4980  -999.2500  -999.2500  -999.2500
 1747.5000   144.3580    10.4670     2.4480     0.4440  -999.2500  -999.2500  -999.2500
 1748.0000   144.0160    10.4220     2.4970     0.4150  -999.2500  -999.2500  -999.2500
 1748.5000   143.6490    10.3720     2.4020     0.3570  -999.2500  -999.2500  -999.2500
 1749.0000   143.7530    10.3280     2.2890     0.3260  -999.2500  -999.2500  -999.2500
 1749.5000   144.1010    10.2880     2.3570     0.3830  -999.2500  -999.2500  -999.2500
 1750.0000   143.7960    10.2700     2.4390     0.4300  -999.2500  -999.2500  -999.2500
 1750.5000   143.0550    10.2350     2.5240     0.3140  -999.2500  -999.2500  -999.2500
 1751.0000   140.0620    10.2410     2.5010     0.2490  -999.2500  -999.2500  -999.2500
 1751.5000   136.9300    10.2350     2.5410     0.2530  -999.2500  -999.2500  -999.2500
 1752.0000   135.3960    10.2340     2.5430     0.2510  -999.2500  -999.2500  -999.2500
 1752.5000   142.3970    10.2310     2.5490     0.2490  -999.2500  -999.2500  -999.2500
 1753.0000   141.2500    10.2280     2.5520     0.2520  -999.2500  -999.2500  -999.2500
 1753.5000   140.1860    10.2250     2.5550     0.2570  -999.2500  -999.2500  -999.2500
 1754.0000   138.7170    10.2230     2.5530     0.2630  -999.2500  -999.2500  -999.2500
 1754.5000   137.6980    10.2200     2.5410     0.2680  -999.2500  -999.2500  -999.2500
 1755.0000   136.7970    10.2170     2.5550     0.2930  -999.2500  -999.2500  -999.2500
 1755.5000   137.9550    10.2150     2.5730     0.3150  -999.2500  -999.2500  -999.2500
 1756.0000   138.7380    10.2120     2.6040     0.3380  -999.2500  -999.2500  -999.2500
 1756.5000   136.7740    10.2090     2.6300     0.3680  -999.2500  -999.2500  -999.2500
 1757.0000   137.2160    10.2070     2.6430     0.3620  -999.2500  -999.2500  -999.2500
 1757.5000   140.6220    10.2040     2.6170     0.3320  -999.2500  -999.2500  -999.2500
 1758.0000   142.0900    10.2020     2.5480     0.2930  -999.2500  -999.2500  -999.2500
 1758.5000   139.9300    10.1990     2.5430     0.2710  -999.2500  -999.2500  -999.2500
 1759.0000   135.7980    10.1990     2.5380     0.2820  -999.2500  -999.2500  -999.2500
 1759.5000   133.8470    10.2080     2.5690     0.2890  -999.2500  -999.2500  -999.2500
 1760.0000   133.3530    10.2700     2.5750     0.2950  -999.2500  -999.2500  -999.2500
 1760.5000   133.1340    10.3000     2.5620     0.2920  -999.2500  -999.2500  -999.2500
 1761.0000   134.6640    10.3370     2.5460     0.2890  -999.2500  -999.2500  -999.2500
 1761.5000   136.0520    10.3710     2.5590     0.2910  -999.2500  -999.2500  -999.2500
 1762.0000   144.9270    10.4000     2.5690     0.3010  -999.2500  -999.2500  -999.2500
 1762.5000   145.6780    10.3710     2.5840     0.3140  -999.2500  -999.2500  -999.2500
 1763.0000   146.5280    10.3010     2.6190     0.3160  -999.2500  -999.2500  -999.2500
 1763.5000   146.7760    10.2300     2.5760     0.2860  -999.2500  -999.2500  -999.2500
 1764.0000   147.5370    10.1970     2.5540     0.2730  -999.2500  -999.2500  -999.2500
 1764.5000   146.6000    10.2000     2.5490     0.2740  -999.2500  -999.2500  -999.2500
 1765.0000   143.1750    10.1990     2.5320     0.2740  -999.2500  -999.2500  -999.2500
 1765.5000   139.6490    10.2010     2.5200     0.2820  -999.2500  -999.2500  -999.2500
 1766.0000   136.7660    10.1960     2.5260     0.3030  -999.2500  -999.2500  -999.2500
 1766.5000   138.2100    10.2300     2.5700     0.3270  -999.2500  -999.2500  -999.2500
 1767.0000   138.3660    10.2520     2.5760     0.3180  -999.2500  -999.2500  -999.2500
 1767.5000   139.8150    10.2930     2.5690     0.3040  -999.2500  -999.2500  -999.2500
 1768.0000   128.2200    10.3310     2.5430     0.2850  -999.2500  -999.2500  -999.2500
 1768.5000   123.9640    10.3720     2.5540     0.2900  -999.2500  -999.2500  -999.2500
 1769.0000   129.4780    10.4150     2.5640     0.3050  -999.2500  -999.2500  -999.2500
 1769.5000   133.5000    10.4400     2.5460     0.3010  -999.2500  -999.2500  -999.2500
 1770.0000   134.1410    10.4410     2.5470     0.3010  -999.2500  -999.2500  -999.2500
 1770.5000   137.6630    10.4510     2.5760     0.3120  -999.2500  -999.2500  -999.2500
