~VERSION INFORMATION
 VERS.                2.0:   CWLS LOG ASCII STANDARD - VERSION 2.0
 WRAP.                 NO:   ONE LINE PER DEPTH STEP
~WELL INFORMATION
#MNEM.UNIT      DATA TYPE    INFORMATION
#----------   ------------   ------------------------------
 STRT.F           30.0000:   START DEPTH
 STOP.F         3240.0000:   STOP DEPTH
 STEP.F            0.5000:   STEP LENGTH
 NULL.          -999.2500:   NO VALUE
 COMP. LAWRENCE-ALLISON ASSOCIATES WES:   COMPANY
 WELL. LAWRENCE "AX" #87AX28:   WELL
 FLD .   TEAPOT N.P.R. #3:   FIELD
 LOC .      S28 T39N R78W:   LOCATION
 CNTY.            NATRONA:   COUNTY
 STAT.            WYOMING:   STATE
 CTRY. UNITED STATES OF AMERICA:   COUNTRY
 SRVC.       SCHLUMBERGER:   SERVICE COMPANY
 DATE.        28-MAY-1982:   LOGDATE
 API .     49025108860000:   API NUMBER
~CURVE INFORMATION
#MNEM.UNIT       API CODE    CURVE DESCRIPTION
#----------   ------------   ------------------------------
 DEPT.F                  :   
 TENR.LBS    07 635 01 00:   TENSION FROM RESISTIVITY
 GRR .GAPI   07 310 01 00:   GAMMA RAY FROM RESISTIVITY
 SPR .MV     07 010 01 00:   SPONTANEOUS POTENTIAL FROM RES.
 ILD .OHMM   07 120 46 00:   DEEP INDUCTION RESISTIVITY
 ILM .OHMM   07 120 44 00:   INDUCTION LOG MEDIUM RESISTIVITY
 SFL .OHMM   07 220 01 00:   SHALLOW FOCUSED LOG RESISITIVITY
 TEND.LBS    45 635 01 00:   TENSION FORM DENSITY LOG
 NPHI.DEC    42 890 03 00:   NEUTRON POROSITY SANDSTONE
 CALD.IN     45 280 60 00:   CALIPER FROM DENSITY LOG
 CORR.G/C3   45 356 01 00:   DENSITY CORRECTION
 RHOB.G/C3   45 350 01 00:   BULK DENSITY
~PARAMETER INFORMATION
#MNEM.UNIT          VALUE    DESCRIPTION
#----------   ------------   ------------------------------
 EKB .F         5070.0000:   Kelly bushing
 EGL .F         5060.0000:   Ground level
 TD  .F         3220.0000:   Total depth
 CLNT.            A2DTECH:   Client Code
 SL  . 1341' FSL & 162' FEL:   Surface Location
 PD  .                 GL:   Permanent Datum
 EPD .F              5060:   Elevation Permanent Datum
 LMF .                 KB:   Log Measured From
 DMF .                 KB:   Drilling Measured From
 DAPD.F                10:   Feet Above Permanent Datum
 DATE.        28-MAY-1982:   Date Logged [DD-MMM-YYYY]
 DD  .F              3220:   Depth driller
 DL  .F              3215:   Depth logger
 BLI .F              3212:   Bottom log interval
 TLI .F               489:   Top log interval
 CS1 .IN            9.625:   Casing size
 CBD1.      9.625" @ 461':   Casing driller 1
 CBL1.F               489:   Casing logger 1
 BS1 .IN            9.750:   Bit size
 BSD1.F              3220:   Depth drilled with bit1
 DFT .          POLY./KCL:   Type fluid in hole
 DFD .                8.8:   Density
 DFV .                 44:   Viscosity
 DFPH.                7.0:   pH
 DFL .                8.0:   Fluid loss
 MSS .           MUD TANK:   Source of sample
 RMS .OHMM          0.778:   Rm
 MST .F                65:   Rm Meas. temp.
 RMF .OHMM          0.710:   Rmf
 MFST.F                67:   Rmf Meas. temp.
 MFSS.               MEAS:   Source Rmf.
 RMB .OHMM          0.447:   Rm. at BHT
 BHT .F               118:   BHT.
 TCS .HRS            2000:   Time Circ. stopped
 TLAB.HRS            2430:   Time logger at bottom
 MRT .F               118:   Maximum recorded temp.
 LUN .               8043:   Logging unit number
 LUL .               CSPR:   Logging unit location
 ENGI.             DENNIS:   Recorded By
 WITN.             STRONG:   Witnessed by
 ORIG.           5" PRINT:   Origin of data
 UWI .     49025108860000:   Unique Well ID
 DICO. A2D TECHNOLOGIES, INC.:   Digitizing Company
~OTHER INFORMATION
~A   DEPT     TENR         GRR       SPR        ILD        ILM        SFL       TEND       NPHI       CALD       CORR       RHOB   
# ...
 2287.0000  1281.2155   117.3423   -34.4282     3.3777     3.2916     3.9617  1435.0546    -0.0319    11.7532     0.0107     2.5038
 2287.5000  1281.6371   120.2550   -34.5712     3.1701     3.1339     3.9934  1435.1224    -0.0359    11.7683     0.0061     2.5101
 2288.0000  1282.0588   123.9436   -34.5605     2.9331     2.9416     3.8574  1435.1904    -0.0371    11.7835     0.0022     2.5063
 2288.5000  1282.4805   125.7945   -34.3947     2.7725     2.7754     3.3002  1435.2584    -0.0286    11.7996     0.0101     2.4960
 2289.0000  1282.9022   124.8889   -34.3844     2.6395     2.6294     2.9052  1435.3264     0.0092    11.8596     0.0204     2.4823
 2289.5000  1283.3239   121.2269   -34.3741     2.6043     2.5938     2.6502  1435.3943     0.0265    11.9053     0.0268     2.4630
 2290.0000  1283.7456   119.4024   -34.2106     2.6256     2.6150     2.4699  1435.4623     0.0273    11.9511     0.0104     2.4382
 2290.5000  1284.1672   121.2567   -34.2003     2.6847     2.7121     2.6945  1435.5303     0.0088    11.9050     0.0034     2.4305
 2291.0000  1284.5890   122.1887   -34.1899     2.7647     2.7534     3.1086  1435.5981    -0.0123    11.8131    -0.0005     2.4407
 2291.5000  1285.0106   119.6752   -34.1772     2.8472     2.7952     3.4870  1435.6661    -0.0267    11.7518    -0.0028     2.4656
 2292.0000  1285.4323   115.3240   -34.1669     2.9112     2.8383     3.4405  1435.7341    -0.0219    11.7364     0.0028     2.4889
 2292.5000  1285.8540   113.9372   -34.1566     2.9556     2.9228     3.2991  1435.8020    -0.0152    11.7362     0.0116     2.5053
 2293.0000  1286.2756   115.6121   -33.9931     2.9798     2.9884     3.1188  1435.8700    -0.0165    11.7208     0.0194     2.5077
 2293.5000  1286.6974   117.2047   -33.9828     3.0036     2.9909     3.1437  1435.9380    -0.0263    11.7206     0.0202     2.5000
 2294.0000  1287.1190   118.8259   -33.8193     3.0061     2.9715     3.2867  1436.0060    -0.0406    11.7205     0.0101     2.4969
 2294.5000  1287.5408   121.5956   -33.9597     3.0086     2.9958     3.3582  1436.0739    -0.0471    11.7203     0.0031     2.4962
 2295.0000  1287.9624   124.1357   -33.9494     3.0111     3.0012     3.3364  1436.1418    -0.0300    11.7202     0.0001     2.4963
 2295.5000  1288.3842   124.3787   -34.0948     3.0136     3.0228     3.3399  1436.2098    -0.0234    11.7200    -0.0022     2.4863
 2296.0000  1288.8058   124.1268   -34.0819     3.0161     3.0470     3.3426  1436.2777    -0.0243    11.7199    -0.0020     2.4747
 2296.5000  1289.2275   116.1389   -34.2251     3.0192     3.0495     3.3215  1436.3457    -0.0320    11.7197     0.0011     2.4739
 2297.0000  1289.6492   111.5580   -34.3676     3.0217     3.0738     3.3244  1436.4137    -0.0363    11.7349     0.0043     2.4794
 2297.5000  1290.0709   108.8147   -34.5079     3.0241     3.0764     3.3034  1436.4816    -0.0373    11.7347     0.0051     2.4849
 2298.0000  1290.4926   107.6761   -34.6507     3.0266     3.0570     3.3543  1436.5496    -0.0324    11.7346     0.0060     2.4936
 2298.5000  1290.9142   109.5304   -34.7935     3.0508     3.0378     3.4297  1436.6176    -0.0254    11.7344     0.0045     2.5029
 2299.0000  1291.3359   112.5392   -34.9364     3.0534     3.0409     3.4325  1436.6855    -0.0182    11.7342     0.0022     2.4968
 2299.5000  1291.7576   116.9109   -35.0792     3.0565     3.0434     3.3150  1436.7534    -0.0170    11.7341    -0.0001     2.4922
 2300.0000  1292.1793   119.4509   -35.2221     3.1006     3.0237     3.2250  1436.8214    -0.0198    11.7339    -0.0008     2.4884
 2300.5000  1292.6010   121.5315   -35.3649     3.0803     3.0474     3.2510  1436.8894    -0.0442    11.7488    -0.0007     2.5032
 2301.0000  1293.0227   123.3825   -35.3520     3.0832     3.0059     3.2772  1436.9573    -0.0534    11.7636     0.0041     2.5141
 2301.5000  1293.4443   123.1926   -35.4974     3.1077     3.0295     3.2561  1437.0253    -0.0489    11.7784     0.0120     2.5220
 2302.0000  1293.8661   118.7162   -35.0317     3.1549     3.0747     3.1907  1437.0933    -0.0355    11.7780     0.0167     2.5127
 2302.5000  1294.2877   111.9740   -34.8696     3.1804     3.1653     3.1709  1437.1613    -0.0343    11.7928     0.0152     2.5019
 2303.0000  1294.7095   110.6068   -34.7026     3.2054     3.1897     3.1991  1437.2291    -0.0407    11.8077     0.0060     2.4973
 2303.5000  1295.1311   110.3841   -34.5452     3.2083     3.1688     4.0488  1437.2971    -0.0532    11.8225    -0.0018     2.5004
 2304.0000  1295.5529   112.4594   -34.3812     3.1651     3.1035     4.4144  1437.3651    -0.0561    11.8220    -0.0025     2.5036
 2304.5000  1295.9745   116.1380   -34.3723     3.1219     3.0179     4.2333  1437.4330    -0.0470    11.8369     0.0062     2.5037
 2305.0000  1296.3961   118.8992   -34.3634     3.0362     2.9346     3.8621  1437.5010    -0.0327    11.8733     0.0102     2.4944
 2305.5000  1296.8179   121.7022   -34.2013     2.8906     2.8537     3.0335  1437.5690    -0.0266    11.8971     0.0087     2.4797
 2306.0000  1297.2395   124.4238   -34.3477     2.7712     2.7754     2.6328  1437.6368    -0.0199    11.9272     0.0049     2.4612
 2306.5000  1297.6613   120.3043   -34.3366     2.6717     2.7150     2.6930  1437.7048    -0.0178    11.9421     0.0033     2.4604
 2307.0000  1298.0829   116.1847   -34.3276     2.6210     2.6244     2.8827  1437.7728    -0.0307    11.9415     0.0019     2.4675
 2307.5000  1298.5046   115.0468   -34.4719     2.6043     2.5706     3.0451  1437.8408    -0.0384    11.9411     0.0020     2.4771
 2308.0000  1298.9263   115.9732   -34.6161     2.6067     2.5534     2.9622  1437.9087    -0.0329    11.9407     0.0138     2.4878
 2308.5000  1299.3480   118.7343   -34.7603     2.6275     2.5734     2.7609  1437.9767    -0.0033    11.9249     0.0271     2.4941
 2309.0000  1299.7697   122.4130   -34.9045     2.6483     2.6118     2.7236  1438.0447     0.0113    11.9244     0.0280     2.4949
 2309.5000  1300.1914   124.7497   -35.0487     2.6886     2.6892     2.7658  1438.1125     0.0115    11.9240     0.0226     2.4973
 2310.0000  1300.6130   125.8733   -35.1929     2.7307     2.7883     2.8081  1438.1805     0.0100    11.9389     0.0258     2.5113
 2310.5000  1301.0348   121.9832   -35.3371     2.8519     2.8911     2.8727  1438.2485     0.0026    11.9384     0.0321     2.5184
 2311.0000  1301.4564   116.9462   -35.4793     2.9793     3.0407     3.0002  1438.3164    -0.0104    11.9379     0.0236     2.5060
 2311.5000  1301.8781   114.8908   -35.4701     3.2489     3.2439     3.1565  1438.3844    -0.0383    11.9374     0.0057     2.4991
 2312.0000  1302.2998   111.0006   -35.4609     3.5684     3.5609     3.4415  1438.4524    -0.0456    11.9370    -0.0052     2.4999
 2312.5000  1302.7214   105.5050   -35.2969     3.8636     3.8400     4.1757  1438.5204    -0.0426    11.9365    -0.0051     2.5109
 2313.0000  1303.1432   101.1561   -35.2880     4.0074     4.0534     4.9593  1438.5883    -0.0472    11.9361    -0.0034     2.5236
 2313.5000  1303.5648   100.2475   -35.1259     4.1275     4.0846     5.2927  1438.6562    -0.0655    11.9203    -0.0002     2.5288
 2314.0000  1303.9866   103.6990   -35.1170     4.2549     4.1456     5.2598  1438.7242    -0.0808    11.9046     0.0022     2.5196
 2314.5000  1304.4082   112.6528   -34.9550     4.3463     4.1478     4.8918  1438.8330    -0.0837    11.8888     0.0077     2.5197
 2315.0000  1304.8314   117.2489   -34.7929     4.3186     4.1501     4.5054  1439.0677    -0.0761    11.8883     0.0172     2.5182
 2315.5000  1305.2410   118.1752   -34.6308     4.2597     4.1525     3.9664  1439.3024    -0.0538    11.8879     0.0235     2.5159
 2316.0000  1305.2430   115.2025   -34.6217     4.2325     4.1552     3.6437  1439.5371    -0.0369    11.8874     0.0150     2.5012
 2316.5000  1305.2416   106.7251   -34.6107     4.2062     4.1575     3.9173  1439.7719     0.0022    11.9023     0.0081     2.4997
 2317.0000  1305.2416    98.7065   -34.7572     4.2095     4.1598     4.7192  1440.0065    -0.0225    11.9324     0.0019     2.5068
