~VERSION INFORMATION
 VERS.                2.0:   CWLS LOG ASCII STANDARD - VERSION 2.0
 WRAP.                 NO:   ONE LINE PER DEPTH STEP
~WELL INFORMATION
#MNEM.UNIT      DATA TYPE    INFORMATION
#----------   ------------   ------------------------------
 STRT.F           72.5000:   START DEPTH
 STOP.F         2820.0000:   STOP DEPTH
 STEP.F            0.5000:   STEP LENGTH
 NULL.          -999.2500:   NO VALUE
 COMP.          INTEX OIL:   COMPANY
 WELL. INTEX OIL AX N. P. R. #51-29:   WELL
 FLD .             TEAPOT:   FIELD
 LOC .      S29 T39N R78W:   LOCATION
 CNTY.            NATRONA:   COUNTY
 STAT.            WYOMING:   STATE
 CTRY. UNITED STATES OF AMERICA:   COUNTRY
 SRVC.       SCHLUMBERGER:   SERVICE COMPANY
 DATE.        01-MAY-1966:   LOGDATE
 API .     49025094920000:   API NUMBER
~CURVE INFORMATION
#MNEM.UNIT       API CODE    CURVE DESCRIPTION
#----------   ------------   ------------------------------
 DEPT.F                  :   
 GRD .GAPI   45 310 01 00:   GAMMA RAY FROM DENSITY LOG
 CALD.IN     45 280 60 00:   CALIPER FROM DENSITY LOG
 RHOB.G/C3   45 350 01 00:   BULK DENSITY
 CORR.G/C3   45 356 01 00:   DENSITY CORRECTION
 SPR .MV     07 010 01 00:   SPONTANEOUS POTENTIAL
 ASN .OHMM   05 041 16 00:   AMPLIFIED SHORT NORMAL 16"
 ILD .OHMM   05 120 46 00:   DEEP INDUCTION RESISTIVITY
 DT  .US/F   60 520 00 00:   DELTA TIME
~PARAMETER INFORMATION
#MNEM.UNIT          VALUE    DESCRIPTION
#----------   ------------   ------------------------------
 EKB .F         5007.3000:   Kelly bushing
 EGL .F         4997.0000:   Ground level
 EDF .F            0.0000:   Drilling floor
 TD  .F         2799.0000:   Total depth
 DATE.        01-MAY-1966:   Date logged
 CLNT.            A2DTECH:   Client Code
 PD  .                 GL:   Permanent Datum
 EPD .F              4997:   Elevation Permanent Datum
 LMF .                 KB:   Log Measured From
 DMF .                 KB:   Drilling Measured From
 DAPD.F              10.3:   Feet Above Permanent Datum
 DD  .F              2798:   Depth driller
 DL  .F              2799:   Depth logger
 BLI .F              2798:   Bottom log interval
 TLI .F                88:   Top log interval
 CS1 .IN            10.75:   Casing size
 CBD1.       10.75" @ 30':   Casing driller 1
 BS1 .IN            7.875:   Bit size
 BSD1.F              2798:   Depth drilled with bit1
 DFT .           CHEM/OIL:   Type fluid in hole
 DFD .                9.5:   Density
 DFV .                 46:   Viscosity
 DFPH.                7.2:   pH
 DFL .                7.0:   Fluid loss
 MSS .         CIRCULATED:   Source of sample
 RMS .OHMM           2.28:   Rm
 MST .F                68:   Rm Meas. temp.
 RMF .OHMM           1.32:   Rmf
 MFST.F                72:   Rmf Meas. temp.
 MFSS.                 FP:   Source Rmf.
 RMB .OHMM           1.52:   Rm. at BHT
 BHT .F               102:   BHT.
 TCS .HRS             1.5:   Time Circ. stopped
 MRT .F               102:   Maximum recorded temp.
 LUN .               4507:   Logging unit number
 LUL .               CSPR:   Logging unit location
 ENGI.               HAUG:   Recorded By
 WITN.      TUTTLE/HUDSON:   Witnessed by
 ORIG.           5" PRINT:   Origin of data
 UWI .     49025094920000:   Unique Well ID
 DICO. A2D TECHNOLOGIES, INC.:   Digitizing Company
~OTHER INFORMATION
~A   DEPT      GRD       CALD       RHOB       CORR        SPR        ASN        ILD         DT   
# ...
 2300.0000   124.7180     8.9930     2.5050    -0.0010   -37.2490     9.9900     6.6680    85.1250
 2300.5000   126.5040     8.9920     2.4970    -0.0100   -37.1400    10.1360     6.9660    85.7570
 2301.0000   128.2080     8.9920     2.5190    -0.0040   -37.0130    10.2940     7.2330    86.3900
 2301.5000   129.8880     8.9920     2.5280     0.0060   -36.8910    10.4950     7.4830    86.2910
 2302.0000   131.3780     8.9920     2.5190    -0.0050   -36.8440    10.8370     7.7490    84.7510
 2302.5000   130.7740     8.9920     2.5130    -0.0120   -36.9060    11.3550     8.0340    83.2110
 2303.0000   127.6160     8.9920     2.5180    -0.0080   -37.0250    11.9020     8.3070    81.6710
 2303.5000   124.0570     8.9920     2.5250    -0.0100   -37.1270    12.2410     8.5300    80.1310
 2304.0000   120.1770     8.9920     2.5300    -0.0120   -37.2090    12.2770     8.6750    78.6990
 2304.5000   117.4770     8.9920     2.5350    -0.0080   -37.3200    12.1250     8.7410    78.0220
 2305.0000   114.4210     8.9920     2.5190    -0.0110   -37.4650    11.9540     8.7480    78.6100
 2305.5000   112.3710     8.9840     2.5040    -0.0170   -37.5620    11.8320     8.7270    79.8450
 2306.0000   112.4390     8.9770     2.5080    -0.0210   -37.5130    11.7570     8.7030    81.0810
 2306.5000   113.6540     8.9700     2.5260    -0.0080   -37.3090    11.7380     8.6850    81.9980
 2307.0000   114.8010     8.9620     2.5290     0.0040   -37.0470    11.7870     8.6660    80.7480
 2307.5000   116.0610     8.9550     2.5200    -0.0040   -36.8590    11.8620     8.6410    79.7590
 2308.0000   117.7610     8.9470     2.5170    -0.0110   -36.7960    11.8950     8.6180    80.0100
 2308.5000   120.4650     8.9400     2.5290    -0.0180   -36.8060    11.8600     8.6070    81.2910
 2309.0000   123.4620     8.9330     2.5320    -0.0190   -36.8140    11.7840     8.5930    82.5760
 2309.5000   125.1490     8.9250     2.5200    -0.0190   -36.8060    11.7140     8.5430    83.4890
 2310.0000   124.4270     8.9180     2.5110    -0.0180   -36.8140    11.7010     8.4450    82.8040
 2310.5000   123.1290     8.9100     2.5000    -0.0160   -36.8270    11.7690     8.3220    81.6930
 2311.0000   121.4260     8.9030     2.4970    -0.0130   -36.8040    11.8700     8.1970    80.9500
 2311.5000   119.6810     8.8950     2.4930    -0.0100   -36.7740    11.8850     8.0680    80.2830
 2312.0000   118.0450     8.8880     2.4950    -0.0080   -36.8440    11.7310     7.9300    79.6160
 2312.5000   116.2730     8.8810     2.5010    -0.0060   -37.0260    11.4540     7.8090    79.9350
 2313.0000   115.6780     8.8730     2.5110    -0.0140   -37.1470    11.1750     7.7400    80.8820
 2313.5000   115.9260     8.8780     2.5180    -0.0040   -37.0270    10.9700     7.7170    81.9070
 2314.0000   116.5190     8.8860     2.5070     0.0000   -36.7190    10.8410     7.7000    82.9320
 2314.5000   117.2190     8.8940     2.4980    -0.0050   -36.4700    10.7780     7.6620    83.9570
 2315.0000   118.0780     8.9020     2.4890    -0.0110   -36.4350    10.7920     7.6130    84.3110
 2315.5000   118.9410     8.9110     2.4800    -0.0190   -36.5410    10.8740     7.5900    84.6440
 2316.0000   119.7700     8.9190     2.4800    -0.0100   -36.6410    10.9950     7.6080    84.4430
 2316.5000   121.4110     8.9270     2.4920    -0.0160   -36.6940    11.1250     7.6550    83.6220
 2317.0000   123.2780     8.9350     2.5050    -0.0170   -36.7490    11.2370     7.7090    82.8010
 2317.5000   125.1800     8.9430     2.5200    -0.0030   -36.8280    11.2810     7.7580    82.1930
 2318.0000   124.5020     8.9510     2.5090    -0.0090   -36.9030    11.2340     7.8040    82.4790
 2318.5000   122.2030     8.9450     2.5130    -0.0150   -36.9650    11.1570     7.8540    83.4890
 2319.0000   121.3760     8.9380     2.5140    -0.0080   -37.0390    11.1430     7.9050    83.5880
 2319.5000   121.3900     8.9310     2.5100     0.0000   -37.1260    11.2100     7.9520    82.9290
 2320.0000   122.4520     8.9250     2.5160     0.0020   -37.1790    11.2900     7.9990    82.2180
 2320.5000   123.9470     8.9180     2.5230    -0.0120   -37.1560    11.3170     8.0510    81.5080
 2321.0000   125.0740     8.9110     2.5190    -0.0180   -37.0670    11.2970     8.1040    80.9800
 2321.5000   124.7090     8.9040     2.5110    -0.0110   -36.9630    11.2670     8.1470    81.4800
 2322.0000   124.5780     8.8970     2.4980    -0.0130   -36.8780    11.2500     8.1890    81.8350
 2322.5000   124.4940     8.8900     2.5030    -0.0170   -36.8090    11.2390     8.2490    81.9350
 2323.0000   122.0880     8.8830     2.5210     0.0010   -36.7450    11.2210     8.3170    81.6670
 2323.5000   119.7400     8.8760     2.5180     0.0060   -36.6820    11.1940     8.3400    80.7830
 2324.0000   118.6210     8.8740     2.5290     0.0120   -36.6230    11.1700     8.2680    79.5130
 2324.5000   119.7110     8.8820     2.5220     0.0020   -36.5670    11.1640     8.1150    80.0380
 2325.0000   118.9020     8.8900     2.5170    -0.0100   -36.5120    11.1570     7.9360    80.1090
 2325.5000   117.3850     8.8980     2.5280    -0.0030   -36.4540    11.0880     7.7700    79.4090
 2326.0000   115.6850     8.9060     2.5200    -0.0090   -36.3940    10.9030     7.6110    78.7180
 2326.5000   115.3720     8.9140     2.5120    -0.0050   -36.3350    10.6270     7.4480    79.8740
 2327.0000   117.6320     8.9230     2.5180     0.0040   -36.2810    10.3560     7.2860    81.7900
 2327.5000   120.9320     8.9310     2.4890    -0.0030   -36.2280    10.1780     7.1240    84.1790
 2328.0000   124.4500     8.9390     2.4880    -0.0070   -36.1630    10.0990     6.9520    84.5830
 2328.5000   125.4230     8.9490     2.5080    -0.0080   -36.0920    10.0740     6.7750    82.5920
 2329.0000   124.5830     8.9390     2.5230    -0.0140   -36.0430    10.0680     6.6310    81.2030
 2329.5000   125.8200     8.9050     2.5290    -0.0110   -36.0420    10.0630     6.5520    79.6120
 2330.0000   128.1280     8.8740     2.5350    -0.0040   -36.0780    10.0230     6.5300    81.9260
 2330.5000   129.7030     8.8410     2.5150     0.0030   -36.1240     9.9060     6.5230    84.3700
 2331.0000   129.9420     8.8370     2.5110     0.0040   -36.1680     9.7110     6.4910    84.5770
 2331.5000   129.2000     8.8500     2.5170    -0.0030   -36.2080     9.4900     6.4340    83.9860
 2332.0000   128.6150     8.8600     2.5180    -0.0080   -36.2390     9.3080     6.3970    84.6450
 2332.5000   128.0020     8.8700     2.5150    -0.0080   -36.2700     9.2210     6.4450    84.0190
 2333.0000   127.4680     8.8700     2.5320     0.0050   -36.3210     9.2760     6.5880    82.0470
 2333.5000   125.7440     8.8680     2.5540     0.0160   -36.3860     9.4800     6.7710    80.0750
 2334.0000   122.2430     8.8660     2.5670     0.0250   -36.4120     9.7580     6.9340    78.1120
 2334.5000   119.3830     8.8640     2.5500     0.0130   -36.3620     9.9910     7.0770    79.5120
 2335.0000   118.1610     8.8630     2.5350     0.0030   -36.2510    10.1250     7.2370    81.2620
 2335.5000   118.0770     8.8610     2.5190    -0.0100   -36.0950    10.2230     7.4100    81.9670
 2336.0000   118.0120     8.8590     2.5150    -0.0080   -35.8930    10.3760     7.5490    80.8070
 2336.5000   116.4490     8.8570     2.5160    -0.0070   -35.7140    10.5660     7.6320    79.2150
 2337.0000   113.8280     8.8550     2.5080    -0.0130   -35.7170    10.6870     7.6880    78.6180
 2337.5000   114.5870     8.8540     2.5040    -0.0120   -35.9670    10.6740     7.7350    79.3270
 2338.0000   116.4390     8.8520     2.5100    -0.0070   -36.2940    10.5840     7.7500    80.2770
 2338.5000   118.7480     8.8500     2.5120    -0.0120   -36.4630    10.5150     7.7140    80.5850
 2339.0000   121.2290     8.8480     2.5080    -0.0130   -36.4320    10.4970     7.6470    80.7230
 2339.5000   122.1800     8.8460     2.5040    -0.0070   -36.3500    10.4940     7.5780    80.8620
 2340.0000   120.1680     8.8450     2.5050    -0.0120   -36.3310    10.4700     7.5100    81.0040
