~VERSION INFORMATION
 VERS.                2.0:   CWLS LOG ASCII STANDARD - VERSION 2.0
 WRAP.                 NO:   ONE LINE PER DEPTH STEP
~WELL INFORMATION
#MNEM.UNIT      DATA TYPE    INFORMATION
#----------   ------------   ------------------------------
 STRT.F          200.0000:   START DEPTH
 STOP.F         3058.0000:   STOP DEPTH
 STEP.F            0.5000:   STEP LENGTH
 NULL.          -999.2500:   NO VALUE
 COMP.    FENIX & SCISSON:   COMPANY
 WELL. FENIX & SCISSON "A" #45-34:   WELL
 FLD .              N P R:   FIELD
 LOC .      S34 T39N R78W:   LOCATION
 CNTY.            NATRONA:   COUNTY
 STAT.            WYOMING:   STATE
 CTRY. UNITED STATES OF AMERICA:   COUNTRY
 SRVC.              WELEX:   SERVICE COMPANY
 DATE.        11-MAY-1977:   LOGDATE
 API .     49025103760000:   API NUMBER
~CURVE INFORMATION
#MNEM.UNIT       API CODE    CURVE DESCRIPTION
#----------   ------------   ------------------------------
 DEPT.F                  :   
 GRD .GAPI   45 310 01 00:   GAMMA RAY FROM DENSITY LOG
 CALD.IN     45 280 60 00:   CALIPER FROM DENSITY LOG
 RHOB.G/C3   45 350 01 00:   BULK DENSITY
 CORR.G/C3   45 356 01 00:   DENSITY CORRECTION
 SPR .MV     07 010 01 00:   SPONTANEOUS POTENTIAL
 ILD .OHMM   07 120 46 00:   DEEP INDUCTION RESISTIVITY
 ILM .OHMM   07 120 44 00:   INDUCTION LOG MEDIUM RESISTIVITY
 GURD.OHMM   07 220 05 00:   GUARD LOG RESISTIVITY
~PARAMETER INFORMATION
#MNEM.UNIT          VALUE    DESCRIPTION
#----------   ------------   ------------------------------
 EKB .F         5123.0000:   Kelly bushing
 EGL .F         5113.0000:   Ground level
 EDF .F            0.0000:   Drilling floor
 EPD .F            0.0000:   Permanent datum
 TD  .F         3060.0000:   Total depth
 DATE.        11-MAY-1977:   Date logged
 CLNT.            A2DTECH:   Client Code
 SL  . 2310' FSL & 2310' FWL:   Surface Location
 PD  .                 GL:   Permanent Datum
 DD  .F              3060:   Depth driller
 DL  .F              3060:   Depth logger
 BLI .F              3058:   Bottom log interval
 CS1 .IN            8.625:   Casing size
 CBD1.      8.625" @ 205':   Casing driller 1
 CBL1.F               214:   Casing logger 1
 BS1 .IN            7.875:   Bit size
 DFT .            KCL/MUD:   Type fluid in hole
 DFD .                8.8:   Density
 DFV .                 45:   Viscosity
 MSS .           FLOWLINE:   Source of sample
 RMS .OHMM            3.2:   Rm
 MST .F                85:   Rm Meas. temp.
 RMF .OHMM            2.7:   Rmf
 MFST.F                85:   Rmf Meas. temp.
 RMC .OHMM            3.6:   Rmc
 MCST.F                85:   Rmc Meas. temp.
 MFSS.               CALC:   Source Rmf.
 RMB .OHMM           2.44:   Rm. at BHT
 BHT .F               112:   BHT.
 TCS .HRS             2.5:   Time Circ. stopped
 MRT .F               112:   Maximum recorded temp.
 LUN .               8611:   Logging unit number
 LUL .           GILLETTE:   Logging unit location
 ENGI.            C. DOAK:   Recorded By
 WITN.      B. HARRINGTON:   Witnessed by
 ORIG.           5" PRINT:   Origin of data
 UWI .     49025103760000:   Unique Well ID
 DICO. A2D TECHNOLOGIES, INC.:   Digitizing Company
 DAPD.F                10:   Feet Above Permanent Datum
 BSD1.F              3060:   Depth drilled with bit1
 MCSS.               CALC:   Source Rmc.
 TLI .F               200:   Top log interval
~OTHER INFORMATION
~A   DEPT       GRD      CALD         RHOB      CORR       SPR        ILD        ILM       GURD   
  200.0000    96.8630  -999.2500     1.7870    -0.3800  -999.2500  -999.2500  -999.2500  -999.2500
  200.5000    98.0680     8.3480     1.7630    -0.4060  -999.2500  -999.2500  -999.2500  -999.2500
  201.0000    99.4110     8.3450     1.7480    -0.3930  -999.2500  -999.2500  -999.2500  -999.2500
  201.5000   100.7530     8.3420     1.7280    -0.3800  -999.2500  -999.2500  -999.2500  -999.2500
  202.0000   102.0960     8.3390     1.6840    -0.3550  -999.2500  -999.2500  -999.2500  -999.2500
  202.5000   103.4380     8.3350     1.6520    -0.3320  -999.2500  -999.2500  -999.2500  -999.2500
  203.0000   104.7810     8.3320     1.6080    -0.3090  -999.2500  -999.2500  -999.2500  -999.2500
  203.5000   105.5690     8.3290     1.5890    -0.2980  -999.2500  -999.2500  -999.2500  -999.2500
  204.0000   107.1340     8.3280     1.5470    -0.2750  -999.2500  -999.2500  -999.2500  -999.2500
  204.5000   108.8270     8.3250     1.5080    -0.2520  -999.2500  -999.2500  -999.2500  -999.2500
  205.0000   110.5230     8.3230     1.4990    -0.2260  -999.2500  -999.2500  -999.2500  -999.2500
  205.5000   112.2100     8.3170     1.4960    -0.1990  -999.2500  -999.2500  -999.2500  -999.2500
  206.0000   113.9050     8.3170     1.5650    -0.1670  -999.2500  -999.2500  -999.2500  -999.2500
  206.5000   115.6940     8.3210     1.6190    -0.1350  -999.2500  -999.2500  -999.2500  -999.2500
  207.0000   118.0480     8.4670     1.6810    -0.0980  -999.2500  -999.2500  -999.2500  -999.2500
  207.5000   120.5940     8.6320     1.7530    -0.0250  -999.2500  -999.2500  -999.2500  -999.2500
  208.0000   123.0780     8.7930     1.9330     0.0710  -999.2500  -999.2500  -999.2500  -999.2500
  208.5000   125.5590     8.9620     2.0250     0.1480  -999.2500  -999.2500  -999.2500  -999.2500
  209.0000   128.3330     9.1540     2.1650     0.1870  -999.2500  -999.2500  -999.2500  -999.2500
  209.5000   129.4670     9.2340     2.1570     0.1690  -999.2500  -999.2500  -999.2500  -999.2500
  210.0000   127.7180    10.0360     2.1380     0.1390  -999.2500  -999.2500  -999.2500  -999.2500
  210.5000   126.2950    10.7490     2.1190     0.1080  -999.2500  -999.2500  -999.2500  -999.2500
  211.0000   124.7600    10.7880     2.1500     0.0830  -999.2500  -999.2500  -999.2500  -999.2500
  211.5000   123.9130    10.6270     2.1820     0.0860  -999.2500  -999.2500  -999.2500  -999.2500
  212.0000   123.4310    10.4970     2.1790     0.0860  -999.2500  -999.2500  -999.2500  -999.2500
  212.5000   122.9040    10.3940     2.1800     0.0810  -999.2500  -999.2500    10.4350  -999.2500
  213.0000   122.3770    10.3980     2.1850     0.0790  -999.2500  -999.2500    10.3880  -999.2500
  213.5000   121.8680    10.3860     2.1830     0.0760  -999.2500     6.6910    10.3410     0.6770
  214.0000   121.3370    10.3770     2.1730     0.0740  -999.2500     6.9540    10.2940     1.7150
  214.5000   121.1650    10.3690     2.1620     0.0720  -999.2500     7.2160    10.2470     2.7530
  215.0000   121.1780    10.3830     2.1620     0.0710  -999.2500     7.4790    10.2010     3.7910
  215.5000   121.1800    10.4000     2.1690     0.0750  -999.2500     7.7410    10.1540     4.8560
  216.0000   121.1730    10.4170     2.1750     0.0800  -999.2500     8.0040    10.1920     6.2810
  216.5000   121.1780    10.4340     2.1810     0.0850  -999.2500     8.2760    10.0830     7.0140
  217.0000   121.1840    10.4510     2.1880     0.0900  -999.2500     8.4120    10.0370     7.0080
  217.5000   121.1490    10.4680     2.1870     0.0900  -999.2500     8.7450     9.9900     7.1440
  218.0000   121.5000    10.4860     2.1760     0.0880  -999.2500     8.7290     9.9460     7.8960
  218.5000   122.2930    10.5020     2.1710     0.0860  -999.2500     8.7100     9.9300     9.5410
  219.0000   123.0420    10.5190     2.1720     0.0850  -999.2500     8.6910     9.9150    11.1060
  219.5000   123.8020    10.5330     2.1730     0.0830  -999.2500     8.6720     9.9000    10.4550
  220.0000   124.5620    10.5610     2.1750     0.0870  -999.2500     8.6530     9.8850     9.4480
  220.5000   125.3220    10.5890     2.1800     0.0960  -999.2500     8.6340     9.8700     8.2760
  221.0000   126.0870    10.6170     2.1880     0.1030  -999.2500     8.6150     9.8550     9.2050
  221.5000   126.7250    10.6440     2.1950     0.1090  -999.2500     8.5960     9.8390    10.5100
  222.0000   127.0060    10.6740     2.2010     0.1180  -999.2500     8.5760     9.8240    10.0250
  222.5000   127.2850    10.6770     2.2040     0.1260  -999.2500     8.5530     9.8090     9.4400
  223.0000   127.7320    10.6630     2.2070     0.1310  -999.2500     8.5300     9.7950     8.8550
  223.5000   128.4230    10.6490     2.2100     0.1410  -999.2500     8.5080     9.7810     8.2690
  224.0000   129.1030    10.6360     2.2130     0.1490  -999.2500     8.4850     9.7650     7.6890
  224.5000   129.7860    10.6260     2.2140     0.1640  -999.2500     8.4620     9.6960     7.6420
  225.0000   130.4730    10.6040     2.2160     0.1860  -999.2500     8.4400     9.5840     7.5950
  225.5000   131.1530    10.6460     2.2190     0.2090  -999.2500     8.4170     9.4720     7.5490
  226.0000   131.8340    10.7370     2.2250     0.2320  -999.2500     8.3940     9.3590     7.5020
  226.5000   132.5450    11.0050     2.2520     0.2530  -999.2500     8.3720     9.2470     7.4560
  227.0000   133.2160    11.2960     2.2600     0.2530  -999.2500     8.3490     9.1350     7.4090
  227.5000   133.8390    11.5730     2.2440     0.2240  -999.2500     8.3260     9.0220     7.3630
  228.0000   134.4930    11.7650     2.2320     0.2030  -999.2500     8.3040     8.9100     7.3160
  228.5000   135.1470    11.6070     2.2270     0.1450  -999.2500     8.2810     8.7980     7.2700
  229.0000   135.7960    11.3480     2.2210     0.0980  -999.2500     8.2540     8.6850     7.2230
  229.5000   136.4440    11.0780     2.2630     0.0490  -999.2500     8.1970     8.5730     7.1770
  230.0000   137.1040    10.8180     2.3650     0.0470  -999.2500     8.1390     8.4610     7.1300
  230.5000   137.7410    10.7480     2.4580     0.0460  -999.2500     8.0820     8.3480     7.0840
  231.0000   138.3970    10.6830     2.4750     0.0470  -999.2500     8.0240     8.2760     7.0370
  231.5000   138.6120    10.6300     2.4760     0.0470  -999.2500     7.9670     8.1610     6.9910
  232.0000   138.8190    10.5680     2.4710     0.0470  -999.2500     7.9090     8.0420     6.9440
  232.5000   139.0040    10.5450     2.4650     0.0470  -999.2500     7.8520     7.9220     6.8860
  233.0000   139.2040    10.5230     2.4640     0.0470  -999.2500     7.7940     7.8020     6.9020
  233.5000   139.4000    10.4990     2.4620     0.0470  -999.2500     7.7370     7.6820     6.9520
  234.0000   139.5910    10.4850     2.4580     0.0470  -999.2500     7.6790     7.5620     7.0010
  234.5000   139.7910    10.4870     2.4560     0.0470  -999.2500     7.6220     7.4420     7.0510
  235.0000   140.0100    10.4860     2.4500     0.0470  -999.2500     7.5640     7.3220     7.1000
  235.5000   140.5100    10.4860     2.4430     0.0430  -999.2500     7.5070     7.2020     7.1440
  236.0000   141.0740    10.4860     2.4370     0.0390  -999.2500     7.4490     7.0820     0.2090
  236.5000   141.6270    10.4860     2.4250     0.0340  -999.2500     7.3920     6.9620     2.1630
  237.0000   142.1790    10.4860     2.4140     0.0290  -999.2500     7.3340     6.8430     4.3980
  237.5000   142.7930    10.4860     2.4030     0.0250  -999.2500     7.2770     6.7230     6.4140
  238.0000   143.0810    10.4860     2.3950     0.0240  -999.2500     7.2190     6.6030     8.1800
  238.5000   142.6920    10.4860     2.3980     0.0260  -999.2500     7.1620     6.4830     9.3540
  239.0000   142.3330    10.4860     2.4020     0.0270  -999.2500     7.0990     6.3980    10.5280
  239.5000   141.1370    10.4870     2.4090     0.0290  -999.2500     7.0350     6.3530    11.7020
  240.0000   139.7500    10.5040     2.4190     0.0310  -999.2500     6.9710     6.3030    12.8760
