~VERSION INFORMATION
 VERS.                2.0:   CWLS LOG ASCII STANDARD - VERSION 2.0
 WRAP.                 NO:   ONE LINE PER DEPTH STEP
~WELL INFORMATION
#MNEM.UNIT      DATA TYPE    INFORMATION
#----------   ------------   ------------------------------
 STRT.F            0.0000:   START DEPTH
 STOP.F         3040.0000:   STOP DEPTH
 STEP.F            0.5000:   STEP LENGTH
 NULL.          -999.2500:   NO VALUE
 COMP. LAWRENCE ALLISON & ASSOCIATES:   COMPANY
 WELL. LAWRENCE NPR 3 "AX" #77-28:   WELL
 FLD .      NPR - WILDCAT:   FIELD
 LOC .      S28 T39N R78W:   LOCATION
 CNTY.            NATRONA:   COUNTY
 STAT.            WYOMING:   STATE
 CTRY. UNITED STATES OF AMERICA:   COUNTRY
 SRVC.      DRESSER ATLAS:   SERVICE COMPANY
 DATE.        19-OCT-1986:   LOGDATE
 API .     49025111150000:   API NUMBER
~CURVE INFORMATION
#MNEM.UNIT       API CODE    CURVE DESCRIPTION
#----------   ------------   ------------------------------
 DEPT.F                  :   
 TENR.LBS    07 635 01 00:   TENSION FROM RESISTIVITY
 RILD.OHMM   07 120 46 00:   DEEP INDUCTION RESISTIVITY
 RILM.OHMM   07 120 44 00:   INDUCTION LOG MEDIUM RESISTIVITY
 RFOC.OHMM   07 220 04 00:   RESISTIVITY FOCUSED LOG RES.
 SPR .MV     07 010 01 00:   SPONTANEOUS POTENTIAL
 GRR .GAPI   07 310 01 00:   GAMMA RAY FROM RESISTIVITY
 CNC .DEC    42 890 03 00:   NEUTRON POROSITY SANDSTONE
 RHOB.G/C3   45 350 01 00:   BULK DENSITY
 TEND.LBS    45 635 01 00:   TENSION FROM DENSITY LOG
 CORR.G/C3   45 356 01 00:   DENSITY CORRECTION
 CALD.IN     45 280 60 00:   CALIPER FROM DENSITY LOG
~PARAMETER INFORMATION
#MNEM.UNIT          VALUE    DESCRIPTION
#----------   ------------   ------------------------------
 EKB .F         5086.0000:   Kelly bushing
 EGL .F         5074.0000:   Ground level
 EDF .F            0.0000:   Drilling floor
 TD  .F         3025.0000:   Total depth
 DATE.        19-OCT-1986:   Date logged
 CLNT.            A2DTECH:   Client Code
 SL  . 967' FSL @ 763' FEL:   Surface Location
 PD  .                 GL:   Permanent Datum
 EPD .F              5074:   Elevation Permanent Datum
 LMF .                 KB:   Log Measured From
 DMF .                 KB:   Drilling Measured From
 DAPD.F                12:   Feet Above Permanent Datum
 DD  .F              3021:   Depth driller
 DL  .F              3025:   Depth logger
 BLI .F              3023:   Bottom log interval
 CS1 .IN            8.625:   Casing size
 CBD1.      8.625" @ 620':   Casing driller 1
 CBL1.F               615:   Casing logger 1
 BS1 .IN            7.875:   Bit size
 BSD1.F              3021:   Depth drilled with bit1
 DFT .        KCL/POLTMER:   Type fluid in hole
 DFD .                8.9:   Density
 DFV .                 38:   Viscosity
 DFPH.                9.5:   pH
 DFL .                 11:   Fluid loss
 MSS .           FLOWLINE:   Source of sample
 RMS .OHMM            .25:   Rm
 MST .F                65:   Rm Meas. temp.
 RMF .OHMM           .203:   Rmf
 MFST.F                65:   Rmf Meas. temp.
 RMC .OHMM            .31:   Rmc
 MCST.F                65:   Rmc Meas. temp.
 MFSS.               MEAS:   Source Rmf.
 MCSS.               CALC:   Source Rmc.
 RMB .OHMM           .136:   Rm. at BHT
 BHT .F               119:   BHT.
 TCS .HRS               5:   Time Circ. stopped
 MRT .F               119:   Maximum recorded temp.
 LUN .               6274:   Logging unit number
 LUL .               GLTE:   Logging unit location
 ENGI.             RAUTIO:   Recorded By
 WITN.             STRONG:   Witnessed by
 ORIG.         2.5" PRINT:   Origin of data
 UWI .     49025111150000:   Unique Well ID
 DICO. A2D TECHNOLOGIES, INC.:   Digitizing Company
~OTHER INFORMATION
~A    DEPT    TENR       RILD       RILM       RFOC        SPR         GRR       CNC       RHOB       TEND       CORR       CALD   
# ...
 1891.0000   -54.4400     7.3220     7.6280     8.9540   -80.1420   139.5670  -999.2500  -999.2500  -999.2500  -999.2500  -999.2500
 1891.5000   -54.9740     7.2730     7.6170     8.9980   -80.2710   137.4090  -999.2500  -999.2500  -999.2500  -999.2500  -999.2500
 1892.0000   -55.5070     7.2240     7.5840     9.0740   -80.4030   134.4580  -999.2500  -999.2500  -999.2500  -999.2500  -999.2500
 1892.5000   -56.0400     7.1760     7.5160     9.1500   -80.5350   133.4760  -999.2500  -999.2500  -999.2500  -999.2500  -999.2500
 1893.0000   -56.5740     7.1280     7.4480     9.2640   -80.6640   133.1300  -999.2500  -999.2500  -999.2500  -999.2500  -999.2500
 1893.5000   -57.1070     7.0770     7.3800     9.1870   -80.7980   136.9200  -999.2500  -999.2500  -999.2500  -999.2500  -999.2500
 1894.0000   -57.6410     7.0280     7.3130     8.7890   -80.9320   143.0170  -999.2500  -999.2500  -999.2500  -999.2500  -999.2500
 1894.5000   -58.1740     6.9790     7.2450     8.1810   -81.0480   150.0010  -999.2500  -999.2500  -999.2500  -999.2500  -999.2500
 1895.0000   -58.7080     6.8290     7.2090     8.3300   -81.1730   148.2110  -999.2500  -999.2500  -999.2500  -999.2500  -999.2500
 1895.5000   -59.2410     6.8780     7.2670     8.6550   -80.8160   144.5430  -999.2500  -999.2500  -999.2500  -999.2500  -999.2500
 1896.0000   -59.7740     6.9500     7.3200     8.9570   -80.6980   141.3240  -999.2500  -999.2500  -999.2500  -999.2500  -999.2500
 1896.5000   -60.3080     7.0220     7.3740     9.2830   -80.5960   140.0710  -999.2500  -999.2500  -999.2500  -999.2500  -999.2500
 1897.0000   -60.8410     7.0940     7.4270     9.2740   -80.5230   140.3810  -999.2500  -999.2500  -999.2500  -999.2500  -999.2500
 1897.5000   -61.3750     7.1660     7.4810     9.2580   -80.4240   141.9070  -999.2500  -999.2500  -999.2500  -999.2500  -999.2500
 1898.0000   -61.9080     7.2380     7.5340     9.2410   -80.3380   141.6630  -999.2500  -999.2500  -999.2500  -999.2500  -999.2500
 1898.5000   -62.4410     7.3410     7.6110     9.2240   -80.2480   136.7760  -999.2500  -999.2500  -999.2500  -999.2500  -999.2500
 1899.0000   -62.9750     7.3380     7.6050     9.2070   -80.1580   132.6080  -999.2500  -999.2500  -999.2500  -999.2500  -999.2500
 1899.5000   -63.5080     7.3350     7.5960     9.1900   -80.0690   128.2140  -999.2500  -999.2500  -999.2500  -999.2500  -999.2500
 1900.0000   -63.1400     7.3310     7.5860     9.1740   -79.9800   126.9850  -999.2500  -999.2500  -999.2500  -999.2500  -999.2500
 1900.5000   -62.1510     7.3270     7.5770     9.1570   -79.8900   126.7250  -999.2500  -999.2500  -999.2500  -999.2500  -999.2500
 1901.0000   -61.1630     7.3230     7.5670     9.1400   -79.8000   128.2100  -999.2500  -999.2500  -999.2500  -999.2500  -999.2500
 1901.5000   -60.1740     7.3190     7.5570     9.1170   -79.7130   130.4950  -999.2500  -999.2500  -999.2500  -999.2500  -999.2500
 1902.0000   -59.1860     7.3150     7.5480     9.1460   -79.6170   132.0340  -999.2500  -999.2500  -999.2500  -999.2500  -999.2500
 1902.5000   -58.1980     7.3110     7.5380     9.2670   -79.5640   132.9060  -999.2500  -999.2500  -999.2500  -999.2500  -999.2500
 1903.0000   -57.2090     7.3070     7.5290     9.3880   -79.6350   133.0600  -999.2500  -999.2500  -999.2500  -999.2500  -999.2500
 1903.5000   -56.2210     7.3030     7.5190     9.4540   -79.8800   131.4790  -999.2500  -999.2500  -999.2500  -999.2500  -999.2500
 1904.0000   -55.2330     7.2990     7.5100     9.4250   -80.1210   130.2940  -999.2500  -999.2500  -999.2500  -999.2500  -999.2500
 1904.5000   -54.2440     7.2960     7.5000     9.3980   -80.3680   131.1730  -999.2500  -999.2500  -999.2500  -999.2500  -999.2500
 1905.0000   -53.2560     7.2920     7.4910     9.3710   -80.6140   133.8220  -999.2500  -999.2500  -999.2500  -999.2500  -999.2500
 1905.5000   -52.2680     7.2880     7.4810     9.3440   -80.8580   137.5690  -999.2500  -999.2500  -999.2500  -999.2500  -999.2500
 1906.0000   -51.2790     7.2840     7.4730     9.3180   -81.1010   140.2400  -999.2500  -999.2500  -999.2500  -999.2500  -999.2500
 1906.5000   -50.2910     7.2800     7.4680     9.2910   -81.3650   140.4900  -999.2500  -999.2500  -999.2500  -999.2500  -999.2500
 1907.0000   -49.3030     7.2760     7.4630     9.3440   -81.5420   140.3970  -999.2500  -999.2500  -999.2500  -999.2500  -999.2500
 1907.5000   -48.3140     7.2720     7.4570     9.4300   -81.4100   141.5180  -999.2500  -999.2500  -999.2500  -999.2500  -999.2500
 1908.0000   -47.3260     7.2680     7.4520     9.5160   -81.1850   143.8750  -999.2500  -999.2500  -999.2500  -999.2500  -999.2500
 1908.5000   -46.3380     7.2640     7.4470     9.6020   -80.9710   146.0860  -999.2500  -999.2500  -999.2500  -999.2500  -999.2500
 1909.0000   -45.3490     7.2610     7.4420     9.5220   -80.7500   145.9190  -999.2500  -999.2500  -999.2500  -999.2500  -999.2500
 1909.5000   -44.3610     7.2570     7.4370     9.3820   -80.5340   143.8560  -999.2500  -999.2500  -999.2500  -999.2500  -999.2500
 1910.0000   -44.4210     7.2530     7.4310     9.2420   -80.3180   141.5980  -999.2500  -999.2500  -999.2500  -999.2500  -999.2500
 1910.5000   -44.8220     7.2490     7.4260     9.1030   -80.0850   139.3860  -999.2500  -999.2500  -999.2500  -999.2500  -999.2500
 1911.0000   -45.2240     7.2450     7.4210     8.9630   -79.9440   136.0390  -999.2500  -999.2500  -999.2500  -999.2500  -999.2500
 1911.5000   -45.6260     7.2410     7.4160     8.8240   -80.0160   135.3190  -999.2500  -999.2500  -999.2500  -999.2500  -999.2500
 1912.0000   -46.0270     7.2370     7.4110     8.9570   -80.1170   138.3480  -999.2500  -999.2500  -999.2500  -999.2500  -999.2500
 1912.5000   -46.4290     7.2330     7.4060     9.1640   -80.2130   141.2760  -999.2500  -999.2500  -999.2500  -999.2500  -999.2500
 1913.0000   -46.8310     7.2290     7.4000     9.4520   -80.3120   142.8020  -999.2500  -999.2500  -999.2500  -999.2500  -999.2500
 1913.5000   -47.2330     7.2250     7.3950     9.4250   -80.4100   142.1610  -999.2500  -999.2500  -999.2500  -999.2500  -999.2500
 1914.0000   -47.6340     7.2220     7.3900     9.2970   -80.5080   141.7910  -999.2500  -999.2500  -999.2500  -999.2500  -999.2500
 1914.5000   -48.0360     7.2180     7.3850     9.1700   -80.6070   141.3870  -999.2500  -999.2500  -999.2500  -999.2500  -999.2500
 1915.0000   -48.4380     7.2140     7.3800     9.0420   -80.7040   140.9390  -999.2500  -999.2500  -999.2500  -999.2500  -999.2500
 1915.5000   -48.8390     7.2090     7.3740     8.9140   -80.7380   140.4580  -999.2500  -999.2500  -999.2500  -999.2500  -999.2500
 1916.0000   -49.2410     7.1760     7.3690     8.7940   -80.6010   139.0160  -999.2500  -999.2500  -999.2500  -999.2500  -999.2500
 1916.5000   -49.6430     7.1370     7.3640     8.8310   -80.4370   137.3300  -999.2500  -999.2500  -999.2500  -999.2500  -999.2500
 1917.0000   -50.0450     7.0980     7.3590     8.8870   -80.2740   135.4980  -999.2500  -999.2500  -999.2500  -999.2500  -999.2500
 1917.5000   -50.4460     7.0580     7.3540     8.9430   -80.1110   135.7090  -999.2500  -999.2500  -999.2500  -999.2500  -999.2500
 1918.0000   -50.8480     7.0190     7.3480     8.9990   -79.9450   137.0730  -999.2500  -999.2500  -999.2500  -999.2500  -999.2500
 1918.5000   -51.2500     6.9800     7.3450     9.0550   -79.7870   138.3900  -999.2500  -999.2500  -999.2500  -999.2500  -999.2500
 1919.0000   -51.6520     6.9410     7.3190     9.1110   -79.6190   138.5800  -999.2500  -999.2500  -999.2500  -999.2500  -999.2500
 1919.5000   -52.0530     6.9010     7.2710     9.1670   -79.6870   138.3110  -999.2500  -999.2500  -999.2500  -999.2500  -999.2500
 1920.0000   -52.4550     6.8620     7.2250     9.2230   -79.8680   139.1810  -999.2500  -999.2500  -999.2500  -999.2500  -999.2500
 1920.5000   -52.8570     6.8230     7.1780     9.2830   -80.0410   139.9470  -999.2500  -999.2500  -999.2500  -999.2500  -999.2500
 1921.0000   -53.2580     6.7840     7.1320     8.9180   -80.2120   140.6890  -999.2500  -999.2500  -999.2500  -999.2500  -999.2500
