~VERSION INFORMATION
 VERS.                2.0:   CWLS LOG ASCII STANDARD - VERSION 2.0
 WRAP.                 NO:   ONE LINE PER DEPTH STEP
~WELL INFORMATION
#MNEM.UNIT      DATA TYPE    INFORMATION
#----------   ------------   ------------------------------
 STRT.F           31.5000:   START DEPTH
 STOP.F         3370.0000:   STOP DEPTH
 STEP.F            0.5000:   STEP LENGTH
 NULL.          -999.2500:   NO VALUE
 COMP. LAWRENCE ALLISON & ASSOC - WEST:   COMPANY
 WELL. LAWRENCE "AX" #46-34:   WELL
 FLD .             NPR #3:   FIELD
 LOC .      S34 T39N R78W:   LOCATION
 CNTY.            NATRONA:   COUNTY
 STAT.            WYOMING:   STATE
 CTRY. UNITED STATES OF AMERICA:   COUNTRY
 SRVC.       SCHLUMBERGER:   SERVICE COMPANY
 DATE.        30-APR-1986:   LOGDATE
 API .     49025111380000:   API NUMBER
~CURVE INFORMATION
#MNEM.UNIT       API CODE    CURVE DESCRIPTION
#----------   ------------   ------------------------------
 DEPT.F                  :   
 TENR.LBS    07 635 01 00:   TENSION FROM RESISTIVITY
 GRR .GAPI   07 310 01 00:   GAMMA RAY FROM RESISTIVITY
 CALR.IN     07 280 01 00:   CALIPER FROM RESISTIVITY
 SPR .MV     07 010 01 00:   SPONTANEOUS POTENTIAL
 TEND.LBS    45 635 01 00:   TENSION FROM DENSITY LOG
 DEN .G/C3   45 350 01 00:   BULK DENSITY
 CORR.G/C3   45 356 01 00:   DENSITY CORRECTION
 CNC .DEC    42 890 03 00:   NEUTRON PORISITY SANDSTONE
 RFOC.OHMM   07 220 04 00:   RESISTIVITY FOCUSED LOG
 RILD.OHMM   07 120 46 00:   RESISTIVITY INDUCTION LOG DEEP
 RILM.OHMM   07 120 44 00:   RESISTIVITY INDUCTION LOG MEDIUM
~PARAMETER INFORMATION
#MNEM.UNIT          VALUE    DESCRIPTION
#----------   ------------   ------------------------------
 EKB .F         5094.0000:   Kelly bushing
 EGL .F         5082.0000:   Ground level
 EDF .F            0.0000:   Drilling floor
 TD  .F         3370.0000:   Total depth
 DATE.        30-APR-1986:   Date logged
 CLNT.            A2DTECH:   Client Code
 SL  . 2462' FWL & 1545' FSL:   Surface Location
 PD  .                 GL:   Permanent Datum
 EPD .F              5082:   Elevation Permanent Datum
 LMF .                 KB:   Log Measured From
 DMF .                 KB:   Drilling Measured From
 DAPD.F                12:   Feet Above Permanent Datum
 DD  .F              3370:   Depth driller
 DL  .F              3369:   Depth logger
 BLI .F              3367:   Bottom log interval
 CS1 .IN            8.625:   Casing size
 CBD1.      8.625" @ 642':   Casing driller 1
 CBL1.F               642:   Casing logger 1
 BS1 .IN            7.875:   Bit size
 BSD1.F              3370:   Depth drilled with bit1
 DFT .        POLYMER/KCL:   Type fluid in hole
 DFD .                8.9:   Density
 DFV .                 36:   Viscosity
 DFPH.                8.5:   pH
 DFL .               10.2:   Fluid loss
 MSS .           FLOWLINE:   Source of sample
 RMS .OHMM           .319:   Rm
 MST .F                79:   Rm Meas. temp.
 RMF .OHMM            .24:   Rmf
 MFST.F                79:   Rmf Meas. temp.
 RMC .OHMM            .40:   Rmc
 MCST.F                79:   Rmc Meas. temp.
 MFSS.               CALC:   Source Rmf.
 MCSS.               CALC:   Source Rmc.
 RMB .OHMM            .21:   Rm. at BHT
 BHT .F               117:   BHT.
 TCS .HRS               4:   Time Circ. stopped
 MRT .F               117:   Maximum recorded temp.
 LUN .            HL-6264:   Logging unit number
 LUL .           GILLETTE:   Logging unit location
 ENGI.     P. M. FAHLSING:   Recorded By
 WITN.             STRONG:   Witnessed by
 ORIG.        2" 5" PRINT:   Origin of data
 UWI .     49025111380000:   Unique Well ID
 DICO. A2D TECHNOLOGIES, INC.:   Digitizing Company
 TLI .                  0:   Top log interval
~OTHER INFORMATION
~A   DEPT     TENR        GRR       CALR        SPR       TEND        DEN       CORR        CNC       RFOC       RILD       RILM   
# ...
 1190.5000   -80.9560    94.4670     9.7500   -86.1000  -999.2500  -999.2500  -999.2500  -999.2500     8.2910     7.8390     6.9530
 1191.0000   -81.1430    93.9270     9.7510   -85.8630  -999.2500  -999.2500  -999.2500  -999.2500     8.3070     7.8480     6.9610
 1191.5000   -81.3310    98.0910     9.7560   -85.6220  -999.2500  -999.2500  -999.2500  -999.2500     8.3220     7.8570     6.9690
 1192.0000   -81.5190   101.9240     9.7590   -85.3670  -999.2500  -999.2500  -999.2500  -999.2500     8.3380     7.8660     6.9770
 1192.5000   -81.7070   101.2090     9.7640   -85.1350  -999.2500  -999.2500  -999.2500  -999.2500     8.3470     7.8750     6.9850
 1193.0000   -81.8940    98.6440     9.7660   -84.8730  -999.2500  -999.2500  -999.2500  -999.2500     8.3240     7.8840     6.9930
 1193.5000   -82.0820    96.8520     9.7720   -84.7070  -999.2500  -999.2500  -999.2500  -999.2500     8.2720     7.8930     7.0020
 1194.0000   -82.2700    97.9750     9.7730   -84.9700  -999.2500  -999.2500  -999.2500  -999.2500     8.2200     7.8800     6.8780
 1194.5000   -82.4570   100.8570     9.7810   -85.2900  -999.2500  -999.2500  -999.2500  -999.2500     8.1940     7.8470     6.7470
 1195.0000   -82.6450   101.2870     9.7800   -85.6120  -999.2500  -999.2500  -999.2500  -999.2500     8.2110     7.8140     6.8310
 1195.5000   -82.8330   100.8310     9.7900   -85.9120  -999.2500  -999.2500  -999.2500  -999.2500     8.2350     7.7800     6.9070
 1196.0000   -83.0200   100.6080     9.7870   -86.2530  -999.2500  -999.2500  -999.2500  -999.2500     8.2600     7.7470     7.0020
 1196.5000   -83.2080   102.3940     9.7200   -86.6830  -999.2500  -999.2500  -999.2500  -999.2500     8.2840     7.7140     7.0020
 1197.0000   -83.3960   105.2260     9.6870   -86.7180  -999.2500  -999.2500  -999.2500  -999.2500     8.3080     7.6800     7.0020
 1197.5000   -83.5830   101.7690     9.6910   -86.6570  -999.2500  -999.2500  -999.2500  -999.2500     8.3330     7.7000     7.0020
 1198.0000   -83.7710    96.8780     9.6870   -86.6610  -999.2500  -999.2500  -999.2500  -999.2500     8.3470     7.7200     7.0020
 1198.5000   -83.9590    96.6960     9.6880   -86.5990  -999.2500  -999.2500  -999.2500  -999.2500     8.4190     7.7400     7.0020
 1199.0000   -84.1470    98.4470     9.6860   -86.5960  -999.2500  -999.2500  -999.2500  -999.2500     8.4100     7.7600     7.0020
 1199.5000   -84.3340   102.7770     9.6860   -86.5410  -999.2500  -999.2500  -999.2500  -999.2500     8.4010     7.7800     7.0020
 1200.0000   -84.5040   106.9090     9.6850   -86.5310  -999.2500  -999.2500  -999.2500  -999.2500     8.3920     7.8000     7.0020
 1200.5000   -77.4950   105.8840     9.6840   -86.4930  -999.2500  -999.2500  -999.2500  -999.2500     8.3840     7.8200     7.0020
 1201.0000   -71.1130    99.7810     9.6840   -86.2440  -999.2500  -999.2500  -999.2500  -999.2500     8.3750     7.8400     7.0020
 1201.5000   -64.4430    93.5910     9.6820   -85.9610  -999.2500  -999.2500  -999.2500  -999.2500     8.3660     7.8600     7.0020
 1202.0000   -64.4430    93.5670     9.6820   -85.6700  -999.2500  -999.2500  -999.2500  -999.2500     8.3570     7.8800     7.0020
 1202.5000   -64.4430    96.8910     9.6810   -85.4110  -999.2500  -999.2500  -999.2500  -999.2500     8.3470     7.8960     6.9580
 1203.0000   -64.4430    99.5750     9.6800   -85.0940  -999.2500  -999.2500  -999.2500  -999.2500     8.3200     7.7910     6.8840
 1203.5000   -64.4430   101.3270     9.6790   -84.9270  -999.2500  -999.2500  -999.2500  -999.2500     8.2870     7.7030     6.8090
 1204.0000   -64.4430   103.5650     9.6790   -84.9780  -999.2500  -999.2500  -999.2500  -999.2500     8.2540     7.6140     6.7340
 1204.5000   -64.4430   108.9030     9.6780   -85.1340  -999.2500  -999.2500  -999.2500  -999.2500     8.2210     7.5260     6.6590
 1205.0000   -64.4430   111.2640     9.6770   -85.6700  -999.2500  -999.2500  -999.2500  -999.2500     8.1870     7.4370     6.5840
 1205.5000   -64.8640   109.5140     9.6760   -86.1550  -999.2500  -999.2500  -999.2500  -999.2500     8.1540     7.3490     6.5090
 1206.0000   -65.2530   109.1500     9.6750   -86.5090  -999.2500  -999.2500  -999.2500  -999.2500     8.1180     7.2600     6.4340
 1206.5000   -65.6430   108.8580     9.6750   -86.9830  -999.2500  -999.2500  -999.2500  -999.2500     8.0380     7.1720     6.3590
 1207.0000   -66.0330   110.3330     9.6740   -87.2770  -999.2500  -999.2500  -999.2500  -999.2500     7.9270     7.0830     6.2850
 1207.5000   -66.4230   113.9760     9.6730   -87.2450  -999.2500  -999.2500  -999.2500  -999.2500     7.8160     6.9950     6.2100
 1208.0000   -66.8120   115.3570     9.6720   -87.1440  -999.2500  -999.2500  -999.2500  -999.2500     7.7050     6.9060     6.1350
 1208.5000   -67.2020   114.9010     9.6720   -87.1130  -999.2500  -999.2500  -999.2500  -999.2500     7.5940     6.8180     6.0600
 1209.0000   -67.5920   112.9600     9.6710   -87.0200  -999.2500  -999.2500  -999.2500  -999.2500     7.4830     6.7290     5.9850
 1209.5000   -67.9810   110.7770     9.6700   -86.9820  -999.2500  -999.2500  -999.2500  -999.2500     7.3720     6.6400     5.9280
 1210.0000   -68.3710   110.9250     9.6750   -86.8890  -999.2500  -999.2500  -999.2500  -999.2500     7.3330     6.5520     5.8710
 1210.5000   -68.7610   113.0720     9.6790   -86.5080  -999.2500  -999.2500  -999.2500  -999.2500     7.3330     6.4630     5.8670
 1211.0000   -69.1510   114.9970     9.6840   -86.1140  -999.2500  -999.2500  -999.2500  -999.2500     7.3170     6.3830     5.8630
 1211.5000   -69.5400   113.6730     9.6880   -85.7840  -999.2500  -999.2500  -999.2500  -999.2500     7.2830     6.3830     5.8590
 1212.0000   -69.9300   112.1470     9.6890   -85.4380  -999.2500  -999.2500  -999.2500  -999.2500     7.2490     6.3830     5.8550
 1212.5000   -70.3200   113.4250     9.6870   -85.1020  -999.2500  -999.2500  -999.2500  -999.2500     7.2150     6.3830     5.8510
 1213.0000   -70.7090   112.9870     9.6850   -84.7580  -999.2500  -999.2500  -999.2500  -999.2500     7.1810     6.3830     5.8470
 1213.5000   -71.0990   110.5530     9.6830   -84.4230  -999.2500  -999.2500  -999.2500  -999.2500     7.1470     6.3830     5.8430
 1214.0000   -71.4890   107.5970     9.6810   -84.0940  -999.2500  -999.2500  -999.2500  -999.2500     7.1130     6.3830     5.8400
 1214.5000   -71.8790   105.9410     9.6790   -84.1090  -999.2500  -999.2500  -999.2500  -999.2500     7.0790     6.3830     5.8360
 1215.0000   -72.2680   107.9580     9.6770   -84.4940  -999.2500  -999.2500  -999.2500  -999.2500     7.0670     6.3830     5.8320
 1215.5000   -72.6580   109.9360     9.6750   -84.9020  -999.2500  -999.2500  -999.2500  -999.2500     7.0670     6.3830     5.8280
 1216.0000   -73.0480   111.3790     9.6730   -85.2440  -999.2500  -999.2500  -999.2500  -999.2500     7.0670     6.3830     5.8240
 1216.5000   -73.4370   111.3590     9.6710   -85.6620  -999.2500  -999.2500  -999.2500  -999.2500     7.0670     6.3830     5.8190
 1217.0000   -73.8270   109.6060     9.6690   -86.0790  -999.2500  -999.2500  -999.2500  -999.2500     7.0670     6.3830     5.8500
 1217.5000   -74.2170   106.8780     9.6670   -86.3190  -999.2500  -999.2500  -999.2500  -999.2500     7.0670     6.3830     5.8850
 1218.0000   -74.4730   104.7890     9.6650   -86.5790  -999.2500  -999.2500  -999.2500  -999.2500     7.0670     6.4430     5.9190
 1218.5000   -78.2460   106.1490     9.6630   -86.7640  -999.2500  -999.2500  -999.2500  -999.2500     7.0670     6.5090     5.9540
 1219.0000   -81.5400   106.0240     9.6610   -86.8940  -999.2500  -999.2500  -999.2500  -999.2500     7.0670     6.5790     5.9880
 1219.5000   -84.8340   105.1840     9.6590   -86.9000  -999.2500  -999.2500  -999.2500  -999.2500     7.1580     6.6490     6.0230
 1220.0000   -88.1270   106.9000     9.6570   -86.5710  -999.2500  -999.2500  -999.2500  -999.2500     7.2740     6.7190     6.0570
 1220.5000   -91.4210   107.6270     9.6550   -86.1760  -999.2500  -999.2500  -999.2500  -999.2500     7.3910     6.7890     6.0920
