~VERSION INFORMATION
 VERS.                2.0:   CWLS LOG ASCII STANDARD - VERSION 2.0
 WRAP.                 NO:   ONE LINE PER DEPTH STEP
~WELL INFORMATION
#MNEM.UNIT      DATA TYPE    INFORMATION
#----------   ------------   ------------------------------
 STRT.F           12.0000:   START DEPTH
 STOP.F          900.0000:   STOP DEPTH
 STEP.F            0.5000:   STEP LENGTH
 NULL.          -999.2500:   NO VALUE
 COMP. FLUOR DANIEL - NPSOR:   COMPANY
 WELL. FLUOR NPR "X" #82-34:   WELL
 FLD .              NPR 3:   FIELD
 LOC .      S34 T39N R78W:   LOCATION
 CNTY.            NATRONA:   COUNTY
 STAT.            WYOMING:   STATE
 CTRY. UNITED STATES OF AMERICA:   COUNTRY
 SRVC.      WESTERN ATLAS:   SERVICE COMPANY
 DATE.        06-SEP-1994:   LOGDATE
 API .     49025226350000:   API NUMBER
~CURVE INFORMATION
#MNEM.UNIT       API CODE    CURVE DESCRIPTION
#----------   ------------   ------------------------------
 DEPT.F                  :   
 RILD.OHMM   07 120 46 00:   INDUCTION LOG DEEP RESISTIVITY
 TENR.LBS    07 635 01 00:   TENSION
 RILM.OHMM   07 120 44 00:   INDUCTION LOG MEDIUM RESISTIVITY
 GRR .GAPI   07 310 01 00:   GAMMA RAY FROM RESISTIVITY
~PARAMETER INFORMATION
#MNEM.UNIT          VALUE    DESCRIPTION
#----------   ------------   ------------------------------
 EKB .F         5084.0000:   Kelly bushing
 EGL .F         5074.0000:   Ground level
 EDF .F         5083.0000:   Drilling floor
 EPD .F            0.0000:   Permanent datum
 TD  .F          918.0000:   Total depth
 DATE.        06-SEP-1994:   Date logged
 CLNT.            A2DTECH:   Client Code
 SL  . 990' FNL & 330' FEL:   Surface Location
 PD  .                 GL:   Permanent Datum
 DAPD.F                10:   Feet Above Permanent Datum
 DD  .F               918:   Depth driller
 DL  .F               807:   Depth logger
 BLI .F               889:   Bottom log interval
 CS1 .IN            9.625:   Casing size
 CBD1.       9.625" @ 54':   Casing driller 1
 CBL1.F                54:   Casing logger 1
 BS1 .IN             8.75:   Bit size
 BSD1.F               918:   Depth drilled with bit1
 DFT .                AIR:   Type fluid in hole
 LUN .            HL-6321:   Logging unit number
 LUL .       ROCK SPRINGS:   Logging unit location
 ENGI.           VERCIMAK:   Recorded By
 WITN.          G. STRONG:   Witnessed by
 ORIG.           5" PRINT:   Origin of data
 UWI .     49025226350000:   Unique Well ID
 DICO. A2D TECHNOLOGIES, INC.:   Digitizing Company
~OTHER INFORMATION
~A   DEPT     RILD       TENR       RILM         GRR  
# ...
  669.0000     6.0300     4.5770     6.1790   143.5160
  669.5000     6.0580     4.6710     6.2100   145.1130
  670.0000     6.1030     4.7650     6.2420   145.2290
  670.5000     6.0990     4.8590     6.2740   145.4530
  671.0000     6.0880     4.9540     6.3250   145.4610
  671.5000     6.0770     5.0480     6.3130   147.3690
  672.0000     6.0670     5.1420     6.2860   150.6650
  672.5000     6.0570     5.2370     6.2590   151.8210
  673.0000     6.0460     5.3310     6.2310   147.8890
  673.5000     6.0350     5.4250     6.2030   144.4200
  674.0000     6.0260     5.5190     6.1760   143.3730
  674.5000     6.0160     5.6140     6.1480   146.3990
  675.0000     6.0010     5.7080     6.1200   149.0950
  675.5000     5.9950     5.8020     6.0270   150.4020
  676.0000     5.8060     5.8960     5.8390   147.3370
  676.5000     5.6180     5.9910     5.6500   144.9240
  677.0000     5.4290     6.0850     5.4610   144.9880
  677.5000     5.2410     6.1790     5.2730   145.0620
  678.0000     5.0530     6.2740     5.1970   146.0700
  678.5000     5.0150     6.3680     5.1860   150.1750
  679.0000     4.9700     6.4620     5.1710   157.4690
  679.5000     4.9260     6.5560     5.1570   159.6850
  680.0000     4.9260     6.6510     5.1420   155.5570
  680.5000     4.8430     6.7450     5.1280   151.8680
  681.0000     4.7380     6.8390     5.1140   148.2440
  681.5000     4.6340     6.9330     5.0290   148.6270
  682.0000     4.5300     7.0280     4.8400   149.0090
  682.5000     4.4260     7.1220     4.6510   149.5300
  683.0000     4.3470     7.2160     4.4610   150.4330
  683.5000     4.3470     7.3110     4.3470   152.5490
  684.0000     4.3470     7.4050     4.3470   152.5150
  684.5000     4.4260     7.4990     4.4260   149.4230
  685.0000     4.5450     7.5930     4.6540   146.2850
  685.5000     4.7450     7.6880     4.8830   144.1430
  686.0000     4.9450     7.7820     5.1120   144.5010
  686.5000     5.1450     7.8760     5.3400   148.4510
  687.0000     5.3450     7.9710     5.5690   151.5850
  687.5000     5.5450     8.0650     5.7970   149.2550
  688.0000     5.7450     8.1590     5.9950   147.0050
  688.5000     5.6410     8.2530     5.9950   144.4170
  689.0000     5.4630     8.3480     5.8470   143.1580
  689.5000     5.2840     8.4420     5.5990   142.9830
  690.0000     5.1050     8.5360     5.3520   142.7850
  690.5000     4.9260     8.6300     5.1050   142.6640
  691.0000     4.8390     8.7250     5.1050   146.5940
  691.5000     4.8390     8.8190     5.1050   150.5880
  692.0000     4.8390     8.9130     5.1970   153.8320
  692.5000     4.9260     9.0080     5.2910   148.3060
  693.0000     4.9700     9.1020     5.3380   144.3090
  693.5000     5.0960     9.1960     5.5660   143.5860
  694.0000     5.3010     9.2900     5.7900   141.4140
  694.5000     5.5050     9.3850     6.0150   137.1720
  695.0000     5.7090     9.4790     6.2400   133.8750
  695.5000     5.9130     9.5730     6.4650   130.3300
  696.0000     6.0020     9.6670     6.5610   128.5960
  696.5000     6.0390     9.7620     6.5720   131.4910
  697.0000     6.0770     9.8560     6.5830   132.4340
  697.5000     6.1140     9.9500     6.5940   132.4470
  698.0000     6.1510    10.0450     6.6050   132.4230
  698.5000     6.1880    10.1390     6.6160   132.3240
  699.0000     6.2250    10.2330     6.6270   131.3530
  699.5000     6.2620    10.3270     6.6380   126.7090
  700.0000     6.2990    10.4220     6.6490   125.9690
  700.5000     6.3370    10.5160     6.6600   127.1610
  701.0000     6.3740    10.6100     6.6720   128.4420
  701.5000     6.4110    10.7040     6.7130   128.4900
  702.0000     6.4380    10.7990     6.8070   128.5250
  702.5000     6.5340    10.8930     6.9000   128.5540
  703.0000     6.6440    10.9870     6.9930   128.4780
  703.5000     6.7540    11.0820     7.0860   128.2590
  704.0000     6.8640    11.1760     7.1790   123.4220
  704.5000     6.9150    11.2700     7.2950   121.3800
  705.0000     6.7550    11.3640     7.1520   121.4510
  705.5000     6.3030    11.4590     6.7490   121.4830
  706.0000     5.8520    11.5530     6.3450   119.7820
  706.5000     5.4000    11.6670     5.9420   117.2890
  707.0000     4.9490    11.8570     5.5380   118.3180
  707.5000     4.4260    12.0470     5.1350   122.9510
  708.0000     4.5520    12.2370     4.7530   127.6610
  708.5000     4.7010    12.4270     4.9960   128.5650
  709.0000     4.8510    12.6170     5.2250   126.8430
  709.5000     5.0150    12.8070     5.5240   124.8240
  710.0000     5.2470    12.9970     5.9870   122.4780
  710.5000     5.7010    13.1870     6.4500   120.0530
  711.0000     6.1550    13.3770     6.9130   117.9140
  711.5000     6.6100    13.5670     7.3760   115.5270
  712.0000     7.0640    13.7570     7.8390   117.9810
  712.5000     7.5180    13.9480     8.1660   121.1850
  713.0000     7.7510    14.1380     8.2840   121.3420
  713.5000     7.8420    14.3280     8.4010   119.2690
  714.0000     7.9320    14.5180     8.5180   117.4050
  714.5000     8.0230    14.7080     8.6360   115.3960
  715.0000     8.1130    14.8980     8.7210   116.7720
  715.5000     8.2040    15.0880     9.0380   117.8960
  716.0000     8.5610    15.2780     9.7810   118.6880
  716.5000     9.5200    15.4680    10.6080   112.0400
  717.0000    10.4790    15.6580    11.4360   104.4410
  717.5000    11.4370    15.8480    12.2640    89.3010
  718.0000    12.3960    16.0380    13.0910    74.8470
  718.5000    13.3550    16.2280    13.9190    61.0520
  719.0000    14.3140    16.4180    14.7460    59.4810
  719.5000    15.4390    16.6080    15.7170    58.7210
  720.0000    15.5060    16.7980    16.2890    58.3420
  720.5000    15.5870    16.9880    16.3770    57.7060
  721.0000    15.6670    17.1780    16.4620    58.0120
  721.5000    15.7480    17.3690    16.5470    60.3640
  722.0000    15.8280    17.5590    16.6320    62.5000
  722.5000    15.9090    17.7490    16.7170    64.2750
  723.0000    15.9900    17.9390    16.8020    62.3840
  723.5000    16.0700    18.1290    16.8870    60.8200
  724.0000    16.1510    18.3190    16.9720    59.1370
  724.5000    16.2320    18.5090    17.0570    60.1750
  725.0000    16.3120    18.6990    17.1420    61.1600
  725.5000    16.3930    18.8890    17.2280    60.9890
  726.0000    16.4730    19.0790    17.3130    60.8030
  726.5000    16.5540    19.2690    17.3980    64.6130
  727.0000    16.7760    19.4590    17.4940    68.5870
  727.5000    17.0740    19.6490    17.7840    69.4740
  728.0000    17.3720    19.8390    18.1190    67.1280
  728.5000    17.6690    20.0290    18.4540    64.9760
  729.0000    17.9670    20.2190    18.7890    62.7740
  729.5000    18.4560    20.4090    19.1240    62.0370
  730.0000    18.3880    20.6000    19.4720    62.1180
  730.5000    18.1970    20.7900    19.1690    62.1160
  731.0000    18.0050    20.9800    18.8540    61.9850
  731.5000    17.8140    21.1700    18.5390    63.5980
  732.0000    17.6220    21.3600    18.2240    68.1700
  732.5000    17.4310    21.5500    17.9100    72.5950
  733.0000    17.2390    21.7400    17.5950    76.1770
  733.5000    17.0470    21.9300    17.2800    75.5140
  734.0000    16.8560    22.1200    16.9650    73.2260
  734.5000    16.6640    22.3100    16.6500    73.2330
  735.0000    16.4730    22.5000    16.3350    73.3790
  735.5000    16.2810    22.6900    16.0000    73.6330
  736.0000    16.0890    22.8800    16.0000    73.8360
  736.5000    15.8980    23.0700    16.0000    74.6660
  737.0000    15.7060    23.2600    16.0000    75.7110
  737.5000    15.5150    23.4500    16.0000    76.2090
  738.0000    15.2700    23.6400    16.0000    76.3870
  738.5000    14.9920    23.8300    16.0000    76.7310
  739.0000    14.7130    24.0210    16.0000    77.0550
  739.5000    14.4340    24.2110    15.6870    77.3860
  740.0000    14.1550    24.4010    15.3170    77.7680
  740.5000    13.8770    24.5910    14.9480    78.7540
  741.0000    13.5980    24.7810    14.5790    79.8450
  741.5000    13.3190    24.9710    14.2100    80.9770
