~VERSION INFORMATION
 VERS.                2.0:   CWLS LOG ASCII STANDARD - VERSION 2.0
 WRAP.                 NO:   ONE LINE PER DEPTH STEP
~WELL INFORMATION
#MNEM.UNIT      DATA TYPE    INFORMATION
#----------   ------------   ------------------------------
 STRT.F           22.5000:   START DEPTH
 STOP.F         4120.0000:   STOP DEPTH
 STEP.F            0.5000:   STEP LENGTH
 NULL.          -999.2500:   NO VALUE
 COMP. LAWRENCE ALLISON & ASSOCIATES:   COMPANY
 WELL. LAWRENCE-ALLISON SHX #37-10:   WELL
 FLD .              N P R:   FIELD
 LOC .      S10 T38N R78W:   LOCATION
 CNTY.            NATRONA:   COUNTY
 STAT.            WYOMING:   STATE
 CTRY. UNITED STATES OF AMERICA:   COUNTRY
 SRVC.      DRESSER ATLAS:   SERVICE COMPANY
 DATE.        29-JUN-1983:   LOGDATE
 API .     49025107370001:   API NUMBER
~CURVE INFORMATION
#MNEM.UNIT       API CODE    CURVE DESCRIPTION
#----------   ------------   ------------------------------
 DEPT.F                  :   
 TEND.LBS    45 635 01 00:   TENSION FROM DENSITY LOG
 CORR.G/C3   45 356 01 00:   DENSITY CORRECTION
 NPHI.DEC    42 890 03 00:   NEUTRON POROSITY SANDSTONE
 CALD.IN     45 280 60 00:   CALIPER FROM DENSITY LOG
 GRR .GAPI   07 310 01 00:   GAMMA RAY FROM RESISTIVITY
 SPR .MV     07 010 01 00:   SPONTANEOUS POTENTIAL
 TENR.LBS    07 635 01 00:   TENSION FROM RESISTIVITY
 RILD.OHMM   07 120 46 00:   DEEP INDUCTION RESISTIVITY
 RILM.OHMM   07 120 44 00:   INDUCTION LOG MEDIUM RESISTIVITY
 RFOC.OHMM   07 220 04 00:   RESISTIVITY FOCUSED LOG RES.
 RHOB.G/C3   45 350 01 00:   BULK DENSITY
~PARAMETER INFORMATION
#MNEM.UNIT          VALUE    DESCRIPTION
#----------   ------------   ------------------------------
 EKB .F         5228.0000:   Kelly bushing
 EGL .F         5218.0000:   Ground level
 EDF .F            0.0000:   Drilling floor
 EPD .F         5218.0000:   Permanent datum
 TD  .F         4125.0000:   Total depth
 DATE.        29-JUN-1983:   Date logged
 CLNT.            A2DTECH:   Client Code
 SL  . 984' FWL & 1620' FEL:   Surface Location
 PD  .                 GL:   Permanent Datum
 DD  .F              4125:   Depth driller
 DL  .F              4107:   Depth logger
 BLI .F              4105:   Bottom log interval
 CS1 .IN              4.5:   Casing size
 CBD1.       4.5" @ 2213':   Casing driller 1
 CBL1.F              2213:   Casing logger 1
 BS1 .IN             6.25:   Bit size
 DFT .                KCL:   Type fluid in hole
 DFD .                8.8:   Density
 DFV .                 45:   Viscosity
 DFPH.                  9:   pH
 DFL .               10.8:   Fluid loss
 MSS .            MUDTANK:   Source of sample
 RMS .OHMM            .44:   Rm
 MST .F               108:   Rm Meas. temp.
 RMF .OHMM            .37:   Rmf
 MFST.F               108:   Rmf Meas. temp.
 RMC .OHMM            .55:   Rmc
 MCST.F               108:   Rmc Meas. temp.
 MFSS.               MEAS:   Source Rmf.
 RMB .OHMM            .36:   Rm. at BHT
 BHT .F               126:   BHT.
 TCS .HRS               2:   Time Circ. stopped
 MRT .F               126:   Maximum recorded temp.
 LUN .               6343:   Logging unit number
 LUL .                 FM:   Logging unit location
 ENGI.          I. GOVETT:   Recorded By
 WITN.          G. STRONG:   Witnessed by
 ORIG.     2.5", 5" PRINT:   Origin of data
 UWI .     49025107370001:   Unique Well ID
 DICO. A2D TECHNOLOGIES, INC.:   Digitizing Company
 DAPD.                 10:   Feet Above Permanent Datum
 BSD1.               4125:   Depth drilled with bit1
 MCSS.               CALC:   Source Rmc.
 TLI .               2213:   Top log interval
~OTHER INFORMATION
~A   DEPT     TEND       CORR       NPHI       CALD         GRR       SPR       TENR       RILD       RILM       RFOC       RHOB   
# ...
 3957.0000     9.9400     0.2680     0.2810     8.1540   149.4470   -38.4920    34.9970     1.7370     1.8640     2.4080     2.5030
 3957.5000     9.9400     0.2340     0.2840     8.1000   161.1140   -38.6520    44.5540     1.7750     1.9250     2.3500     2.5110
 3958.0000     9.9400     0.2420     0.2840     8.0520   181.2090   -38.3760    44.5540     1.8130     1.9870     2.3720     2.5050
 3958.5000     9.9400     0.2940     0.2830     8.0430   211.9330   -38.1130    34.6530     1.8660     2.0480     2.4170     2.4880
 3959.0000     9.9400     0.3380     0.2810     8.0320   232.0300   -37.8500    34.6530     1.9350     2.1090     2.4620     2.4720
 3959.5000     9.9400     0.3810     0.2800     8.0240   243.3260   -37.8060    34.9030     2.0030     2.1640     2.5940     2.4520
 3960.0000     9.9400     0.3210     0.2830     8.0150   241.6830   -37.9610    35.1750     2.0720     2.1710     2.8070     2.4610
 3960.5000     9.9400     0.2110     0.2840     8.0050   240.2470   -38.1080    35.4480     2.1400     2.1770     3.0190     2.4940
 3961.0000     9.9400     0.1470     0.2810     7.9970   237.3090   -37.8420    35.7200     2.2080     2.1840     3.1380     2.5280
 3961.5000     9.9400     0.1500     0.2780     7.9870   227.1010   -37.5480    35.9920     2.2650     2.1910     2.9450     2.5150
 3962.0000     9.9400     0.1550     0.2750     7.9790   214.0360   -37.2550    36.2650     2.2450     2.1980     2.7910     2.4970
 3962.5000     9.9400     0.2120     0.2800     7.9770   188.7530   -36.9660    36.5370     2.2240     2.2050     2.7050     2.5200
 3963.0000     9.9400     0.2700     0.2840     8.0900   163.9640   -36.7600    36.8090     2.2030     2.2120     2.7700     2.5150
 3963.5000     9.9400     0.3290     0.2860     8.2200   149.5220   -36.9480    37.0810     2.1830     2.2180     2.8510     2.4450
 3964.0000     9.9400     0.3410     0.2850     8.3520   142.2820   -37.1530    37.3540     2.1960     2.2250     2.8340     2.3740
 3964.5000     9.9400     0.2880     0.2790     8.4810   139.0010   -37.9620    37.6260     2.2090     2.2320     2.7950     2.3020
 3965.0000     9.9400     0.2340     0.2770     8.6000   135.8290   -38.7750    37.8980     2.2220     2.2390     2.7560     2.2840
 3965.5000     9.9400     0.1800     0.2750     8.5420   134.7560   -39.5860    38.1700     2.2350     2.2440     2.7170     2.3290
 3966.0000     9.9400     0.1230     0.2730     8.3340   136.1220   -40.3980    38.4430     2.2480     2.2440     2.6780     2.3760
 3966.5000     9.9400     0.1050     0.2810     8.1170   136.3110   -41.1960    38.7150     2.2650     2.2440     2.7200     2.4240
 3967.0000     9.9400     0.0870     0.2920     7.9740   134.6080   -41.1430    38.9870     2.2310     2.2230     2.7730     2.4720
 3967.5000     9.9400     0.0720     0.2990     7.9180   129.0200   -40.6860    39.2600     2.1830     2.1800     2.8510     2.5060
 3968.0000     9.9400     0.0540     0.3120     7.8570   123.3500   -40.1200    39.5320     2.1350     2.1380     2.7910     2.5140
 3968.5000     9.9400     0.0510     0.3110     7.8500   117.7000   -39.5520    39.8040     2.0870     2.0950     2.6780     2.5060
 3969.0000     9.9400     0.0480     0.3050     7.8450   112.0560   -38.9900    40.0760     2.0390     2.0530     2.5640     2.5000
 3969.5000     9.9400     0.0460     0.2960     7.8400   106.4190   -38.5000    40.3490     1.9910     2.0100     2.4500     2.4930
 3970.0000     9.9400     0.0460     0.3000     7.8350   100.7400   -38.5290    40.6210     1.9430     1.9680     2.3360     2.4860
 3970.5000     9.9400     0.0490     0.3000     7.8300    98.7110   -38.5440    40.8930     1.8940     1.9250     2.2440     2.4800
 3971.0000     9.9400     0.0520     0.2990     7.8250    99.1250   -38.5560    41.1660     1.8460     1.8830     2.2690     2.4730
 3971.5000     9.9400     0.0550     0.2910     7.8210    99.5390   -38.5690    41.4380     1.7990     1.8490     2.2860     2.4660
 3972.0000     9.9400     0.0590     0.2840     7.8160   100.1310   -38.5820    41.7100     1.7830     1.8670     2.2620     2.4590
 3972.5000     9.9400     0.0620     0.2840     7.8110   104.4030   -38.5950    41.9820     1.7570     1.8460     2.2440     2.4660
 3973.0000     9.9400     0.0630     0.2830     7.8060   108.7390   -38.6080    42.2550     1.7340     1.8220     2.3340     2.4750
 3973.5000     9.9400     0.0550     0.2770     7.8010   113.0550   -38.6210    42.5270     1.7180     1.7970     2.4060     2.4840
 3974.0000     9.9400     0.0470     0.2810     7.7970   117.3650   -38.6340    42.7990     1.7180     1.7720     2.3380     2.4800
 3974.5000     9.9400     0.0390     0.2890     7.7920   121.6800   -38.6470    43.0710     1.7750     1.7500     2.2480     2.4770
 3975.0000     9.9400     0.0350     0.2970     7.7870   125.9940   -38.6600    43.3440     1.8160     1.7740     2.1590     2.4740
 3975.5000     9.9400     0.0580     0.3000     7.7820   130.6590   -38.6730    43.6160     1.9220     1.7960     2.0690     2.4790
 3976.0000     9.9400     0.0800     0.2980     7.7770   135.6670   -38.6860    43.8880     2.0740     1.8540     1.9730     2.4860
 3976.5000     9.9400     0.0950     0.2930     7.7750   140.6730   -38.7010    44.1610     2.2260     2.1650     2.0910     2.4940
 3977.0000     9.9400     0.0940     0.2800     7.7760   145.8880   -38.7060    44.4330     2.3780     2.4750     2.2200     2.5010
 3977.5000     9.9400     0.0760     0.2670     7.7760   153.8780   -38.3730    44.5540     3.0420     2.9910     2.4550     2.5150
 3978.0000     9.9400     0.0650     0.2540     7.7760   157.2050   -38.0190    44.5540     3.8750     3.5750     3.2600     2.5360
 3978.5000     9.9400     0.0590     0.2430     7.7760   149.7570   -37.7630    44.5540     4.7090     4.1590     4.0650     2.5500
 3979.0000     9.9400     0.0520     0.2450     7.7760   141.8750   -38.0590    44.5540     5.5430     4.7430     5.5340     2.5620
 3979.5000     9.9400     0.0530     0.2480     7.7760   134.0260   -38.3430    44.5540     6.3770     5.3270     5.2020     2.5690
 3980.0000     9.9400     0.0670     0.2510     7.7760   128.3130   -38.4350    44.5540     7.2100     5.9110     4.3960     2.5710
 3980.5000     9.9400     0.0800     0.2410     7.7760   125.7910   -38.2430    44.5540     7.8530     6.5920     4.9670     2.5700
 3981.0000     9.9400     0.0910     0.2300     7.7760   123.2640   -38.0530    44.5540     7.3430     6.2550     5.6610     2.5690
 3981.5000     9.9400     0.0780     0.2250     7.7760   120.7730   -37.8670    44.5540     6.9290     5.7240     6.5920     2.5630
 3982.0000     9.9400     0.0660     0.2190     7.7760   119.5310   -37.8480    44.5540     6.5140     5.1940     6.0250     2.5560
 3982.5000     9.9400     0.0540     0.2190     7.7760   119.7850   -38.4050    44.5540     6.0990     4.6640     5.1660     2.5500
 3983.0000     9.9400     0.0410     0.2230     7.7760   120.6900   -38.9620    44.5540     5.6850     4.1340     4.3060     2.5440
 3983.5000     9.9400     0.0290     0.2240     7.7760   121.6970   -39.1120    46.0300     5.2700     3.9360     3.3650     2.5410
 3984.0000     9.9400     0.0190     0.2240     7.7760   122.6370   -39.1270    50.9420     4.8550     4.4360     3.3040     2.5450
 3984.5000     9.9400     0.0360     0.2240     7.7760   121.8310   -39.1360    55.8530     4.4410     4.1770     3.5290     2.5600
 3985.0000     9.9400     0.0530     0.2250     7.7760   116.2110   -39.1460    60.7650     4.0460     3.8730     4.0120     2.5730
 3985.5000     9.9400     0.0870     0.2260     7.7760   110.5090   -39.1550    65.6770     3.7720     3.6190     4.7760     2.5830
 3986.0000     9.9400     0.0910     0.2370     7.7760   113.1420   -39.1650    70.5880     3.4990     3.3640     4.1220     2.5680
 3986.5000     9.9400     0.0620     0.2470     7.7760   118.6250   -39.1750    75.5000     3.2250     3.1090     3.4360     2.5500
 3987.0000     9.9400     0.0390     0.2570     7.7760   127.3370   -39.1850    80.4120     2.9520     2.8550     2.9710     2.5310
