~VERSION INFORMATION
 VERS.                2.0:   CWLS LOG ASCII STANDARD - VERSION 2.0
 WRAP.                 NO:   ONE LINE PER DEPTH STEP
~WELL INFORMATION
#MNEM.UNIT      DATA TYPE    INFORMATION
#----------   ------------   ------------------------------
 STRT.F           32.0000:   START DEPTH
 STOP.F         5116.0000:   STOP DEPTH
 STEP.F            0.5000:   STEP LENGTH
 NULL.          -999.2500:   NO VALUE
 COMP. LAWRENCE ALLISON AND ASSOCIATES:   COMPANY
 WELL. LAWRENCE "X" #11-26:   WELL
 FLD .       N.P.R. NO. 3:   FIELD
 LOC .      S26 T38N R78W:   LOCATION
 CNTY.            NATRONA:   COUNTY
 STAT.            WYOMING:   STATE
 CTRY. UNITED STATES OF AMERICA:   COUNTRY
 SRVC.      DRESSER ATLAS:   SERVICE COMPANY
 DATE.        03-DEC-1984:   LOGDATE
 API .     49025110120000:   API NUMBER
~CURVE INFORMATION
#MNEM.UNIT       API CODE    CURVE DESCRIPTION
#----------   ------------   ------------------------------
 DEPT.F                  :   
 CALD.IN     45 280 60 00:   CALIPER FROM DENSITY LOG
 TEND.LBS    45 635 01 00:   TENSION FORM DENSITY LOG
 CORR.G/C3   45 356 01 00:   DENSITY CORRECTION
 DEN .G/C3   45 350 01 00:   BULK DENSITY
 NPHI.DEC    42 890 03 00:   NEUTRON POROSITY SANDSTONE
 GRR .GAPI   07 310 01 00:   GAMMA RAY FROM RESISTIVITY
 SPR .MV     07 010 01 00:   SPONTANEOUS POTENTIAL
 CALR.IN     07 280 01 00:   CALIPER FROM RESISTIVITY
 TENR.LBS    07 635 01 00:   TENSION FROM RESISTIVITY
 RILD.OHMM   07 120 46 00:   INDUCTION LOG DEEP RESISTIVITY
 RILM.OHMM   07 120 44 00:   INDUCTION LOG MEDIUM RESISTIVITY
 RFOC.OHMM   07 220 04 00:   RESISTIVITY FOCUSED LOG RES.
 TENS.LBS    60 635 01 00:   TENSION FROM SONIC
 DT  .US/F   60 520 00 00:   DELTA TIME
~PARAMETER INFORMATION
#MNEM.UNIT          VALUE    DESCRIPTION
#----------   ------------   ------------------------------
 EKB .F         5321.0000:   Kelly bushing
 EGL .F         5309.0000:   Ground level
 EDF .F         5320.0000:   Drilling floor
 TD  .F         5104.0000:   Total depth
 CLNT.            A2DTECH:   Client Code
 SL  . 509' FWL & 22' FNL:   Surface Location
 PD  .                 GL:   Permanent Datum
 EPD .F              5309:   Elevation Permanent Datum
 LMF .                 KB:   Log Measured From
 DMF .                 KB:   Drilling Measured From
 DAPD.F                12:   Feet Above Permanent Datum
 DATE.        03-DEC-1984:   Date Logged [DD-MMM-YYYY]
 DD  .F              5100:   Depth driller
 DL  .F              5104:   Depth logger
 BLI .F              5102:   Bottom log interval
 TLI .F              1400:   Top log interval
 CS1 .IN            9.625:   Casing size
 CBD1.     9.625' @ 1657':   Casing driller 1
 CBL1.F              1652:   Casing logger 1
 BS1 .IN            7.875:   Bit size
 DFT .            KCL GEL:   Type fluid in hole
 DFD .                90.:   Density
 DFV .                 41:   Viscosity
 DFPH.                8.9:   pH
 DFL .               12.6:   Fluid loss
 MSS .           FLOWLINE:   Source of sample
 RMS .OHMM           .327:   Rm
 MST .F                84:   Rm Meas. temp.
 RMF .OHMM            .29:   Rmf
 MFST.F                84:   Rmf Meas. temp.
 MFSS.               CALC:   Source Rmf.
 RMC .OHMM            .42:   Rmc
 MCST.F                84:   Rmc Meas. temp.
 MCSS.               CALC:   Source Rmc.
 RMB .OHMM            .23:   Rm. at BHT
 BHT .F               142:   BHT.
 TCS .HRS               4:   Time Circ. stopped
 MRT .F               142:   Maximum recorded temp.
 LUN .               6307:   Logging unit number
 LUL .               CLTE:   Logging unit location
 WITN.             STRONG:   Witnessed by
 ORIG.           5" PRINT:   Origin of data
 UWI .     49025110120000:   Unique Well ID
 DICO. A2D TECHNOLOGIES, INC.:   Digitizing Company
~OTHER INFORMATION
~A  DEPTH     CALD       TEND       CORR        DEN       NPHI        GRR        SPR       CALR       TENR       RILD       RILM       RFOC       TENS         DT
# ...
 2384.0000  -999.2500  -999.2500  -999.2500  -999.2500  -999.2500    98.3914   -42.7983    10.9183   -89.0547     6.5658     6.1402     7.0991  -999.2500  -999.2500
 2384.5000  -999.2500  -999.2500  -999.2500  -999.2500  -999.2500   104.7210   -43.2394    10.8760   -89.0464     6.5649     6.1823     7.3001  -999.2500  -999.2500
 2385.0000  -999.2500  -999.2500  -999.2500  -999.2500  -999.2500   105.9447   -43.8240    10.8614   -89.0381     6.5640     6.1816     7.2507  -999.2500  -999.2500
 2385.5000  -999.2500  -999.2500  -999.2500  -999.2500  -999.2500   102.9451   -43.8097    10.8319   -89.0298     6.5630     6.1383     7.1983  -999.2500  -999.2500
 2386.0000  -999.2500  -999.2500  -999.2500  -999.2500  -999.2500    99.0244   -43.7952    10.8024   -89.0215     6.6079     6.0953     7.1046  -999.2500  -999.2500
 2386.5000  -999.2500  -999.2500  -999.2500  -999.2500  -999.2500    97.8551   -43.7776    10.7728   -89.0132     6.6531     6.0947     7.0086  -999.2500  -999.2500
 2387.0000  -999.2500  -999.2500  -999.2500  -999.2500  -999.2500    96.3638   -43.4622    10.7736   -89.0048     6.6964     6.1791     6.9612  -999.2500  -999.2500
 2387.5000  -999.2500  -999.2500  -999.2500  -999.2500  -999.2500    96.6824   -43.2973    10.7440   -88.9965     6.7444     6.1784     6.9629  -999.2500  -999.2500
 2388.0000  -999.2500  -999.2500  -999.2500  -999.2500  -999.2500    97.6330   -43.1324    10.7446   -88.9882     6.7903     6.1778     7.0130  -999.2500  -999.2500
 2388.5000  -999.2500  -999.2500  -999.2500  -999.2500  -999.2500    99.1340   -42.6628    10.7462   -88.9799     6.8437     6.2201     7.1123  -999.2500  -999.2500
 2389.0000  -999.2500  -999.2500  -999.2500  -999.2500  -999.2500    97.9443   -42.1967    10.7608   -88.9716     6.9501     6.3061     7.2130  -999.2500  -999.2500
 2389.5000  -999.2500  -999.2500  -999.2500  -999.2500  -999.2500    93.1348   -42.0319    10.7614   -88.9633     7.1256     6.4378     7.3702  -999.2500  -999.2500
 2390.0000  -999.2500  -999.2500  -999.2500  -999.2500  -999.2500    89.1085   -41.7164    10.7621   -88.9550     7.2243     6.5723     7.5225  -999.2500  -999.2500
 2390.5000  -999.2500  -999.2500  -999.2500  -999.2500  -999.2500    87.1398   -41.5512    10.7628   -88.9466     7.2737     6.6174     7.5760  -999.2500  -999.2500
 2391.0000  -999.2500  -999.2500  -999.2500  -999.2500  -999.2500    88.0618   -41.5337    10.7481   -88.9383     7.2725     6.5663     7.4219  -999.2500  -999.2500
 2391.5000  -999.2500  -999.2500  -999.2500  -999.2500  -999.2500    88.9838   -41.5194    10.7488   -88.9300     7.2212     6.4351     7.2163  -999.2500  -999.2500
 2392.0000  -999.2500  -999.2500  -999.2500  -999.2500  -999.2500    91.4183   -41.6558    10.7494   -88.9217     7.2203     6.3901     7.0732  -999.2500  -999.2500
 2392.5000  -999.2500  -999.2500  -999.2500  -999.2500  -999.2500    92.9436   -41.7922    10.7500   -88.9134     7.1197     6.3454     7.0749  -999.2500  -999.2500
 2393.0000  -999.2500  -999.2500  -999.2500  -999.2500  -999.2500    94.7705   -41.7743    10.7355   -88.9051     7.0693     6.3466     7.0763  -999.2500  -999.2500
 2393.5000  -999.2500  -999.2500  -999.2500  -999.2500  -999.2500    96.5975   -41.7600    10.7210   -88.8968     7.0194     6.4324     7.1269  -999.2500  -999.2500
 2394.0000  -999.2500  -999.2500  -999.2500  -999.2500  -999.2500    98.4287   -41.7458    10.7066   -88.8884     6.9699     6.4318     7.1782  -999.2500  -999.2500
 2394.5000  -999.2500  -999.2500  -999.2500  -999.2500  -999.2500    99.3507   -41.5809    10.6922   -88.8801     6.9208     6.5210     7.1298  -999.2500  -999.2500
 2395.0000  -999.2500  -999.2500  -999.2500  -999.2500  -999.2500    99.6651   -41.4157    10.6627   -88.8718     6.9197     6.6112     7.0820  -999.2500  -999.2500
 2395.5000  -999.2500  -999.2500  -999.2500  -999.2500  -999.2500    96.9714   -41.3982    10.6633   -88.8635     6.9187     6.6615     7.0344  -999.2500  -999.2500
 2396.0000  -999.2500  -999.2500  -999.2500  -999.2500  -999.2500    93.0711   -41.6851    10.6429   -88.8552     6.9178     6.7485     7.0362  -999.2500  -999.2500
 2396.5000  -999.2500  -999.2500  -999.2500  -999.2500  -999.2500    92.7821   -41.9756    10.6343   -88.8469     7.0137     6.7949     7.1361  -999.2500  -999.2500
 2397.0000  -999.2500  -999.2500  -999.2500  -999.2500  -999.2500    95.2167   -42.5602    10.6198   -88.8386     7.1602     6.7940     7.2875  -999.2500  -999.2500
 2397.5000  -999.2500  -999.2500  -999.2500  -999.2500  -999.2500    95.1937   -42.9942    10.6054   -88.8302     7.2094     6.6535     7.3906  -999.2500  -999.2500
 2398.0000  -999.2500  -999.2500  -999.2500  -999.2500  -999.2500    90.1267   -43.1341    10.6060   -88.8219     7.2587     6.5614     7.3921  -999.2500  -999.2500
 2398.5000  -999.2500  -999.2500  -999.2500  -999.2500  -999.2500    88.3337   -43.4210    10.6066   -88.8136     7.2073     6.4705     7.3424  -999.2500  -999.2500
 2399.0000  -999.2500  -999.2500  -999.2500  -999.2500  -999.2500    90.4623   -43.7048    10.6073   -88.8053     7.1067     6.4252     7.1931  -999.2500  -999.2500
 2399.5000  -999.2500  -999.2500  -999.2500  -999.2500  -999.2500    92.8929   -43.9914    10.6230   -88.7970     7.0077     6.4201     7.0955  -999.2500  -999.2500
 2400.0000  -999.2500  -999.2500  -999.2500  -999.2500  -999.2500    92.6079   -44.1277    10.6386   -88.7887     6.9101     6.3354     6.9992  -999.2500  -999.2500
 2400.5000  -999.2500  -999.2500  -999.2500  -999.2500  -999.2500    92.0001   -44.1099    10.6693   -88.7804     6.8865     6.3348     7.0025  -999.2500  -999.2500
 2401.0000  -999.2500  -999.2500  -999.2500  -999.2500  -999.2500    91.7577   -43.9450    10.6719   -88.7720     6.8605     6.3782     7.0031  -999.2500  -999.2500
 2401.5000  -999.2500  -999.2500  -999.2500  -999.2500  -999.2500    92.6947   -43.6295    10.7158   -88.7637     6.8119     6.4219     7.0615  -999.2500  -999.2500
 2402.0000  -999.2500  -999.2500  -999.2500  -999.2500  -999.2500    96.3403   -43.3105    10.7464   -88.7554     6.9063     6.4211     7.1544  -999.2500  -999.2500
 2402.5000  -999.2500  -999.2500  -999.2500  -999.2500  -999.2500   100.2874   -42.8444    10.7621   -88.7471     6.9054     6.4205     7.3066  -999.2500  -999.2500
 2403.0000  -999.2500  -999.2500  -999.2500  -999.2500  -999.2500   101.5197   -42.3784    10.7928   -88.7388     7.0011     6.4198     7.4621  -999.2500  -999.2500
 2403.5000  -999.2500  -999.2500  -999.2500  -999.2500  -999.2500    97.0268   -42.0629    10.7962   -88.7305     7.0085     6.5087     7.5164  -999.2500  -999.2500
 2404.0000  -999.2500  -999.2500  -999.2500  -999.2500  -999.2500    94.0294   -42.0482    10.8008   -88.7222     7.0971     6.5532     7.4149  -999.2500  -999.2500
 2404.5000  -999.2500  -999.2500  -999.2500  -999.2500  -999.2500    93.7598   -42.0308    10.8053   -88.7139     7.0960     6.4875     7.2643  -999.2500  -999.2500
 2405.0000  -999.2500  -999.2500  -999.2500  -999.2500  -999.2500    91.9559   -42.0398    10.8099   -88.7055     7.0950     6.4068     7.1167  -999.2500  -999.2500
 2405.5000  -999.2500  -999.2500  -999.2500  -999.2500  -999.2500    89.8958   -42.0351    10.8145   -88.6972     7.0448     6.3262     6.9721  -999.2500  -999.2500
 2406.0000  -999.2500  -999.2500  -999.2500  -999.2500  -999.2500    90.2231   -42.0237    10.8320   -88.6889     6.9951     6.2456     6.9744  -999.2500  -999.2500
 2406.5000  -999.2500  -999.2500  -999.2500  -999.2500  -999.2500    95.0753   -42.0120    10.8481   -88.6806     6.8977     6.1649     7.0736  -999.2500  -999.2500
 2407.0000  -999.2500  -999.2500  -999.2500  -999.2500  -999.2500    99.9274   -42.2991    10.8491   -88.6723     6.8480     6.1317     7.2743  -999.2500  -999.2500
 2407.5000  -999.2500  -999.2500  -999.2500  -999.2500  -999.2500    95.7362   -42.8901    10.8654   -88.6640     6.8005     6.1327     7.3778  -999.2500  -999.2500
 2408.0000  -999.2500  -999.2500  -999.2500  -999.2500  -999.2500    93.3421   -43.4839    10.8813   -88.6557     6.7996     6.0912     7.3798  -999.2500  -999.2500
