~VERSION INFORMATION
 VERS.                2.0:   CWLS LOG ASCII STANDARD - VERSION 2.0
 WRAP.                 NO:   ONE LINE PER DEPTH STEP
~WELL INFORMATION
#MNEM.UNIT      DATA TYPE    INFORMATION
#----------   ------------   ------------------------------
 STRT.F           11.0000:   START DEPTH
 STOP.F         3368.0000:   STOP DEPTH
 STEP.F            0.5000:   STEP LENGTH
 NULL.          -999.2500:   NO VALUE
 COMP. LAWRENCE ALLISON AND ASSOC.:   COMPANY
 WELL. LAWRENCE NPR "AX" #3-11:   WELL
 FLD .                NPR:   FIELD
 LOC .      S11 T38N R78W:   LOCATION
 CNTY.            NATRONA:   COUNTY
 STAT.            WYOMING:   STATE
 CTRY. UNITED STATES OF AMERICA:   COUNTRY
 SRVC.      DRESSER ATLAS:   SERVICE COMPANY
 DATE.        17-JAN-1986:   LOGDATE
 API .     49025110540000:   API NUMBER
~CURVE INFORMATION
#MNEM.UNIT       API CODE    CURVE DESCRIPTION
#----------   ------------   ------------------------------
 DEPT.F                  :   
 TEND.LBS    45 635 01 00:   TENSION FROM DENSITY LOG
 DEN .G/C3   45 350 01 00:   BULK DENSITY
 CORR.G/C3   45 356 01 00:   DENSITY CORRECTION
 CNC .DEC    42 890 03 00:   NEUTRON PORISITY SANDSTONE
 TENR.LBS    07 635 01 00:   TENSION FROM RESISTIVITY
 CALR.IN     07 280 01 00:   CALIPER FROM RESISTIVITY
 SPR .MV     07 010 01 00:   SPONTANEOUS POTENTIAL
 GRR .GAPI   07 310 01 00:   GAMMA RAY FROM RESISTIVITY
 RFOC.OHMM   07 220 04 00:   RESISTIVITY FOCUSED LOG RES.
 RILD.OHMM   07 120 46 00:   INDUCTION LOG DEEP RESISTIVITY
 RILM.OHMM   07 120 44 00:   INDUCTION LOG MEDIUM RESISTIVITY
 TENS.LBS    60 635 01 00:   TENSION FROM SONIC
 AC  .US/F   60 250 00 00:   ACCOUSTIC
~PARAMETER INFORMATION
#MNEM.UNIT          VALUE    DESCRIPTION
#----------   ------------   ------------------------------
 EKB .F         5195.5000:   Kelly bushing
 EGL .F         5183.2000:   Ground level
 EDF .F         5194.5000:   Drilling floor
 TD  .F         3360.0000:   Total depth
 DATE.        17-JAN-1986:   Date logged
 CLNT.            A2DTECH:   Client Code
 SL  . 2389' FSL & 461'FWL:   Surface Location
 PD  .                 GL:   Permanent Datum
 EPD .F            5183.2:   Elevation Permanent Datum
 LMF .                 KB:   Log Measured From
 DMF .                 KB:   Drilling Measured From
 DAPD.F              12.3:   Feet Above Permanent Datum
 DD  .F              3360:   Depth driller
 DL  .F              3358:   Depth logger
 BLI .F              3356:   Bottom log interval
 TLI .F               575:   Top log interval
 CS1 .IN            8.625:   Casing size
 CBD1.      8.625" @ 575':   Casing driller 1
 CBL1.F               575:   Casing logger 1
 BS1 .IN            7.875:   Bit size
 BSD1.F              3360:   Depth drilled with bit1
 DFT .        POLYMER-KCL:   Type fluid in hole
 DFD .                  9:   Density
 DFV .                 36:   Viscosity
 DFPH.                  9:   pH
 DFL .                9.5:   Fluid loss
 MSS .           FLOWLINE:   Source of sample
 RMS .OHMM           .633:   Rm
 MST .F                68:   Rm Meas. temp.
 RMF .OHMM           .475:   Rmf
 MFST.F                68:   Rmf Meas. temp.
 RMC .OHMM           .791:   Rmc
 MCST.F                68:   Rmc Meas. temp.
 RMB .OHMM            .44:   Rm. at BHT
 BHT .F                98:   BHT.
 TCS .HRS               4:   Time Circ. stopped
 MRT .F                98:   Maximum recorded temp.
 LUN .               6264:   Logging unit number
 LUL .               GLTE:   Logging unit location
 ENGI.             MILLER:   Recorded By
 WITN.             STRONG:   Witnessed by
 ORIG.        2" 5" PRINT:   Origin of data
 UWI .     49025110540000:   Unique Well ID
 DICO. A2D TECHNOLOGIES, INC.:   Digitizing Company
~OTHER INFORMATION
~A   DEPT     TEND        DEN       CORR        CNC       TENR       CALR        SPR         GRR      RFOC       RILD       RILM       TENS         AC   
# ...
 2065.0000  -999.2500  -999.2500  -999.2500  -999.2500  -103.1230     9.3080   -54.7460   134.6320     9.3980     7.4890     7.7290   -87.7150    93.7500
 2065.5000  -999.2500  -999.2500  -999.2500  -999.2500  -101.0730     9.3070   -54.9690   132.8600     9.2550     7.5390     7.7410   -88.5050    93.6500
 2066.0000  -999.2500  -999.2500  -999.2500  -999.2500   -99.0230     9.3050   -55.2010   128.6790     9.3070     7.5900     7.7530   -89.2950    93.4500
 2066.5000  -999.2500  -999.2500  -999.2500  -999.2500   -96.9730     9.3040   -55.2210   122.7270     9.4050     7.6240     7.7660   -90.0840    93.1940
 2067.0000  -999.2500  -999.2500  -999.2500  -999.2500   -94.9230     9.3060   -55.1750   121.8390     9.5030     7.5720     7.7360   -90.8740    92.9380
 2067.5000  -999.2500  -999.2500  -999.2500  -999.2500  -103.4070     9.3070   -55.1260   126.4030     9.4140     7.5330     7.7020   -91.6630    92.6820
 2068.0000  -999.2500  -999.2500  -999.2500  -999.2500  -113.2460     9.3090   -55.0750   127.6470     9.3020     7.4930     7.6680   -92.4530    92.4250
 2068.5000  -999.2500  -999.2500  -999.2500  -999.2500  -123.0860     9.3110   -55.1810   125.9220     9.1890     7.4540     7.6350   -93.2420    92.2500
 2069.0000  -999.2500  -999.2500  -999.2500  -999.2500  -117.9360     9.3130   -55.3650   123.0040     9.1380     7.4140     7.6010   -94.0320    92.5100
 2069.5000  -999.2500  -999.2500  -999.2500  -999.2500  -109.7360     9.3150   -55.5490   122.6990     9.0990     7.3750     7.5670   -94.8220    92.7260
 2070.0000  -999.2500  -999.2500  -999.2500  -999.2500  -106.1740     9.3170   -55.7310   125.1140     9.0610     7.3350     7.5330   -95.6110    92.9430
 2070.5000  -999.2500  -999.2500  -999.2500  -999.2500  -109.9580     9.3180   -55.6680   128.9950     9.0220     7.2960     7.5000   -96.4010    93.1600
 2071.0000  -999.2500  -999.2500  -999.2500  -999.2500  -113.7430     9.3200   -55.1450   132.4780     8.9840     7.2560     7.4660   -97.1900    93.3500
 2071.5000  -999.2500  -999.2500  -999.2500  -999.2500  -113.4750     9.3220   -54.6280   129.5740     8.9460     7.2130     7.4320   -97.9800    93.2030
 2072.0000  -999.2500  -999.2500  -999.2500  -999.2500  -111.7790     9.3210   -54.0850   123.5980     8.9190     7.1200     7.3400   -98.7700    92.8670
 2072.5000  -999.2500  -999.2500  -999.2500  -999.2500  -110.0820     9.3120   -53.4470   112.8050     9.0560     7.0190     7.1930   -99.5590    92.3940
 2073.0000  -999.2500  -999.2500  -999.2500  -999.2500  -108.3860     9.3040   -52.7700   106.2220     9.1700     6.9190     7.0460  -100.3490    91.9500
 2073.5000  -999.2500  -999.2500  -999.2500  -999.2500  -106.6890     9.2960   -52.0840   103.8510     9.1060     6.8180     6.8990  -101.1380    90.7660
 2074.0000  -999.2500  -999.2500  -999.2500  -999.2500  -104.9930     9.2870   -51.3770   104.7240     8.4960     6.7170     6.7520  -101.9280    89.6490
 2074.5000  -999.2500  -999.2500  -999.2500  -999.2500  -103.2960     9.2790   -52.0440   105.6360     7.5850     6.6390     6.5780  -102.7170    88.5500
 2075.0000  -999.2500  -999.2500  -999.2500  -999.2500  -101.6000     9.2710   -52.9240   106.9630     6.9520     6.8650     6.7980  -103.5070    88.9500
 2075.5000  -999.2500  -999.2500  -999.2500  -999.2500   -99.9030     9.2590   -53.8200   110.2010     7.3690     7.0160     7.0680  -104.2970    89.3500
 2076.0000  -999.2500  -999.2500  -999.2500  -999.2500   -98.2070     9.2320   -54.7170   114.1870     8.6890     7.0840     7.3480  -104.4620    89.5440
 2076.5000  -999.2500  -999.2500  -999.2500  -999.2500   -96.5100     9.2060   -55.6260   117.7020     9.9560     7.4910     7.7750  -103.9420    89.7500
 2077.0000  -999.2500  -999.2500  -999.2500  -999.2500   -94.6890     9.1790   -56.0570   117.0800    10.3670     7.8970     8.2190  -103.4230    89.6920
 2077.5000  -999.2500  -999.2500  -999.2500  -999.2500  -102.2880     9.1530   -56.4750   116.5590    10.6590     8.3030     8.6630  -102.9030    89.6320
 2078.0000  -999.2500  -999.2500  -999.2500  -999.2500  -110.4880     9.1260   -56.8950   116.0680    10.9250     8.7090     9.1070  -102.3840    89.5710
 2078.5000  -999.2500  -999.2500  -999.2500  -999.2500  -118.6870     9.1000   -57.3170   115.5750    11.1920     9.0870     9.5500  -101.8640    89.5100
 2079.0000  -999.2500  -999.2500  -999.2500  -999.2500  -124.1390     9.0800   -57.7380   116.2080    11.4580     9.4360     9.9940  -101.3450    89.4500
 2079.5000  -999.2500  -999.2500  -999.2500  -999.2500  -121.7960     9.0680   -58.1570   120.7700    11.7250     9.7840    10.2150  -100.8250    89.3890
 2080.0000  -999.2500  -999.2500  -999.2500  -999.2500  -119.4530     9.0560   -58.5740   126.7230    11.9910    10.1330    10.3170  -100.3060    89.4290
 2080.5000  -999.2500  -999.2500  -999.2500  -999.2500  -117.1100     9.0440   -58.8270   130.3280    12.2330    10.3520    10.4180   -99.7860    89.6500
 2081.0000  -999.2500  -999.2500  -999.2500  -999.2500  -114.7290     9.0330   -58.8260   130.3170    12.4580    10.3840    10.5190   -99.2670    89.8720
 2081.5000  -999.2500  -999.2500  -999.2500  -999.2500  -114.7290     9.0210   -58.8280   130.2040    12.7830    10.4170    10.6210   -98.7470    90.0940
 2082.0000  -999.2500  -999.2500  -999.2500  -999.2500  -114.7290     9.0090   -58.7290   129.3680    12.7550    10.4500    10.7270   -98.2280    90.3150
 2082.5000  -999.2500  -999.2500  -999.2500  -999.2500  -114.7290     8.9970   -58.5480   127.5900    12.7050    10.4820    10.7270   -97.7090    90.5370
 2083.0000  -999.2500  -999.2500  -999.2500  -999.2500  -114.7290     8.9850   -58.2870   127.6840    12.6560    10.5150    10.6890   -97.1890    90.7580
 2083.5000  -999.2500  -999.2500  -999.2500  -999.2500  -114.7290     8.9740   -57.7680   128.5780    12.6060    10.5310    10.6610   -96.6700    90.9800
 2084.0000  -999.2500  -999.2500  -999.2500  -999.2500  -114.7290     8.9620   -57.2640   131.6750    12.5490    10.4930    10.6330   -96.1500    91.1500
 2084.5000  -999.2500  -999.2500  -999.2500  -999.2500  -114.7290     8.9500   -56.7610   138.4620    12.5880    10.4630    10.6040   -95.6310    90.7370
 2085.0000  -999.2500  -999.2500  -999.2500  -999.2500  -114.7290     8.9380   -56.2610   145.5820    12.6450    10.4340    10.5760   -95.1110    90.4020
 2085.5000  -999.2500  -999.2500  -999.2500  -999.2500  -118.2530     8.9260   -55.7630   154.5720    12.7030    10.4040    10.5310   -94.6890    90.0670
 2086.0000  -999.2500  -999.2500  -999.2500  -999.2500  -126.4530     8.9100   -55.6120   164.6840    12.7600    10.3740    10.5740   -94.6890    89.7320
 2086.5000  -999.2500  -999.2500  -999.2500  -999.2500  -134.7700     8.9010   -55.9890   156.2410    12.8840    10.3380    10.6780   -94.6890    89.4500
 2087.0000  -999.2500  -999.2500  -999.2500  -999.2500  -130.1510     8.8960   -56.3610   145.3990    13.0520    10.4680    10.7830   -94.6890    89.6780
 2087.5000  -999.2500  -999.2500  -999.2500  -999.2500  -125.4650     8.8910   -56.7350   138.0790    13.2640    10.6330    10.8870   -94.6890    89.8750
 2088.0000  -999.2500  -999.2500  -999.2500  -999.2500  -120.7800     8.8860   -57.1090   131.8560    13.0260    10.7980    10.9910   -94.6890    90.0720
 2088.5000  -999.2500  -999.2500  -999.2500  -999.2500  -116.0940     8.8800   -57.4190   125.1080    12.5490    10.9630    11.0950   -94.6890    90.2500
 2089.0000  -999.2500  -999.2500  -999.2500  -999.2500  -115.7860     8.8750   -57.2760   118.3280    12.6070    11.1280    11.2000   -94.6890    89.9800
 2089.5000  -999.2500  -999.2500  -999.2500  -999.2500  -117.2770     8.8700   -57.1260   115.3190    12.7830    11.2930    11.3040   -94.6890    89.7500
 2090.0000  -999.2500  -999.2500  -999.2500  -999.2500  -118.7680     8.8690   -57.1490   114.8940    13.6980    11.4580    11.3880   -94.6890    88.8050
 2090.5000  -999.2500  -999.2500  -999.2500  -999.2500  -120.2590     8.8720   -57.3720   115.0650    14.5450    11.5490    11.4620   -94.6890    87.9190
