~VERSION INFORMATION
 VERS.                2.0:   CWLS LOG ASCII STANDARD - VERSION 2.0
 WRAP.                 NO:   ONE LINE PER DEPTH STEP
~WELL INFORMATION
#MNEM.UNIT      DATA TYPE    INFORMATION
#----------   ------------   ------------------------------
 STRT.F          170.5000:   START DEPTH
 STOP.F         3160.0000:   STOP DEPTH
 STEP.F            0.5000:   STEP LENGTH
 NULL.          -999.2500:   NO VALUE
 COMP.  FENIX AND SCISSON:   COMPANY
 WELL.    FENIX "A" #85-3:   WELL
 FLD .       TEA POT DOME:   FIELD
 LOC .       S3 T38N R78W:   LOCATION
 CNTY.            NATRONA:   COUNTY
 STAT.            WYOMING:   STATE
 CTRY. UNITED STATES OF AMERICA:   COUNTRY
 SRVC.           BIRDWELL:   SERVICE COMPANY
 DATE.        20-DEC-1977:   LOGDATE
 API .     49025104450000:   API NUMBER
~CURVE INFORMATION
#MNEM.UNIT       API CODE    CURVE DESCRIPTION
#----------   ------------   ------------------------------
 DEPT.F                  :   
 CALD.IN     45 280 60 00:   CALIPER FROM DENSITY LOG
 GRD .GAPI   45 310 01 00:   GAMMA RAY FROM DENSITY LOG
 RHOB.G/C3   45 350 01 00:   BULK DENSITY
 CORR.G/C3   45 356 01 00:   DENSITY CORRECTION
 SPR .MV     05 010 01 00:   SPONTANEOUS POTENTIAL
 SN  .OHMM   05 040 00 00:   SHORT NORMAL
 ILD .OHMM   05 120 46 00:   DEEP INDUCTION RESISTIVITY
~PARAMETER INFORMATION
#MNEM.UNIT          VALUE    DESCRIPTION
#----------   ------------   ------------------------------
 EKB .F         5165.0000:   Kelly bushing
 EGL .F         5155.0000:   Ground level
 TD  .F         3151.0000:   Total depth
 DATE.        20-DEC-1977:   Date logged
 CLNT.            A2DTECH:   Client Code
 SL  . 2000' FSL & 100'FEL:   Surface Location
 PD  .                 GL:   Permanent Datum
 EPD .F              5155:   Elevation Permanent Datum
 LMF .                 KB:   Log Measured From
 DMF .                 KB:   Drilling Measured From
 DAPD.F                10:   Feet Above Permanent Datum
 DD  .F              3150:   Depth driller
 DL  .F              3151:   Depth logger
 BLI .F              3146:   Bottom log interval
 TLI .F               200:   Top log interval
 CS1 .IN            8.625:   Casing size
 CBD1.      8.625" @ 223':   Casing driller 1
 BS1 .IN            7.875:   Bit size
 BSD1.F              3150:   Depth drilled with bit1
 DFT .                KCL:   Type fluid in hole
 DFD .                8.9:   Density
 DFV .                 40:   Viscosity
 DFPH.                 11:   pH
 DFL .                7.2:   Fluid loss
 MSS .           FLOWLINE:   Source of sample
 RMS .OHMM            0.4:   Rm
 MST .F                62:   Rm Meas. temp.
 RMF .OHMM           0.48:   Rmf
 MFST.F                63:   Rmf Meas. temp.
 RMC .OHMM           0.52:   Rmc
 MCST.F                63:   Rmc Meas. temp.
 MFSS.               MEAS:   Source Rmf.
 MCSS.               MEAS:   Source Rmc.
 TCS .HRS             3.5:   Time Circ. stopped
 MRT .F               118:   Maximum recorded temp.
 LUN .               2958:   Logging unit number
 LUL .             CASPER:   Logging unit location
 ENGI.             MILLER:   Recorded By
 WITN.         HERRINGTON:   Witnessed by
 ORIG.           5" PRINT:   Origin of data
 UWI .     49025104450000:   Unique Well ID
 DICO. A2D TECHNOLOGIES, INC.:   Digitizing Company
~OTHER INFORMATION
~A   DEPT     CALD        GRD       RHOB        CORR       SPR         SN        ILD   
# ...
 3128.0000     8.0152    88.6915     2.4922     0.0395   -11.2179     6.5513     3.8322
 3128.5000     8.0137    87.8860     2.4912     0.0375   -11.5572     6.5538     3.8334
 3129.0000     7.9923    87.0776     2.4891     0.0334   -11.8010     6.5562     3.9067
 3129.5000     7.9908    86.6627     2.4861     0.0303   -12.0018     6.5586     3.9444
 3130.0000     7.9893    89.0278     2.4840     0.0303   -12.1492     6.5006     3.9095
 3130.5000     7.9878    87.6243     2.4860     0.0262   -12.3831     6.5030     3.8750
 3131.0000     7.9863    86.8158     2.4869     0.0212   -12.4776     6.3862     3.8764
 3131.5000     7.9848    86.9990     2.4868     0.0181   -12.7417     6.2137     3.8421
 3132.0000     7.9637    87.7803     2.4888     0.0170   -12.8896     6.0459     3.6023
 3132.5000     7.9622    88.3603     2.4877     0.0170   -13.0374     6.0481     3.5379
 3133.0000     7.9607    87.7501     2.4837     0.0189   -13.1849     6.0504     3.5066
 3133.5000     7.9393    86.3466     2.4846     0.0249   -13.3328     5.9969     3.4755
 3134.0000     7.9378    85.3428     2.4935     0.0268   -13.4926     5.9991     3.4448
 3134.5000     7.9363    83.9362     2.4875     0.0268   -13.6284     6.0013     3.5104
 3135.0000     7.9348    83.9211     2.4864     0.0327   -13.8309     6.0593     3.5117
 3135.5000     7.9333    85.8895     2.5023     0.0377   -13.9253     6.1178     3.5786
 3136.0000     7.9516    89.6400     2.5013     0.0396   -14.0716     6.2357     3.6807
 3136.5000     7.9302    89.2312     2.4973     0.0385   -14.0701     6.2955     3.7162
 3137.0000     7.9486    88.2243     2.4952     0.0355   -14.0686     6.4145     3.8222
 3137.5000     7.9471    86.6225     2.4881     0.0344   -14.0672     6.5366     3.8592
 3138.0000     7.9456    85.4173     2.4881     0.0354   -14.0657     6.4788     3.8606
 3138.5000     7.9438    85.2038     2.4920     0.0393   -14.0641     6.4808     3.8264
 3139.0000     7.9230    87.5719     2.4970     0.0382   -14.0627     6.4235     3.7926
 3139.5000     7.9016    92.3171     2.4999     0.0402   -14.0612     6.2505     3.8293
 3140.0000     7.9200    95.4786     2.5038     0.0421   -14.0595     6.1382     3.6915
 3140.5000     7.9188    90.1051     2.5018     0.0401   -14.0582     6.0839     3.6581
 3141.0000     7.9172  -999.2500     2.4987     0.0390   -14.0567     6.0857     3.6263
 3141.5000     7.9356  -999.2500     2.5007     0.0410   -14.0550     6.0323     3.5739
 3142.0000     7.9536  -999.2500     2.5026     0.0399   -14.0537     5.9790     3.5294
 3142.5000     7.9723  -999.2500     2.4966     0.0338   -14.0523     5.9261     3.5185
 3143.0000     7.9705  -999.2500     2.4845     0.0308   -14.2000     5.9283     3.5077
 3143.5000     7.9693  -999.2500     2.4865     0.0327   -14.1985     5.8218     3.5013
 3144.0000     7.9876  -999.2500     2.4874     0.0327   -14.1970     5.7708     3.3753
 3144.5000     7.9662  -999.2500     2.4833     0.0316   -14.1955     5.7198     3.3756
 3145.0000     7.9449  -999.2500     2.4753     0.0335   -14.1940     5.6688     3.3211
 3145.5000     7.9437  -999.2500     2.4762     0.0375   -14.1924     5.6187     3.2675
 3146.0000     7.9220  -999.2500     2.4862     0.0444   -14.3403     5.6734     3.2273
 3146.5000     7.8811  -999.2500     2.4911     0.0494   -14.3388     5.6755     3.2203
 3147.0000     7.8594  -999.2500     2.4970     0.0533   -14.3371     5.6776     3.2133
 3147.5000     7.8582  -999.2500     2.4969     0.0593   -14.4030     5.6796     3.2064
 3148.0000     7.8164  -999.2500     2.4979     0.0642   -14.4837     5.6817     3.2025
 3148.5000     7.7357  -999.2500     2.4979     0.0692   -14.4818     5.6315     3.1390
 3149.0000     7.4761  -999.2500     2.4958     0.0711   -14.4806     5.6336     3.0768
 3149.5000     7.1169  -999.2500     2.4877     0.0821   -14.4791     5.6357     3.0158
 3150.0000     6.5586  -999.2500     2.5057     0.1210   -14.4776  -999.2500  -999.2500
 3150.5000  -999.2500  -999.2500     2.5066     0.1598  -999.2500  -999.2500  -999.2500
 3151.0000  -999.2500  -999.2500     2.4956     0.2020  -999.2500  -999.2500  -999.2500
 3151.5000  -999.2500  -999.2500     2.4715  -999.2500  -999.2500  -999.2500  -999.2500
 3152.0000  -999.2500  -999.2500  -999.2500  -999.2500  -999.2500  -999.2500  -999.2500
 3152.5000  -999.2500  -999.2500  -999.2500  -999.2500  -999.2500  -999.2500  -999.2500
 3153.0000  -999.2500  -999.2500  -999.2500  -999.2500  -999.2500  -999.2500  -999.2500
 3153.5000  -999.2500  -999.2500  -999.2500  -999.2500  -999.2500  -999.2500  -999.2500
 3154.0000  -999.2500  -999.2500  -999.2500  -999.2500  -999.2500  -999.2500  -999.2500
 3154.5000  -999.2500  -999.2500  -999.2500  -999.2500  -999.2500  -999.2500  -999.2500
 3155.0000  -999.2500  -999.2500  -999.2500  -999.2500  -999.2500  -999.2500  -999.2500
 3155.5000  -999.2500  -999.2500  -999.2500  -999.2500  -999.2500  -999.2500  -999.2500
 3156.0000  -999.2500  -999.2500  -999.2500  -999.2500  -999.2500  -999.2500  -999.2500
 3156.5000  -999.2500  -999.2500  -999.2500  -999.2500  -999.2500  -999.2500  -999.2500
 3157.0000  -999.2500  -999.2500  -999.2500  -999.2500  -999.2500  -999.2500  -999.2500
 3157.5000  -999.2500  -999.2500  -999.2500  -999.2500  -999.2500  -999.2500  -999.2500
 3158.0000  -999.2500  -999.2500  -999.2500  -999.2500  -999.2500  -999.2500  -999.2500
 3158.5000  -999.2500  -999.2500  -999.2500  -999.2500  -999.2500  -999.2500  -999.2500
 3159.0000  -999.2500  -999.2500  -999.2500  -999.2500  -999.2500  -999.2500  -999.2500
 3159.5000  -999.2500  -999.2500  -999.2500  -999.2500  -999.2500  -999.2500  -999.2500
 3160.0000  -999.2500  -999.2500  -999.2500  -999.2500  -999.2500  -999.2500  -999.2500
