~VERSION INFORMATION
 VERS.                2.0:   CWLS LOG ASCII STANDARD - VERSION 2.0
 WRAP.                 NO:   ONE LINE PER DEPTH STEP
~WELL INFORMATION
#MNEM.UNIT      DATA TYPE    INFORMATION
#----------   ------------   ------------------------------
 STRT.F         2496.0000:   START DEPTH
 STOP.F         4120.0000:   STOP DEPTH
 STEP.F            0.5000:   STEP LENGTH
 NULL.          -999.2500:   NO VALUE
 COMP. LAWRENCE ALLISON AND ASSOCIATES:   COMPANY
 WELL. LAWRENCE "X" #85-10:   WELL
 FLD .              N P R:   FIELD
 LOC .      S10 T38N R78W:   LOCATION
 CNTY.            NATRONA:   COUNTY
 STAT.            WYOMING:   STATE
 CTRY. UNITED STATES OF AMERICA:   COUNTRY
 SRVC.      DRESSER ATLAS:   SERVICE COMPANY
 DATE.        20-JAN-1984:   LOGDATE
 API .     49025109580000:   API NUMBER
~CURVE INFORMATION
#MNEM.UNIT       API CODE    CURVE DESCRIPTION
#----------   ------------   ------------------------------
 DEPT.F                  :   
 SPR .MV     07 010 01 00:   SPONTANEOUS POTENTIAL
 TENR.LBS    07 635 01 00:   TENSION FROM RESISTIVITY
 ILD .OHMM   07 120 46 00:   DEEP INDUCTION RESISTIVITY
 ILM .OHMM   07 120 44 00:   INDUCTION LOG MEDIUM RESISTIVITY
 RFOC.OHMM   07 220 04 00:   RESISTIVITY FOCUSED LOG RES.
 GRD .GAPI   45 310 01 00:   GAMMA RAY FROM DENSITY LOG
 CALD.IN     45 280 60 00:   CALIPER FROM DENSITY LOG
 TEND.LBS    45 635 01 00:   TENSION FROM DENSITY LOG
 RHOB.G/C3   45 350 01 00:   BULK DENSITY
 CORR.G/C3   45 356 01 00:   DENSITY CORRECTION
 CN  .DEC    42 890 03 00:   NEUTRON POROSITY SANDSTONE
~PARAMETER INFORMATION
#MNEM.UNIT          VALUE    DESCRIPTION
#----------   ------------   ------------------------------
 EKB .F         5231.0000:   Kelly bushing
 EGL .F         5221.0000:   Ground level
 EDF .F            0.0000:   Drilling floor
 TD  .F         4115.0000:   Total depth
 DATE.        20-JAN-1984:   Date logged
 CLNT.            A2DTECH:   Client Code
 SL  . 2159' FSL & 292' FEL:   Surface Location
 PD  .                 GL:   Permanent Datum
 EPD .F              5221:   Elevation Permanent Datum
 LMF .                 KB:   Log Measured From
 DMF .                 KB:   Drilling Measured From
 DD  .F              4115:   Depth driller
 DL  .F              4111:   Depth logger
 BLI .F              4109:   Bottom log interval
 TLI .F              2496:   Top log interval
 CS1 .IN            8.625:   Casing size
 CBD1.       8.625 @ 537':   Casing driller 1
 BS1 .IN            7.875:   Bit size
 DFT .            GEL KCL:   Type fluid in hole
 DFD .                8.8:   Density
 DFV .                 40:   Viscosity
 DFPH.                  9:   pH
 DFL .                9.8:   Fluid loss
 MSS .           FLOWLINE:   Source of sample
 RMS .OHMM           0.61:   Rm
 MST .F                77:   Rm Meas. temp.
 RMF .OHMM           0.51:   Rmf
 MFST.F                69:   Rmf Meas. temp.
 RMC .OHMM           0.76:   Rmc
 MCST.F                77:   Rmc Meas. temp.
 MFSS.               MEAS:   Source Rmf.
 RMB .OHMM           0.38:   Rm. at BHT
 BHT .F               122:   BHT.
 TCS .HRS               4:   Time Circ. stopped
 MRT .F               122:   Maximum recorded temp.
 LUN .               6307:   Logging unit number
 LUL .               GLTE:   Logging unit location
 ENGI.            DEYOUNG:   Recorded By
 WITN.           R. SCOTT:   Witnessed by
 ORIG.           5" PRINT:   Origin of data
 UWI .     49025109580000:   Unique Well ID
 DICO. A2D TECHNOLOGIES, INC.:   Digitizing Company
 DAPD.                 10:   Feet Above Permanent Datum
 MCSS.               CALC:   Source Rmc.
~OTHER INFORMATION
~A  DEPT       SPR       TENR        ILD        ILM       RFOC        GRD       CALD       TEND       RHOB       CORR         CN   
# ...
 3868.5000   -45.3660   -21.6300     2.6190     2.9670     3.3670   143.4590     7.9520   -25.7030     2.5460     0.0420     0.2930
 3869.0000   -45.7690   -21.7050     2.9330     3.3490     3.5570   141.8440     7.9500   -25.7030     2.5530     0.0690     0.2690
 3869.5000   -45.4530   -21.7810     3.4860     3.9020     4.1100   128.7290     7.9480   -25.7030     2.5620     0.1100     0.2550
 3870.0000   -45.0940   -21.8290     4.2930     4.8820     4.9570   111.4590     7.9450   -25.7030     2.5990     0.1350     0.2370
 3870.5000   -44.7350   -21.7440     5.1000     5.8610     9.1350    96.3090     7.9430   -25.7030     2.6780     0.1240     0.2180
 3871.0000   -44.8100   -21.6590     5.9070     6.8410    12.4860    96.8980     7.9400   -25.7030     2.7260     0.1100     0.2040
 3871.5000   -45.3610   -21.5740     6.8580     7.8210    12.4860   100.8940     7.9380   -25.7030     2.6890     0.1040     0.2040
 3872.0000   -45.8040   -21.4890     7.8650     8.8110    12.0400   104.3050     7.9350   -25.7030     2.6530     0.0720     0.2050
 3872.5000   -45.7920   -21.4040     8.8710     9.8240    11.7040   106.4460     7.9330   -25.7030     2.6420     0.0210     0.2050
 3873.0000   -45.7910   -21.3190     9.2050    10.5730    12.3730   107.8120     7.9310   -25.7030     2.6410     0.0410     0.2060
 3873.5000   -45.7910   -21.2350     8.9370    10.0600    12.9560   109.1450     7.9280   -25.7030     2.6410     0.0670     0.2140
 3874.0000   -45.7920   -21.1500     8.4620     9.3860    13.3200   111.0370     7.9260   -25.7030     2.6400     0.0700     0.2230
 3874.5000   -45.7940   -21.0650     7.9870     8.7130    11.2460   114.9270     7.9230   -25.7030     2.6310     0.0660     0.2320
 3875.0000   -45.7850   -20.9800     7.5120     8.0400     9.4860   118.7530     7.9210   -25.7030     2.6210     0.0620     0.2400
 3875.5000   -45.1450   -20.8950     7.0420     7.3660     8.5760   122.5070     7.9190   -25.7030     2.6160     0.0730     0.2410
 3876.0000   -44.4260   -20.8100     6.4200     6.6430     8.2210   124.8440     7.9160   -25.7030     2.6170     0.0860     0.2400
 3876.5000   -43.7050   -20.7250     5.8040     5.9080     7.5890   124.6270     7.9140   -25.7030     2.6170     0.0850     0.2390
 3877.0000   -42.9950   -20.6410     5.1890     5.1730     6.7890   124.4480     7.9110   -25.7030     2.6120     0.0770     0.2380
 3877.5000   -42.4070   -20.5560     4.6040     4.8270     6.1140   124.1760     7.9090   -25.7030     2.6060     0.0700     0.2380
 3878.0000   -42.7040   -20.4710     4.4390     4.6960     5.8180   127.8780     7.9070   -25.7030     2.6040     0.0650     0.2440
 3878.5000   -42.9830   -20.3860     4.2820     4.5650     5.5220   132.3960     7.9040   -25.7030     2.6060     0.0780     0.2540
 3879.0000   -43.2590   -20.3010     4.1250     4.4340     5.2260   136.3340     7.9020   -25.7030     2.6150     0.0910     0.2630
 3879.5000   -43.5360   -20.2160     3.9690     4.3030     4.9110   135.3840     7.8990   -25.7030     2.6230     0.1040     0.2650
 3880.0000   -43.6090   -20.1310     3.8270     4.2370     5.0500   133.5030     7.8970   -25.7030     2.6250     0.1060     0.2680
 3880.5000   -43.6370   -20.0470     3.9180     4.2660     5.3300   131.8320     7.8940   -25.7030     2.6260     0.0990     0.2680
 3881.0000   -43.6640   -19.9620     4.0080     4.3000     5.6100   132.4610     7.8920   -25.7030     2.6270     0.0920     0.2650
 3881.5000   -43.6920   -19.8770     4.1910     4.6700     5.8200   133.1190     7.8900   -25.7030     2.6210     0.0860     0.2630
 3882.0000   -43.7190   -19.7920     4.3900     5.3470     5.3970   133.7700     7.8870   -25.7030     2.6070     0.0790     0.2580
 3882.5000   -43.7450   -19.7070     4.7830     6.0230     5.0030   134.4300     7.8850   -25.7030     2.5930     0.0810     0.2520
 3883.0000   -43.7710   -19.6220     5.5440     6.6990     5.2400   135.0210     7.8820   -25.7030     2.5820     0.0860     0.2400
 3883.5000   -43.5510   -19.5370     6.3040     7.3760     5.9040   132.3550     7.8800   -25.7030     2.5830     0.0890     0.2310
 3884.0000   -43.0820   -19.4530     7.0650     8.0520     7.7950   125.2140     7.8780   -25.7030     2.5870     0.0820     0.2220
 3884.5000   -42.6140   -19.3680     7.8250     8.7280    10.5950   118.0710     7.8790   -25.7030     2.5920     0.0490     0.2130
 3885.0000   -42.1440   -19.2830     8.5860     9.4040    13.3950   110.9570     7.8810   -25.7030     2.5930     0.0240     0.2080
 3885.5000   -41.6740   -19.1980     9.3460    10.0810    14.0790   106.9640     7.8820   -25.7030     2.5920     0.0340     0.2040
 3886.0000   -41.2040   -19.1130    10.1580    10.7210    13.5840   109.0750     7.8840   -25.7030     2.5910     0.0520     0.1990
 3886.5000   -40.7390   -19.0280    10.4760    11.2790    13.1350   111.3430     7.8850   -25.7030     2.5900     0.0690     0.1970
 3887.0000   -40.2660   -18.9430    10.3250    10.9580    12.6850   113.6650     7.8870   -25.7030     2.5920     0.0870     0.2040
 3887.5000   -40.1930   -18.8590    10.0870    10.5720    12.2360   115.9920     7.8890   -25.7030     2.5920     0.1050     0.2100
 3888.0000   -40.1490   -18.7740     9.8500    10.1850    11.8130   118.3090     7.8900   -25.7030     2.5920     0.1050     0.2170
 3888.5000   -40.1150   -18.6890     9.6120     9.7990    11.0830   120.3620     7.8920   -25.7030     2.5870     0.1020     0.2240
 3889.0000   -40.0860   -18.6040     9.3740     9.4130    10.2350   120.7610     7.8930   -25.7030     2.5840     0.0990     0.2220
 3889.5000   -40.0570   -18.5190     9.2050     9.2900     9.4640   120.1310     7.8950   -25.7030     2.5850     0.0900     0.2170
 3890.0000   -40.0280   -18.4340    10.4210    10.2130    10.7890   116.4340     7.8960   -25.7030     2.5970     0.0750     0.2120
 3890.5000   -39.9980   -18.3500    11.3660    11.1520    12.0050   112.2250     7.8980   -25.7030     2.6090     0.0680     0.2080
 3891.0000   -39.9690   -18.2650    12.3110    12.0900    12.8890   107.8310     7.9000   -25.7030     2.6210     0.0750     0.2060
 3891.5000   -39.9390   -18.1800    13.2560    13.0290    13.0550    99.3740     7.9010   -25.7030     2.6300     0.0820     0.2030
 3892.0000   -39.9100   -18.0950    14.2020    13.9680    13.7390    90.8420     7.9030   -25.7030     2.6270     0.0870     0.1970
 3892.5000   -39.8810   -18.0100    15.1470    14.9070    17.6480    82.2970     7.9040   -25.7030     2.6220     0.0900     0.1850
 3893.0000   -39.8510   -17.9250    16.0920    15.8450    21.5560    73.8200     7.9060   -25.7030     2.6180     0.0940     0.1730
 3893.5000   -39.8200   -17.8360    17.0370    16.6520    27.1290    72.9180     7.9070   -22.3290     2.6140     0.0970     0.1670
 3894.0000   -39.7910   -17.9840    18.0500    16.8880    25.8940    80.8180     7.9090   -19.1910     2.6110     0.1010     0.1700
 3894.5000   -39.5760   -18.1410    19.0830    17.4920    23.1290    86.2070     7.9110   -17.9410     2.6160     0.1000     0.1760
 3895.0000   -39.2240   -18.2980    20.1170    18.0970    20.3640    88.5950     7.9120   -18.4670     2.6300     0.0980     0.1830
 3895.5000   -38.8710   -18.4550    21.1400    18.5750    19.6340    88.2870     7.9140   -18.9920     2.6390     0.0970     0.1850
 3896.0000   -38.5140   -18.6130    20.9450    18.7480    21.8930    83.5700     7.9150   -19.5170     2.5980     0.0940     0.1870
 3896.5000   -38.3390   -18.7700    20.5820    18.0480    24.1310    78.5590     7.9170   -20.0420     2.5540     0.0930     0.1890
 3897.0000   -38.2740   -18.9270    20.2250    17.4740    24.9640    81.2940     7.9180   -20.5670     2.5350     0.0810     0.1910
 3897.5000   -38.2090   -19.0840    19.8690    16.9000    23.2810    88.7420     7.9200   -21.0920     2.5550     0.0620     0.1840
 3898.0000   -38.1450   -19.2410    19.3180    16.3260    21.2810    91.8970     7.9220   -21.6170     2.5850     0.0450     0.1780
 3898.5000   -38.0810   -19.3980    18.7330    15.7510    19.7080    92.7310     7.9230   -22.1420     2.6140     0.0720     0.1720
