~VERSION INFORMATION
 VERS.                2.0:   CWLS LOG ASCII STANDARD - VERSION 2.0
 WRAP.                 NO:   ONE LINE PER DEPTH STEP
~WELL INFORMATION
#MNEM.UNIT      DATA TYPE    INFORMATION
#----------   ------------   ------------------------------
 STRT.F          637.0000:   START DEPTH
 STOP.F         3158.0000:   STOP DEPTH
 STEP.F            0.5000:   STEP LENGTH
 NULL.          -999.2500:   NO VALUE
 COMP.    FENIX & SCISSON:   COMPANY
 WELL.  FENIX "AX" #34-33:   WELL
 FLD .             NPR #3:   FIELD
 LOC .      S33 T39N R78W:   LOCATION
 CNTY.            NATRONA:   COUNTY
 STAT.            WYOMING:   STATE
 CTRY. UNITED STATES OF AMERICA:   COUNTRY
 SRVC.       SCHLUMBERGER:   SERVICE COMPANY
 DATE.        15-APR-1977:   LOGDATE
 API .     49025103450000:   API NUMBER
~CURVE INFORMATION
#MNEM.UNIT       API CODE    CURVE DESCRIPTION
#----------   ------------   ------------------------------
 DEPT.F                  :   
 CALD.IN     45 280 60 00:   CALIPER FROM DENSITY LOG
 GRD .GAPI   45 310 01 00:   GAMMA RAY FROM DENSITY LOG
 RHOB.G/C3   45 350 01 00:   BULK DENSITY
 CORR.G/C3   45 356 01 00:   DENSITY CORRECTION
 SPR .MV     07 010 01 00:   SPONTANEOUS POTENTIAL
 SFLU.OHMM   07 220 01 00:   SPHERICALLY FOCUSED LOG UNAVERAGED RESISTIVITY
 ILD .OHMM   07 120 46 00:   INDUCTION LOG DEEP RESISTIVITY
 ILM .OHMM   07 120 44 00:   INDUCTION LOG MEDIUM RESISTIVITY
~PARAMETER INFORMATION
#MNEM.UNIT          VALUE    DESCRIPTION
#----------   ------------   ------------------------------
 EKB .F         5196.0000:   Kelly bushing
 EGL .F         5185.0000:   Ground level
 EDF .F            0.0000:   Drilling floor
 TD  .F         3159.0000:   Total depth
 DATE.        15-APR-1977:   Date logged
 CLNT.            A2DTECH:   Client Code
 SL  . 2132' FNL & 1750' FWL:   Surface Location
 PD  .                 GL:   Permanent Datum
 EPD .F              5185:   Elevation Permanent Datum
 LMF .                 KB:   Log Measured From
 DMF .                 KB:   Drilling Measured From
 DAPD.F                11:   Feet Above Permanent Datum
 DD  .F              3156:   Depth driller
 DL  .F              3159:   Depth logger
 BLI .F              3153:   Bottom log interval
 TLI .F               637:   Top log interval
 CS1 .IN            8.625:   Casing size
 CBD1.      8.625" @ 637':   Casing driller 1
 CBL1.F               637:   Casing logger 1
 BS1 .IN            7.875:   Bit size
 BSD1.F              3156:   Depth drilled with bit1
 DFT .                FGM:   Type fluid in hole
 DFD .                7.5:   Density
 DFV .                 35:   Viscosity
 DFPH.                8.5:   pH
 DFL .                  9:   Fluid loss
 MSS .                PIT:   Source of sample
 RMS .OHMM            .48:   Rm
 MST .F                60:   Rm Meas. temp.
 RMF .OHMM            .28:   Rmf
 MFST.F                60:   Rmf Meas. temp.
 MFSS.               MEAS:   Source Rmf.
 RMB .OHMM            .24:   Rm. at BHT
 BHT .F               120:   BHT.
 TCS .HRS            0200:   Time Circ. stopped
 MRT .F               120:   Maximum recorded temp.
 LUN .               7680:   Logging unit number
 LUL .               CSPR:   Logging unit location
 ENGI.             TAYLOR:   Recorded By
 WITN.         PETTINGILL:   Witnessed by
 ORIG.           5" PRINT:   Origin of data
 UWI .     49025103450000:   Unique Well ID
 DICO. A2D TECHNOLOGIES, INC.:   Digitizing Company
 TLAB.               0530:   Time logger at bottom
~OTHER INFORMATION
~A   DEPT       CALD      GRD       RHOB       CORR        SPR         SFLU        ILD        ILM 
# ...
 3107.5000     7.8332   117.0145     2.4883     0.0187   -41.0176     4.0417     3.1521     3.6060
 3108.0000     7.8334   119.5999     2.5262     0.0247   -41.0164     4.0417     3.0834     3.5402
 3108.5000     7.8337   120.3957     2.5232     0.0267   -40.8160     4.0045     3.0551     3.4756
 3109.0000     7.8340   118.8071     2.5203     0.0327   -40.8148     3.9311     3.0265     3.4437
 3109.5000     7.8142   115.0331     2.5113     0.0268   -40.8136     3.7534     2.9981     3.3809
 3110.0000     7.8147   112.4501     2.4704     0.0058   -40.8125     3.7534     2.9699     3.3192
 3110.5000     7.8149   112.0540     2.5173     0.0148   -40.8113     3.9676     2.9420     3.2586
 3111.0000     7.8748   112.8513     2.5133     0.0248   -41.0094     4.0417     2.9144     3.2287
 3111.5000     7.8750   115.0378     2.5094     0.0248   -41.0082     4.0045     2.8871     3.1991
 3112.0000     7.8754   116.6282     2.5004     0.0249   -40.8078     3.9311     2.8600     3.1991
 3112.5000     7.8756   117.2253     2.5413     0.0548   -40.8066     3.8949     2.7863     3.1698
 3113.0000     7.8163   119.0141     2.5503     0.0808   -40.8054     3.5838     2.7355     3.1119
 3113.5000     7.8166   120.0083     2.5254     0.0578   -40.8042     3.4536     2.7056     3.0551
 3114.0000     7.8169   121.1997     2.5045     0.0445   -40.8031     3.4218     2.6760     2.9719
 3114.5000     7.8171   122.7908     2.4875     0.0413   -40.8019     3.3591     2.6468     2.9176
 3115.0000     7.8373   123.9822     2.4656     0.0269   -40.6014     3.2975     2.6178     2.8381
 3115.5000     7.8375   121.0051     2.4915     0.0340   -40.4009     3.2672     2.5892     2.7608
 3116.0000     7.8378   117.8287     2.4995     0.0429   -40.0011     3.2672     2.5609     2.7355
 3116.5000     7.8381   112.6649     2.5035     0.0460   -39.9999     3.3591     2.5329     2.7608
 3117.0000     7.8582   114.8521     2.5056     0.0490   -39.7993     3.5508     2.5053     2.8381
 3117.5000     7.8585   117.2362     2.5166     0.0490   -39.3995     3.7189     2.4779     2.8381
 3118.0000     7.8588   118.4273     2.5076     0.0490   -38.9995     3.6171     2.4508     2.8121
 3118.5000     7.8590   117.0389     2.5256     0.0500   -38.7990     3.3591     2.4240     2.7608
 3119.0000     7.8593   119.8206     2.5266     0.0720   -38.9971     3.1778     2.4045     2.7104
 3119.5000     7.7998   120.8144     2.4977     0.0391   -38.7966     3.0908     2.3825     2.6609
 3120.0000     7.8399   121.6083     2.4877     0.0241   -37.7985     3.0624     2.3606     2.6123
 3120.5000     7.8402   121.2134     2.4757     0.0221   -37.3985     3.0624     2.3357     2.6123
 3121.0000     7.8206   121.0159     2.4867     0.0212   -36.7992     3.0908     2.3111     2.5884
 3121.5000     7.8408   120.6197     2.5007     0.0292   -36.5986     3.0908     2.2867     2.5647
 3122.0000     7.8410   119.8266     2.4947     0.0192   -36.1985     3.0908     2.2625     2.5411
 3122.5000     7.8016   120.0262     2.4838     0.0192   -36.1973     3.0624     2.2386     2.5179
 3123.0000     7.8616   120.0272     2.4958     0.0172   -35.7972     3.0908     2.2150     2.4948
 3123.5000     7.8617   121.4177     2.5038     0.0153   -35.5965     3.0908     2.1916     2.4719
 3124.0000     7.8437   126.9765     2.4748     0.0163   -35.5953     3.0062     2.1930     2.4492
 3124.5000     7.8422   128.9620     2.4729     0.0133   -35.5940     2.9511     2.1930     2.4492
 3125.0000     7.8402   127.1764     2.4769     0.0193   -35.7921     2.7918     2.1930     2.4268
 3125.5000     7.8381   125.7866     2.4889     0.0343   -35.7909     2.7661     2.1729     2.3606
 3126.0000     7.8361   124.7949     2.5168     0.0463   -35.7896     2.7661     2.1483     2.3176
 3126.5000     7.8341   124.5973     2.5069     0.0383   -35.5889     2.8439     2.1240     2.3176
 3127.0000     7.8321   124.3995     2.4929     0.0313   -35.5876     2.9511     2.1000     2.2963
 3127.5000     7.8301   124.4002     2.4630     0.0184   -35.3869     2.9785     2.0751     2.3176
 3128.0000     7.8280   124.4012     2.4480     0.0254   -35.3856     2.9239     2.0751     2.3390
 3128.5000     7.8260   124.9974     2.4710     0.0314   -35.3844     2.9239     2.0560     2.3390
 3129.0000     7.8240   125.7916     2.4690     0.0114   -35.1836     3.0062     2.0372     2.3176
 3129.5000     7.8220   128.1738     2.4780     0.0194   -34.9829     3.0342     2.0185     2.3176
 3130.0000     7.8200   129.3650     2.4751     0.0284   -34.9816     2.9239     2.0000     2.2132
 3130.5000     7.8179   131.7466     2.4811     0.0424   -34.9803     2.6411     1.9635     2.1332
 3131.0000     7.8159   135.5184     2.4881     0.0554   -35.1785     2.3856     1.9635     2.0372
 3131.5000     7.8139   137.3030     2.4941     0.0624   -34.7788     2.3419     1.9817     2.0372
 3132.0000     7.8119   132.1468     2.4751     0.0535   -34.3778     2.3856     2.0185     2.0560
 3132.5000     7.8099   120.8398     2.4721     0.0315   -34.3768     2.4985     2.0560     2.1332
 3133.0000     7.8271   114.8895     2.4742     0.0086   -34.9739     2.7918     2.1332     2.2132
 3133.5000     7.8274   111.9141     2.4722     0.0016   -34.9726     3.0342     2.2132     2.2544
 3134.0000     7.8277   111.7163     2.4742    -0.0004   -35.1708     3.0908     2.5179     2.3176
 3134.5000     7.8279   111.7176     2.4792     0.0086   -35.1695     3.1485     2.7355     2.3825
 3135.0000     7.8282   111.9172     2.4972     0.0106   -34.9687     3.2371     2.8644     2.4948
 3135.5000     7.8285   111.9182     2.5012     0.0166   -34.5685     3.3903     3.0271     2.6365
 3136.0000     7.8288   112.7131     2.5251     0.0217   -34.5672     3.6171     3.1698     2.8381
 3136.5000     7.8092   114.4991     2.5331     0.0077   -34.5659     4.0417     3.3192     3.0834
 3137.0000     7.8095   113.1122     2.5461     0.0167   -34.5646     4.5581     3.3809     3.3499
 3137.5000     7.8098   110.1387     2.5521     0.0107   -34.5633     5.0463     3.4122     3.5402
 3138.0000     7.8100    98.6382     2.5382     0.0217   -34.3625     5.2365     3.3809     3.7071
 3138.5000     7.8103    56.9953     2.5352     0.0108   -33.7626     5.5868     3.1991     3.7414
 3139.0000     7.8106  -999.2500     2.5322     0.0198   -33.3623     6.0159     3.1119     3.7414
 3139.5000     7.8307  -999.2500     2.5263     0.0427   -32.9619     5.8512     3.0271     3.6394
 3140.0000     7.8309  -999.2500     2.5113     0.0607   -32.5615     4.2330     3.0271     3.5078
 3140.5000     7.8312  -999.2500     2.5123     0.0418   -32.1611     2.7661     2.9994     3.3192
 3141.0000     7.8117  -999.2500     2.4734     0.0288   -31.7607     2.7661     3.0551     3.1991
 3141.5000     7.7922  -999.2500     2.4854     0.0149   -31.7594     3.1485     3.1407     3.1698
 3142.0000     7.7923  -999.2500     2.4984     0.0099   -31.7580     3.9311     3.3192     3.2287
 3142.5000     7.7943  -999.2500     2.5473     0.0069   -32.1558     4.4746     3.5730     3.4122
 3143.0000     7.7962  -999.2500     2.5214     0.0089   -32.7531     6.1851     3.8818     3.6394
 3143.5000     7.7982  -999.2500     2.5314     0.0129   -32.9513     6.1851     4.1786     3.8818
 3144.0000     7.8002  -999.2500     2.5424     0.0139   -33.1495     5.6387     4.6669     4.1786
 3144.5000     7.8022  -999.2500     2.5444     0.0110   -32.9486     6.0718     4.8869     4.6241
 3145.0000     7.8042  -999.2500     2.5464     0.0070   -33.1466     6.9754     5.1172     5.1172
 3145.5000     7.8339  -999.2500     2.5524     0.0060   -33.1455     7.3056     5.2123     5.3092
 3146.0000     7.8340  -999.2500     2.5574     0.0110   -33.3440     7.5810     5.2123     5.4580
 3146.5000     7.8311  -999.2500     2.5455     0.0100   -33.4423     7.5112     5.2123     5.5594
 3147.0000     7.8282  -999.2500     2.5405     0.0080   -33.5406     6.9754     5.1645     5.5085
 3147.5000     7.8252  -999.2500     2.5505     0.0111   -33.6389     6.1282     5.1172     5.4079
