~VERSION INFORMATION
 VERS.                2.0:   CWLS LOG ASCII STANDARD - VERSION 2.0
 WRAP.                 NO:   ONE LINE PER DEPTH STEP
~WELL INFORMATION
#MNEM.UNIT      DATA TYPE    INFORMATION
#----------   ------------   ------------------------------
 STRT.F          620.0000:   START DEPTH
 STOP.F         3209.0000:   STOP DEPTH
 STEP.F            0.5000:   STEP LENGTH
 NULL.          -999.2500:   NO VALUE
 COMP. FENIX & SCISSON - US NAVY:   COMPANY
 WELL.   FENIX "A" #23-33:   WELL
 FLD .             NPR #3:   FIELD
 LOC .      S33 T39N R78W:   LOCATION
 CNTY.            NATRONA:   COUNTY
 STAT.            WYOMING:   STATE
 CTRY. UNITED STATES OF AMERICA:   COUNTRY
 SRVC.              WELEX:   SERVICE COMPANY
 DATE.        26-MAR-1977:   LOGDATE
 API .     49025103250000:   API NUMBER
~CURVE INFORMATION
#MNEM.UNIT       API CODE    CURVE DESCRIPTION
#----------   ------------   ------------------------------
 DEPT.F                  :   
 GRD .GAPI   45 310 01 00:   GAMMA RAY FROM DENSITY LOG
 CALD.IN     45 280 60 00:   CALIPER FROM DENSITY LOG
 CORR.G/C3   45 356 01 00:   DENSITY CORRECTION
 RHOB.G/C3   45 350 01 00:   BULK DENSITY
 SPR .MV     07 010 01 00:   SPONTANEOUS POTENTIAL
 ILD .OHMM   07 120 46 00:   DEEP INDUCTION RESISTIVITY
 ILM .OHMM   07 120 44 00:   INDUCTION LOG MEDIUM RESISTIVITY
 SGRD.OHMM   07 220 05 00:   SHALLOW SHORT GUARD RESISTIVITY
~PARAMETER INFORMATION
#MNEM.UNIT          VALUE    DESCRIPTION
#----------   ------------   ------------------------------
 EKB .F         5183.0000:   Kelly bushing
 EGL .F         5172.0000:   Ground level
 TD  .F         3213.0000:   Total depth
 CLNT.            A2DTECH:   Client Code
 SL  . 900' FWL & 1650' FNL:   Surface Location
 PD  .                 GL:   Permanent Datum
 EPD .F              5172:   Elevation Permanent Datum
 LMF .                 KB:   Log Measured From
 DMF .                 KB:   Drilling Measured From
 DAPD.F                11:   Feet Above Permanent Datum
 DATE.        26-MAR-1977:   Date Logged [DD-MMM-YYYY]
 DD  .F              3210:   Depth driller
 DL  .F              3213:   Depth logger
 BLI .F              3211:   Bottom log interval
 TLI .F               625:   Top log interval
 CS1 .IN            8.625:   Casing size
 CBD1.      8.625" @ 633':   Casing driller 1
 CBL1.F               635:   Casing logger 1
 BS1 .IN            7.875:   Bit size
 BSD1.F              3210:   Depth drilled with bit1
 DFT .            KCL MUD:   Type fluid in hole
 DFD .                9.5:   Density
 DFV .                 34:   Viscosity
 DFPH.                8.5:   pH
 DFL .                 14:   Fluid loss
 MSS .           FLOWLINE:   Source of sample
 RMS .OHMM           0.34:   Rm
 MST .F                86:   Rm Meas. temp.
 RMF .OHMM           0.25:   Rmf
 MFST.F                86:   Rmf Meas. temp.
 MFSS.            FANN KL:   Source Rmf.
 RMC .OHMM           0.55:   Rmc
 MCST.F                86:   Rmc Meas. temp.
 MCSS.            FANN KL:   Source Rmc.
 RMB .OHMM           0.31:   Rm. at BHT
 BHT .F                92:   BHT.
 TCS .HRS             2.5:   Time Circ. stopped
 MRT .F                92:   Maximum recorded temp.
 LUN .               8611:   Logging unit number
 LUL .             CASPER:   Logging unit location
 ENGI.            C. DOAK:   Recorded By
 WITN.            K. JAPP:   Witnessed by
 ORIG.           5" PRINT:   Origin of data
 UWI .     49025103250000:   Unique Well ID
 DICO. A2D TECHNOLOGIES, INC.:   Digitizing Company
~OTHER INFORMATION
~A   DEPT       GRD        CALD      CORR        RHOB      SPR        ILD        ILM       SGRD   
# ...
 1794.5000    80.0349     9.9486     0.0052     2.5062   -44.6673     6.7772     8.7862     9.4896
 1795.0000    81.0836     9.9398     0.0083     2.5138   -44.5066     6.7337     8.4949     9.4960
 1795.5000    82.4291     9.9257     0.0129     2.5277   -44.6371     6.6925     8.1010     9.6327
 1796.0000    82.1425     9.9115     0.0175     2.5394   -44.6186     6.6965     7.9395     9.6379
 1796.5000    81.4037     9.8826     0.0160     2.5454   -44.6009     6.6535     7.8904     9.6431
 1797.0000    80.5109     9.8684     0.0161     2.5395   -44.7282     6.6583     7.9515     8.8542
 1797.5000    79.3566     9.8542     0.0147     2.5328   -44.7109     6.7087     8.1228     9.2968
 1798.0000    78.4765     9.8252     0.0148     2.5291   -44.6951     6.7128     8.1843     9.4954
 1798.5000    78.0390     9.7962     0.0148     2.5276   -44.6763     6.7633     8.3056     9.5658
 1799.0000    77.9008     9.7969     0.0158     2.5253   -44.6590     6.8210     8.4241     9.4399
 1799.5000    79.1005     9.7680     0.0180     2.5217   -44.6417     6.8666     8.6068     9.3156
 1800.0000    79.8525     9.7687     0.0234     2.5173   -45.1709     6.8707     8.6126     9.9271
 1800.5000    80.7528     9.7693     0.0237     2.5218   -45.4534     6.9224     8.5579    10.3398
 1801.0000    81.9500     9.7996     0.0267     2.5242   -45.6067     6.9266     8.3901    10.2024
 1801.5000    82.8503     9.8003     0.0283     2.5250   -45.7214     6.8822     8.2229     9.9306
 1802.0000    83.0089     9.8306     0.0284     2.5243   -46.1489     6.8874     8.0617     9.5351
 1802.5000    82.2613     9.8609     0.0270     2.5236   -46.2865     6.7505     7.9569     9.3451
 1803.0000    81.8145     9.8764     0.0271     2.5244   -46.2682     6.7081     8.0172     9.1588
 1803.5000    81.2214     9.8919     0.0257     2.5260   -46.2536     6.7035     8.1899     9.1634
 1804.0000    80.6283     9.8777     0.0273     2.5328   -46.2390     6.6723     8.2521     9.1681
 1804.5000    79.9198     9.8462     0.0274     2.5427   -45.9272     6.6410     8.3733     9.1727
 1805.0000    79.1852     9.8197     0.0321     2.5540   -45.7640     6.5915     8.4949     9.4367
 1805.5000    78.7456     9.8055     0.0352     2.5676   -45.6008     6.5517     8.5006    10.2575
 1806.0000    78.7546     9.8063     0.0383     2.5736   -45.4376     6.4664     8.3901     9.9771
 1806.5000    79.0586     9.8366     0.0400     2.5752   -45.4235     6.4252     8.2797     9.7112
 1807.0000    79.5109     9.8373     0.0401     2.5715   -45.4084     6.4301     8.0946     9.1971
 1807.5000    79.9633     9.8380     0.0402     2.5678   -45.2452     6.4227     7.9713     8.9509
 1808.0000    79.9705     9.8386     0.0371     2.5649   -45.2303     6.3940     7.8531     8.8330
 1808.5000    80.1262     9.8393     0.0309     2.5620   -45.2155     6.3555     7.8598     9.4680
 1809.0000    80.2819     9.8251     0.0239     2.5590   -45.0491     6.3598     7.8651     9.1525
 1809.5000    80.4377     9.8257     0.0224     2.5561   -45.0345     6.3641     7.9247     8.9690
 1810.0000    80.4464     9.8265     0.0226     2.5562   -45.0199     6.3246     8.0399     9.2250
 1810.5000    80.4537     9.8122     0.0242     2.5540   -45.1575     6.3437     8.1568     9.4871
 1811.0000    80.3107     9.8130     0.0243     2.5435   -45.1392     6.3771     8.2186     9.6234
 1811.5000    79.8747     9.8137     0.0244     2.5391   -45.2768     6.4135     8.1678     9.4967
 1812.0000    79.4368     9.7994     0.0245     2.5407   -45.2586     6.4309     8.0050     9.2448
 1812.5000    79.4441     9.8001     0.0261     2.5385   -45.2440     6.4352     7.8482     8.9985
 1813.0000    79.4513     9.8156     0.0247     2.5333   -45.2293     6.4396     7.7995     8.8800
 1813.5000    79.7553     9.8162     0.0248     2.5266   -45.0661     6.4439     7.8049     8.8845
 1814.0000    80.0593     9.8169     0.0234     2.5228   -44.9029     6.4483     7.8103     9.0121
 1814.5000    80.1511     9.8176     0.0220     2.5207   -44.7397     6.4072     7.8225     9.1416
 1815.0000    80.3723     9.8014     0.0206     2.5193   -44.7251     6.3686     7.9304     9.2729
 1815.5000    80.6763     9.7892     0.0192     2.5186   -44.5617     6.3280     7.9358     9.4710
 1816.0000    80.6835     9.7900     0.0225     2.5187   -44.3982     6.3334     7.9411     9.4108
 1816.5000    80.8391     9.8055     0.0255     2.5203   -44.2318     6.3377     8.0014     8.9115
 1817.0000    80.9948     9.8210     0.0301     2.5211   -44.0686     6.3420     8.0068     8.7941
 1817.5000    81.0020     9.8217     0.0332     2.5234   -44.0540     6.4790     7.9559     8.8073
 1818.0000    81.3060     9.8371     0.0364     2.5265   -43.8908     6.5744     7.9626     9.1751
 1818.5000    81.6100     9.8526     0.0395     2.5273   -43.7276     6.7163     8.0230     9.4358
 1819.0000    81.9139     9.8533     0.0441     2.5243   -43.5644     6.8141     8.0284     9.7039
 1819.5000    81.3126     9.8688     0.0503     2.5182   -43.4012     6.9134     8.0339     9.9113
 1820.0000    80.5949     9.8843     0.0580     2.4961   -43.3866     7.1115     8.0948     9.4501
 1820.5000    80.0087     9.8998     0.0686     2.4855   -43.0748     7.2151     8.1565     8.8873
 1821.0000    79.4225     9.9006     0.0793     2.4743   -42.7630     7.3202     8.3319     8.8298
 1821.5000    78.8362     9.8862     0.0885     2.4511   -42.5998     7.4269     8.5703     8.8353
 1822.0000    78.3984     9.8870     0.0962     2.4136   -42.1394     7.4833     8.8166     9.0241
 1822.5000    78.2554     9.8727     0.1008     2.3702   -41.8276     7.4918     9.0686     9.0910
 1823.0000    78.4111     9.8883     0.1056     2.3334   -41.3571     7.2382     9.2005     9.0957
 1823.5000    77.8264     9.9483     0.1101     2.2907   -40.8866     6.9421     9.0186     9.1002
 1824.0000    77.8339    10.0677     0.1102     2.2247   -40.2943     6.5141     8.7798     8.7981
 1824.5000    78.4555    10.2464     0.1043     2.1677   -39.6853     6.0638     8.3727     8.2741
 1825.0000    79.3570    10.4844     0.0923     2.1235   -39.3264     5.8633     8.0951     7.8351
 1825.5000    80.2313    10.5296     0.0743     2.1016   -39.0617     5.7462     7.6669     7.5221
 1826.0000    80.8320    10.5452     0.0623     2.0891   -38.7499     5.7106     6.9199     6.8349
 1826.5000    81.7295    10.7833     0.0518     2.0809   -38.7353     5.6362     7.0205     6.7907
 1827.0000    83.2204    11.0510     0.0413     2.0922   -38.7207     5.6013     8.6950     7.4305
 1827.5000    84.4146    11.2594     0.0338     2.1456   -38.7061     5.6448    11.3833     7.6417
 1828.0000    86.2022    11.4974     0.0294     2.2463   -38.6914     5.7667    11.9474     7.5410
 1828.5000    85.4676    11.5721     0.0310     2.3980   -38.6768     5.9319    11.0438     7.3401
 1829.0000    83.2494    11.2316     0.0326     2.4739   -38.8108     5.9770    10.2147     7.1939
 1829.5000    82.3555    10.7278     0.0327     2.5108   -38.9450     6.1061     9.6743     7.2473
 1830.0000    81.4639    10.4763     0.0313     2.5183   -39.0788     6.1980     9.1625     7.5573
 1830.5000    80.6023    10.1934     0.0283     2.5169   -39.3710     6.2854     8.6183     8.6168
 1831.0000    80.1644    10.0307     0.0253     2.5139   -39.4953     6.2898     8.2755     8.2159
 1831.5000    79.7266     9.9738     0.0210     2.5170   -39.7778     6.3822     8.1105     7.9421
 1832.0000    79.7338     9.9596     0.0166     2.5156   -40.0604     6.3865     8.1174     7.8366
 1832.5000    80.3345     9.9604     0.0137     2.5081   -40.4879     6.3908     8.1789     7.8415
 1833.0000    80.9352     9.9646     0.0108     2.5044   -40.6255     6.3951     8.1843     7.8455
 1833.5000    81.6843     9.9765     0.0109     2.5023   -41.2016     6.3544     8.1899     7.8493
 1834.0000    82.2850     9.9772     0.0125     2.5039   -41.4842     6.3292     8.1955     7.8534
 1834.5000    82.8862     9.9866     0.0141     2.5099   -41.7704     6.3202     8.2012     7.8580
