~VERSION INFORMATION
 VERS.                2.0:   CWLS LOG ASCII STANDARD - VERSION 2.0
 WRAP.                 NO:   ONE LINE PER DEPTH STEP
~WELL INFORMATION
#MNEM.UNIT      DATA TYPE    INFORMATION
#----------   ------------   ------------------------------
 STRT.F         2185.0000:   START DEPTH
 STOP.F         5688.0000:   STOP DEPTH
 STEP.F            0.5000:   STEP LENGTH
 NULL.          -999.2500:   NO VALUE
 COMP.       FLUOR DANIEL:   COMPANY
 WELL.   FLUOR "X" #53-10:   WELL
 FLD .           N.P.R #3:   FIELD
 LOC .      S10 T38N R78W:   LOCATION
 CNTY.            NATRONA:   COUNTY
 STAT.            WYOMING:   STATE
 CTRY. UNITED STATES OF AMERICA:   COUNTRY
 SRVC.      WESTERN ATLAS:   SERVICE COMPANY
 DATE.        23-MAR-1997:   LOGDATE
 API .     49025228470000:   API NUMBER
~CURVE INFORMATION
#MNEM.UNIT       API CODE    CURVE DESCRIPTION
#----------   ------------   ------------------------------
 DEPT.F                  :   
 CNC .DEC    42 890 03 00:   NEUTRON POROSITY SANDSTONE
 TEND.LBS    45 635 01 00:   TENSION FORM DENSITY LOG
 GRD .GAPI   45 310 01 00:   GAMMA RAY FROM DENSITY LOG
 CALD.IN     45 280 60 00:   CALIPER FROM DENSITY LOG
 ZDEN.G/C3   45 350 01 00:   BULK DENSITY
 ZCOR.G/C3   45 356 01 00:   DENSITY CORRECTION
 PE  .B/E    45 358 01 00:   PHOTOELECTRIC FACTOR
 R4SL.OHMM   07 000 00 00:   RESISTIVITY DEL 4
 R2SL.OHMM   07 000 00 00:   RESISTIVITY DEL 2
~PARAMETER INFORMATION
#MNEM.UNIT          VALUE    DESCRIPTION
#----------   ------------   ------------------------------
 EKB .F         5182.0000:   Kelly bushing
 EGL .F         5172.0000:   Ground level
 EDF .F         5181.0000:   Drilling floor
 EPD .F         5172.0000:   Permanent datum
 TD  .F         5690.0000:   Total depth
 CLNT.            A2DTECH:   Client Code
 SL  . 1183' FNL & 2118' FEL:   Surface Location
 PD  .                 GL:   Permanent Datum
 LMF .                 KB:   Log Measured From
 DMF .                 KB:   Drilling Measured From
 DAPD.F                10:   Feet Above Permanent Datum
 DATE.        23-MAR-1997:   Date Logged [DD-MMM-YYYY]
 DD  .F              5690:   Depth driller
 DL  .F              5688:   Depth logger
 BLI .F              5648:   Bottom log interval
 TLI .F              2200:   Top log interval
 CS1 .IN            9.625:   Casing size
 CBD1.      9.625" @ 446':   Casing driller 1
 CBL1.F               452:   Casing logger 1
 BS1 .IN             8.75:   Bit size
 BSD1.F              5690:   Depth drilled with bit1
 DFT .           GEL CHEM:   Type fluid in hole
 DFD .                9.8:   Density
 DFV .                 66:   Viscosity
 DFPH.                8.5:   pH
 DFL .                8.4:   Fluid loss
 MSS .              CIRC.:   Source of sample
 RMS .OHMM            1.1:   Rm
 MST .F                73:   Rm Meas. temp.
 RMF .OHMM           0.87:   Rmf
 MFST.F                73:   Rmf Meas. temp.
 MFSS.               CALC:   Source Rmf.
 RMC .OHMM           1.35:   Rmc
 MCST.F                73:   Rmc Meas. temp.
 MCSS.               CALC:   Source Rmc.
 RMB .OHMM           0.46:   Rm. at BHT
 BHT .F               174:   BHT.
 TCS .HRS               5:   Time Circ. stopped
 MRT .F               174:   Maximum recorded temp.
 LUN .            HL 6530:   Logging unit number
 LUL .          CASPER WY:   Logging unit location
 ENGI.           BROWNLOW:   Recorded By
 WITN.              HARDY:   Witnessed by
 ORIG.     2.5", 5" PRINT:   Origin of data
 UWI .     49025228470000:   Unique Well ID
 DICO. A2D TECHNOLOGIES, INC.:   Digitizing Company
~OTHER INFORMATION
~A  DEPTH      CNC       TEND        GRD       CALD       ZDEN       ZCOR         PE       R4SL       R2SL
# ...
 3572.0000     0.3040    -5.2326   177.3380     9.2495     2.4869     0.0500     3.2647  -999.2500  -999.2500
 3572.5000     0.3209   -27.2806   175.2414     9.2496     2.4764     0.0455     3.2934  -999.2500  -999.2500
 3573.0000     0.3407   -34.4459   180.0726     9.2498     2.4479     0.0424     3.2784  -999.2500  -999.2500
 3573.5000     0.3524   -41.5014   188.8194     9.2499     2.4382     0.0487     3.2784  -999.2500  -999.2500
 3574.0000     0.3476   -40.9502   195.5056     9.2501     2.4472     0.0576     3.2635  -999.2500  -999.2500
 3574.5000     0.3365   -40.5091   197.5783     9.2502     2.4532     0.0545     3.2335  -999.2500  -999.2500
 3575.0000     0.3308   -40.0683   187.2992     9.2504     2.4546     0.0470     3.2335  -999.2500  -999.2500
 3575.5000     0.3305   -24.6348   176.5203     9.2354     2.4539     0.0455     3.2784  -999.2500  -999.2500
 3576.0000     0.3401   -22.9137   169.9057     9.2356     2.4524     0.0470     3.3982  -999.2500  -999.2500
 3576.5000     0.3512   -38.7454   169.6134     9.2357     2.4531     0.0455     3.5778  -999.2500  -999.2500
 3577.0000     0.3552   -45.8021   170.8331     9.2208     2.4546     0.0394     3.8024  -999.2500  -999.2500
 3577.5000     0.3498   -45.3523   172.0497     9.2210     2.4624     0.0318     4.1617  -999.2500  -999.2500
 3578.0000     0.3395   -44.9025   172.9652     9.2211     2.4740     0.0227     4.3563  -999.2500  -999.2500
 3578.5000     0.3380   -44.3675   172.3746     9.2207     2.4853     0.0245     4.3413  -999.2500  -999.2500
 3579.0000     0.3371   -43.9265   171.7841     9.2063     2.4898     0.0318     4.1880  -999.2500  -999.2500
 3579.5000     0.3362   -43.4857   170.5911     9.2216     2.4943     0.0379     3.7796  -999.2500  -999.2500
 3580.0000     0.3350   -43.0446   168.4946     9.2217     2.4966     0.0439     3.5329  -999.2500  -999.2500
 3580.5000     0.3335   -42.6038   162.4823     9.2370     2.4853     0.0485     3.3832  -999.2500  -999.2500
 3581.0000     0.3344   -42.1628   158.8797     9.2371     2.4785     0.0515     3.2784  -999.2500  -999.2500
 3581.5000     0.3366   -56.7142   156.4819     9.2373     2.4740     0.0561     3.2635  -999.2500  -999.2500
 3582.0000     0.3369   -56.2734   154.0682     9.2417     2.4725     0.0576     3.2335  -999.2500  -999.2500
 3582.5000     0.3330   -48.3361   151.9527     9.2583     2.4755     0.0591     3.1587  -999.2500  -999.2500
 3583.0000     0.3245   -40.4047   147.4568     9.2679     2.4793     0.0561     3.0988  -999.2500  -999.2500
 3583.5000     0.3164   -39.9551   140.8697     9.2680     2.4868     0.0500     3.1287  -999.2500  -999.2500
 3584.0000     0.3149   -39.5053   137.8695     9.2682     2.4936     0.0500     3.2186  -999.2500  -999.2500
 3584.5000     0.3146   -38.9657   134.8664     9.2834     2.5003     0.0561     3.2635  -999.2500  -999.2500
 3585.0000     0.3143   -40.9801   136.0860     9.2880     2.5032     0.0561     3.2485  -999.2500  -999.2500
 3585.5000     0.3137   -53.0764   138.8087     9.2988     2.5025     0.0545     3.2036  -999.2500  -999.2500
 3586.0000     0.3119   -52.6356   150.5676     9.2989     2.4987     0.0485     3.1431  -999.2500  -999.2500
 3586.5000     0.3077   -52.1945   156.3023     9.2991     2.4935     0.0394     3.0971  -999.2500  -999.2500
 3587.0000     0.3065   -44.2572   157.8202     9.2993     2.4822     0.0364     3.0212  -999.2500  -999.2500
 3587.5000     0.3110   -36.3201   158.1333     9.2994     2.4627     0.0379     2.9491  -999.2500  -999.2500
 3588.0000     0.3300    -5.8941   160.2536     9.2996     2.4260     0.0500     2.9341  -999.2500  -999.2500
 3588.5000     0.3480    -4.1732   162.0726     9.2846     2.3952     0.0727     2.9341  -999.2500  -999.2500
 3589.0000     0.3480    -5.0225   162.9881     9.2697     2.3922     0.0985     2.9790  -999.2500  -999.2500
 3589.5000     0.3352    10.4213   160.8844     9.2246     2.4319     0.1091     2.9940  -999.2500  -999.2500
 3590.0000     0.2840    10.8696   151.5424     9.1493     2.4589     0.1045     2.9940  -999.2500  -999.2500
 3590.5000     0.2774     2.7182   137.1850     9.1495     2.4739     0.0970     3.0389  -999.2500  -999.2500
 3591.0000     0.2756   -18.2410   126.2916     9.1496     2.4845     0.0985     3.0988  -999.2500  -999.2500
 3591.5000     0.2723   -32.6823   124.1920     9.1498     2.4982     0.1030     3.1886  -999.2500  -999.2500
 3592.0000     0.2720   -32.2413   123.0020     9.1650     2.5099     0.0818     3.1587  -999.2500  -999.2500
 3592.5000     0.2816   -39.4068   122.7097     9.1803     2.5054     0.0576     2.9790  -999.2500  -999.2500
 3593.0000     0.2997   -46.4620   129.0498     9.1804     2.4941     0.0500     2.6785  -999.2500  -999.2500
 3593.5000     0.3030   -38.4146   135.0858     9.1654     2.4889     0.0578     2.4824  -999.2500  -999.2500
 3594.0000     0.2966   -37.9738   139.3145     9.1656     2.4963     0.0733     2.4898  -999.2500  -999.2500
 3594.5000     0.2768   -45.0525   140.2300     9.1809     2.5083     0.0864     2.6796  -999.2500  -999.2500
 3595.0000     0.2678   -37.0917   138.7358     9.1961     2.5151     0.0682     2.9790  -999.2500  -999.2500
 3595.5000     0.2691   -29.1546   135.4344     9.2415     2.5068     0.0652     3.2335  -999.2500  -999.2500
 3596.0000     0.2747   -21.2145   132.1330     9.2265     2.4933     0.0742     3.1587  -999.2500  -999.2500
 3596.5000     0.2844   -13.2684   128.2292     9.2116     2.4903     0.0864     3.0988  -999.2500  -999.2500
 3597.0000     0.2913   -20.2253   125.5303     9.2118     2.4843     0.0727     3.0689  -999.2500  -999.2500
 3597.5000     0.2991   -27.3907   122.8206     9.2119     2.4581     0.0576     3.0389  -999.2500  -999.2500
 3598.0000     0.3240   -26.8395   122.2407     9.2255     2.4270     0.0682     2.8593  -999.2500  -999.2500
 3598.5000     0.3294   -34.0050   125.6971     9.2561     2.4106     0.1167     2.6198  -999.2500  -999.2500
 3599.0000     0.3237   -25.9576   129.1951     9.2567     2.4078     0.1368     2.4850  -999.2500  -999.2500
 3599.5000     0.3307   -25.5168   128.9058     9.2574     2.3898     0.1000     2.4551  -999.2500  -999.2500
 3600.0000     0.3614   -26.0751   129.2188     9.2580     2.3321     0.0485     2.4701  -999.2500  -999.2500
 3600.5000     0.4079   -31.8893   135.5560     9.3039     2.3382     0.0550     2.6118  -999.2500  -999.2500
 3601.0000     0.4107   -31.2251   143.7004     9.3648     2.3513     0.0870     2.6863  -999.2500  -999.2500
 3601.5000     0.3980   -38.0811   146.1219     9.4408     2.3761     0.1210     2.7010  -999.2500  -999.2500
 3602.0000     0.3825   -37.3931   133.1820     9.3660     2.4310     0.1573     2.7305  -999.2500  -999.2500
 3602.5000     0.3747   -51.7213   120.5432     9.1856     2.4902     0.1648     2.8050  -999.2500  -999.2500
 3603.0000     0.3496   -51.0495   117.5430     9.1257     2.4782     0.1253     3.1339  -999.2500  -999.2500
 3603.5000     0.3478   -50.3749   117.5549     9.0962     2.4639     0.1070     3.2534  -999.2500  -999.2500
 3604.0000     0.3577   -49.7002   119.9764     9.0968     2.3844     0.1327     2.9985  -999.2500  -999.2500
 3604.5000     0.3649   -33.9061   124.5352     9.1276     2.3589     0.1993     2.8484  -999.2500  -999.2500
 3605.0000     0.3691   -33.2422   128.1644     9.1282     2.3522     0.2159     2.8031  -999.2500  -999.2500
 3605.5000     0.3721   -25.0816   132.0948     9.1440     2.3522     0.2113     2.8327  -999.2500  -999.2500
 3606.0000     0.3838   -24.4177   136.3264     9.1294     2.3431     0.2067     2.8473  -999.2500  -999.2500
 3606.5000     0.4051   -46.2422   139.9556     9.1301     2.3176     0.2126     2.8019  -999.2500  -999.2500
 3607.0000     0.4238   -53.2404   140.5727     9.0855     2.3191     0.2020     2.7866  -999.2500  -999.2500
 3607.5000     0.4328   -52.4102   140.8887     9.0257     2.3326     0.1792     2.7713  -999.2500  -999.2500
 3608.0000     0.4388   -44.2497   141.5060     8.9507     2.3446     0.1607     2.7709  -999.2500  -999.2500
