~VERSION INFORMATION
 VERS.                2.0:   CWLS LOG ASCII STANDARD - VERSION 2.0
 WRAP.                 NO:   ONE LINE PER DEPTH STEP
~WELL INFORMATION
#MNEM.UNIT      DATA TYPE    INFORMATION
#----------   ------------   ------------------------------
 STRT.F          480.0000:   START DEPTH
 STOP.F         4609.5000:   STOP DEPTH
 STEP.F            0.5000:   STEP LENGTH
 NULL.          -999.2500:   NO VALUE
 COMP.   FENNIX & SCISSON:   COMPANY
 WELL. FENNIX NPR-3 "LX" #58-14:   WELL
 FLD .              NPR-3:   FIELD
 LOC .      S14 T38N R78W:   LOCATION
 CNTY.            NATRONA:   COUNTY
 STAT.            WYOMING:   STATE
 CTRY. UNITED STATES OF AMERICA:   COUNTRY
 SRVC.       SCHLUMBERGER:   SERVICE COMPANY
 DATE.        08-MAR-1978:   LOGDATE
 API .     49025105920000:   API NUMBER
~CURVE INFORMATION
#MNEM.UNIT       API CODE    CURVE DESCRIPTION
#----------   ------------   ------------------------------
 DEPT.F                  :   
 SPR .MV     07 010 01 00:   SPONTANEOUS POTENTIAL
 SFL .OHMM   07 220 01 00:   SHALLOW FOCUSED LOG RESISTIVITY
 ILD .OHMM   07 120 46 00:   DEEP INDUCTION RESISTIVITY
 ILM .OHMM   07 120 44 00:   INDUCTION LOG MEDIUM RESISTIVITY
 CALD.IN     45 280 60 00:   CALIPER FROM DENSITY LOG
 GRD .GAPI   45 310 01 00:   GAMMA RAY FROM DENSITY LOG
 CORR.G/C3   45 356 01 00:   DENSITY CORRECTION
 RHOB.G/C3   45 350 01 00:   BULK DENSITY
 NPHI.DEC    42 890 03 00:   NEUTRON POROSITY SANDSTONE
~PARAMETER INFORMATION
#MNEM.UNIT          VALUE    DESCRIPTION
#----------   ------------   ------------------------------
 EKB .F         5320.0000:   Kelly bushing
 EGL .F         5310.0000:   Ground level
 EDF .F            0.0000:   Drilling floor
 TD  .F         4635.0000:   Total depth
 DATE.        08-MAR-1978:   Date logged
 CLNT.            A2DTECH:   Client Code
 SL  . 810' FSL & 1830' FEL:   Surface Location
 PD  .                 GL:   Permanent Datum
 DD  .F              4635:   Depth driller
 DL  .F              4608:   Depth logger
 BLI .F              4607:   Bottom log interval
 DFT .                FGM:   Type fluid in hole
 DFD .                9.1:   Density
 DFV .                 38:   Viscosity
 DFPH.                 11:   pH
 MSS .           FLOWLINE:   Source of sample
 RMS .OHMM           1.53:   Rm
 MST .F                58:   Rm Meas. temp.
 RMF .OHMM           1.06:   Rmf
 MFST.F                58:   Rmf Meas. temp.
 MFSS.               MEAS:   Source Rmf.
 RMB .OHMM           0.68:   Rm. at BHT
 BHT .F               131:   BHT.
 TCS .HRS            0630:   Time Circ. stopped
 MRT .F               131:   Maximum recorded temp.
 LUN .               8039:   Logging unit number
 LUL .               CSPP:   Logging unit location
 ENGI.           PETERSON:   Recorded By
 ORIG.           5" PRINT:   Origin of data
 UWI .     49025105920000:   Unique Well ID
 DICO. A2D TECHNOLOGIES, INC.:   Digitizing Company
 DAPD.                 20:   Feet Above Permanent Datum
 BSD1.               4635:   Depth drilled with bit1
 EPD .               5310:   Elevation Permanent Datum
 LMF .                 KB:   Log Measured From
 DMF .                 KB:   Drilling Measured From
 TLI .                508:   Top log interval
 CS1 .              8.625:   Casing size
 CBL1.                508:   Casing logger 1
 BS1 .              7.875:   Bit size
~OTHER INFORMATION
~A   DEPT      SPR        SFL        ILD        ILM       CALD         GRD      CORR       RHOB         NPHI 
# ...
 1867.0000   -49.4040     7.5040     7.7210     7.0670    13.4510    90.0140     0.1300     2.5440     0.2880
 1867.5000   -49.4740     7.6170     7.7330     7.0670    13.4580    91.5800     0.1770     2.5610     0.2950
 1868.0000   -49.5550     7.7510     7.7510     7.0360    13.4650    93.1480     0.2160     2.5660     0.3050
 1868.5000   -49.6370     7.5440     7.7230     6.9610    13.4660    93.8750     0.2070     2.5430     0.3150
 1869.0000   -49.7190     7.2880     7.6530     6.8860    13.4410    93.4380     0.1810     2.5020     0.3240
 1869.5000   -49.8010     7.1190     7.5830     6.8100    13.4160    90.8040     0.1480     2.4630     0.3330
 1870.0000   -49.8830     7.0850     7.5140     6.7420    13.4080    88.0320     0.1140     2.4350     0.3420
 1870.5000   -49.9650     7.0510     7.4590     6.6850    13.4030    87.5820     0.0950     2.4290     0.3510
 1871.0000   -50.0470     7.0170     7.3980     6.7570    13.3990    91.1290     0.0960     2.4600     0.3530
 1871.5000   -50.1280     6.9130     7.3330     6.8300    13.3950    95.3520     0.0960     2.4860     0.3500
 1872.0000   -50.1970     6.7470     7.3330     6.9040    13.3890    97.6690     0.0860     2.4990     0.3260
 1872.5000   -50.1710     6.7970     7.3330     6.9590    13.3350    97.1160     0.0770     2.5100     0.3030
 1873.0000   -50.1480     6.9700     7.3630     6.9990    13.3540    95.1650     0.0970     2.5230     0.3030
 1873.5000   -50.1240     7.1860     7.4530     7.0390    13.3850    93.2760     0.1180     2.5250     0.3110
 1874.0000   -50.1010     7.3330     7.5430     7.0670    13.4150    91.8300     0.1260     2.5090     0.3180
 1874.5000   -50.0780     7.1690     7.6330     6.6240    13.4340    90.3360     0.0950     2.4810     0.3210
 1875.0000   -50.0540     7.1320     7.7240     6.6240    13.4400    89.4580     0.0610     2.4640     0.3200
 1875.5000   -50.0310     7.2330     7.8220     6.9290    13.4480    88.5360     0.0400     2.4730     0.3080
 1876.0000   -50.0070     7.5740     7.8120     7.2660    13.4700    88.3110     0.0480     2.4910     0.3020
 1876.5000   -49.9990     7.7510     7.8000     7.2470    13.5410    89.8100     0.0730     2.5090     0.3060
 1877.0000   -49.9950     7.6330     7.7880     7.2090    13.5510    91.3800     0.0810     2.5170     0.3090
 1877.5000   -50.0210     7.1940     7.7760     7.1720    13.5540    92.4990     0.1020     2.5310     0.3090
 1878.0000   -50.6150     7.1320     7.7630     7.1340    13.5570    92.6560     0.1290     2.5580     0.3100
 1878.5000   -50.6430     7.2030     7.7520     7.0960    13.5600    92.6610     0.1650     2.5790     0.3170
 1879.0000   -50.4310     7.5390     7.7070     7.0670    13.5620    92.6790     0.1650     2.5730     0.3210
 1879.5000   -50.5080     7.3830     7.6140     6.9400    13.5650    92.0430     0.1560     2.5500     0.3250
 1880.0000   -50.6790     7.1960     7.3330     6.9490    13.5680    91.4840     0.1390     2.5300     0.3290
 1880.5000   -50.8510     7.0090     7.3680     6.9680    13.5720    91.6660     0.1140     2.5170     0.3310
 1881.0000   -50.9940     6.8220     7.4020     6.9870    13.5790    91.8770     0.0890     2.5090     0.3270
 1881.5000   -50.9900     6.7300     7.4360     7.0040    13.5860    91.0860     0.0730     2.5020     0.3180
 1882.0000   -50.9900     6.6850     7.4700     7.0160    13.5570    91.5100     0.0530     2.4970     0.3010
 1882.5000   -50.9900     6.7730     7.4910     7.0270    13.5040    93.1640     0.0460     2.4960     0.2960
 1883.0000   -50.9900     6.9760     7.5130     7.0390    13.4720    94.5750     0.0930     2.5210     0.2900
 1883.5000   -50.9900     7.2640     7.5340     7.0500    13.4770    92.6520     0.1330     2.5590     0.2900
 1884.0000   -50.9900     7.5510     7.5960     7.0670    13.4820    91.1690     0.1620     2.5510     0.2980
 1884.5000   -50.9900     7.6800     7.6700     7.0220    13.4870    92.8830     0.1400     2.5130     0.3030
 1885.0000   -50.9840     7.5480     7.7440     6.9370    13.4960    96.2920     0.0920     2.4680     0.3010
 1885.5000   -50.9750     7.4320     7.8230     6.9850    13.5150    98.2230     0.0870     2.4820     0.2970
 1886.0000   -50.9670     7.4010     7.7820     7.0360    13.5330    97.7500     0.1070     2.5140     0.2930
 1886.5000   -50.9590     7.4010     7.7380     7.0870    13.5510    95.6390     0.1320     2.5490     0.3020
 1887.0000   -50.9500     7.4010     7.6940     7.1990    13.5690    93.0310     0.1560     2.5640     0.3100
 1887.5000   -50.9420     7.2760     7.6500     7.0770    13.5880    90.6760     0.1590     2.5680     0.3150
 1888.0000   -50.9330     7.0990     7.6090     6.9420    13.5970    90.3210     0.1560     2.5610     0.3130
 1888.5000   -50.9250     6.9370     7.5810     6.8730    13.6050    91.5900     0.1550     2.5530     0.3150
 1889.0000   -50.9170     7.0450     7.5560     6.8730    13.6130    92.8520     0.1640     2.5550     0.3180
 1889.5000   -50.9080     7.0020     7.5300     6.8730    13.6210    93.4320     0.1680     2.5570     0.3170
 1890.0000   -50.9000     7.0410     7.5050     6.8730    13.6290    93.0800     0.1570     2.5400     0.3140
 1890.5000   -50.8910     7.1320     7.4700     6.8730    13.6370    91.5850     0.1460     2.5170     0.3120
 1891.0000   -50.8830     7.1110     7.4960     6.8730    13.6450    90.5060     0.1490     2.5130     0.3140
 1891.5000   -50.8750     7.0620     7.5370     6.8170    13.6530    90.2270     0.1520     2.5120     0.3180
 1892.0000   -50.8660     7.0140     7.5780     6.7510    13.6610    91.0680     0.1290     2.5030     0.3250
 1892.5000   -50.8580     6.9370     7.6090     6.6850    13.6700    91.9730     0.1070     2.4970     0.3410
 1893.0000   -50.8500     6.9970     7.5690     6.7990    13.7100    92.8680     0.1170     2.5140     0.3410
 1893.5000   -50.8410     7.1410     7.5360     6.9100    13.7520    93.7140     0.1470     2.5450     0.3210
 1894.0000   -50.8330     7.2850     7.5030     7.0670    13.8220    93.5810     0.1810     2.5700     0.3080
 1894.5000   -50.8240     7.4010     7.4700     6.9680    13.9600    91.6660     0.2090     2.5760     0.3130
 1895.0000   -50.8160     7.1960     7.5100     6.8010    14.0470    89.8960     0.1920     2.5560     0.3190
 1895.5000   -50.8070     7.0240     7.5510     6.5630    14.0450    89.6570     0.1640     2.5310     0.3260
 1896.0000   -50.7990     6.8100     7.6090     6.6400    14.0190    89.9310     0.1450     2.5080     0.3260
 1896.5000   -50.8060     6.8780     7.5730     6.7390    13.9430    90.2230     0.1380     2.5080     0.3220
 1897.0000   -50.8950     6.9980     7.5090     6.8370    13.8670    89.7780     0.1470     2.5160     0.3150
 1897.5000   -50.9850     7.1190     7.4440     6.9360    13.7910    88.6210     0.1840     2.5320     0.3170
 1898.0000   -51.0740     7.1990     7.4010     7.0020    13.7990    88.1260     0.2140     2.5540     0.3270
 1898.5000   -51.1650     7.1580     7.4520     6.8540    13.8130    90.3190     0.2030     2.5480     0.3290
 1899.0000   -51.1660     7.1210     7.4900     6.7830    13.8270    93.1400     0.1650     2.5170     0.3180
 1899.5000   -51.1250     7.0850     7.5390     6.7470    13.8440    93.5680     0.1290     2.4980     0.3040
 1900.0000   -51.0840     7.0550     7.5260     7.0020    13.8150    91.8960     0.1130     2.4990     0.3010
 1900.5000   -51.0430     7.0310     7.5060     6.9660    13.7710    89.7350     0.1160     2.5100     0.2990
 1901.0000   -51.0010     7.0080     7.4870     6.9150    13.7480    89.4880     0.1230     2.5220     0.2910
 1901.5000   -50.9600     6.9840     7.4680     6.8640    13.7480    89.8240     0.1460     2.5340     0.2880
 1902.0000   -50.9190     6.9600     7.4480     6.8130    13.7480    89.4480     0.1590     2.5380     0.2920
 1902.5000   -50.8780     6.9370     7.4290     6.7610    13.7480    89.1920     0.1490     2.5180     0.3050
 1903.0000   -50.8360     6.9130     7.4090     6.6850    13.7480    90.1180     0.1040     2.4950     0.3150
