~VERSION INFORMATION
 VERS.                2.0:   CWLS LOG ASCII STANDARD - VERSION 2.0
 WRAP.                 NO:   ONE LINE PER DEPTH STEP
~WELL INFORMATION
#MNEM.UNIT      DATA TYPE    INFORMATION
#----------   ------------   ------------------------------
 STRT.F          297.0000:   START DEPTH
 STOP.F         2946.0000:   STOP DEPTH
 STEP.F            0.5000:   STEP LENGTH
 NULL.          -999.2500:   NO VALUE
 COMP.    FENIX & SCISSON:   COMPANY
 WELL. FENIX & SCISSON SH "X" #17-10:   WELL
 FLD .             NPR #3:   FIELD
 LOC .      S10 T38N R78W:   LOCATION
 CNTY.            NATRONA:   COUNTY
 STAT.            WYOMING:   STATE
 CTRY. UNITED STATES OF AMERICA:   COUNTRY
 SRVC.       SCHLUMBERGER:   SERVICE COMPANY
 DATE.        05-APR-1977:   LOGDATE
 API .     49025103310000:   API NUMBER
~CURVE INFORMATION
#MNEM.UNIT       API CODE    CURVE DESCRIPTION
#----------   ------------   ------------------------------
 DEPT.F                  :   
 SPR .MV     07 010 01 00:   SPONTANEOUS POTENTIAL
 ILD .OHMM   07 120 46 00:   DEEP INDUCTION RESISTIVITY
 ILM .OHMM   07 120 44 00:   INDUCTION LOG MEDIUM RESISTIVITY
 LL8 .OHMM   07 220 08 00:   LATEROLOG-8 RES.
 CALD.IN     45 280 60 00:   CALIPER FROM DENSITY LOG
 GRD .GAPI   45 310 01 00:   GAMMA RAY FROM DENSITY LOG
 CORR.G/C3   45 356 01 00:   DENSITY CORRECTION
 RHOB.G/C3   45 350 01 00:   BULK DENSITY
~PARAMETER INFORMATION
#MNEM.UNIT          VALUE    DESCRIPTION
#----------   ------------   ------------------------------
 EKB .F         5270.0000:   Kelly bushing
 EGL .F         5260.0000:   Ground level
 TD  .F         2950.0000:   Total depth
 CLNT.            A2DTECH:   Client Code
 SL  . 205' FWL & 1115' FSL:   Surface Location
 DATE.        05-APR-1977:   Date Logged [DD-MMM-YYYY]
 DD  .F              2950:   Depth driller
 DL  .F              2948:   Depth logger
 BLI .F              2946:   Bottom log interval
 TLI .F               310:   Top log interval
 CS1 .              10.75:   Casing size
 CBD1.      10.75" @ 300':   Casing driller 1
 CBL1.IN              310:   Casing logger 1
 BS1 .IN            8.625:   Bit size
 BSD1.F              2950:   Depth drilled with bit1
 DFT .                KCL:   Type fluid in hole
 DFD .                9.0:   Density
 DFV .                 33:   Viscosity
 DFL .                  9:   Fluid loss
 MSS .            MUD PIT:   Source of sample
 RMS .OHMM          0.153:   Rm
 MST .F                60:   Rm Meas. temp.
 RMF .OHMM          0.130:   Rmf
 MFST.F                60:   Rmf Meas. temp.
 MFSS.               MEAS:   Source Rmf.
 RMC .OHMM          0.229:   Rmc
 MCST.F                60:   Rmc Meas. temp.
 MCSS.               CALC:   Source Rmc.
 RMB .OHMM           0.08:   Rm. at BHT
 BHT .F               115:   BHT.
 TCS .HRS               6:   Time Circ. stopped
 MRT .F               115:   Maximum recorded temp.
 LUN .               7689:   Logging unit number
 LUL .               CODY:   Logging unit location
 ENGI.             RASMUS:   Recorded By
 WITN.              LYONS:   Witnessed by
 ORIG.         2.5" PRINT:   Origin of data
 UWI .     49025103310000:   Unique Well ID
 DICO. A2D TECHNOLOGIES, INC.:   Digitizing Company
 PD  .                 GL:   Permanent Datum
 EPD .               5260:   Elevation Permanent Datum
 LMF .                 KB:   Log Measured From
 DMF .                 KB:   Drilling Measured From
 DAPD.                 10:   Feet Above Permanent Datum
~OTHER INFORMATION
~A   DEPT      SPR        ILD        ILM        LL8       CALD        GRD       CORR       RHOB   
# ...
 1512.0000   -52.9176     4.8995     5.8628    10.0278     9.5262   107.6375     0.0022     2.5278
 1512.5000   -52.9044     4.9015     5.8267    10.0306     9.5264   109.1009     0.0022     2.5293
 1513.0000   -52.8912     4.8365     5.8291    10.0334     9.5267   109.1199     0.0027     2.5337
 1513.5000   -52.8779     4.8389     5.8315     9.8994     9.5270   108.2266     0.0061     2.5456
 1514.0000   -52.8647     4.8409     5.7551     9.9026     9.5273   108.5224     0.0185     2.5604
 1514.5000   -52.8515     4.8429     5.7575     9.9053     9.5276   107.9328     0.0285     2.5812
 1515.0000   -52.8356     4.8448     5.7598     9.7735     9.5279   106.4669     0.0319     2.5930
 1515.5000   -52.8225     4.8468     5.7621     9.7762     9.5282   105.8933     0.0245     2.5827
 1516.0000   -52.5153     4.8488     5.7645     9.8488     9.5285   106.5148     0.0161     2.5412
 1516.5000   -52.5022     4.8512     5.7295     9.9907     9.5288   108.2353     0.0108     2.5294
 1517.0000   -52.7832     4.8532     5.6136    10.2741     9.5584   107.8889     0.0063     2.5235
 1517.5000   -52.7701     4.8551     5.5397    10.4795     9.5587   106.4400     0.0052     2.5161
 1518.0000   -52.7570     4.8571     5.4667    10.4823     9.5590   106.8789     0.0112     2.5102
 1518.5000   -52.7439     4.8591     5.3947    10.3424     9.5886   108.8260     0.0087     2.5072
 1519.0000   -52.7308     4.8610     5.2514    10.3457     9.5889   107.3011     0.0034     2.5043
 1519.5000   -52.7177     4.9300     5.2535    10.3484     9.6185   106.4897    -0.0003     2.5043
 1520.0000   -52.7046     4.9320     5.1843    10.3512     9.6188   108.0700     0.0004     2.5236
 1520.5000   -52.6915     5.0020     5.1864    10.4965     9.6191   109.4166     0.0034     2.5502
 1521.0000   -52.6784     5.0040     5.1885    10.4993     9.5900   106.7582     0.0079     2.5695
 1521.5000   -52.6653     5.0060     5.1906    10.6467     9.5903   103.6671     0.0161     2.5814
 1522.0000   -52.6522     5.0081     5.1927    10.6495     9.5613   102.3508     0.0235     2.5888
 1522.5000   -52.6390     5.0101     5.1948    10.6524     9.5323   102.1124     0.0253     2.5829
 1523.0000   -52.6259     5.0121     5.1969    10.6553     9.5326   102.1735     0.0117     2.5577
 1523.5000   -52.6128     5.0142     5.1991    10.6581     9.5329   103.0770     0.0058     2.5429
 1524.0000   -52.5997     5.0162     5.2041    10.6610     9.5331   106.5422     0.0044     2.5326
 1524.5000   -52.5866     5.0183     5.2750    10.6639     9.5241   108.8436     0.0029     2.5267
 1525.0000   -52.5735     5.0204     5.3558    10.6668     9.5043   105.8483     0.0030     2.5267
 1525.5000   -52.8545     5.0224     5.5002    10.6696     9.5047   102.5530     0.0074     2.5282
 1526.0000   -52.8411     5.0244     5.5024    10.5277     9.5050   102.1226     0.0134     2.5282
 1526.5000   -52.8261     5.0266     5.5047    10.5192     9.5053   105.2556     0.0178     2.5327
 1527.0000   -52.8130     5.0286     5.5070    10.3755     9.5056   107.8548     0.0208     2.5342
 1527.5000   -52.7999     5.0306     5.4808    10.2521     9.5059   109.4152     0.0238     2.5356
 1528.0000   -52.7868     5.0328     5.2899    10.2329     9.5183   111.0879     0.0238     2.5191
 1528.5000   -52.7737     4.9661     5.1331    10.1185     9.6069   111.4866     0.0209     2.5149
 1529.0000   -52.7606     4.9684     4.9953    10.1215     9.6663   107.7700     0.0150     2.5151
 1529.5000   -52.7475     4.9476     4.8794    10.1242     9.7256   105.8304     0.0165     2.5233
 1530.0000   -52.7344     4.9045     4.8151    10.1270     9.7556   104.6588     0.0196     2.5365
 1530.5000   -52.7213     4.9069     4.9052    10.1298     9.7857   103.8901     0.0226     2.5478
 1531.0000   -52.7082     4.9089     5.0448    10.1325     9.8157   103.8918     0.0225     2.5471
 1531.5000   -52.6951     4.8442     5.3319    10.1353     9.8308   103.8933     0.0226     2.5412
 1532.0000   -52.6820     4.8462     5.5590    10.1381     9.8311   105.3758     0.0222     2.5355
 1532.5000   -52.9630     4.8482     5.7957    10.1409     9.8314   108.5308     0.0149     2.5343
 1533.0000   -52.9499     4.8501     6.0425    10.1436     9.7863   109.2885     0.0107     2.5364
 1533.5000   -52.9368     4.8522     6.2144    10.1464     9.7275   109.7471     0.0109     2.5416
 1534.0000   -53.2178     4.8541     6.3910    10.1492     9.6688   109.7485     0.0142     2.5528
 1534.5000   -53.2047     4.8565     6.5282    10.1520     9.6273   111.1620     0.0217     2.5551
 1535.0000   -53.4857     4.8439     6.5310    10.1547     9.6276   114.8348     0.0243     2.5442
 1535.5000   -53.4726     4.8284     6.3979    10.0802     9.6279   119.0976     0.0177     2.5321
 1536.0000   -53.7536     4.8129     6.2738     9.9426     9.6282   124.9751     0.0105     2.5266
 1536.5000   -53.7397     4.7979     6.1912     9.7548     9.6285   128.6316     0.0063     2.5290
 1537.0000   -54.0215     4.8000     6.1096     9.6250     9.6288   129.6228     0.0051     2.5329
 1537.5000   -54.0073     4.8019     6.0292     9.4971     9.6291   125.4262     0.0070     2.5300
 1538.0000   -54.0490     4.8039     6.0321     9.2439     9.6294   121.8169     0.0099     2.5285
 1538.5000   -54.2764     4.8059     6.0345     9.1206     9.6297   120.7076     0.0151     2.5315
 1539.0000   -54.3283     4.7941     6.1200     9.1234     9.6300   118.9065     0.0219     2.5478
 1539.5000   -54.5443     4.6797     6.1225     9.1258     9.6302   118.0721     0.0264     2.5641
 1540.0000   -54.6079     4.6180     6.1191     9.1283     9.6012   116.7839     0.0275     2.5493
 1540.5000   -54.8122     4.6016     6.0368     9.1307     9.6015   115.3234     0.0086     2.5390
 1541.0000   -54.7971     4.5589     5.9643     9.1332     9.5725   114.7400     0.0054     2.5345
 1541.5000   -54.7838     4.5611     5.9562     9.1357     9.5434   113.5719     0.0059     2.5360
 1542.0000   -54.6687     4.5629     5.8881     9.1381     9.5437   114.4505     0.0093     2.5390
 1542.5000   -54.4632     4.5649     5.8767     9.1406     9.5440   111.8204     0.0162     2.5450
 1543.0000   -54.4500     4.5667     5.7976     9.1431     9.5443   114.1611     0.0159     2.5479
 1543.5000   -54.4368     4.5686     5.7196     9.2714     9.5446   118.5485     0.0114     2.5509
 1544.0000   -54.4235     4.5083     5.6608     9.5308     9.5449   117.3803     0.0056     2.5450
 1544.5000   -54.4103     4.5102     5.6634     9.5231     9.5745   115.9198     0.0041     2.5406
 1545.0000   -54.3971     4.5120     5.6657     9.1529     9.5748   116.5061     0.0147     2.5391
 1545.5000   -54.3838     4.5139     5.6680     9.1439     9.5751   116.7999     0.0221     2.5451
 1546.0000   -54.3706     4.5161     5.6704     9.0336     9.5754   117.0936     0.0279     2.5584
 1546.5000   -54.3573     4.5179     5.6727     9.0362     9.5757   116.7281     0.0278     2.5688
 1547.0000   -54.3441     4.5198     5.6750     9.0387     9.6053   114.7290     0.0250     2.5673
 1547.5000   -54.3309     4.5216     5.6472     9.0411     9.6056   114.4663     0.0250     2.5659
 1548.0000   -54.3176     4.5234     5.6026     9.0436     9.6352   114.7601     0.0302     2.5703
 1548.5000   -54.3018     4.5253     5.6049     9.0461     9.6355   110.4757     0.0428     2.5763
 1549.0000   -54.2887     4.5895     5.6072     9.0485     9.6651   108.2885     0.0348     2.5777
 1549.5000   -54.2756     4.5913     5.6095     9.0510     9.6654   108.8512     0.0240     2.5704
 1550.0000   -54.2625     4.5932     5.6118     9.0535     9.6657   112.4266     0.0113     2.5502
 1550.5000   -54.2494     4.6584     5.6141     9.0560     9.6660   116.4902     0.0057     2.5340
 1551.0000   -54.2363     4.6603     5.6164     9.0585     9.6663   118.9181     0.0042     2.5251
 1551.5000   -54.2232     4.6621     5.6187     9.1856     9.6666   118.9820     0.0030     2.5163
 1552.0000   -54.2101     4.6640     5.5829     9.4998     9.6669   120.9316     0.0031     2.5060
