~VERSION INFORMATION
 VERS.                2.0:   CWLS LOG ASCII STANDARD - VERSION 2.0
 WRAP.                 NO:   ONE LINE PER DEPTH STEP
~WELL INFORMATION
#MNEM.UNIT      DATA TYPE    INFORMATION
#----------   ------------   ------------------------------
 STRT.F          508.0000:   START DEPTH
 STOP.F         3170.0000:   STOP DEPTH
 STEP.F            0.5000:   STEP LENGTH
 NULL.          -999.2500:   NO VALUE
 COMP. FENIX & SCISSON - U.S. NAVY:   COMPANY
 WELL. FENIX NPR-3 "A" #58-34:   WELL
 FLD .                NPR:   FIELD
 LOC .      S34 T39N R78W:   LOCATION
 CNTY.            NATRONA:   COUNTY
 STAT.            WYOMING:   STATE
 CTRY. UNITED STATES OF AMERICA:   COUNTRY
 SRVC.       SCHLUMBERGER:   SERVICE COMPANY
 DATE.        15-MAR-1977:   LOGDATE
 API .     49025103180000:   API NUMBER
~CURVE INFORMATION
#MNEM.UNIT       API CODE    CURVE DESCRIPTION
#----------   ------------   ------------------------------
 DEPT.F                  :   
 CALD.IN     45 280 60 00:   CALIPER FROM DENSITY LOG
 GRD .GAPI   45 310 01 00:   GAMMA RAY FROM DENSITY LOG
 RHOB.G/C3   45 350 01 00:   BULK DENSITY
 CORR.G/C3   45 356 01 00:   DENSITY CORRECTION
 SPR .MV     07 010 01 00:   SPONTANEOUS POTENTIAL
 LL8 .OHMM   07 220 08 00:   LATEROLOG-8 RES.
 ILD .OHMM   07 120 46 00:   DEEP INDUCTION RESISTIVITY
 ILM .OHMM   07 120 44 00:   INDUCTION LOG MEDIUM RESISTIVITY
~PARAMETER INFORMATION
#MNEM.UNIT          VALUE    DESCRIPTION
#----------   ------------   ------------------------------
 EKB .F         5129.0000:   Kelly bushing
 EGL .F         5117.0000:   Ground level
 EDF .F            0.0000:   Drilling floor
 EPD .F            0.0000:   Permanent datum
 TD  .F         3170.0000:   Total depth
 DATE.        15-MAR-1977:   Date logged
 CLNT.            A2DTECH:   Client Code
 SL  . 2310' FEL & 330' FSL:   Surface Location
 PD  .                 GL:   Permanent Datum
 DAPD.F                12:   Feet Above Permanent Datum
 DD  .F              3170:   Depth driller
 DL  .F              3170:   Depth logger
 BLI .F              3169:   Bottom log interval
 TLI .F               508:   Top log interval
 CS1 .IN            8.625:   Casing size
 CBD1.      8.625" @ 524':   Casing driller 1
 CBL1.F               522:   Casing logger 1
 BS1 .IN            7.875:   Bit size
 BSD1.F              3170:   Depth drilled with bit1
 DFT .                KCL:   Type fluid in hole
 DFD .                9.2:   Density
 DFV .                 36:   Viscosity
 DFPH.                  9:   pH
 DFL .                  9:   Fluid loss
 MSS .                PIT:   Source of sample
 RMS .OHMM             .3:   Rm
 MST .F                58:   Rm Meas. temp.
 RMF .OHMM            .29:   Rmf
 MFST.F                58:   Rmf Meas. temp.
 MFSS.               MEAS:   Source Rmf.
 RMB .OHMM            .15:   Rm. at BHT
 BHT .F               120:   BHT.
 TCS .HRS               6:   Time Circ. stopped
 MRT .F               120:   Maximum recorded temp.
 LUN .               7711:   Logging unit number
 LUL .               CSPR:   Logging unit location
 ENGI.             SAYLER:   Recorded By
 WITN.               JAPP:   Witnessed by
 ORIG.           5" PRINT:   Origin of data
 UWI .     49025103180000:   Unique Well ID
 DICO. A2D TECHNOLOGIES, INC.:   Digitizing Company
~OTHER INFORMATION
~A   DEPT       CALD       GRD      RHOB        CORR       SPR        LL8        ILD        ILM   
# ...
 2087.5000     7.9907   190.9533     2.4851     0.0146   -52.9179    11.7800     8.5070     9.2411
 2088.0000     7.9905   193.3332     2.4741     0.0133   -52.9245    11.7768     8.5047     9.3239
 2088.5000     7.9902   196.9036     2.4820     0.0073   -52.9311    11.5590     8.5023     9.4944
 2089.0000     7.9900   199.0840     2.4750     0.0043   -52.9377    11.5558     8.5000     9.6680
 2089.5000     7.9897   199.2777     2.4810     0.0063   -53.3847    11.6591     8.4976     9.6653
 2090.0000     7.9895   196.2979     2.5010     0.0182   -53.6115    11.5495     8.4953     9.6627
 2090.5000     7.9694   183.7871     2.5129     0.0222   -53.8384    11.5463     8.4930     9.3111
 2091.0000     7.9691   174.2552     2.4999     0.0192   -54.2854    11.9744     8.4129     9.0552
 2091.5000     7.9688   169.8854     2.4929     0.0192   -54.5122    12.6490     8.3336     8.8877
 2092.0000     7.9686   168.4934     2.4799     0.0172   -54.7391    12.8796     8.3313     8.8040
 2092.5000     7.9683   172.2622     2.4729     0.0151   -54.9659     9.2551     8.4060     8.8015
 2093.0000     8.0078   177.4207     2.4669     0.0121   -54.9725     9.1681     8.4813     8.9625
 2093.5000     8.0075   181.3874     2.4598     0.0111   -54.9791     9.8633     8.6364     9.3816
 2094.0000     8.0073   184.3616     2.4518     0.0010   -55.4261    12.5163     8.9575    10.0027
 2094.5000     8.0070   184.9540     2.4358     0.0110   -55.6529    14.0972     9.3765    10.5673
 2095.0000     8.0266   187.1346     2.4288     0.0200   -55.8797    14.4865     9.7252    11.7971
 2095.5000     8.0065   191.6959     2.4358     0.0370   -55.5876    15.5849    10.2741    12.4629
 2096.0000     8.0062   194.0747     2.4537     0.0440   -55.3740    16.0153    10.5603    13.2887
 2096.5000     8.0258   201.6121     2.4567     0.0249   -55.1590    17.2297    12.3420    14.2994
 2097.0000     8.0057   206.5702     2.4567     0.0009   -54.9454    17.5438    12.4547    14.9682
 2097.5000     8.0055   212.1224     2.4746    -0.0001   -54.5115    17.7006    13.2778    15.3801
 2098.0000     8.0052   216.4846     2.4606    -0.0022   -54.5181    17.8587    13.2741    15.2376
 2098.5000     8.0248   224.0212     2.4536     0.0008   -54.3045    18.0183    13.2712    14.8189
 2099.0000     8.0047   238.5015     2.4526     0.0038   -53.4301    17.8489    13.6379    14.4117
 2099.5000     8.0044   242.2674     2.4646     0.0048   -53.2165    17.6811    13.5094    14.2758
 2100.0000     8.0042   246.0329     2.4635     0.0048   -53.2231    18.3367    13.5057    14.1412
 2100.5000     8.0039   231.9732     2.4506     0.0056   -53.2308    18.3314    13.0886    14.0097
 2101.0000     8.0034   219.2383     2.4385     0.0057   -53.2429    18.4937    12.7714    13.2500
 2101.5000     8.0228   207.7266     2.4535     0.0097   -53.0328    17.9860    12.4198    13.0042
 2102.0000     7.9629   201.7699     2.4605     0.0067   -52.8227    17.1743    12.3044    12.8809
 2102.5000     8.0022   200.3771     2.4485     0.0057   -52.3922    16.8566    12.1853    12.8767
 2103.0000     8.0018   198.5875     2.4495     0.0097   -52.4044    17.4808    12.0698    12.8724
 2103.5000     8.0014   194.6156     2.4535     0.0117   -52.6350    18.2951    11.9553    13.1070
 2104.0000     8.0208   191.8341     2.4325     0.0047   -52.8655    18.4576    11.8419    13.1027
 2104.5000     8.0006   183.2983     2.4335     0.0037   -52.6553    18.1163    11.8380    13.0984
 2105.0000     8.0003   183.0959     2.4345     0.0017   -52.6655    17.7812    11.8341    12.9742
 2105.5000     7.9998   185.4726     2.4395     0.0026   -52.7551    17.6131    11.8301    12.7335
 2106.0000     7.9994   187.4525     2.4384     0.0076   -52.7612    17.4466    11.8262    12.4972
 2106.5000     7.9990   187.4509     2.4314     0.0016   -52.9960    16.2060    11.5005    12.1531
 2107.0000     7.9986   181.6911     2.4314     0.0016   -53.2267    15.0535    11.1830    11.8184
 2107.5000     7.9982   180.4967     2.4314     0.0026   -53.6781    14.6411    10.8750    11.4921
 2108.0000     7.9979   179.3023     2.4274     0.0046   -53.9090    14.6363    10.5755    11.4883
 2108.5000     8.0173   178.3063     2.4254     0.0046   -54.1399    15.3181    10.3793    11.4845
 2109.0000     8.0169   182.0718     2.4304     0.0036   -54.3708    14.6267    10.1866    11.5867
 2109.5000     7.9967   186.8301     2.4514     0.0046   -54.3812    14.7566    10.2774    11.7980
 2110.0000     7.9963   188.8100     2.4603     0.0076   -54.3915    14.8877    10.1798    12.0130
 2110.5000     7.9958   189.7979     2.4693     0.0166   -54.6226    13.9572    10.6555    12.3451
 2111.0000     7.9954   188.2068     2.4703     0.0256   -55.0744    13.8252    10.8497    12.4551
 2111.5000     7.9950   186.6156     2.4783     0.0286   -55.3056    15.4289    11.0475    12.5660
 2112.0000     8.0145   185.0244     2.4743     0.0255   -55.3160    16.7513    11.1459    12.3328
 2112.5000     8.0141   181.0517     2.4733     0.0225   -55.1057    18.3546    11.0401    11.9931
 2113.0000     8.0137   178.8654     2.4603     0.0145   -55.1161    17.8506    11.0365    11.6628
 2113.5000     7.9934   177.4726     2.4613     0.0115   -54.9057    16.8891    10.7324    11.2377
 2114.0000     7.9930   177.6670     2.4713     0.0085   -54.9182    16.1266    10.2465    10.8280
 2114.5000     7.9926   181.0365     2.4792     0.0065   -54.9286    14.1774     9.9636    10.5298
 2115.0000     8.0121   186.7859     2.4802     0.0065   -54.7181    12.6953     9.7787    10.1452
 2115.5000     8.0117   191.5442     2.4792     0.0064   -54.7284    10.1824     9.7754    10.1418
 2116.0000     8.0113   192.9305     2.4712     0.0064   -54.9598    11.1577     9.7721    10.2322
 2116.5000     8.0109   187.1706     2.4632     0.0054   -55.6333    12.9176     9.2429    10.6122
 2117.0000     8.0106   184.1907     2.4512     0.0024   -56.0858    14.9550     9.1583    10.8057
 2117.5000     8.0102   179.8220     2.4522     0.0034   -56.0964    15.2270     9.3234    10.9019
 2118.0000     8.0098   175.2542     2.4722     0.0044   -56.1070    14.8087     9.4064    10.8990
 2118.5000     8.0094   168.1072     2.4742     0.0064   -56.1175    14.1401     9.7564    10.7949
 2119.0000     7.9891   164.9288     2.4692     0.0064   -56.3492    13.8784     9.8427    10.7913
 2119.5000     7.9887   163.5361     2.4821     0.0064   -56.3598    14.1308     9.8394    10.7877
 2120.0000     7.9883   163.5321     2.4771     0.0064   -56.3704    14.2564     9.8361    10.7841
 2120.5000     7.9879   164.5200     2.4671     0.0053   -55.8597    14.1215     9.7427    10.8802
 2121.0000     7.9875   165.5080     2.4721     0.0053   -55.6491    13.6082     9.7395    10.9771
 2121.5000     7.9871   165.7032     2.4641     0.0043   -54.9958    13.3554     9.8262    11.1773
 2122.0000     7.9867   165.6992     2.4601     0.0063   -54.5637    13.3510     9.8229    11.2768
 2122.5000     7.9863   166.4887     2.4661     0.0053   -54.5741    13.8456     9.9104    11.3773
 2123.0000     7.9859   169.2622     2.4491     0.0053   -54.5846    14.2273     9.9987    11.4787
 2123.5000     8.0053   173.8221     2.4391    -0.0017   -54.3737    14.6206     9.9954    11.3697
 2124.0000     8.0049   177.3891     2.4131    -0.0007   -53.4986    14.7495     9.9920    11.3659
 2124.5000     8.0045   180.9570     2.4461     0.0053   -53.5089    14.7447     9.9887    11.2581
 2125.0000     7.9843   182.3418     2.4590     0.0103   -53.2977    14.6052     9.9847    11.0491
 2125.5000     8.0037   181.9410     2.4420     0.0093   -53.5295    14.0742     9.9813    10.8440
 2126.0000     8.0033   180.9450     2.4380     0.0082   -54.2042    13.3158     9.8866    10.8404
 2126.5000     8.0030   180.1474     2.4510     0.0142   -54.6576    12.2562     9.8833    11.0381
 2127.0000     7.9828   180.7386     2.4560     0.0192   -54.6681    12.4791     9.7895    11.1364
 2127.5000     7.9824   182.7185     2.4390     0.0182   -54.6806    14.0557     9.7862    11.1327
