~VERSION INFORMATION
 VERS.                2.0:   CWLS LOG ASCII STANDARD - VERSION 2.0
 WRAP.                 NO:   ONE LINE PER DEPTH STEP
~WELL INFORMATION
#MNEM.UNIT      DATA TYPE    INFORMATION
#----------   ------------   ------------------------------
 STRT.F            9.5000:   START DEPTH
 STOP.F         3154.0000:   STOP DEPTH
 STEP.F            0.5000:   STEP LENGTH
 NULL.          -999.2500:   NO VALUE
 COMP. LAWRENCE ALISON AND ASSOCIATES:   COMPANY
 WELL. LAWRENCE "X" #86-3:   WELL
 FLD .          N.P.R. #3:   FIELD
 LOC .       S3 T38N R78W:   LOCATION
 CNTY.            NATRONA:   COUNTY
 STAT.            WYOMING:   STATE
 CTRY. UNITED STATES OF AMERICA:   COUNTRY
 SRVC.       DRESSER ALAS:   SERVICE COMPANY
 DATE.        13-JUN-1986:   LOGDATE
 API .     49025110920000:   API NUMBER
~CURVE INFORMATION
#MNEM.UNIT       API CODE    CURVE DESCRIPTION
#----------   ------------   ------------------------------
 DEPT.F                  :   
 CALD.IN     45 280 60 00:   CALIPER FROM DENSITY LOG
 RHOB.G/C3   45 350 01 00:   BULK DENSITY
 CORR.G/C3   45 356 01 00:   DENSITY CORRECTION
 CNC .DEC    42 890 03 00:   NEUTRON PORISITY LIMESTONE
 SPR .MV     07 010 01 00:   SPONTANEOUS POTENTIAL
 GRR .GAPI   07 310 01 00:   GAMMA RAY FROM RESISTIVITY
 RFOC.OHMM   07 220 04 00:   RESISTIVITY FOCUSED LOG RES.
 ILD .OHMM   07 120 46 00:   DEEP INDUCTION RESISTIVITY
 ILM .OHMM   07 120 44 00:   INDUCTION LOG MEDIUM RESISTIVITY
 TENR.LBS    07 635 01 00:   TENSION FROM RESISTIVITY
~PARAMETER INFORMATION
#MNEM.UNIT          VALUE    DESCRIPTION
#----------   ------------   ------------------------------
 EKB .F         5153.0000:   Kelly bushing
 EGL .F         5142.0000:   Ground level
 EDF .F         5151.0000:   Drilling floor
 TD  .F         3151.0000:   Total depth
 DATE.        13-JUN-1986:   Date logged
 CLNT.            A2DTECH:   Client Code
 SL  . 1450' FSL & 144' FEL:   Surface Location
 PD  .                 GL:   Permanent Datum
 EPD .F              5142:   Elevation Permanent Datum
 LMF .                 KB:   Log Measured From
 DMF .                 KB:   Drilling Measured From
 DAPD.F                11:   Feet Above Permanent Datum
 DD  .F              3151:   Depth driller
 DL  .F              3151:   Depth logger
 BLI .F              3146:   Bottom log interval
 TLI .F                11:   Top log interval
 CS1 .IN            8.625:   Casing size
 CBD1.      8.625" @ 584':   Casing driller 1
 CBL1.F               592:   Casing logger 1
 BS1 .IN            7.875:   Bit size
 BSD1.F              3151:   Depth drilled with bit1
 DFT .            KCL-GEL:   Type fluid in hole
 DFD .                8.8:   Density
 DFV .                 35:   Viscosity
 DFPH.                8.5:   pH
 DFL .               15.5:   Fluid loss
 MSS .           FLOWLINE:   Source of sample
 RMS .OHMM           0.49:   Rm
 MST .F                80:   Rm Meas. temp.
 RMF .OHMM           0.38:   Rmf
 MFST.F                80:   Rmf Meas. temp.
 RMC .OHMM           0.61:   Rmc
 MCST.F                80:   Rmc Meas. temp.
 MFSS.               MEAS:   Source Rmf.
 MCSS.               CALC:   Source Rmc.
 RMB .OHMM           0.37:   Rm. at BHT
 BHT .F               112:   BHT.
 TCS .HRS            0.37:   Time Circ. stopped
 MRT .F               112:   Maximum recorded temp.
 LUN .            HL-6274:   Logging unit number
 LUL .           GILLETTE:   Logging unit location
 WITN.             STRONG:   Witnessed by
 ORIG.           5" PRINT:   Origin of data
 UWI .     49025110920000:   Unique Well ID
 DICO. A2D TECHNOLOGIES, INC.:   Digitizing Company
~OTHER INFORMATION
~A    DEPT    CALD       RHOB       CORR        CNC        SPR        GRR       RFOC        ILD        ILM       TENR   
# ...
  947.5000  -999.2500  -999.2500  -999.2500  -999.2500  -114.5163    80.8543     7.0074     8.1935     6.9008   -64.7333
  948.0000  -999.2500  -999.2500  -999.2500  -999.2500  -115.5245    77.4281     7.2044     8.4167     7.0946   -64.5863
  948.5000  -999.2500  -999.2500  -999.2500  -999.2500  -114.7184    77.8308     7.7568     8.8025     7.4302   -64.4394
  949.0000  -999.2500  -999.2500  -999.2500  -999.2500  -113.7107    79.2343     8.5075     9.1076     8.0002   -64.2924
  949.5000  -999.2500  -999.2500  -999.2500  -999.2500  -113.3078    82.4576     8.8273     9.4502     8.0742   -64.1456
  950.0000  -999.2500  -999.2500  -999.2500  -999.2500  -112.9048    86.4875     9.2445     9.8059     8.0833   -43.8980
  950.5000  -999.2500  -999.2500  -999.2500  -999.2500  -112.9035    90.5171     9.0213     9.7150     8.1479   -83.9227
  951.0000  -999.2500  -999.2500  -999.2500  -999.2500  -112.9055    90.5150     9.0205     9.8047     8.1475   -83.7756
  951.5000  -999.2500  -999.2500  -999.2500  -999.2500  -113.0912    89.7063     9.0202     9.8952     8.1466   -83.6284
  952.0000  -999.2500  -999.2500  -999.2500  -999.2500  -113.5107    88.0910     8.9359     9.9860     8.2983   -83.4814
  952.5000  -999.2500  -999.2500  -999.2500  -999.2500  -113.9143    86.8790     8.8529    10.0779     8.3749   -83.3342
  953.0000  -999.2500  -999.2500  -999.2500  -999.2500  -114.3178    86.4734     8.8521    10.0767     8.6097   -83.1872
  953.5000  -999.2500  -999.2500  -999.2500  -999.2500  -114.3181    88.4876     8.8514    10.0760     8.6091   -83.0400
  954.0000  -999.2500  -999.2500  -999.2500  -999.2500  -114.3184    92.9215     9.1845    10.2632     8.4504   -82.8929
  954.5000  -999.2500  -999.2500  -999.2500  -999.2500  -114.3186    97.3557     9.2689    10.2624     8.6874   -82.7459
  955.0000  -999.2500  -999.2500  -999.2500  -999.2500  -114.3191    98.1603     9.1828    10.2617     8.6870   -82.5987
  955.5000  -999.2500  -999.2500  -999.2500  -999.2500  -114.3193    95.7383     9.0136    10.2610     8.6861   -82.4518
  956.0000  -999.2500  -999.2500  -999.2500  -999.2500  -114.3196    92.1063     9.0129    10.4511     8.6853   -82.3046
  956.5000  -999.2500  -999.2500  -999.2500  -999.2500  -114.1183    92.1042     9.0959    10.4507     8.6843   -72.1086
  957.0000  -999.2500  -999.2500  -999.2500  -999.2500  -113.9168    91.6987     9.1797    10.4500     8.6838   -71.9616
  957.5000  -999.2500  -999.2500  -999.2500  -999.2500  -113.7155    90.8898     9.1789    10.4490     8.6833   -71.8146
  958.0000  -999.2500  -999.2500  -999.2500  -999.2500  -113.5140    91.6943     9.1782    10.4475     8.6024   -71.6677
  958.5000  -999.2500  -999.2500  -999.2500  -999.2500  -113.5144    91.6917     9.3171    10.3509     8.4441   -91.5884
  959.0000  -999.2500  -999.2500  -999.2500  -999.2500  -113.5146    89.2693     9.2307    10.0666     8.2884   -81.4517
  959.5000  -999.2500  -999.2500  -999.2500  -999.2500  -113.5149    86.4434     9.1451     9.9729     8.2878   -91.2941
  960.0000  -999.2500  -999.2500  -999.2500  -999.2500  -113.7153    84.6319     9.0603     9.9722     8.2108   -91.1469
  960.5000  -999.2500  -999.2500  -999.2500  -999.2500  -114.3206    87.2461     8.9763     9.9714     8.2100   -90.9998
  961.0000  -999.2500  -999.2500  -999.2500  -999.2500  -114.5226    85.6298     8.8931     9.8789     8.1337   -90.8526
  961.5000  -999.2500  -999.2500  -999.2500  -999.2500  -114.3211    81.5934     8.8094     9.6967     8.3236   -80.6575
  962.0000  -999.2500  -999.2500  -999.2500  -999.2500  -114.7248    81.1876     8.6476     9.5179     8.1691   -80.5104
  962.5000  -999.2500  -999.2500  -999.2500  -999.2500  -114.5234    85.6229     8.4882     9.4757     8.0170   -90.4112
  963.0000  -999.2500  -999.2500  -999.2500  -999.2500  -114.1203    90.0585     8.4097     9.3898     7.9420   -90.2640
  963.5000  -999.2500  -999.2500  -999.2500  -999.2500  -113.9188    93.2838     8.2549     9.2205     7.7944   -90.1169
  964.0000  -999.2500  -999.2500  -999.2500  -999.2500  -113.9208    95.2990     8.1028     9.0540     7.6493   -79.9223
  964.5000  -999.2500  -999.2500  -999.2500  -999.2500  -113.9211    92.8761     8.1021     8.8350     7.3421   -89.7932
  965.0000  -999.2500  -999.2500  -999.2500  -999.2500  -113.9214    89.2427     8.0270     8.6722     7.2069   -79.6871
  965.5000  -999.2500  -999.2500  -999.2500  -999.2500  -114.3252    89.2405     7.9527     8.5126     7.0742   -79.2144
  966.0000  -999.2500  -999.2500  -999.2500  -999.2500  -114.3255    91.6588     7.7343     8.4336     7.0737   -78.7418
  966.5000  -999.2500  -999.2500  -999.2500  -999.2500  -114.3258    96.9020     7.8051     8.7279     7.3653   -78.2693
  967.0000  -999.2500  -999.2500  -999.2500  -999.2500  -114.3261    99.3210     7.8050     8.7277     7.3652   -77.7966
  967.5000  -999.2500  -999.2500  -999.2500  -999.2500  -114.5279    98.5119     7.9502     8.8305     7.5037   -77.3240
  968.0000  -999.2500  -999.2500  -999.2500  -999.2500  -114.7302    96.8958     8.1729     8.9947     7.6853   -76.8514
  968.5000  -999.2500  -999.2500  -999.2500  -999.2500  -114.3269    93.6655     8.1720     9.1297     7.6140   -76.3787
  969.0000  -999.2500  -999.2500  -999.2500  -999.2500  -114.3272    94.4705     8.2472     9.2120     7.5436   -75.9062
  969.5000  -999.2500  -999.2500  -999.2500  -999.2500  -114.1257    94.4684     8.2468     9.2116     7.5430   -75.4336
  970.0000  -999.2500  -999.2500  -999.2500  -999.2500  -113.9242    92.8521     8.2460     9.2107     7.5419   -74.9609
  970.5000  -999.2500  -999.2500  -999.2500  -999.2500  -113.5210    90.0250     8.0195     8.9628     7.5413   -74.4883
  971.0000  -999.2500  -999.2500  -999.2500  -999.2500  -113.5213    89.2157     8.1686     9.1260     7.5407   -74.0157
  971.5000  -999.2500  -999.2500  -999.2500  -999.2500  -113.3198    90.4242     8.2438     9.2083     7.5401   -73.5432
  972.0000  -999.2500  -999.2500  -999.2500  -999.2500  -113.3199    91.2291     8.3968     9.3757     7.5395   -73.0705
  972.5000  -999.2500  -999.2500  -999.2500  -999.2500  -113.5220    90.8234     8.3962     9.3751     7.5388   -72.5979
  973.0000  -999.2500  -999.2500  -999.2500  -999.2500  -113.7241    89.2068     8.3181     9.2897     7.5382   -72.1253
  973.5000  -999.2500  -999.2500  -999.2500  -999.2500  -114.3299    87.1865     8.0153     8.9035     7.4682   -71.6526
  974.0000  -999.2500  -999.2500  -999.2500  -999.2500  -114.5320    85.5693     8.0149     8.8211     7.3307   -71.1801
  974.5000  -999.2500  -999.2500  -999.2500  -999.2500  -114.9359    85.1634     8.1907     8.6585     7.2626   -70.7075
  975.0000  -999.2500  -999.2500  -999.2500  -999.2500  -114.9362    85.1611     8.1147     8.4206     7.1288   -70.2348
  975.5000  -999.2500  -999.2500  -999.2500  -999.2500  -114.7330    87.1770     7.7940     8.2657     7.3547   -69.7622
  976.0000  -999.2500  -999.2500  -999.2500  -999.2500  -114.5313    90.0003     7.5801     8.1886     7.1508   -69.2896
  976.5000  -999.2500  -999.2500  -999.2500  -999.2500  -114.3297    92.4201     7.5098     8.3410     7.0838   -68.8171
  977.0000  -999.2500  -999.2500  -999.2500  -999.2500  -113.7246    91.6106     7.3716     8.6548     6.9521   -68.3444
  977.5000  -999.2500  -999.2500  -999.2500  -999.2500  -114.1285    91.6084     7.5781     8.7345     7.1489   -67.8718
  978.0000  -999.2500  -999.2500  -999.2500  -999.2500  -114.1288    92.0099     7.7905     8.7336     7.3257   -67.3992
  978.5000  -999.2500  -999.2500  -999.2500  -999.2500  -114.1291    95.6410     8.1580     8.7332     7.3254   -66.9265
  979.0000  -999.2500  -999.2500  -999.2500  -999.2500  -114.3313    98.4647     8.1577     8.7321     7.3248   -66.4540
  979.5000  -999.2500  -999.2500  -999.2500  -999.2500  -113.9297    98.8664     8.0077     8.7316     7.3922   -65.9814
  980.0000  -999.2500  -999.2500  -999.2500  -999.2500  -113.9300    97.2495     7.9333     8.7310     7.5297   -65.5087
  980.5000  -999.2500  -999.2500  -999.2500  -999.2500  -113.9303    94.4214     7.9327     8.8111     7.4871   -75.0131
