~VERSION INFORMATION
 VERS.                2.0:   CWLS LOG ASCII STANDARD - VERSION 2.0
 WRAP.                 NO:   ONE LINE PER DEPTH STEP
~WELL INFORMATION
#MNEM.UNIT      DATA TYPE    INFORMATION
#----------   ------------   ------------------------------
 STRT.F          404.0000:   START DEPTH
 STOP.F         2919.0000:   STOP DEPTH
 STEP.F            0.5000:   STEP LENGTH
 NULL.          -999.2500:   NO VALUE
 COMP.    FENIX & SCISSON:   COMPANY
 WELL. FENIX & SCISSON "AX" #27-21:   WELL
 FLD .             NPR #3:   FIELD
 LOC .      S21 T39N R78W:   LOCATION
 CNTY.            NATRONA:   COUNTY
 STAT.            WYOMING:   STATE
 CTRY. UNITED STATES OF AMERICA:   COUNTRY
 SRVC.       SCHLUMBERGER:   SERVICE COMPANY
 DATE.        21-APR-1977:   LOGDATE
 API .     49025103730000:   API NUMBER
~CURVE INFORMATION
#MNEM.UNIT       API CODE    CURVE DESCRIPTION
#----------   ------------   ------------------------------
 DEPT.F                  :   
 SPR .MV     07 010 01 00:   SPONTANEOUS POTENTIAL
 ILM .OHMM   07 120 44 00:   INDUCTION LOG MEDIUM RESISTIVITY
 ILD .OHMM   07 120 46 00:   DEEP INDUCTION RESISTIVITY
 LL8 .OHMM   07 220 08 00:   LATEROLOG-8 RES.
 GRN .GAPI   35 310 01 00:   GAMMA RAY
 CALD.IN     45 280 60 00:   CALIPER FROM DENSITY LOG
 GRD .GAPI   45 310 01 00:   GAMMA RAY FROM DENSITY LOG
 CORR.G/C3   45 356 01 00:   DENSITY CORRECTION
 RHOB.G/C3   45 350 01 00:   BULK DENSITY
~PARAMETER INFORMATION
#MNEM.UNIT          VALUE    DESCRIPTION
#----------   ------------   ------------------------------
 EKB .F         5004.0000:   Kelly bushing
 EGL .F         4994.0000:   Ground level
 TD  .F         2920.0000:   Total depth
 CLNT.            A2DTECH:   Client Code
 SL  . 991' FWL & 1090' FSL:   Surface Location
 DATE.        21-APR-1977:   Date Logged [DD-MMM-YYYY]
 DD  .F              2920:   Depth driller
 DL  .F              2920:   Depth logger
 BLI .F              2914:   Bottom log interval
 TLI .F               419:   Top log interval
 CS1 .              8.625:   Casing size
 CBD1.      8.625" @ 425':   Casing driller 1
 CBL1.IN              419:   Casing logger 1
 BS1 .IN            7.875:   Bit size
 BSD1.F              2920:   Depth drilled with bit1
 DFT .                FGM:   Type fluid in hole
 DFD .                9.0:   Density
 DFV .                 34:   Viscosity
 DFPH.                8.0:   pH
 DFL .                8.0:   Fluid loss
 MSS .                PIT:   Source of sample
 RMS .OHMM          0.158:   Rm
 MST .F                72:   Rm Meas. temp.
 RMF .OHMM          0.158:   Rmf
 MFST.F                72:   Rmf Meas. temp.
 MFSS.               MEAS:   Source Rmf.
 RMB .OHMM          0.102:   Rm. at BHT
 BHT .F               112:   BHT.
 TCS .HRS            0500:   Time Circ. stopped
 TLAB.HRS            0700:   Time logger at bottom
 MRT .F               112:   Maximum recorded temp.
 LUN .               5642:   Logging unit number
 LUL .               CSPR:   Logging unit location
 ENGI.             TAYLOR:   Recorded By
 WITN.          PETTINGIL:   Witnessed by
 ORIG.      2.5" 5" PRINT:   Origin of data
 UWI .     49025103730000:   Unique Well ID
 DICO. A2D TECHNOLOGIES, INC.:   Digitizing Company
 PD  .                 GL:   Permanent Datum
 EPD .F              4994:   Elevation Permanent Datum
 LMF .                 KB:   Log Measured From
 DMF .                 KB:   Drilling Measured From
 DAPD.F                10:   Feet Above Permanent Datum
~OTHER INFORMATION
~A   DEPT      SPR        ILM        ILD        LL8        GRN       CALD         GRD      CORR       RHOB   
# ...
 1389.5000   -69.7053     7.4557     7.0409     8.3662   114.9367     8.3052    66.9643     0.0390     2.5403
 1390.0000   -69.4346     7.5599     7.0041     8.2526   111.1203     8.3354    62.7976     0.0180     2.5148
 1390.5000   -69.4301     7.7718     6.7161     8.2324   112.1451     8.3358    63.0953     0.0106     2.5103
 1391.0000   -69.1280     7.8804     6.7180     8.1419   114.3891     8.3363    64.2857     0.0121     2.5193
 1391.5000   -68.8259     7.9781     6.9931     8.2757   115.0644     8.3367    65.1786     0.0181     2.5211
 1392.0000   -68.5238     7.9797     7.2882     8.5070   104.8232     8.3372    65.4762     0.0287     2.5163
 1392.5000   -68.2217     7.9814     7.4470     8.7449   108.2100     8.3376    64.2857     0.0407     2.5223
 1393.0000   -68.1964     7.9830     7.4635     8.8490   110.7026     8.3084    63.3929     0.0558     2.5568
 1393.5000   -67.8959     7.9847     7.1238     8.5791   110.5126     8.3088    63.3735     0.0678     2.5763
 1394.0000   -67.6131     7.9863     6.7837     8.3628   114.1230     8.3093    66.3691     0.0438     2.5613
 1394.5000   -67.3110     7.9880     6.6765     8.0262   117.5097     8.3097    68.4524     0.0304     2.5239
 1395.0000   -67.3066     7.8803     6.8078     8.0619   119.3233     8.3102    69.3453     0.0229     2.5087
 1395.5000   -67.5998     7.8754     7.0564     8.4120   116.2356     8.3106    70.5357     0.0289     2.5179
 1396.0000   -67.9047     7.7758     7.2544     8.9994   118.0576     8.3111    70.8453     0.0350     2.5179
 1396.5000   -68.1965     7.8852     7.4190     9.2317   120.7737     8.3115    66.6667     0.0320     2.5074
 1397.0000   -68.4880     7.8868     7.5237     8.8515   123.7134     8.3119    66.0714     0.0155     2.4985
 1397.5000   -69.0775     7.8885     7.6296     8.5010   126.2060     8.3124    66.6667     0.0141     2.5119
 1398.0000   -69.3631     7.8901     7.1882     8.3858   127.3573     8.3128    67.8571     0.0051     2.5239
 1398.5000   -69.3587     7.8939     6.9003     8.2721   126.7230     8.3133    68.7500     0.0020     2.5164
 1399.0000   -69.3542     8.0028     6.8407     8.2709   122.9563     8.3137    70.2381     0.0202     2.5509
 1399.5000   -69.3497     8.0045     6.9703     8.2755   119.6367     8.3142    71.4286     0.0713     2.5554
 1400.0000   -69.0476     8.0061     7.1992     8.6250   119.2148     8.2848    69.0476     0.0863     2.5719
 1400.5000   -68.7455     8.0078     7.5382     9.1153   120.1118     8.3151    68.7515     0.0743     2.5588
 1401.0000   -68.4434     8.0094     7.7505     9.2432   121.8401     8.3155    69.0508     0.0620     2.5463
 1401.5000   -68.1413     7.8820     7.4782     9.1179   123.8813     8.3456    67.8618     0.0518     2.5512
 1402.0000   -67.8392     7.8441     7.2093     8.9943   127.0451     8.3757    66.6728     0.0513     2.5659
 1402.5000   -67.5371     7.7998     7.1425     8.8723   128.6321     8.3762    68.1623     0.0410     2.5396
 1403.0000   -67.5327     7.6949     7.0469     8.7520   124.6104     8.4063    71.4377     0.0206     2.5147
 1403.5000   -67.5282     7.6974     7.0491     8.7533   125.0847     8.4067    72.0343     0.0084     2.5061
 1404.0000   -67.5237     7.6995     7.0511     8.8760   125.1049     8.4072    71.1430     0.0312     2.5450
 1404.5000   -67.4924     7.8084     7.1506     9.1254   119.0622     8.4076    69.3587     0.0467     2.5322
 1405.0000   -67.7825     7.9188     7.1526     9.3819   117.9546     8.3783    66.6817     0.0293     2.5211
 1405.5000   -67.7751     8.0308     7.2796     9.6455   119.7762     8.3788    64.5998     0.0251     2.5213
 1406.0000   -68.0655     8.0330     7.4840     9.9166   118.6736     8.3793    66.6846     0.0360     2.5299
 1406.5000   -68.6530     8.2595     7.5890     9.9180   113.0750     8.3797    67.8765     0.0428     2.5466
 1407.0000   -69.5384     8.3763     7.7758     9.3871   115.1212     8.3802    70.2589     0.0467     2.5436
 1407.5000   -69.8289     8.2637     7.4402     9.7849   111.3240     8.3806    67.8795     0.0490     2.5438
 1408.0000   -69.8211     8.0418     7.2411     9.9221   113.5897     8.3811    66.3929     0.0490     2.5469
 1408.5000   -69.5161     8.0440     7.0683     9.9235   116.3044     8.3815    66.0967     0.0484     2.5500
 1409.0000   -69.2110     7.9362     7.2155     9.7889   116.7687     8.4116    65.4692     0.0454     2.5399
 1409.5000   -68.9059     7.9384     7.4556     8.8896   110.7310     8.4714    64.6115     0.0394     2.5129
 1410.0000   -68.6008     7.8317     7.6958     9.0142   111.6494     8.5312    66.3988     0.0333     2.5060
 1410.5000   -68.2957     7.9428     7.9360     9.2675   115.4869     8.5613    66.0301     0.0289     2.5033
 1411.0000   -68.2883     8.0551     8.1761     9.3975   119.0999     8.5321    64.5734     0.0493     2.5033
 1411.5000   -68.2808     8.0573     8.1110     9.5293   121.5902     8.5028    65.4581     0.0659     2.5140
 1412.0000   -67.9757     8.2846     7.8927     9.4001   122.5085     8.5033    68.1705     0.0794     2.5583
 1412.5000   -67.9683     8.4017     7.4719     9.2727   117.3640     8.5038    70.7589     0.0652     2.5669
 1413.0000   -67.6632     8.4040     7.2706     9.0217   115.3633     8.5042    72.7947     0.0514     2.5707
 1413.5000   -67.6557     8.4064     7.2390     9.2450   115.6030     8.5047    73.6270     0.0484     2.5392
 1414.0000   -67.6483     8.4083     7.2738     9.5019   112.9336     8.5051    73.8512     0.0291     2.5281
 1414.5000   -67.6408     8.4106     7.2753     9.7588   116.5465     8.5055    72.6090     0.0014     2.5259
 1415.0000   -67.9316     8.4130     7.2768    10.0029   119.4859     8.5060    69.4199     0.0109     2.5544
 1415.5000   -68.2211     8.4153     7.3790     8.9362   122.8743     8.5064    67.9030     0.0251     2.5782
 1416.0000   -69.1065     8.4176     7.4827     8.5887   125.3646     8.5069    71.8211     0.0463     2.5843
 1416.5000   -69.0991     8.4199     7.6929     8.4863   122.0165     8.5073    75.7304     0.0268     2.5645
 1417.0000   -69.3899     8.4222     8.1294     8.4894   115.7492     8.5078    77.4316     0.0118     2.5209
 1417.5000   -69.3818     8.4245     8.0201     8.6102   112.1766     8.5035    77.6041     0.0013     2.5004
 1418.0000   -69.0767     8.4269     7.5926     8.6275   115.5650     8.4921    76.4722     0.0088     2.4975
 1418.5000   -69.0693     8.4292     7.4904     8.8570   119.4026     8.4806    71.2988     0.0163     2.5125
 1419.0000   -68.7642     8.4315     7.1893     8.9831   114.9317     8.4686    67.6221     0.0314     2.5199
 1419.5000   -68.4591     8.4338     7.1908     8.9702   114.0487     8.4687    65.6727     0.0554     2.5518
 1420.0000   -68.1540     8.4361     7.5988     8.7289   105.7655     8.4985    66.2109     0.0659     2.5611
 1420.5000   -68.1466     8.4384     8.0300     8.5097   107.5821     8.5283    68.5461     0.0644     2.5519
 1421.0000   -68.1391     8.4408     8.2556     8.3960   109.1741     8.5582    69.5793     0.0269     2.5138
 1421.5000   -67.8340     8.4431     8.2573     8.6685   107.3979     8.4693    69.7071     0.0164     2.5070
 1422.0000   -67.8266     8.4454     8.0350     9.1641   105.6166     8.4398    67.0301     0.0159     2.5268
 1422.5000   -67.8191     8.4477     7.9269     9.5352   111.2556     8.4100    64.9482     0.0209     2.5268
 1423.0000   -67.8116     8.4501     7.6082     9.7845   118.4614     8.3807    69.1163     0.0240     2.5320
 1423.5000   -67.8042     8.4524     7.5056     8.9725   121.1762     8.3512    72.0940     0.0285     2.5380
 1424.0000   -68.0952     8.4547     7.3039     8.8904   125.6874     8.3513    75.0717     0.0375     2.5455
 1424.5000   -68.6821     8.4570     7.3054     9.0172   128.6267     8.3515    75.6683     0.0435     2.5531
 1425.0000   -68.9732     8.4594     7.5106     9.1456   128.1978     8.3516    75.3722     0.0465     2.5487
 1425.5000   -68.9648     8.4617     7.6161     9.1274   121.7060     8.3518    74.4808     0.0406     2.5276
