~VERSION INFORMATION
 VERS.                2.0:   CWLS LOG ASCII STANDARD - VERSION 2.0
 WRAP.                 NO:   ONE LINE PER DEPTH STEP
~WELL INFORMATION
#MNEM.UNIT      DATA TYPE    INFORMATION
#----------   ------------   ------------------------------
 STRT.F            0.0000:   START DEPTH
 STOP.F         3474.0000:   STOP DEPTH
 STEP.F            0.5000:   STEP LENGTH
 NULL.          -999.2500:   NO VALUE
 COMP. LAWRENCE ALLISON & ASSOCIATES:   COMPANY
 WELL. LAWRENCE ALLISON #13-AX-14:   WELL
 FLD .            WILDCAT:   FIELD
 LOC .      S14 T38N R78W:   LOCATION
 CNTY.            NATRONA:   COUNTY
 STAT.            WYOMING:   STATE
 CTRY. UNITED STATES OF AMERICA:   COUNTRY
 SRVC.      DRESSER ATLAS:   SERVICE COMPANY
 DATE.        31-MAR-1986:   LOGDATE
 API .     49025110640000:   API NUMBER
~CURVE INFORMATION
#MNEM.UNIT       API CODE    CURVE DESCRIPTION
#----------   ------------   ------------------------------
 DEPT.F                  :   
 TEND.LBS    45 635 01 00:   TENSION FROM DENSITY LOG
 RHOB.G/C3   45 350 01 00:   BULK DENSITY
 CORR.G/C3   45 356 01 00:   DENSITY CORRECTION
 CALD.IN     45 280 60 00:   CALIPER FROM DENSITY LOG
 NPHI.DEC    42 890 00 00:   NEUTRON POROSITY
 TENR.LBS    07 635 01 00:   TENSION FROM RESISTIVITY
 RFOC.OHMM   07 220 01 00:   RESISTIVITY FOCUSED LOG RES.
 RILD.OHMM   07 120 46 00:   DEEP INDUCTION RESISTIVITY
 RILM.OHMM   07 120 44 00:   INDUCTION LOG MEDIUM RESISTIVITY
 GRR .GAPI   07 310 01 00:   GAMMA RAY FROM RESISTIVITY
 SPR .MV     07 010 01 00:   SPONTANEOUS POTENTIAL
 TENS.LBS    60 635 01 00:   TENSION FROM SONIC LOG
 DT  .US/F   60 520 00 00:   DELTA TIME
~PARAMETER INFORMATION
#MNEM.UNIT          VALUE    DESCRIPTION
#----------   ------------   ------------------------------
 EKB .F         5251.0000:   Kelly bushing
 EGL .F         5239.2000:   Ground level
 EDF .F         5248.1000:   Drilling floor
 TD  .F         3456.0000:   Total depth
 DATE.        31-MAR-1986:   Date logged
 CLNT.            A2DTECH:   Client Code
 SL  . 238' FWL & 1739' FNL:   Surface Location
 PD  .                 GL:   Permanent Datum
 EPD .F            5239.2:   Elevation Permanent Datum
 LMF .                 KB:   Log Measured From
 DMF .                 KB:   Drilling Measured From
 DAPD.F              11.8:   Feet Above Permanent Datum
 DD  .F              3450:   Depth driller
 DL  .F              3456:   Depth logger
 BLI .F              3450:   Bottom log interval
 CS1 .IN            8.625:   Casing size
 CBD1.      8.625" @ 689':   Casing driller 1
 CBL1.F               692:   Casing logger 1
 BS1 .IN            7.875:   Bit size
 BSD1.F              3450:   Depth drilled with bit1
 DFT .        POLYMER/KCL:   Type fluid in hole
 DFD .                9.1:   Density
 DFV .                 38:   Viscosity
 DFPH.                8.5:   pH
 DFL .               11.2:   Fluid loss
 MSS .           FLOWLINE:   Source of sample
 RMS .OHMM            .29:   Rm
 MST .F                65:   Rm Meas. temp.
 RMF .OHMM           .235:   Rmf
 MFST.F                65:   Rmf Meas. temp.
 RMC .OHMM           .378:   Rmc
 MCST.F                65:   Rmc Meas. temp.
 MFSS.               MEAS:   Source Rmf.
 MCSS.               MEAS:   Source Rmc.
 RMB .OHMM           .163:   Rm. at BHT
 BHT .F               115:   BHT.
 TCS .HRS               3:   Time Circ. stopped
 MRT .F               115:   Maximum recorded temp.
 LUN .            HL-6274:   Logging unit number
 LUL .           GILLETTE:   Logging unit location
 ENGI.             RAUTIO:   Recorded By
 WITN.             STRONG:   Witnessed by
 ORIG.           5" PRINT:   Origin of data
 UWI .     49025110640000:   Unique Well ID
 DICO. A2D TECHNOLOGIES, INC.:   Digitizing Company
~OTHER INFORMATION
~A    DEPT    TEND       RHOB       CORR       CALD       NPHI       TENR       RFOC       RILD       RILM          GRR      SPR       TENS         DT   
# ...
 3224.0000   -44.7950     2.4300    -0.0080     9.2840     0.2540   -86.7670     3.7230     2.9630     3.0380   112.8340     9.7760   -45.8530    85.9770
 3224.5000   -44.7950     2.4350    -0.0050     9.2910     0.2510   -83.0800     3.7710     2.9550     3.0380   109.2900     9.6270   -45.6650    86.1350
 3225.0000   -44.7950     2.4360    -0.0030     9.2980     0.2500   -79.3940     3.8270     2.9730     3.0380   108.0660     9.4780   -49.4150    85.9960
 3225.5000   -44.7950     2.4340     0.0000     9.3040     0.2490   -75.7070     3.8270     2.9910     3.0950   107.8210     9.3280   -53.1650    85.7200
 3226.0000   -44.7950     2.4320     0.0010     9.3030     0.2480   -72.0210     3.8270     3.0100     3.1820   108.6360     9.2710   -51.7570    85.4980
 3226.5000   -44.7950     2.4340     0.0010     9.3010     0.2460   -68.3340     3.8270     3.1220     3.2660   111.1540     9.4420   -46.3410    84.8730
 3227.0000   -44.7950     2.4400     0.0000     9.3000     0.2450   -64.6480     3.9740     3.2400     3.4670   112.0920    10.0710   -40.9240    83.8980
 3227.5000   -44.7950     2.4470    -0.0020     9.2990     0.2390   -60.9610     4.2640     3.3580     3.6540   111.0410    10.6780   -35.5080    83.0350
 3228.0000   -44.7950     2.4530    -0.0030     9.2980     0.2300   -57.2750     4.5530     3.4760     3.7840   108.2180    11.2450   -34.7850    82.2220
 3228.5000   -44.7950     2.4600     0.0040     9.2970     0.2220   -56.6000     4.7770     3.5940     3.8760   106.1880    10.9850   -41.5780    81.5250
 3229.0000   -44.7950     2.4710     0.0120     9.2950     0.2210   -66.3690     4.7190     3.7570     3.9690   105.7740    10.5610   -48.0780    81.2270
 3229.5000   -44.7950     2.4750     0.0180     9.2940     0.2190   -76.1380     4.6900     3.8430     4.0830   106.0630    10.1390   -54.5780    80.9290
 3230.0000   -44.7950     2.4690     0.0190     9.2930     0.2210   -85.9080     4.7100     3.9350     4.1590   107.7480     9.8550   -61.0780    80.6310
 3230.5000   -44.7950     2.4630     0.0150     9.2920     0.2310   -94.5340     4.7330     3.8860     4.0780   110.3030     9.9360   -67.5780    80.6050
 3231.0000   -44.7950     2.4660     0.0140     9.2910     0.2410   -94.5340     4.7330     3.7940     3.9680   110.0480    10.0350   -74.0770    80.8210
 3231.5000   -44.7950     2.4680     0.0140     9.2890     0.2490   -94.5340     4.6470     3.7010     3.8590   108.1470    10.1350   -59.1360    81.5730
 3232.0000   -44.7950     2.4660     0.0070     9.2880     0.2520   -88.5700     4.4400     3.6090     3.7490   107.4150    10.2350   -41.4100    82.5770
 3232.5000   -44.7950     2.4570     0.0010     9.2870     0.2550   -75.2480     4.2450     3.5170     3.6390   109.9080    10.3360   -34.7850    83.5800
 3233.0000   -44.7950     2.4540     0.0000     9.2860     0.2590   -64.9560     4.0510     3.4240     3.5290   111.1790    10.4370   -40.6310    84.4970
 3233.5000   -44.7950     2.4520     0.0000     9.2850     0.2600   -67.6700     3.9570     3.3320     3.4190   111.4880    10.4580   -50.3800    85.0380
 3234.0000   -44.7950     2.4530     0.0000     9.2840     0.2560   -70.3830     3.9170     3.2710     3.3010   111.0800    10.4580   -50.3670    85.3950
 3234.5000   -45.2350     2.4590     0.0060     9.2840     0.2500   -73.0970     3.8630     3.2710     3.3630   110.1070    10.4580   -48.9720    85.3950
 3235.0000   -46.3300     2.4700     0.0110     9.2840     0.2430   -76.5670     3.8630     3.3010     3.4260   108.9100    10.4580   -62.2670    85.2950
 3235.5000   -47.4250     2.4760     0.0110     9.2840     0.2370   -80.8140     4.0490     3.3470     3.5420   108.4150    10.4580   -74.8250    84.8680
 3236.0000   -48.5200     2.4790     0.0100     9.2840     0.2320   -85.0620     4.2200     3.4050     3.6390   108.1170    10.4570   -74.8250    84.1940
 3236.5000   -49.6140     2.4820     0.0090     9.2820     0.2380   -89.3090     4.3560     3.4620     3.7360   106.6250    10.4580   -72.9960    83.3920
 3237.0000   -50.7090     2.4850     0.0080     9.2810     0.2470   -93.5570     4.4090     3.5200     3.8330   104.7860    10.3280   -68.5640    82.7420
 3237.5000   -51.8040     2.4840     0.0110     9.2800     0.2500  -107.0710     4.4760     3.5780     3.9350   105.0420    10.1030   -64.1320    82.3770
 3238.0000   -52.8990     2.4800     0.0170     9.2780     0.2490  -124.6240     4.5430     3.6350     3.9350   105.9000     9.8740   -59.7010    82.3190
 3238.5000   -53.9930     2.4750     0.0170     9.2770     0.2480  -116.4360     4.6040     3.6930     3.9350   108.2610     9.0790   -55.2690    82.5280
 3239.0000   -55.0880     2.4750     0.0150     9.2760     0.2530  -107.5540     4.4740     3.7230     3.9350   109.5360     8.2780   -50.8370    82.8700
 3239.5000   -56.1830     2.4770     0.0110     9.2740     0.2550   -98.6730     4.3570     3.6560     3.8680   110.5060     7.6840   -46.4050    83.2710
 3240.0000   -57.2780     2.4790     0.0060     9.2730     0.2480   -89.7920     4.2390     3.6040     3.7910   109.7910     6.6130   -41.9740    83.6720
 3240.5000   -58.3720     2.4810     0.0050     9.2720     0.2410   -80.9110     4.1210     3.5520     3.7140   109.0470     5.2970   -37.5420    83.9700
 3241.0000   -59.4670     2.4820     0.0080     9.2710     0.2390   -72.0300     4.1650     3.5000     3.6370   108.3050     3.9670   -35.1530    83.7650
 3241.5000   -60.5620     2.4800     0.0070     9.2690     0.2390   -64.7750     4.2400     3.4470     3.5650   107.5530     2.6340   -36.1280    83.4240
 3242.0000   -61.6560     2.4780     0.0060     9.2680     0.2430   -67.0460     4.2760     3.3950     3.5030   107.5400     1.2910   -37.1030    83.1620
 3242.5000   -62.7510     2.4780     0.0090     9.2670     0.2490   -69.3180     4.2240     3.3430     3.4400   108.7910    -0.2220   -38.0780    83.1660
 3243.0000   -63.8460     2.4820     0.0200     9.2650     0.2520   -71.5900     4.1500     3.2910     3.3770   109.3570    -1.1170   -39.0530    83.4670
 3243.5000   -64.9410     2.4870     0.0320     9.2600     0.2510   -73.8620     4.0770     3.2390     3.3140   107.5590    -2.2810   -40.0280    84.2320
 3244.0000   -66.0350     2.4870     0.0310     9.2510     0.2520   -76.1340     4.0040     3.1870     3.2510   106.2380    -4.5000   -41.0030    84.8010
 3244.5000   -67.1300     2.4890     0.0300     9.2420     0.2540   -78.4060     3.9300     3.1350     3.1890   109.7260    -6.6690   -41.9780    85.1420
 3245.0000   -68.2250     2.4920     0.0280     9.2340     0.2550   -80.6780     3.8570     3.0720     3.1230   113.6060    -8.8420   -42.9530    85.7760
 3245.5000   -69.3200     2.4910     0.0270     9.2250     0.2560   -82.9500     3.7840     3.0070     3.0760   116.9190   -11.0220   -43.9280    86.1590
 3246.0000   -70.4140     2.4880     0.0260     9.2190     0.2570   -83.9890     3.7100     2.9420     3.0270   117.3070   -13.2580   -44.5030    86.3420
 3246.5000   -71.5090     2.4790     0.0240     9.2120     0.2580   -82.3600     3.6880     2.8760     2.9780   116.1640   -14.0400   -41.8680    86.6770
 3247.0000   -72.6040     2.4690     0.0150     9.2060     0.2590   -80.7320     3.6880     2.8110     2.9290   115.4990   -14.2660   -39.2320    87.1250
 3247.5000   -73.6990     2.4580     0.0060     9.1990     0.2590   -79.1040     3.5940     2.7460     2.8800   116.2020   -14.2460   -36.5970    87.3970
 3248.0000   -74.7930     2.4470    -0.0020     9.1930     0.2600   -77.4760     3.4830     2.6800     2.8310   118.7330   -14.2420   -33.9620    87.9660
 3248.5000   -75.8880     2.4380    -0.0070     9.1910     0.2610   -75.8480     3.3730     2.6150     2.7810   121.2740   -14.2430   -31.3270    88.7660
 3249.0000   -76.9830     2.4370    -0.0030     9.2150     0.2620   -74.2190     3.2620     2.5500     2.7320   123.2080   -14.2430   -28.6920    89.5670
 3249.5000   -78.0780     2.4410     0.0010     9.2250     0.2630   -72.5910     3.2110     2.4790     2.6830   122.2490   -14.2430   -26.0570    90.2000
