~VERSION INFORMATION
 VERS.                2.0:   CWLS LOG ASCII STANDARD - VERSION 2.0
 WRAP.                 NO:   ONE LINE PER DEPTH STEP
~WELL INFORMATION
#MNEM.UNIT      DATA TYPE    INFORMATION
#----------   ------------   ------------------------------
 STRT.F          240.0000:   START DEPTH
 STOP.F         2876.0000:   STOP DEPTH
 STEP.F            0.5000:   STEP LENGTH
 NULL.          -999.2500:   NO VALUE
 COMP.    FENIX & SCISSON:   COMPANY
 WELL. FENIX & SCISSON "A" #23-21:   WELL
 FLD .               NPR3:   FIELD
 LOC .      S21 T39N R78W:   LOCATION
 CNTY.            NATRONA:   COUNTY
 STAT.            WYOMING:   STATE
 CTRY. UNITED STATES OF AMERICA:   COUNTRY
 SRVC.              WELEX:   SERVICE COMPANY
 DATE.        05-MAR-1977:   LOGDATE
 API .     49025103030000:   API NUMBER
~CURVE INFORMATION
#MNEM.UNIT       API CODE    CURVE DESCRIPTION
#----------   ------------   ------------------------------
 DEPT.F                  :   
 GRD .GAPI   45 310 01 00:   GAMMA RAY FROM DENSITY LOG
 CALD.IN     45 280 60 00:   CALIPER FROM DENSITY LOG
 CORR.G/C3   45 356 01 00:   DENSITY CORRECTION
 RHOB.G/C3   45 350 01 00:   BULK DENSITY
 SPR .MV     07 010 01 00:   SPONTANEOUS POTENTIAL
 ILD .OHMM   07 120 46 00:   DEEP INDUCTION RESISTIVITY
 ILM .OHMM   07 120 44 00:   INDUCTION LOG MEDIUM RESISTIVITY
 SGRD.OHMM   07 220 05 00:   SHALLOW SHORT GUARD RESISTIVITY
~PARAMETER INFORMATION
#MNEM.UNIT          VALUE    DESCRIPTION
#----------   ------------   ------------------------------
 EKB .F         4986.0000:   Kelly bushing
 EGL .F         4976.0000:   Ground level
 TD  .F         2885.0000:   Total depth
 CLNT.            A2DTECH:   Client Code
 SL  . 990' FWL & 1650' FNL:   Surface Location
 DATE.        05-MAR-1977:   Date Logged [DD-MMM-YYYY]
 DD  .F              2885:   Depth driller
 DL  .F              2882:   Depth logger
 BLI .F              2876:   Bottom log interval
 TLI .F               238:   Top log interval
 CS1 .IN            8.625:   Casing size
 CBD1.      8.625" @ 251':   Casing driller 1
 CBL1.IN              251:   Casing logger 1
 BS1 .IN            7.875:   Bit size
 BSD1.F              2885:   Depth drilled with bit1
 DFT .                KCL:   Type fluid in hole
 DFD .                9.5:   Density
 TCS .HRS               3:   Time Circ. stopped
 MRT .F                78:   Maximum recorded temp.
 ENGI.          D. LAWSON:   Recorded By
 WITN.            K. JAPP:   Witnessed by
 ORIG.         2.5" PRINT:   Origin of data
 UWI .     49025103030000:   Unique Well ID
 DICO. A2D TECHNOLOGIES,INC.:   Digitizing Company
 PD  .                 GL:   Permanent Datum
 EPD .               4976:   Elevation Permanent Datum
 LMF .                 KB:   Log Measured From
 DMF .                 KB:   Drilling Measured From
 DAPD.                 10:   Feet Above Permanent Datum
 DFL .                8.8:   Fluid loss
 MSS .           FLOWLINE:   Source of sample
 RMS .OHMM            .40:   Rm
 MST .F                58:   Rm Meas. temp.
 RMF .OHMM            .37:   Rmf
 MFST.F                58:   Rmf Meas. temp.
 MFSS.OHMM            .67:   Source Rmf.
 MCST.F                58:   Rmc Meas. temp.
 MCSS.               MEAS:   Source Rmc.
 RMB .OHMM            .30:   Rm. at BHT
 BHT .F                78:   BHT.
~OTHER INFORMATION
~A   DEPT       GRD        CALD      CORR        RHOB      SPR        ILD        ILM       SGRD   
# ...
 1090.5000   113.6364     8.6121     0.1024     2.4724   -42.9550     6.2032     7.4500    10.5195
 1091.0000   113.3080     8.6712     0.1070     2.4203   -42.9521     6.1179     7.1461     9.8201
 1091.5000   112.7566     8.7597     0.1100     2.3741   -42.9491     5.9465     6.6682     9.2948
 1092.0000   113.0813     9.1424     0.1086     2.3130   -42.9462     5.7804     6.3087     8.4906
 1092.5000   113.7242     9.7309     0.1057     2.2563   -42.9432     5.4703     5.8062     8.0835
 1093.0000   115.1848    10.1724     0.0999     2.2116   -42.9403     5.1802     5.4179     7.5811
 1093.5000   116.9639    10.7609     0.0926     2.1759   -43.2337     5.0362     5.1257     6.9853
 1094.0000   118.6923    11.1142     0.0837     2.1282   -43.5261     4.9047     4.9849     6.8898
 1094.5000   120.7173    11.5556     0.0692     2.0730   -44.1148     4.8372     5.1940     6.9863
 1095.0000   122.1799    12.2324     0.0527     2.0924   -44.4077     4.8369     5.7981     7.1827
 1095.5000   123.3492    12.5562     0.0487     2.1446   -45.2924     4.9037     6.4725     7.4875
 1096.0000   124.2250    12.3212     0.0517     2.3070   -45.5853     4.9732     7.2253     7.8052
 1096.5000   124.7801    10.7333     0.0536     2.3413   -46.4699     5.1118     7.9552     8.1364
 1097.0000   123.8535     9.8218     0.0495     2.3920   -46.4669     5.2541     8.4040     8.5998
 1097.5000   122.1113     9.3515     0.0342     2.4232   -46.7603     5.4003     8.6366     8.9647
 1098.0000   121.5543     9.1753     0.0208     2.4590   -47.0527     5.5516     8.8756     9.2168
 1098.5000   123.0264     9.0580     0.0249     2.4963   -47.0498     5.7836     8.8731     9.6079
 1099.0000   123.6109     8.9700     0.0298     2.5112   -47.0468     5.7832     8.7492     9.7423
 1099.5000   124.4908     8.8821     0.0339     2.5231   -47.0439     5.9445     8.5089    10.0162
 1100.0000   125.9531     8.7648     0.0359     2.5291   -47.0409     6.0266     8.3900    10.1564
 1100.5000   128.0059     8.7062     0.0320     2.5171   -47.0380     6.0262     8.1596    10.1571
 1101.0000   128.5924     8.6477     0.0261     2.5127   -47.0350     6.0258     8.0456    10.1578
 1101.5000   129.1789     8.6186     0.0232     2.5142   -47.0321     6.0253     8.1551    10.1585
 1102.0000   130.6452     8.5894     0.0211     2.5186   -47.0291     5.9424     8.2660    10.1592
 1102.5000   132.4047     8.5898     0.0242     2.5210   -47.0262     5.8607     8.3785    10.3014
 1103.0000   133.5777     8.5901     0.0241     2.5240   -47.0232     5.8602     8.4924    10.3021
 1103.5000   132.1114     8.5903     0.0233     2.5270   -47.0203     5.7796     8.4901    10.3029
 1104.0000   130.3519     8.5906     0.0225     2.5314   -47.0173     5.7792     8.6060    10.3036
 1104.5000   133.2845     8.5909     0.0218     2.5327   -47.0143     5.7788     8.7226    10.3033
 1105.0000   134.1642     8.5912     0.0176     2.5274   -47.0114     5.8586     8.7202    10.3012
 1105.5000   134.1857     8.5915     0.0105     2.5087   -47.0084     5.9396     8.8393    10.2991
 1106.0000   131.8904     8.5899     0.0067     2.4920   -47.0055     6.0216     8.8366    10.2971
 1106.5000   129.1982     8.5839     0.0149     2.5034   -47.0025     6.0212     8.8341    10.2950
 1107.0000   128.9062     8.5780     0.0259     2.5167   -47.0236     6.1044     8.8317    10.2929
 1107.5000   129.4944     8.5720     0.0278     2.5285   -47.0483     6.1039     8.7084    10.2909
 1108.0000   129.7891     8.5660     0.0268     2.5355   -47.0730     6.0754     8.3532    10.2888
 1108.5000   128.6175     8.5601     0.0220     2.5368   -47.0977     6.0409     7.9028    10.2867
 1109.0000   126.2729     8.5541     0.0190     2.5288   -47.1224     6.0417     7.5805    10.3327
 1109.5000   126.5677     8.5482     0.0191     2.5246   -47.1471     6.0426     7.1718    10.2843
 1110.0000   127.4489     8.5413     0.0181     2.5234   -47.1718     6.0434     6.8793    10.4268
 1110.5000   128.0369     8.5419     0.0162     2.5249   -47.1965     6.0442     6.7832    10.3783
 1111.0000   128.9181     8.5130     0.0163     2.5249   -47.2212     6.1290     6.6885    10.4254
 1111.5000   129.5061     8.5136     0.0163     2.5264   -47.2459     6.1298     6.6866    10.4730
 1112.0000   130.0941     8.5142     0.0164     2.5264   -47.2705     6.1307     6.6848    10.7163
 1112.5000   130.9753     8.5148     0.0165     2.5265   -47.2952     6.1315     6.6830    10.9663
 1113.0000   131.8565     8.5154     0.0135     2.5246   -47.3199     6.1324     6.6811    11.3766
 1113.5000   132.7377     8.5160     0.0095     2.5204   -47.3446     6.1332     6.7722    11.6949
 1114.0000   131.8594     8.5166     0.0066     2.5103   -47.3693     6.0499     6.7702    11.9666
 1114.5000   127.4621     8.4877     0.0047     2.5042   -47.3801     6.0509     6.7683    11.0151
 1115.0000   126.8768     8.4883     0.0048     2.5104   -47.3816     5.9689     6.7664    10.5162
 1115.5000   128.6380     8.4889     0.0048     2.5205   -47.4359     5.8877     6.7646    10.2757
 1116.0000   129.5193     8.4600     0.0049     2.5251   -47.6804     5.8079     6.7627    10.2750
 1116.5000   128.3477     8.4607     0.0050     2.5231   -47.6819     5.6509     6.7609    10.2743
 1117.0000   126.2964     8.4317     0.0050     2.5196   -47.9793     5.4980     6.7590    10.2736
 1117.5000   124.2451     8.4029     0.0051     2.5136   -47.9808     5.4987     6.7571    10.2729
 1118.0000   123.3668     8.4036     0.0051     2.5062   -47.9822     5.4240     6.6628    10.1311
 1118.5000   123.6615     8.4042     0.0052     2.5022   -48.2796     5.3505     6.2172    10.1304
 1119.0000   123.6630     8.4048     0.0083     2.5054   -48.2811     5.2780     5.8014    10.1297
 1119.5000   123.6644     8.4054     0.0113     2.5120   -48.2825     5.2066     5.6421    10.1290
 1120.0000   123.6659     8.4060     0.0144     2.5189   -48.2840     5.2071     5.5633    10.1283
 1120.5000   123.0808     8.4065     0.0114     2.5201   -48.2855     5.2801     5.5618    10.1276
 1121.0000   122.4958     8.4071     0.0073     2.5135   -48.2870     5.2809     5.5603    10.1269
 1121.5000   121.9105     8.4371     0.0044     2.5076   -48.2885     5.3549     5.5587    10.1262
 1122.0000   125.1380     8.4377     0.0014     2.5029   -48.2900     5.3998     5.6343    10.1255
 1122.5000   127.7788     8.4383    -0.0015     2.5014   -48.2914     5.4308     5.7110    10.1248
 1123.0000   129.2465     8.4389    -0.0032     2.5021   -48.2929     5.5069     5.7094    10.2650
 1123.5000   129.2480     8.4395    -0.0032     2.5066   -48.2944     5.5527     5.9489    10.4073
 1124.0000   128.9560     8.4401    -0.0031     2.5082   -48.2959     5.6304     6.2845    10.4065
 1124.5000   129.2509     8.4407    -0.0031     2.5001   -48.2974     5.6632     6.5481    10.4058
 1125.0000   131.0119     8.4413    -0.0043     2.4851   -48.2989     5.6640     6.7293    10.2622
 1125.5000   132.4797     8.4418    -0.0084     2.4716   -48.3003     5.6648     6.7275    10.2615
 1126.0000   133.3609     8.4424    -0.0149     2.4537   -48.3018     5.6656     6.8191    10.2608
 1126.5000   132.7758     8.4430    -0.0105     2.4586   -48.3032     5.7450     6.8171    10.2601
 1127.0000   131.6043     8.4436    -0.0045     2.4712   -48.3047     5.7458     6.8152    10.1185
 1127.5000   130.7260     8.4442     0.0016     2.4787   -48.3062     5.7466     6.8134    10.1178
 1128.0000   130.7274     8.4448     0.0063     2.4869   -48.3077     5.7474     6.8115    10.1171
 1128.5000   131.0222     8.4454     0.0064     2.4929   -48.3091     5.7482     6.8096     9.9774
 1129.0000   131.6102     8.4460     0.0052     2.4965   -48.3106     5.7490     6.8077     9.9767
 1129.5000   131.3184     8.4465     0.0035     2.5013   -48.3121     5.7498     6.9004     9.9760
 1130.0000   131.0266     8.4471     0.0036     2.5061   -48.3136     5.7506     6.8985     9.7032
 1130.5000   130.1483     8.4771     0.0023     2.4868   -48.3151     5.7514     6.8966     9.7025
