~VERSION INFORMATION
 VERS.                2.0:   CWLS LOG ASCII STANDARD - VERSION 2.0
 WRAP.                 NO:   ONE LINE PER DEPTH STEP
~WELL INFORMATION
#MNEM.UNIT      DATA TYPE    INFORMATION
#----------   ------------   ------------------------------
 STRT.F          634.0000:   START DEPTH
 STOP.F         3464.0000:   STOP DEPTH
 STEP.F            0.5000:   STEP LENGTH
 NULL.          -999.2500:   NO VALUE
 COMP. LAWRENCE-ALLISON & ASSOCIATES W:   COMPANY
 WELL. LAWRENCE "TX" #44-27:   WELL
 FLD .   NAVAL RESERVE #3:   FIELD
 LOC .      S27 T39N R78W:   LOCATION
 CNTY.            NATRONA:   COUNTY
 STAT.            WYOMING:   STATE
 CTRY. UNITED STATES OF AMERICA:   COUNTRY
 SRVC.       SCHLUMBERGER:   SERVICE COMPANY
 DATE.        13-MAR-1982:   LOGDATE
 API .     49025108870000:   API NUMBER
~CURVE INFORMATION
#MNEM.UNIT       API CODE    CURVE DESCRIPTION
#----------   ------------   ------------------------------
 DEPT.F                  :   
 TENR.LBS    07 635 01 00:   TENSION FROM RESISTIVITY
 ILD .OHMM   07 120 46 00:   DEEP INDUCTION RESISTIVITY
 ILM .OHMM   07 120 44 00:   INDUCTION LOG MEDIUM RESISTIVITY
 SFLU.OHMM   07 220 01 00:   SPHERICALLY FOCUSED LOG UNAVERAGED RESISTIVITY
 SPR .MV     07 010 01 00:   SPONTANEOUS POTENTIAL
 TENN.LBS    42 635 01 00:   TENSION FROM COMPENSATE NEUTRON
 CALD.IN     45 280 60 00:   CALIPER FROM DENSITY LOG
 GRD .GAPI   45 310 01 00:   GAMMA RAY FROM DENSITY LOG
 RHOB.G/C3   45 350 01 00:   BULK DENSITY
 DRHO.G/C3   45 356 01 00:   DENSITY CORRECTION
 NPHI.DEC    42 890 03 00:   NEUTRON POROSITY SANDSTONE
~PARAMETER INFORMATION
#MNEM.UNIT          VALUE    DESCRIPTION
#----------   ------------   ------------------------------
 EKB .F         5049.0000:   Kelly bushing
 EGL .F         5039.0000:   Ground level
 EDF .F            0.0000:   Drilling floor
 EPD .F            0.0000:   Permanent datum
 TD  .F         3440.0000:   Total depth
 DATE.        13-MAR-1982:   Date logged
 CLNT.            A2DTECH:   Client Code
 PD  .                 GL:   Permanent Datum
 DD  .F              3440:   Depth driller
 DL  .F              3439:   Depth logger
 BLI .F              3433:   Bottom log interval
 CS1 .IN            9.625:   Casing size
 CBD1.      9.625" @ 650':   Casing driller 1
 CBL1.F               647:   Casing logger 1
 BS1 .IN            7.875:   Bit size
 DFT .                GEL:   Type fluid in hole
 DFD .                9.3:   Density
 DFV .                 48:   Viscosity
 DFPH.                 10:   pH
 DFL .                  8:   Fluid loss
 MSS .                PIT:   Source of sample
 RMS .OHMM           1.82:   Rm
 MST .F                67:   Rm Meas. temp.
 RMF .OHMM           1.32:   Rmf
 MFST.F                67:   Rmf Meas. temp.
 MFSS.               MEAS:   Source Rmf.
 RMB .OHMM           1.09:   Rm. at BHT
 BHT .F               112:   BHT.
 TCS .HRS            1300:   Time Circ. stopped
 MRT .F               112:   Maximum recorded temp.
 LUN .               8039:   Logging unit number
 LUL .               CSPR:   Logging unit location
 ENGI.   WAGNER/CONOSENTI:   Recorded By
 WITN.           JENNINGS:   Witnessed by
 ORIG.           5" PRINT:   Origin of data
 UWI .     49025108870000:   Unique Well ID
 DICO. A2D TECHNOLOGIES, INC.:   Digitizing Company
 DAPD.                 10:   Feet Above Permanent Datum
 BSD1.F              3440:   Depth drilled with bit1
 TLI .F               647:   Top log interval
 TLAB.HRS            1800:   Time logger at bottom
~OTHER INFORMATION
~A   DEPT     TENR        ILD        ILM       SFLU        SPR       TENN       CALD         GRD      RHOB       DRHO       NPHI   
# ...
 1732.0000  1025.7020     6.6160     5.7520     6.8540   -28.8950  1445.0291    11.2270   102.7130     2.5290     0.0140     0.2800
 1732.5000  1025.9390     6.6700     5.7760     6.8950   -28.4140  1445.7980    11.2280   101.3270     2.5320     0.0180     0.2700
 1733.0000  1026.1770     6.7240     5.7990     6.9670   -27.9200  1446.5670    11.2350    99.9460     2.5300     0.0190     0.2700
 1733.5000  1026.4139     6.7790     5.8140     7.0390   -28.0400  1447.3361    11.2410    98.5540     2.5240     0.0140     0.2740
 1734.0000  1026.6510     6.8080     5.8230     7.1110   -28.3140  1448.1050    11.1980    98.8920     2.5270     0.0150     0.2790
 1734.5000  1026.8890     6.8530     5.8310     7.1830   -28.5990  1448.8740    11.1530    99.7250     2.5580     0.0390     0.2790
 1735.0000  1027.1260     6.9180     5.8400     7.2430   -29.0060  1449.6429    11.1070    99.1910     2.5900     0.0620     0.2700
 1735.5000  1027.3630     6.8980     5.8480     7.1770   -29.3930  1450.4120    11.0620    98.4530     2.6110     0.0760     0.2640
 1736.0000  1027.6010     6.8440     5.8610     7.1080   -29.7680  1451.1810    11.0350   100.3750     2.5930     0.0560     0.2730
 1736.5000  1027.8380     6.7900     5.8380     7.0400   -30.1510  1451.9500    11.1910   102.6920     2.5730     0.0390     0.2900
 1737.0000  1027.9440     6.7360     5.7690     6.9810   -30.3940  1452.7190    11.2700   104.4190     2.5810     0.0400     0.2900
 1737.5000  1027.9440     6.6810     5.7000     6.9490   -30.6800  1453.4880    11.2460   103.6850     2.5910     0.0510     0.2750
 1738.0000  1027.9440     6.6240     5.6310     6.9060   -30.9700  1454.2570    11.1960   102.7410     2.5970     0.0570     0.2590
 1738.5000  1027.9440     6.5440     5.5620     6.8630   -30.8180  1455.0260    11.2030   102.2300     2.5680     0.0400     0.2590
 1739.0000  1027.9440     6.4650     5.4920     6.8200   -30.4310  1455.7950    11.2660   103.4140     2.5550     0.0270     0.2770
 1739.5000  1027.9440     6.3850     5.4470     6.7350   -30.0390  1456.5649    11.3280   102.9740     2.5540     0.0220     0.2920
 1740.0000  1027.9440     6.3050     5.4850     6.5700   -29.6430  1457.3340    11.3900   102.2990     2.5520     0.0230     0.2920
 1740.5000  1027.9440     6.2520     5.5190     6.4270   -29.2440  1458.1030    11.4320   102.9190     2.5470     0.0250     0.2860
 1741.0000  1027.9440     6.3060     5.5530     6.3680   -29.1720  1455.9390    11.4160   103.6420     2.5400     0.0170     0.2830
 1741.5000  1027.9440     6.3520     5.5860     6.4460   -29.1150  1452.5179    11.3880   104.3400     2.5290     0.0090     0.2850
 1742.0000  1027.9440     6.3990     5.6200     6.5520   -29.0570  1449.0970    11.3600   103.7270     2.5320     0.0060     0.2900
 1742.5000  1027.9440     6.4460     5.6540     6.6570   -28.9960  1445.6760    11.3310   101.1660     2.5400     0.0140     0.2940
 1743.0000  1027.9440     6.4810     5.7030     6.7920   -28.9330  1442.2550    11.3540    98.6780     2.5490     0.0220     0.2970
 1743.5000  1027.9440     6.4260     5.6820     6.7600   -28.8700  1438.4919    11.3720    97.5910     2.5570     0.0280     0.2990
 1744.0000  1027.9440     6.3730     5.6430     6.6990   -28.8080  1439.2150    11.3710    99.1400     2.5610     0.0300     0.2950
 1744.5000  1027.9440     6.3200     5.6030     6.6390   -28.7450  1440.0179    11.3710   101.2310     2.5560     0.0270     0.2850
 1745.0000  1027.9440     6.2660     5.5640     6.5790   -28.6820  1440.8210    11.3620   103.3190     2.5510     0.0230     0.2780
 1745.5000  1027.9440     6.2130     5.5240     6.5180   -28.6460  1441.6240    11.3520   104.6260     2.5460     0.0220     0.2810
 1746.0000  1027.9440     6.1590     5.4970     6.4580   -28.7930  1442.4270    11.3430   102.6730     2.5480     0.0230     0.2830
 1746.5000  1027.9440     6.1060     5.5570     6.3980   -28.9420  1443.2300    11.3330   100.7860     2.5530     0.0240     0.2820
 1747.0000  1027.9440     6.0270     5.6110     6.3680   -29.0900  1444.0341    11.3240    98.9180     2.5570     0.0270     0.2790
 1747.5000  1027.9440     6.1280     5.6650     6.5100   -29.2390  1444.8370    11.3140    98.9660     2.5620     0.0310     0.2770
 1748.0000  1027.9440     6.3270     5.7190     6.6660   -29.3930  1445.6400    11.3120    99.2010     2.5590     0.0340     0.2780
 1748.5000  1027.9440     6.5250     5.7560     6.8220   -29.3540  1446.4430    11.3160    98.9690     2.5530     0.0330     0.2790
 1749.0000  1027.9440     6.7240     5.7970     6.9780   -29.2500  1447.2460    11.3200    97.9730     2.5470     0.0300     0.2780
 1749.5000  1027.9440     6.9220     5.8420     7.1340   -29.1440  1448.0490    11.3240    96.8530     2.5430     0.0280     0.2720
 1750.0000  1027.9440     6.9810     5.8870     7.2430   -29.0380  1448.8521    11.3280    95.5820     2.5390     0.0250     0.2640
 1750.5000  1027.9440     6.9520     5.9320     7.1840   -28.9310  1449.6550    11.3330    97.1940     2.5370     0.0220     0.2570
 1751.0000  1027.9440     6.9250     5.9680     7.1380   -28.8250  1450.4580    11.3440    99.8160     2.5380     0.0190     0.2610
 1751.5000  1027.9440     6.8990     5.9410     7.0930   -28.7200  1451.2620    11.3550   102.4340     2.5480     0.0210     0.2680
 1752.0000  1027.9440     6.8720     5.9140     7.0470   -28.6260  1452.0649    11.3670   101.1460     2.5600     0.0300     0.2740
 1752.5000  1027.9440     6.8540     5.8860     7.0020   -28.5840  1452.8680    11.3780    99.5920     2.5730     0.0410     0.2760
 1753.0000  1027.9440     6.7500     5.8590     6.9560   -28.4340  1453.6710    11.3890    98.6350     2.5820     0.0440     0.2760
 1753.5000  1027.9440     6.6390     5.8320     6.9180   -28.2890  1454.4740    11.4010    98.0950     2.5760     0.0400     0.2730
 1754.0000  1027.9440     6.5290     5.7980     6.8070   -28.1440  1455.2770    11.4110    97.5590     2.5610     0.0300     0.2720
 1754.5000  1027.9440     6.4180     5.7300     6.6920   -27.9980  1456.0800    11.3970    97.1100     2.5470     0.0200     0.2720
 1755.0000  1027.9440     6.3070     5.6630     6.5770   -27.8550  1456.8831    11.3820    97.0460     2.5450     0.0190     0.2760
 1755.5000  1027.9440     6.1950     5.5950     6.4610   -27.9720  1457.6860    11.3680    96.9710     2.5460     0.0230     0.2810
 1756.0000  1027.9440     6.1950     5.5280     6.3680   -28.8090  1458.3330    11.3530    96.8840     2.5420     0.0240     0.2820
 1756.5000  1027.9440     6.1950     5.4600     6.3700   -29.6130  1459.0060    11.3510    96.5450     2.5330     0.0210     0.2810
 1757.0000  1027.9440     6.1950     5.4470     6.3770   -29.7170  1459.6820    11.3510    95.3330     2.5270     0.0170     0.2800
 1757.5000  1027.9440     6.1950     5.4470     6.3850   -29.7950  1460.3580    11.3510    95.7670     2.5280     0.0150     0.2850
 1758.0000  1027.9440     6.1950     5.4470     6.3930   -29.8750  1461.0330    11.3540    97.7970     2.5320     0.0150     0.2890
 1758.5000  1027.9440     6.1950     5.4470     6.4000   -29.9600  1461.7090    11.3640    99.8230     2.5350     0.0150     0.2930
 1759.0000  1027.9440     6.1950     5.4470     6.4080   -30.0320  1462.3850    11.3740   101.8620     2.5390     0.0150     0.2920
 1759.5000  1027.9440     6.1950     5.4470     6.4150   -30.2550  1463.0601    11.3830   103.9220     2.5420     0.0150     0.2860
 1760.0000  1027.9440     6.1950     5.4470     6.4230   -30.2390  1463.7360    11.3930   104.7590     2.5430     0.0160     0.2760
 1760.5000  1027.9440     6.1950     5.4470     6.4270   -30.2320  1464.4120    11.4020   105.2490     2.5450     0.0180     0.2680
 1761.0000  1027.9440     6.1950     5.4470     6.4270   -29.6630  1465.0870    11.4120   104.8960     2.5470     0.0200     0.2680
 1761.5000  1027.9440     6.1950     5.4470     6.4270   -29.0050  1465.7629    11.4110   104.5200     2.5480     0.0220     0.2720
 1762.0000  1027.9440     6.1950     5.4490     6.4270   -28.3400  1466.4390    11.4400   103.5720     2.5450     0.0250     0.2780
