~VERSION INFORMATION
 VERS.                2.0:   CWLS LOG ASCII STANDARD - VERSION 2.0
 WRAP.                 NO:   ONE LINE PER DEPTH STEP
~WELL INFORMATION
#MNEM.UNIT      DATA TYPE    INFORMATION
#----------   ------------   ------------------------------
 STRT.F          200.0000:   START DEPTH
 STOP.F         3050.0000:   STOP DEPTH
 STEP.F            0.5000:   STEP LENGTH
 NULL.          -999.2500:   NO VALUE
 COMP.     FENIX & SISSON:   COMPANY
 WELL. FENIX & SISSON "AX" #16-28:   WELL
 FLD .              NPR 3:   FIELD
 LOC .      S28 T39N R78W:   LOCATION
 CNTY.            NATRONA:   COUNTY
 STAT.            WYOMING:   STATE
 CTRY. UNITED STATES OF AMERICA:   COUNTRY
 SRVC.      DRESSER ATLAS:   SERVICE COMPANY
 DATE.        01-JUL-1977:   LOGDATE
 API .     49025103930000:   API NUMBER
~CURVE INFORMATION
#MNEM.UNIT       API CODE    CURVE DESCRIPTION
#----------   ------------   ------------------------------
 DEPT.F                  :   
 CALD.IN     45 280 60 00:   CALIPER FROM DENSITY LOG
 GRD .GAPI   45 310 01 00:   GAMMA RAY FROM DENSITY LOG
 CORR.G/C3   45 356 01 00:   DENSITY CORRECTION
 TEND.LBS    45 635 01 00:   TENSION FROM DENSITY LOG
 SPR .MV     07 010 01 00:   SPONTANEOUS POTENTIAL
 ILD .OHMM   07 120 46 00:   DEEP INDUCTION RESISTIVITY
 ILM .OHMM   07 120 44 00:   INDUCTION LOG MEDIUM RESISTIVITY
 SFL .OHMM   07 220 01 00:   SHALLOW FOCUSED LOG RESISTIVITY
 RHOB.G/C3   45 350 01 00:   BULK DENSITY
~PARAMETER INFORMATION
#MNEM.UNIT          VALUE    DESCRIPTION
#----------   ------------   ------------------------------
 EKB .F         5067.0000:   Kelly bushing
 EGL .F         5057.0000:   Ground level
 EDF .F         5066.0000:   Drilling floor
 EPD .F            0.0000:   Permanent datum
 TD  .F         3036.0000:   Total depth
 DATE.        01-JUL-1977:   Date logged
 CLNT.            A2DTECH:   Client Code
 SL  . 1220' FSL & 330' FWL:   Surface Location
 PD  .                 GL:   Permanent Datum
 DAPD.F                10:   Feet Above Permanent Datum
 DD  .F              3034:   Depth driller
 DL  .F              3036:   Depth logger
 BLI .F              3034:   Bottom log interval
 TLI .F               214:   Top log interval
 CS1 .IN            8.625:   Casing size
 CBD1.      8.625" @ 204':   Casing driller 1
 CBL1.F               214:   Casing logger 1
 BS1 .IN            7.875:   Bit size
 BSD1.F              3034:   Depth drilled with bit1
 DFT .                KCL:   Type fluid in hole
 DFD .                  9:   Density
 DFV .                 34:   Viscosity
 DFPH.                7.2:   pH
 DFL .                8.8:   Fluid loss
 MSS .         CIRCULATED:   Source of sample
 RMS .OHMM           .112:   Rm
 MST .F                75:   Rm Meas. temp.
 RMF .OHMM           .085:   Rmf
 MFST.F                75:   Rmf Meas. temp.
 RMC .OHMM           .141:   Rmc
 MCST.F                75:   Rmc Meas. temp.
 MFSS.               MEAS:   Source Rmf.
 MCSS.               MEAS:   Source Rmc.
 RMB .OHMM           .067:   Rm. at BHT
 BHT .F               124:   BHT.
 TCS .HRS               1:   Time Circ. stopped
 MRT .F               124:   Maximum recorded temp.
 LUN .               6134:   Logging unit number
 LUL .              GLTTE:   Logging unit location
 ENGI.              GOULD:   Recorded By
 WITN.         PETTINGILL:   Witnessed by
 ORIG.       2.5"5" PRINT:   Origin of data
 UWI .     49025103930000:   Unique Well ID
 DICO. A2D TECHNOLOGIES, INC.:   Digitizing Company
~OTHER INFORMATION
~A   DEPT     CALD         GRD      CORR       TEND        SPR        ILD        ILM        SFL       RHOB   
  200.0000  -999.2500    83.8930  -999.2500  -999.2500  -999.2500  -999.2500  -999.2500  -999.2500  -999.2500
  200.5000  -999.2500    83.8930  -999.2500  -999.2500  -999.2500  -999.2500  -999.2500  -999.2500  -999.2500
  201.0000  -999.2500    83.8930  -999.2500  -999.2500  -999.2500  -999.2500  -999.2500  -999.2500  -999.2500
  201.5000  -999.2500    83.8930  -999.2500  -999.2500  -999.2500  -999.2500  -999.2500  -999.2500  -999.2500
  202.0000  -999.2500    83.8930  -999.2500  -999.2500  -999.2500  -999.2500  -999.2500  -999.2500  -999.2500
  202.5000  -999.2500    83.8930  -999.2500  -999.2500  -999.2500  -999.2500  -999.2500  -999.2500  -999.2500
  203.0000  -999.2500    83.8920  -999.2500  -999.2500  -999.2500  -999.2500  -999.2500  -999.2500  -999.2500
  203.5000  -999.2500    83.8940  -999.2500  -999.2500  -999.2500  -999.2500  -999.2500  -999.2500  -999.2500
  204.0000  -999.2500    83.9070  -999.2500  -999.2500  -999.2500  -999.2500  -999.2500  -999.2500  -999.2500
  204.5000  -999.2500    83.8780  -999.2500  -999.2500  -999.2500  -999.2500  -999.2500  -999.2500  -999.2500
  205.0000  -999.2500    84.6430  -999.2500  -999.2500  -999.2500  -999.2500  -999.2500  -999.2500  -999.2500
  205.5000  -999.2500    84.3790  -999.2500  -999.2500  -999.2500  -999.2500  -999.2500  -999.2500  -999.2500
  206.0000  -999.2500    84.7120  -999.2500  -999.2500  -999.2500  -999.2500  -999.2500  -999.2500  -999.2500
  206.5000  -999.2500    85.8240  -999.2500  -999.2500  -999.2500  -999.2500  -999.2500  -999.2500  -999.2500
  207.0000  -999.2500    85.3690  -999.2500  -999.2500  -999.2500  -999.2500  -999.2500  -999.2500  -999.2500
  207.5000  -999.2500    84.9940  -999.2500  -999.2500  -999.2500  -999.2500  -999.2500  -999.2500  -999.2500
  208.0000  -999.2500    83.8160  -999.2500  -999.2500  -999.2500  -999.2500  -999.2500  -999.2500  -999.2500
  208.5000  -999.2500    83.8480  -999.2500  -999.2500  -999.2500  -999.2500  -999.2500  -999.2500  -999.2500
  209.0000  -999.2500    82.9520  -999.2500  -999.2500  -999.2500  -999.2500  -999.2500  -999.2500  -999.2500
  209.5000  -999.2500    83.0840  -999.2500  -999.2500  -999.2500  -999.2500  -999.2500  -999.2500  -999.2500
  210.0000  -999.2500    83.2060  -999.2500  -999.2500  -999.2500  -999.2500  -999.2500  -999.2500  -999.2500
  210.5000  -999.2500    83.3030  -999.2500  -999.2500  -999.2500  -999.2500  -999.2500  -999.2500  -999.2500
  211.0000  -999.2500    83.7400  -999.2500  -999.2500  -999.2500  -999.2500  -999.2500  -999.2500  -999.2500
  211.5000  -999.2500    86.3660  -999.2500  -999.2500  -999.2500  -999.2500  -999.2500  -999.2500  -999.2500
  212.0000  -999.2500    88.8140  -999.2500  -999.2500  -999.2500  -999.2500  -999.2500  -999.2500  -999.2500
  212.5000  -999.2500    90.5520  -999.2500  -999.2500  -999.2500  -999.2500  -999.2500  -999.2500  -999.2500
  213.0000  -999.2500    90.8810  -999.2500  -999.2500  -999.2500  -999.2500  -999.2500  -999.2500  -999.2500
  213.5000     9.6540    91.5420  -999.2500  -999.2500  -999.2500  1939.6290  -999.2500  -999.2500  -999.2500
  214.0000     9.9710    92.3620     0.0820     1.3610    -0.1970  1694.1410  -999.2500  -999.2500     2.1560
  214.5000    10.6940    91.8690     0.0760    -3.2530    -0.1970   989.9860     4.1530  -999.2500     2.1360
  215.0000    10.5000    91.0160     0.0610    -7.8670    -0.1970   469.1970     4.8320  -999.2500     2.1210
  215.5000    10.0580    91.5390     0.0390   -12.4820    -3.1310   306.1980     5.4640  -999.2500     2.0780
  216.0000     9.7500    92.8780     0.0460   -15.9420    -7.6220    61.6990     6.0420     7.7400     2.0760
  216.5000     9.6200    94.3030     0.0530   -20.5560   -12.1130   277.2950     6.2480     6.8490     2.2410
  217.0000     9.2140    95.9120     0.0260   -25.1710   -16.6050   260.8050     6.2480     7.2030     2.4270
  217.5000     9.0660    96.0080     0.0250   -29.7850   -18.5680   629.6060     6.0290     8.0480     2.4910
  218.0000     8.9910    96.1000     0.0330   -34.3990   -24.7670  1168.8571     6.0490     7.2370     2.4790
  218.5000     8.9180    96.4800     0.0220   -36.4450   -29.3170   954.3570     5.8060     7.6910     2.4550
  219.0000     8.8590    97.1700     0.0190   -35.5750   -33.4690   497.3790     5.9140     8.3100     2.4540
  219.5000     8.8000    97.4590     0.0190   -34.7050   -35.8770    49.7270     5.6210     8.2290     2.4540
  220.0000     8.7420    96.7430     0.0260   -33.8350   -37.7600    19.5000     5.2720     8.1050     2.4650
  220.5000     8.6960    96.1200     0.0300   -32.9640   -38.5790    19.8610     5.4950     7.9840     2.4760
  221.0000     8.6850    95.5160     0.0340   -32.0940   -38.7750    20.6030     4.9290     7.8920     2.4820
  221.5000     8.6730    94.9160     0.0370   -31.2240   -38.8240    15.9340     3.8770     7.8210     2.4900
  222.0000     8.6620    94.9000     0.0350   -30.3540   -38.2530    16.2290     6.3270     7.7880     2.4780
  222.5000     8.6500    95.3920     0.0270   -29.4830   -36.3590    17.7900     7.6460     7.7880     2.4600
  223.0000     8.6390    95.9210     0.0200   -28.6130   -34.2480    16.5320     7.7240     7.7880     2.4480
  223.5000     8.6240    96.2200     0.0130   -27.7430   -34.1070    13.9660     7.7880     7.9930     2.4360
  224.0000     8.6080    95.5730     0.0060   -26.8730   -34.9720    12.4890     7.5070     8.0790     2.4140
  224.5000     8.5910    95.5380     0.0010   -26.0030   -36.0710    12.3230     7.1690     8.0790     2.3920
  225.0000     8.5740    96.7380    -0.0030   -25.1320   -36.9510    10.8370     6.8430     8.3840     2.3860
  225.5000     8.5570    97.9060    -0.0030   -24.2620   -38.9690     9.8980     6.5180     8.5370     2.3820
  226.0000     8.5400    97.9740    -0.0030   -23.3920   -40.4200     8.6430     6.1920     7.6190     2.3910
  226.5000     8.5230    96.9340    -0.0110   -22.5220   -41.6370     7.8220     5.9140     7.1050     2.3700
  227.0000     8.5060    95.6160    -0.0330   -21.6510   -43.4110     7.8930     5.8530     5.6410     2.3280
  227.5000     8.4830    95.7920    -0.0570   -20.7810   -45.4170     8.0360     5.8060     4.4900     2.2780
  228.0000     8.4600    96.3120    -0.0920   -19.9110   -47.1700     8.0790     5.5840    10.4470     2.1720
  228.5000     8.4370    96.0370    -0.0920   -19.0410   -49.5210     8.0000     5.4950    10.0700     2.1780
  229.0000     8.4130    95.9190    -0.0800   -18.1700   -51.5350     7.9320     5.3620    10.0700     2.1930
  229.5000     8.3900    96.8850    -0.0630   -17.3000   -53.9990     7.9320     5.1570    10.0700     2.2000
  230.0000     8.3660    96.5440    -0.0430   -16.8650   -55.1160     8.0790     4.9530     9.1310     2.2420
  230.5000     8.3430    96.1920    -0.0240   -16.8650   -57.4870     7.8080     4.7440     8.1910     2.2990
  231.0000     8.3420    95.8300    -0.0040   -16.8650   -58.3420     7.0780     4.7750     7.2370     2.3690
  231.5000     8.3420    95.7670     0.0120   -16.8650   -59.5470     6.3250     4.8320     5.9960     2.4600
  232.0000     8.3420    96.9920     0.0250   -16.8650   -60.3090     5.5730     7.2370     4.9690     2.4790
  232.5000     8.3420    97.3190     0.0210   -16.8650   -60.7610     4.7440     6.9760     3.8770     2.4800
  233.0000     8.3420    97.1340     0.0180   -16.8650   -61.2470     4.7440     7.2310     4.8320     2.4720
  233.5000     8.3420    96.3530     0.0150   -16.8650   -61.8960     4.9600     7.5150     9.1870     2.4620
  234.0000     8.3420    95.9010     0.0110   -16.8650   -62.5040     5.1590     7.7880     8.3810     2.4630
  234.5000     8.3420    95.5410     0.0080   -16.8650   -63.1290     5.3950     7.9120     8.4690     2.4530
  235.0000     8.3340    95.3570     0.0090   -16.8650   -63.7500     5.7300     8.0310     8.8600     2.4440
  235.5000     8.3270    95.3520     0.0130   -16.8650   -64.0760     6.1400     8.1340     9.0200     2.4460
  236.0000     8.3200    95.2100     0.0170   -16.8650   -64.2030     6.5500     8.2290     8.9010     2.4550
