~VERSION INFORMATION
 VERS.                2.0:   CWLS LOG ASCII STANDARD - VERSION 2.0
 WRAP.                 NO:   ONE LINE PER DEPTH STEP
~WELL INFORMATION
#MNEM.UNIT      DATA TYPE    INFORMATION
#----------   ------------   ------------------------------
 STRT.F           58.0000:   START DEPTH
 STOP.F         5662.0000:   STOP DEPTH
 STEP.F            0.5000:   STEP LENGTH
 NULL.          -999.2500:   NO VALUE
 COMP. DEPARTMENT OF ENERGY:   COMPANY
 WELL. DEPARTMENT NPR 3 67 "X" #1-10:   WELL
 FLD .              NPR 3:   FIELD
 LOC .      S10 T38N R78W:   LOCATION
 CNTY.            NATRONA:   COUNTY
 STAT.            WYOMING:   STATE
 CTRY. UNITED STATES OF AMERICA:   COUNTRY
 SRVC.       SCHLUMBERGER:   SERVICE COMPANY
 DATE.        05-FEB-2002:   LOGDATE
 API .     49025230400000:   API NUMBER
~CURVE INFORMATION
#MNEM.UNIT       API CODE    CURVE DESCRIPTION
#----------   ------------   ------------------------------
 DEPT.F                  :   
 TEND.LBS    45 635 01 00:   TENSION FROM DENSITY LOG
 PEFZ.B/E    45 358 01 00:   HILT PHOTOELECTRIC FACTOR
 HDRA.G/C3   45 356 01 00:   DELTA RHO HIP TOOL
 NPHI.DEC    42 890 03 00:   NEUTRON POROSITY SANDSTONE
 TENS.LBS    60 635 01 00:   TENSION
 DT  .US/F   60 520 00 00:   DELTA TIME
 TENR.LBS    07 635 01 00:   TENSION FROM RESISTIVITY
 CALR.IN     07 280 01 00:   CALIPER FROM RESISTIVITY
 GRR .GAPI   07 310 01 00:   GAMMA RAY FROM RESISTIVITY
 RXOZ.OHMM   11 270 04 00:   STD. RES. INVADED ZONE RESISTIVITY
 HLLD.OHMM   11 220 10 00:   LATEROLOG DEEP RES.
 HLLS.OHMM   11 220 09 00:   LATEROLOG SHALLOW RES.
 HRLD.OHMM   11 120 46 00:   HIGH RESOULATION DEEP RESISTIVITY
 RHOZ.G/C3   45 350 01 00:   HILT BULK DENSITY
~PARAMETER INFORMATION
#MNEM.UNIT          VALUE    DESCRIPTION
#----------   ------------   ------------------------------
 EKB .F         5205.7000:   Kelly bushing
 EGL .F         5195.7000:   Ground level
 EDF .F            0.0000:   Drilling floor
 EPD .F         5195.7000:   Permanent datum
 TD  .F         5654.0000:   Total depth
 DATE.        05-FEB-2002:   Date logged
 CLNT.            A2DTECH:   Client Code
 SL  . 1503' FEL & 721' FSL:   Surface Location
 PD  .                 GL:   Permanent Datum
 DAPD.F                10:   Feet Above Permanent Datum
 DD  .F              5650:   Depth driller
 DL  .F              5654:   Depth logger
 BLI .F              5646:   Bottom log interval
 TLI .F               499:   Top log interval
 CS1 .IN            9.625:   Casing size
 CBD1.      9.625" @ 505':   Casing driller 1
 CBL1.F               499:   Casing logger 1
 BS1 .IN            8.875:   Bit size
 BSD1.F              5650:   Depth drilled with bit1
 DFT .           GEL/CHEM:   Type fluid in hole
 DFD .                9.2:   Density
 DFV .                 52:   Viscosity
 DFPH.                8.5:   pH
 DFL .                6.8:   Fluid loss
 MSS .           FLOWLINE:   Source of sample
 RMS .OHMM           .954:   Rm
 MST .F                57:   Rm Meas. temp.
 RMF .OHMM           .734:   Rmf
 MFST.F                57:   Rmf Meas. temp.
 MFSS.              PRESS:   Source Rmf.
 RMB .OHMM           .403:   Rm. at BHT
 BHT .F               143:   BHT.
 TLAB.HRS            1208:   Time logger at bottom
 MRT .F               143:   Maximum recorded temp.
 LUN .               2211:   Logging unit number
 LUL .             CASPER:   Logging unit location
 ENGI.           R. SROUR:   Recorded By
 WITN.        M. MILLIKEN:   Witnessed by
 ORIG.           5" PRINT:   Origin of data
 UWI .     49025230400000:   Unique Well ID
 DICO. A2D TECHNOLOGIES, INC.:   Digitizing Company
 RMC .               1.24:   Rmc
 MCST.                 57:   Rmc Meas. temp.
 MCSS.              PRESS:   Source Rmc.
 TCS .                200:   Time Circ. stopped
~OTHER INFORMATION
~A   DEPT     TEND       PEFZ       HDRA       NPHI       TENS         DT       TENR       CALR         GRR      RXOZ       HLLD       HLLS       HRLD       RHOZ   
# ...
 3561.5000  2039.8010     3.9270     0.0760     0.3350  1510.0880   111.1940  2115.1941     9.1840   148.2370     3.5130     3.9620     5.5460     3.7810     2.4670
 3562.0000  2039.8010     3.8940     0.0630     0.3070  1510.3409   111.8910  2115.1941     9.1460   140.7460     3.9900     5.1280     5.9070     4.5830     2.5070
 3562.5000  2039.5820     3.7850     0.0460     0.2770  1510.5930   104.1080  2115.1941     9.1080   140.1510     6.4930     6.6130     7.7960     6.6130     2.5420
 3563.0000  2039.1860     3.6660     0.0290     0.2910  1510.8459    91.9290  2074.6770     9.0700   144.1360     6.4930     7.0890     7.6180     6.8590     2.5160
 3563.5000  2038.7910     3.4900     0.0160     0.3060  1511.0980    79.3060  2046.4500     9.0790   149.7910     5.7150     7.1800     7.1130     6.4970     2.4870
 3564.0000  2038.3950     3.3520     0.0110     0.3140  1511.3500    74.8760  2042.9000     9.0990   151.8100     5.0260     5.4570     5.9290     5.2130     2.4570
 3564.5000  2038.0000     3.3310     0.0090     0.3090  1511.6030    75.8320  2096.7410     9.1000   150.1830     5.0880     5.4080     5.4570     5.2830     2.4510
 3565.0000  2037.6040     3.3460     0.0100     0.2990  1511.8550    77.8610  2154.9160     9.0880   147.2330     5.2060     5.8210     5.9470     5.3780     2.4710
 3565.5000  2037.2080     3.4640     0.0180     0.2980  1512.1080    89.1040  2174.7771     9.0890   146.2260     5.3240     6.2030     6.2030     5.4730     2.4950
 3566.0000  2036.8130     3.5830     0.0270     0.2990  1512.3600   101.6780  2117.3960     9.0890   147.0540     5.4080     5.6140     5.8990     5.5450     2.5070
 3566.5000  2036.4170     3.5600     0.0240     0.2960  1512.6121   109.9000  2054.5820     9.0920   146.8180     5.0010     5.0720     5.7260     4.9350     2.5160
 3567.0000  2036.0210     3.4890     0.0190     0.2890  1512.8650   109.8010  2073.4490     9.0960   146.5070     4.8460     4.9920     5.5970     5.0130     2.5120
 3567.5000  2035.6260     3.4130     0.0130     0.2830  1513.1169   103.7740  2127.2910     9.1000   149.8890     5.0050     5.5060     5.5070     5.1700     2.5000
 3568.0000  2035.2300     3.3940     0.0070     0.2800  1513.3700    95.0520  2145.7610     9.1030   159.7660     5.2340     5.9260     6.0350     5.3260     2.4660
 3568.5000  2034.8350     3.3920     0.0200     0.2990  1513.6219    86.8910  2126.9590     9.1070   169.2240     5.3100     5.5440     5.7180     5.4080     2.4200
 3569.0000  2034.4390     3.3940     0.0360     0.3260  1513.8740    87.3170  2108.1570     9.1510   171.5650     3.4940     4.5720     5.1310     4.4490     2.3910
 3569.5000  2034.0430     3.3830     0.0400     0.3680  1514.1270    88.5280  2089.3550     9.2390   167.2630     2.9570     3.5050     3.3000     3.3550     2.3580
 3570.0000  2033.6479     3.3220     0.0380     0.3890  1514.3790    89.8080  2078.6990     9.1660   159.0730     1.8030     2.3530     3.6540     2.1130     2.2780
 3570.5000  2033.2520     3.3030     0.0320     0.3840  1514.6320    91.0880  2091.0381     9.1700   146.4030     2.1080     3.7510     4.2240     2.9030     2.2520
 3571.0000  2032.8571     3.3050     0.0500     0.3720  1514.8840    91.8650  2103.3760     9.1740   135.9190     1.8720     2.3100     2.5310     2.1470     2.3250
 3571.5000  2032.4611     3.3500     0.0830     0.3590  1515.1360    91.8210  2115.1941     9.1620   125.7110     2.6980     3.3690     3.7640     2.8670     2.4040
 3572.0000  2032.0649     3.2780     0.0780     0.3370  1515.3890    92.0080  2098.0471     9.1900   120.2750     2.6250     4.1860     4.5870     3.4230     2.4390
 3572.5000  2031.6700     3.2040     0.0690     0.2920  1515.6410    92.8450  2095.3330     9.2190   119.9940     3.0890     4.2960     4.6080     3.8970     2.4730
 3573.0000  2031.2740     3.1320     0.0650     0.2750  1515.8940    94.4260  2095.3330     9.2470   122.0680     3.6380     4.4030     4.6290     4.0740     2.5110
 3573.5000  2030.8781     3.0730     0.0700     0.2650  1516.1460    96.4040  2095.3330     9.2700   125.7020     4.0730     4.5750     4.8520     4.2520     2.5040
 3574.0000  2030.4830     3.0750     0.0890     0.2780  1516.3979    97.8610  2095.3330     9.2690   129.3060     4.1100     4.7580     5.0260     4.4630     2.4900
 3574.5000  2030.0870     3.0730     0.1100     0.3340  1516.6510    97.2060  2095.3330     9.3090   132.6580     3.0040     3.4380     3.9790     3.7530     2.4760
 3575.0000  2029.6920     3.0250     0.0960     0.3200  1516.9030    95.1740  2115.1941     9.7160   132.9740     2.6250     2.3960     3.1240     2.7990     2.5020
 3575.5000  2029.2960     2.9750     0.0670     0.2810  1517.1560    92.7010  2097.2471     9.9810   128.9360     2.9310     3.4740     3.6570     3.0120     2.5290
 3576.0000  2028.9000     2.9610     0.0300     0.2660  1517.4080    90.5760  2079.2991     9.3290   122.3880     3.8260     5.1200     8.2360     4.2580     2.5310
 3576.5000  2028.5050     2.9940     0.0450     0.2520  1517.6600    89.4120  2096.6509     9.2560   115.7820     5.5070     6.7970     8.0870     6.0900     2.5340
 3577.0000  2028.1090     3.0090     0.0660     0.2940  1517.9130    89.2040  2123.5710     9.2790   114.1320     4.3550     6.9220     7.5160     5.3400     2.5440
 3577.5000  2027.7130     2.9900     0.0760     0.2920  1518.1650    89.4450  2126.9680     9.3070   116.1720     3.4600     4.7050     3.8910     3.4860     2.5500
 3578.0000  2027.3180     2.9690     0.0650     0.2770  1518.4180    89.9170  2112.8669     9.3370   118.3080     3.1240     3.8790     4.0500     3.6020     2.5210
 3578.5000  2026.9220     2.9320     0.0300     0.2670  1518.6700    90.4570  2098.7661     9.3560   120.3650     3.3920     4.1860     4.3420     3.8550     2.4400
 3579.0000  2026.5270     2.8940     0.0190     0.2890  1518.9220    90.5970  2101.0769     9.3960   121.3810     2.1270     3.2470     3.8150     2.1870     2.3600
 3579.5000  2026.1310     2.8570     0.0010     0.3190  1519.1750    89.5980  2108.6699     9.4360   120.1680     2.1080     2.4630     2.8250     2.2280     2.3070
 3580.0000  2025.7350     2.8680     0.0100     0.3400  1519.4270    88.2660  2115.1941     9.4730   119.0410     2.0320     4.2390     2.6980     2.7530     2.3400
 3580.5000  2025.3400     2.8830     0.0160     0.3050  1519.6801    87.0150  2095.3330     9.4940   122.6380     3.4350     7.7250     5.8610     4.4940     2.3600
 3581.0000  2024.9440     2.9340     0.0300     0.3790  1519.9320    87.0150  2131.8770     9.5210   136.6520     3.4540     6.0540     8.7810     5.4080     2.2520
 3581.5000  2024.5480     3.2300     0.0520     0.4750  1520.1840    88.7140  2107.2000     9.6630   146.1030     1.6170     2.2680     2.4400     2.7720     2.1090
 3582.0000  2024.1530     3.5270     0.0820     0.5540  1520.4370    91.5010  2082.5220    10.1320   147.4990     1.3450     2.3730     2.4180     1.9060     1.9740
 3582.5000  2023.7570     3.8240     0.1210     0.5510  1520.6890    94.0800  2061.7681    11.3790   127.2570     1.0230     2.5190     2.6980     2.2890     1.8950
 3583.0000  2023.3621     4.0750     0.1390     0.5450  1520.9420    94.0800  2081.5090    13.6970   108.6650     0.8220     2.6500     3.0390     2.4630     1.8160
 3583.5000  2022.9659     4.2820     0.1270     0.5120  1521.1940    92.6800  2093.4829    15.1150    95.3350     0.6910     2.6250     2.8250     2.3100     1.7610
 3584.0000  2022.5699     4.4320     0.1500     0.4320  1521.4470    90.2830  2087.3140    15.2460    92.1590     0.6780     2.8530     3.4390     2.4180     2.0010
 3584.5000  2022.1750     4.3320     0.1960     0.3290  1521.6990    87.8870  2081.1440    15.2310    98.3850     1.3400     4.5200     5.3540     3.6700     2.3860
 3585.0000  2021.7791     4.2040     0.2100     0.2550  1521.9510    86.8610  2075.4719     9.9750   109.1050     2.1270     6.9860     7.1150     6.4340     2.4940
 3585.5000  2021.3831     4.0780     0.2060     0.2690  1522.2040    86.3180  2097.1699    10.1750   117.6950     4.0350     6.2350     7.1150     6.0480     2.4130
