~VERSION INFORMATION
 VERS.                2.0:   CWLS LOG ASCII STANDARD - VERSION 2.0
 WRAP.                 NO:   ONE LINE PER DEPTH STEP
~WELL INFORMATION
#MNEM.UNIT      DATA TYPE    INFORMATION
#----------   ------------   ------------------------------
 STRT.F          204.5000:   START DEPTH
 STOP.F         2964.0000:   STOP DEPTH
 STEP.F            0.5000:   STEP LENGTH
 NULL.          -999.2500:   NO VALUE
 COMP.    FENIX & SCISSON:   COMPANY
 WELL. FENIX NPR 3 "AX" #14-28:   WELL
 FLD .  TEAPOT DOME NPR-3:   FIELD
 LOC .      S28 T39N R78W:   LOCATION
 CNTY.            NATRONA:   COUNTY
 STAT.            WYOMING:   STATE
 CTRY. UNITED STATES OF AMERICA:   COUNTRY
 SRVC.           BIRDWELL:   SERVICE COMPANY
 DATE.        24-MAY-1978:   LOGDATE
 API .     49025106450000:   API NUMBER
~CURVE INFORMATION
#MNEM.UNIT       API CODE    CURVE DESCRIPTION
#----------   ------------   ------------------------------
 DEPT.F                  :   
 SPR .MV     05 010 01 00:   SPONTANEOUS POTENTIAL
 CORR.G/C3   45 356 01 00:   DENSITY CORRECTION
 DEN .G/C3   45 350 01 00:   DENSITY
 CALD.IN     45 280 60 00:   CALIPER FROM DENSITY LOG
 GRD .GAPI   45 310 01 00:   GAMMA RAY FROM DENSITY LOG
 SN  .OHMM   05 040 16 00:   SHORT NORMAL 16"
 ILD .OHMM   05 120 46 00:   DEEP INDUCTION RESISTIVITY
~PARAMETER INFORMATION
#MNEM.UNIT          VALUE    DESCRIPTION
#----------   ------------   ------------------------------
 EKB .F         5042.0000:   Kelly bushing
 EGL .F         5032.0000:   Ground level
 EDF .F            0.0000:   Drilling floor
 TD  .F         2957.0000:   Total depth
 DATE.        24-MAY-1978:   Date logged
 CLNT.            A2DTECH:   Client Code
 SL  . 2410' FNL & 280' FWL:   Surface Location
 PD  .                 GL:   Permanent Datum
 EPD .F              5032:   Elevation Permanent Datum
 LMF .                 KB:   Log Measured From
 DMF .                 KB:   Drilling Measured From
 DAPD.F                10:   Feet Above Permanent Datum
 DD  .F              2950:   Depth driller
 DL  .F              2957:   Depth logger
 BLI .F              2951:   Bottom log interval
 TLI .F               225:   Top log interval
 CS1 .IN            8.625:   Casing size
 CBL1.F               225:   Casing logger 1
 BS1 .IN            7.875:   Bit size
 BSD1.F              2950:   Depth drilled with bit1
 DFT .       CHEMICAL GEL:   Type fluid in hole
 DFD .                  9:   Density
 DFV .                 34:   Viscosity
 DFPH.               10.5:   pH
 DFL .                  6:   Fluid loss
 MSS .           FLOWLINE:   Source of sample
 RMS .OHMM            1.5:   Rm
 MST .F                70:   Rm Meas. temp.
 RMF .OHMM            1.1:   Rmf
 MFST.F                78:   Rmf Meas. temp.
 RMC .OHMM            2.8:   Rmc
 MCST.F                72:   Rmc Meas. temp.
 MFSS.               MEAS:   Source Rmf.
 RMB .OHMM           0.95:   Rm. at BHT
 BHT .F               110:   BHT.
 TCS .HRS               2:   Time Circ. stopped
 MRT .F               110:   Maximum recorded temp.
 LUN .               2958:   Logging unit number
 LUL .               CASP:   Logging unit location
 ENGI.             MILLER:   Recorded By
 WITN.            RHOADES:   Witnessed by
 ORIG.           5" PRINT:   Origin of data
 UWI .     49025106450000:   Unique Well ID
 DICO. A2D TECHNOLOGIES, INC.:   Digitizing Company
~OTHER INFORMATION
~A   DEPT      SPR       CORR        DEN       CALD         GRD        SN        ILD   
# ...
  568.5000    -8.6000     0.1080     2.4950     8.8220   109.9280     8.1970     8.7820
  569.0000    -8.6000     0.1090     2.4960     8.8230   108.6150     8.0830     8.6990
  569.5000    -8.6000     0.1070     2.4970     8.8240   106.8870     7.9700     8.6150
  570.0000    -8.6000     0.1050     2.4980     8.8260   108.1020     7.8560     8.5310
  570.5000    -8.6000     0.1020     2.4990     8.8270   111.5800     7.7420     8.4480
  571.0000    -8.6000     0.1000     2.4990     8.8280   112.1790     7.6640     8.3640
  571.5000    -8.6000     0.0980     2.4990     8.8300   110.9270     7.6190     8.2800
  572.0000    -8.6000     0.0990     2.4990     8.8310   110.2370     7.5730     8.1960
  572.5000    -8.6000     0.1000     2.4990     8.8330   109.4670     7.5270     8.1130
  573.0000    -8.6000     0.1010     2.4990     8.8340   110.0980     7.4810     8.0290
  573.5000    -8.6000     0.1040     2.4990     8.8350   111.6970     7.4360     7.9450
  574.0000    -8.6000     0.1070     2.4990     8.8370   115.4260     7.3900     7.8610
  574.5000    -8.6000     0.1110     2.4960     8.8380   115.6440     7.3440     7.7780
  575.0000    -8.6000     0.1140     2.4930     8.8390   116.0620     7.2980     7.6940
  575.5000    -8.6000     0.1160     2.4860     8.8410   116.2350     7.2520     7.6100
  576.0000    -8.6000     0.1200     2.4790     8.8420   116.4640     7.2070     7.5260
  576.5000    -8.6000     0.1260     2.4770     8.8430   116.9780     7.1610     7.4430
  577.0000    -8.6000     0.1330     2.4750     8.8450   115.9710     7.0780     7.3650
  577.5000    -8.6000     0.1390     2.4750     8.8460   113.8280     6.9720     7.2920
  578.0000    -8.6000     0.1440     2.4690     8.8470   111.7870     6.8670     7.2180
  578.5000    -8.6000     0.1510     2.4630     8.8490   109.7820     6.7610     7.1440
  579.0000    -8.6000     0.1560     2.4570     8.8500   108.3270     6.6560     7.0710
  579.5000    -8.6000     0.1590     2.4510     8.8510   108.6290     6.5510     6.9970
  580.0000    -8.6000     0.1630     2.4410     8.8510   111.2320     6.5160     6.9240
  580.5000    -8.6000     0.1760     2.4300     8.8510   115.9020     6.5160     6.8810
  581.0000    -8.6000     0.1840     2.4220     8.8510   117.4360     6.5160     6.8720
  581.5000    -8.6000     0.1860     2.4210     8.8510   117.0970     6.5160     6.8640
  582.0000    -8.6000     0.1890     2.4280     8.8510   119.7340     6.5160     6.8560
  582.5000    -8.6000     0.1930     2.4350     8.8510   122.2150     6.5160     6.8470
  583.0000    -8.6000     0.1920     2.4430     8.8510   124.0520     6.5160     6.8390
  583.5000    -8.6000     0.1860     2.4490     8.8510   120.9850     6.5160     6.8300
  584.0000    -8.6000     0.1800     2.4430     8.8510   118.6060     6.5160     6.8220
  584.5000    -8.6000     0.1740     2.4330     8.8510   116.0300     6.5160     6.8130
  585.0000    -8.6000     0.1740     2.4230     8.8510   116.6340     6.5160     6.8050
  585.5000    -8.6000     0.1760     2.4140     8.8510   115.6660     6.5150     6.7960
  586.0000    -8.6000     0.1820     2.4070     8.8510   114.4940     6.5140     6.7870
  586.5000    -8.6000     0.1870     2.4090     8.8510   113.0690     6.5190     6.7780
  587.0000    -8.6000     0.1930     2.4120     8.8530   112.7340     6.4640     6.7690
  587.5000    -8.6000     0.1990     2.4140     8.8540   113.1390     6.3280     6.7590
  588.0000    -8.6000     0.2020     2.4170     8.8560   114.9240     6.1930     6.6450
  588.5000    -8.6000     0.2000     2.4200     8.8570   116.8920     6.0570     6.5030
  589.0000    -8.6000     0.2000     2.4180     8.8590   118.7290     5.9220     6.3600
  589.5000    -8.6000     0.1980     2.4120     8.8600   120.4390     5.7860     6.2170
  590.0000    -8.6000     0.2010     2.4070     8.8620   118.5040     5.6510     6.0740
  590.5000    -8.6000     0.2070     2.3980     8.8630   115.4390     5.5150     5.9310
  591.0000    -8.6000     0.2120     2.3880     8.8650   116.3790     5.3800     5.7870
  591.5000    -8.6000     0.2220     2.3780     8.8660   119.7730     5.2260     5.6250
  592.0000    -8.6000     0.2330     2.3680     8.8680   120.0220     5.1920     5.5530
  592.5000    -8.6000     0.2450     2.3580     8.8690   118.5000     5.1520     5.4700
  593.0000    -8.6000     0.2510     2.3480     8.8710   117.5530     5.1130     5.3870
  593.5000    -8.6000     0.2510     2.3370     8.8720   118.7290     5.0730     5.3040
  594.0000    -8.6000     0.2520     2.3270     8.8740   119.7450     5.0380     5.2210
  594.5000    -8.6000     0.2520     2.3120     8.8750   121.0860     4.9100     5.1380
  595.0000    -8.6000     0.2530     2.2940     8.8770   120.4420     4.7940     5.0540
  595.5000    -8.6000     0.2530     2.2760     8.8780   120.0130     4.6780     4.9710
  596.0000    -8.6000     0.2580     2.2580     8.8800   120.3720     4.5630     4.8880
  596.5000    -8.6000     0.2670     2.2370     8.8810   121.6220     4.4470     4.7670
  597.0000    -8.6000     0.2680     2.2120     8.8820   120.9770     4.3490     4.7890
  597.5000    -8.6000     0.2690     2.1860     8.8840   119.1320     4.4070     4.8290
  598.0000    -8.6000     0.2780     2.1610     8.8860   119.4150     4.4580     4.8690
  598.5000    -8.6000     0.2870     2.1380     8.8860   120.6870     4.5090     4.9090
  599.0000    -8.6000     0.2860     2.1440     8.8900   116.2070     4.5610     4.9500
  599.5000    -8.6000     0.2780     2.1500     8.8890   112.1500     4.6120     4.9900
  600.0000    -8.6000     0.2700     2.1560     8.8860   108.3310     4.6630     5.0380
  600.5000    -8.6000     0.2620     2.1390     8.8210   110.4990     4.7140     5.0540
  601.0000    -8.6000     0.2540     2.1260     8.7590   115.0210     4.7650     5.0750
  601.5000    -8.6000     0.2510     2.1110     8.7480   115.4810     4.8160     5.0950
  602.0000    -8.6000     0.2540     2.0840     8.8030   116.3070     4.8620     5.1160
  602.5000    -8.6000     0.2570     2.0490     8.8460   117.4990     4.8900     5.1370
  603.0000    -8.6000     0.2580     2.0460     8.8040   119.3610     4.9190     5.1570
  603.5000    -8.6000     0.2630     2.0420     8.7630   119.4770     4.9480     5.1780
  604.0000    -8.6000     0.2800     1.9950     8.7300   118.9870     4.9760     5.1980
  604.5000    -8.6000     0.2520     2.0310     8.7340   116.8300     5.0050     5.2190
  605.0000    -8.6000     0.2530     2.0220     8.7360   114.9130     5.0380     5.2300
  605.5000    -8.6000     0.2530     1.9750     8.7390   113.3310     5.0380     5.2360
  606.0000    -8.6000     0.2540     1.9550     8.7420   116.2070     5.0370     5.2410
  606.5000    -8.6000     0.3020     1.9520     8.7450   118.8450     5.0380     5.2470
  607.0000    -8.6000     0.3240     1.9880     8.7480   118.5390     5.0380     5.2530
  607.5000    -8.6000     0.2960     2.1380     8.7500   116.8640     5.0380     5.2580
  608.0000    -8.6000     0.2720     2.1260     8.7530   114.5590     5.0380     5.2640
  608.5000    -8.6000     0.2700     2.1150     8.7560   115.9040     5.0380     5.2700
  609.0000    -8.6000     0.2930     2.1230     8.7590   119.9060     5.0380     5.2760
  609.5000    -8.6000     0.2960     2.1370     8.7620   123.3630     5.0380     5.2810
  610.0000    -8.6000     0.2790     2.1750     8.7640   126.4600     5.0380     5.2870
  610.5000    -8.6000     0.2670     2.2080     8.7670   125.0810     5.0450     5.2930
  611.0000    -8.6000     0.2660     2.1860     8.7700   123.1530     5.0530     5.2990
  611.5000    -8.6000     0.2660     2.1720     8.7700   120.9800     5.0620     5.3040
  612.0000    -8.6000     0.2750     2.1560     8.7700   119.6790     5.0700     5.3100
  612.5000    -8.6000     0.2830     2.1400     8.7700   119.5020     5.0780     5.3160
  613.0000    -8.6000     0.2870     2.1280     8.7700   119.1840     5.0870     5.3210
  613.5000    -8.6000     0.2870     2.1170     8.7700   118.8870     5.0950     5.3270
