~VERSION INFORMATION
 VERS.                2.0:   CWLS LOG ASCII STANDARD - VERSION 2.0
 WRAP.                 NO:   ONE LINE PER DEPTH STEP
~WELL INFORMATION
#MNEM.UNIT      DATA TYPE    INFORMATION
#----------   ------------   ------------------------------
 STRT.F            1.5000:   START DEPTH
 STOP.F          985.0000:   STOP DEPTH
 STEP.F            0.5000:   STEP LENGTH
 NULL.          -999.2500:   NO VALUE
 COMP.       FLUOR DANIEL:   COMPANY
 WELL.  FLUOR 41 "X" #1-2:   WELL
 FLD .          N.P.R. #3:   FIELD
 LOC .       S2 T38N R78W:   LOCATION
 CNTY.            NATRONA:   COUNTY
 STAT.            WYOMING:   STATE
 CTRY. UNITED STATES OF AMERICA:   COUNTRY
 SRVC.     ATLAS WIRELINE:   SERVICE COMPANY
 DATE.        09-AUG-1994:   LOGDATE
 API .     49025226450000:   API NUMBER
~CURVE INFORMATION
#MNEM.UNIT       API CODE    CURVE DESCRIPTION
#----------   ------------   ------------------------------
 DEPT.F                  :   
 GRR .GAPI   07 310 01 00:   GAMMA RAY FROM RESISTIVITY
 TENR.LBS    07 635 01 00:   TENSION FROM RESISTIVITY
 RILD.OHMM   07 120 46 00:   INDUCTION LOG DEEP RESISTIVITY
 RILM.OHMM   07 120 44 00:   INDUCTION LOG MEDIUM RESISTIVITY
~PARAMETER INFORMATION
#MNEM.UNIT          VALUE    DESCRIPTION
#----------   ------------   ------------------------------
 EKB .F         5143.0000:   Kelly bushing
 EGL .F         5133.0000:   Ground level
 EDF .F         5142.0000:   Drilling floor
 TD  .F          970.0000:   Total depth
 CLNT.            A2DTECH:   Client Code
 PD  .                 GL:   Permanent Datum
 EPD .F              5133:   Elevation Permanent Datum
 LMF .                 KB:   Log Measured From
 DMF .                 KB:   Drilling Measured From
 DAPD.F                10:   Feet Above Permanent Datum
 DATE.        09-AUG-1994:   Date Logged [DD-MMM-YYYY]
 DD  .F               970:   Depth driller
 DL  .F               970:   Depth logger
 BLI .F               962:   Bottom log interval
 TLI .F                 0:   Top log interval
 CS1 .IN            9.625:   Casing size
 CBD1.       9.625" @ 56':   Casing driller 1
 CBL1.F                59:   Casing logger 1
 BS1 .IN             8.75:   Bit size
 BSD1.F               970:   Depth drilled with bit1
 DFT .                AIR:   Type fluid in hole
 MRT .F                94:   Maximum recorded temp.
 LUN .            HL 6530:   Logging unit number
 LUL .             CASPER:   Logging unit location
 ENGI.      PAT RASMUSSEN:   Recorded By
 WITN.        GARY STRONG:   Witnessed by
 ORIG.           5" PRINT:   Origin of data
 UWI .     49025226450000:   Unique Well ID
 DICO. A2D TECHNOLOGIES, INC.:   Digitizing Company
 SL  . 173' FNL & 2204' FWL:   Surface Location
~OTHER INFORMATION
~A    DEPT      GRR      TENR       RILD       RILM   
# ...
  220.5000   113.7997   -37.3945     5.4643     5.4470
  221.0000   117.0686   -37.1750     5.3131     5.2517
  221.5000   114.0226   -36.9555     5.1660     5.1118
  222.0000   107.9440   -36.7360     5.0935     5.1100
  222.5000   107.3281   -36.5165     5.1281     5.1440
  223.0000   107.9284   -36.2952     5.2002     5.2145
  223.5000   106.7034   -40.3991     5.3132     5.3229
  224.0000   103.6596   -43.3881     5.4563     5.4716
  224.5000   100.9193   -43.1138     5.5704     5.5466
  225.0000   101.2140   -46.6867     5.6869     5.6619
  225.5000   102.7547   -50.2597     5.8464     5.7439
  226.0000   103.9254   -49.9854     5.9276     5.8588
  226.5000   106.6480   -49.7659     5.9261     5.9390
  227.0000   109.6740   -49.5464     5.9249     5.9785
  227.5000   113.0035   -49.3223     5.9236     6.0183
  228.0000   114.2108   -49.0525     5.9222     5.9325
  228.5000   112.0753   -41.3029     5.9210     5.9305
  229.0000   112.6734   -41.0834     5.9198     5.9285
  229.5000   117.5204   -40.8639     5.9074     5.8853
  230.0000   121.4770   -48.2294     5.8763     5.8423
  230.5000   120.6829   -47.9550     5.8751     5.7993
  231.0000   117.4916   -47.7355     5.7524     5.7171
  231.5000   116.5722   -55.0461     5.7106     5.6755
  232.0000   116.5634   -54.8193     5.5920     5.6341
  232.5000   116.8602   -54.5522     5.5518     5.5931
  233.0000   117.4561   -54.3327     5.5895     5.5912
  233.5000   117.7507   -54.1132     5.6277     5.6284
  234.0000   118.6525   -53.8937     5.7052     5.6265
  234.5000   117.4051   -46.1441     5.7040     5.6305
  235.0000   114.9924   -45.9246     5.7428     5.6620
  235.5000   115.8921   -45.7051     5.7817     5.6596
  236.0000   116.7959   -53.0157     5.7404     5.7371
  236.5000   114.6604   -60.3263     5.7794     5.8162
  237.0000   114.0445   -67.6369     5.9002     5.8549
  237.5000   114.6427   -52.3023     6.0236     5.9761
  238.0000   115.2408   -44.5527     6.1923     6.1004
  238.5000   116.1424   -44.3332     6.4105     6.4087
  239.0000   117.3475   -44.1137     6.6828     6.8800
  239.5000   117.9456   -51.4307     6.8703     7.0551
  240.0000   117.3275   -51.2048     6.9169     7.0521
  240.5000   117.3202   -50.9789     6.9695     7.0497
  241.0000   117.6140   -50.7109     7.0111     7.0474
  241.5000   117.9090   -50.4914     6.9606     7.0450
  242.0000   119.7207   -50.2719     6.8153     6.8968
  242.5000   124.2843   -50.0524     6.6266     6.7517
  243.0000   126.0763   -49.8329     6.4432     6.5146
  243.5000   123.0303   -49.6134     6.3087     6.2922
  244.0000   119.9865   -49.3939     6.1769     6.1599
  244.5000   116.9427   -41.6416     6.0902     6.0725
  245.0000   116.0234   -41.4157     6.0466     6.0705
  245.5000   117.5320   -41.1504     6.0877     6.1109
  246.0000   118.1323   -40.9309     6.1716     6.1516
  246.5000   117.2107   -48.2964     6.2569     6.3234
  247.0000   117.5215   -48.0220     6.3878     6.4549
  247.5000   122.2104   -47.8025     6.5214     6.5936
  248.0000   130.8390   -47.5830     6.7043     6.7725
  248.5000   129.9196   -47.3635     6.9405     6.9617
  249.0000   129.3038   -47.1386     7.1402     7.2062
  249.5000   129.2949   -46.8697     7.3863     7.4075
  250.0000   128.9826   -46.6502     7.7000     7.6444
  250.5000   128.0632   -61.4546     7.9159     7.8253
  251.0000   124.4125   -61.0890     7.9691     7.9924
  251.5000   118.9327   -60.7966     8.1352     8.0467
  252.0000   117.7178   -52.9740     8.0199     8.1580
  252.5000   117.4057   -52.6816     7.8519     7.9316
  253.0000   121.6436   -52.3892     7.6312     7.7641
  253.5000   127.0975   -44.5666     7.4132     7.5350
  254.0000   131.6411   -44.2742     7.0666     7.1199
  254.5000   132.2414   -52.1091     6.8228     6.8933
  255.0000   130.4094   -66.2797     6.6799     6.7492
  255.5000   122.5098   -65.9141     6.6317     6.7010
  256.0000   120.6801   -50.5615     6.6767     6.7468
  256.5000   126.4353   -35.2088     6.7681     6.8399
  257.0000   128.2496   -34.9164     6.7663     6.8385
  257.5000   122.7758   -42.1541     6.7644     6.8370
  258.0000   116.0901   -41.8616     6.7623     6.8353
  258.5000   113.9569   -49.0993     6.8082     6.8339
  259.0000   113.6445   -41.2651     6.8059     6.8326
  259.5000   115.4566   -40.9112     6.8995     6.8312
  260.0000   119.5548   -40.6188     6.8976     6.8298
  260.5000   126.6659   -32.7962     6.8475     6.8765
  261.0000   127.5697   -17.4436     6.4745     6.5018
  261.5000   127.8644    -2.0909     6.1647     6.2334
  262.0000   128.4603     5.7317     5.9936     6.0982
  262.5000   129.3619    -1.5060     5.9920     6.0178
  263.0000   131.7810   -16.2738     5.9488     6.0166
  263.5000   131.7722   -31.0416     5.9059     6.0154
  264.0000   131.4598   -38.2062     5.8633     6.0565
  264.5000   131.7545   -37.9138     5.8616     6.0129
  265.0000   133.2609   -37.6214     5.9419     6.0117
  265.5000   133.2521   -37.3289     5.9403     6.0105
  266.0000   129.6013   -37.0365     5.9387     6.0092
  266.5000   125.9506   -36.7441     5.9371     5.9660
  267.0000   125.9418   -35.8437     5.8943     5.9648
  267.5000   126.2364   -28.5560     5.8518     5.9221
  268.0000   126.8346   -28.2635     5.8502     5.9209
  268.5000   128.4400   -27.9711     5.8895     5.9197
  269.0000   129.5483   -35.2819     5.9291     5.9185
  269.5000   128.0198   -42.5196     5.9271     6.0004
  270.0000   127.7075   -42.1540     5.9255     5.9992
  270.5000   129.2161   -41.8616     5.8419     5.9563
  271.0000   134.6701   -41.5663     5.7998     5.8315
  271.5000   135.2686   -41.2651     5.6783     5.7097
  272.0000   134.0454   -40.9112     5.4824     5.5515
  272.5000   134.0567   -48.2220     5.3303     5.4355
  273.0000   136.7569   -55.4597     5.2183     5.2849
  273.5000   138.2677   -40.0339     5.1090     5.1385
  274.0000   137.0427   -32.2114     5.0369     5.0663
  274.5000   134.9095   -31.9189     5.0006     4.9951
  275.0000   133.6867   -39.1566     4.9300     4.9536
  275.5000   131.2499   -46.3943     4.8945     4.9237
  276.0000   128.8132   -38.4987     4.9274     4.9227
  276.5000   129.1158   -30.6761     4.9614     4.9908
  277.0000   131.2234   -30.3837     4.9989     5.0247
  277.5000   130.9088   -30.0912     5.0625     5.0591
  278.0000   129.3826   -37.4020     5.0608     5.0932
  278.5000   129.0702   -37.0365     5.0951     5.1278
  279.0000   130.5788   -36.7441     5.1294     5.1267
  279.5000   136.6398   -43.9817     5.1635     5.1255
  280.0000   140.5763   -43.6162     5.1982     5.1603
  280.5000   137.8361   -35.7937     5.2331     5.1956
  281.0000   131.2916   -35.5012     5.2683     5.2675
  281.5000   127.4975   -27.6787     5.3037     5.3401
  282.0000   128.0957   -34.9895     5.3763     5.4142
  282.5000   130.2135   -34.6239     5.4883     5.5660
  283.0000   128.9885   -41.8675     5.6027     5.6838
  283.5000   128.9796   -49.0993     5.7998     5.8136
  284.0000   128.9708   -48.7952     6.0038     6.0477
  284.5000   129.2656   -33.3811     6.2149     6.2178
  285.0000   131.4415   -25.5585     6.3474     6.3038
  285.5000   135.3154   -25.2661     6.4317     6.3907
  286.0000   135.6122   -25.0000     6.4749     6.4791
  286.5000   134.0837   -32.2114     6.4727     6.5232
  287.0000   132.2539   -31.9189     6.4710     6.5218
  287.5000   129.8172   -31.6265     6.4243     6.5167
  288.0000   126.1665   -31.3253     6.4226     6.3839
  288.5000   123.7297   -30.9685     6.3320     6.2942
  289.0000   124.3278   -38.2062     6.1540     6.2058
  289.5000   125.2295   -45.4439     5.8907     5.8679
  290.0000   126.1289   -45.1515     5.4654     5.5485
  290.5000   127.6375   -44.8590     5.2402     5.3573
  291.0000   130.3601   -37.0482     4.9894     5.1367
  291.5000   131.5674   -36.7441     4.7839     4.9586
  292.0000   131.5564   -43.9818     4.6188     4.6810
  292.5000   129.7266   -43.6162     4.4595     4.4342
  293.0000   125.1654   -43.3238     4.2461     4.3113
