~VERSION INFORMATION
 VERS.                2.0:   CWLS LOG ASCII STANDARD - VERSION 2.0
 WRAP.                 NO:   ONE LINE PER DEPTH STEP
~WELL INFORMATION
#MNEM.UNIT      DATA TYPE    INFORMATION
#----------   ------------   ------------------------------
 STRT.F           50.0000:   START DEPTH
 STOP.F         5698.0000:   STOP DEPTH
 STEP.F            0.5000:   STEP LENGTH
 NULL.          -999.2500:   NO VALUE
 COMP. LAWRENCE - ALLISON:   COMPANY
 WELL. LAWRENCE TPX #57-3:   WELL
 FLD .              NPR 3:   FIELD
 LOC .       S3 T38N R78W:   LOCATION
 CNTY.            NATRONA:   COUNTY
 STAT.            WYOMING:   STATE
 CTRY. UNITED STATES OF AMERICA:   COUNTRY
 SRVC.       SCHLUMBERGER:   SERVICE COMPANY
 DATE.        09-AUG-1982:   LOGDATE
 API .     49025108900000:   API NUMBER
~CURVE INFORMATION
#MNEM.UNIT       API CODE    CURVE DESCRIPTION
#----------   ------------   ------------------------------
 DEPT.F                  :   
 TEND.LBS    45 635 01 00:   TENSION FROM DENSITY LOG
 CALD.IN     45 280 60 00:   CALIPER FROM DENSITY LOG
 NPHI.DEC    42 890 03 00:   NEUTRON POROSITY SANDSTONE
 CORR.G/C3   45 356 01 00:   DENSITY CORRECTION
 RHOB.G/C3   45 350 01 00:   BULK DENSITY
 SPR .MV     11 010 01 00:   SPONTANEOUS POTENTIAL FROM RESISTIVITY
 TENR.LBS    11 635 01 00:   TENSION FROM RESISTIVITY
 GRR .GAPI   11 310 01 00:   GAMMA RAY FROM RESISTIVITY
 LLD .OHMM   11 220 10 00:   LATEROLOG DEEP
 LLS .OHMM   11 220 09 00:   LATEROLOG LOG SHALLOW
 MSFL.OHMM   11 270 04 00:   MICRO SPHERICALLY FOCUSED
~PARAMETER INFORMATION
#MNEM.UNIT          VALUE    DESCRIPTION
#----------   ------------   ------------------------------
 EKB .F         5190.0000:   Kelly bushing
 EGL .F         5180.0000:   Ground level
 EDF .F         5189.0000:   Drilling floor
 TD  .F         5686.0000:   Total depth
 CLNT.            A2DTECH:   Client Code
 SL  . 1002' FSL & 2479' FEL:   Surface Location
 PD  .                 GL:   Permanent Datum
 EPD .F              5180:   Elevation Permanent Datum
 LMF .                 KB:   Log Measured From
 DMF .                 KB:   Drilling Measured From
 DAPD.F                10:   Feet Above Permanent Datum
 DATE.        09-AUG-1982:   Date Logged [DD-MMM-YYYY]
 DD  .F              5685:   Depth driller
 DL  .F              5686:   Depth logger
 BLI .F              5683:   Bottom log interval
 TLI .F               494:   Top log interval
 CS1 .IN            9.625:   Casing size
 CBD1.      9.625" @ 500':   Casing driller 1
 CBL1.F               494:   Casing logger 1
 BS1 .IN             8.75:   Bit size
 BSD1.F              5685:   Depth drilled with bit1
 DFT .                KCL:   Type fluid in hole
 DFD .                9.0:   Density
 DFV .                 38:   Viscosity
 DFPH.                8.5:   pH
 DFL .                9.0:   Fluid loss
 MSS .            MUDTANK:   Source of sample
 RMS .OHMM           0.27:   Rm
 MST .F                79:   Rm Meas. temp.
 RMF .OHMM           0.27:   Rmf
 MFST.F                79:   Rmf Meas. temp.
 MFSS.               MEAS:   Source Rmf.
 RMB .OHMM            .13:   Rm. at BHT
 BHT .F               164:   BHT.
 TCS .HRS            1300:   Time Circ. stopped
 MRT .F               164:   Maximum recorded temp.
 LUN .               8035:   Logging unit number
 LUL .               CSPR:   Logging unit location
 ENGI.            PERAKIS:   Recorded By
 WITN.           L. FIVAS:   Witnessed by
 ORIG.        2" 5" PRINT:   Origin of data
 UWI .     49025108900000:   Unique Well ID
 DICO. A2D TECHNIOLOGIES,INC.:   Digitizing Company
 RMC .OHMM           0.41:   Rmc
 MCST.F                79:   Rmc Meas. temp.
 MCSS.               CALC:   Source Rmc.
 TLAB.HRS            2000:   Time logger at bottom
~OTHER INFORMATION
~A  DEPTH     TEND       CALD       NPHI       CORR       RHOB        SPR       TENR        GRR        LLD        LLS       MSFL
# ...
  812.5000   554.8665     9.9549     0.2807     0.0112     2.5056   -71.2904   586.6240    99.7790     8.6466     7.8266     8.4982
  813.0000   560.8552     9.9556     0.2853     0.0045     2.4967   -71.4675   586.1887    98.2994     8.5314     7.7736     8.9258
  813.5000   566.8439     9.9562     0.2835     0.0016     2.4937   -71.6590   585.7533    98.3257     8.5333     7.4656     9.2466
  814.0000   572.2892     9.9568     0.2724     0.0016     2.4990   -71.6530   570.3702    99.5569     8.4769     7.2661     8.9196
  814.5000   572.2892     9.9724     0.2696     0.0062     2.5095   -71.5905   569.9349   100.4868     8.4797     7.0718     8.2408
  815.0000   572.2892     9.9730     0.2756     0.0148     2.5185   -71.5264   569.4995   101.1156     8.4820     7.0255     8.0775
  815.5000   572.2892     9.9886     0.2864     0.0226     2.5290   -71.4603   569.0583   101.7443     8.4842     7.1754     8.0290
  816.0000   572.2892    10.0042     0.2918     0.0234     2.5342   -71.3926   568.6099   102.0723     8.4866     7.2777     7.9809
  816.5000   572.2892    10.0049     0.2880     0.0235     2.5253   -71.3242   568.0845   102.1048     8.4306     7.3814     7.9895
  817.0000   572.2892    10.0055     0.2776     0.0250     2.5132   -71.3003   567.6492   101.2275     8.4334     7.3844     7.9965
  817.5000   572.2892    10.0061     0.2743     0.0258     2.5075   -71.3002   567.2138    98.5430     8.4356     7.3880     8.0587
  818.0000   572.2892    10.0217     0.2743     0.0266     2.5009   -71.2998   581.7261    96.7621     8.4379     7.3909     8.0657
  818.5000   572.2892    10.0072     0.2791     0.0140     2.4793   -71.2791   581.2907    98.5957     8.4401     7.3939     8.0173
  819.0000   572.2892    10.0078     0.2848     0.0036     2.4719   -71.1899   580.8670   102.2365     8.3845     7.3455     8.0260
  819.5000   572.2892     9.9934     0.2881    -0.0031     2.4704   -71.1049   580.4186   104.9737     8.3293     7.2481     7.9761
  820.0000   572.2892     9.9789     0.2889    -0.0038     2.4787   -71.1771   579.9701   106.2048     8.2750     7.1527     7.7145
  820.5000   570.4551     9.9795     0.2868     0.0082     2.4893   -71.2631   579.4404   105.5943     8.2199     7.1555     7.5632
  821.0000   563.6680     9.9802     0.2826     0.0231     2.5004   -71.2998   579.0051   102.6496     8.2227     7.1585     7.5176
  821.5000   556.8809     9.9808     0.2868     0.0307     2.5064   -71.3002   578.5697    96.6519     8.2249     7.2114     7.5764
  822.0000   554.3539     9.9814     0.2925     0.0292     2.5109   -71.2736   563.1866    92.1601     8.2270     7.2640     7.6405
  822.5000   561.0867     9.9820     0.2948     0.0240     2.5139   -71.1237   562.7512    91.2763     8.2292     7.2669     7.6965
  823.0000   567.9686     9.9827     0.2888     0.0233     2.5170   -71.1002   562.3159    95.8273     8.2882     7.1706     7.6503
  823.5000   570.0427     9.9832     0.2828     0.0241     2.5192   -71.0964   561.8806    99.7693     8.2909     7.0755     7.6028
  824.0000   563.6797     9.9838     0.2807     0.0234     2.5154   -71.3040   576.3928   101.0201     8.2358     7.0298     7.4553
  824.5000   557.3168     9.9844     0.2812     0.0189     2.5074   -71.6043   575.8486    99.1899     8.1816     6.9845     7.3092
  825.0000   552.2089     9.9850     0.2812     0.0128     2.5008   -71.9569   575.4133    97.7399     8.0720     6.9874     7.1659
  825.5000   552.2089     9.9856     0.2809     0.0049     2.4889   -72.3248   574.9779    99.5800     8.0747     7.0390     7.1228
  826.0000   552.2089     9.9862     0.2833     0.0005     2.4755   -72.4973   574.5425   102.3172     8.0768     7.0903     7.1865
  826.5000   552.2089     9.9869     0.2869    -0.0010     2.4711   -72.4745   574.1071   102.0423     8.1347     7.1421     7.8594
  827.0000   552.2089     9.9723     0.2883     0.0013     2.4726   -72.2880   573.6718   100.5627     8.1374     7.1449     8.1419
  827.5000   552.2089     9.9730     0.2847     0.0058     2.4802   -72.1062   573.2365    99.0830     8.1392     7.1478     8.0931
  828.0000   552.2089     9.9584     0.2742     0.0112     2.4958   -72.0987   572.7952    96.6997     8.0859     7.0530     7.9875
  828.5000   552.2089     9.9441     0.2763     0.0178     2.5093   -72.0997   572.3468    95.8223     8.0322     6.8609     7.8868
  829.0000   552.2089     9.9296     0.2877     0.0216     2.5182   -72.1000   571.8215    97.1747     7.9246     6.7271     7.6791
  829.5000   552.2089     9.9152     0.2982     0.0224     2.5250   -72.1004   571.3861   102.8094     7.9272     6.8236     7.3746
  830.0000   552.2089     9.9007     0.3032     0.0209     2.5250   -72.1003   570.9507   106.7514     7.9877     6.9208     7.3811
  830.5000   552.2089     9.9014     0.2870     0.0202     2.5206   -72.0961   570.5154   108.5849     8.2093     7.0194     7.5954
  831.0000   552.2089     9.9020     0.2707     0.0210     2.5177   -71.8815   570.0800   108.9059     8.3826     7.0222     7.9228
  831.5000   552.2089     9.9026     0.2692     0.0218     2.5162   -71.4078   569.6446   106.8304     8.4426     7.0250     8.2644
  832.0000   552.2089     9.9032     0.2722     0.0226     2.5178   -71.4032   584.1569   104.7483     8.4449     7.0278     8.4443
  832.5000   552.2089     9.9038     0.2770     0.0145     2.5148   -71.4996   583.7070   102.0638     8.4471     7.0128     8.3936
  833.0000   552.2089     9.9045     0.2829     0.0063     2.5082   -71.4994   583.1773   100.2632     8.3340     6.9853     8.2290
  833.5000   552.2089     9.9201     0.2887     0.0011     2.5037   -71.5115   582.7419    97.8104     8.2224     6.8933     8.0677
  834.0000   552.2089     9.9207     0.2865     0.0042     2.5036   -71.5847   567.3589    95.5229     8.1683     6.8020     7.8525
  834.5000   552.2089     9.9363     0.2790     0.0124     2.5068   -71.6570   581.9800    94.9402     8.0589     6.7574     7.5976
  835.0000   552.2089     9.9519     0.2763     0.0164     2.5046   -71.7004   581.4359    96.4792     8.0058     6.8074     7.4470
  835.5000   552.2089     9.9525     0.2787     0.0199     2.5017   -71.6995   581.0004    99.8188     8.0085     6.8571     7.2027
  836.0000   552.5852     9.9681     0.2841     0.0192     2.5017   -71.6978   580.5651   102.8572     7.9552     6.9071     7.1088
  836.5000   553.3396     9.9688     0.2876     0.0178     2.5070   -71.7123   580.1195   103.1847     7.8492     6.8553     7.2651
  837.0000   554.0945     9.9694     0.2943     0.0193     2.5137   -71.9943   594.6420   103.2111     7.8513     6.7716     7.4232
  837.5000   554.8490     9.9850     0.2994     0.0179     2.5123   -72.2870   594.0978   103.2380     7.7996     6.6818     7.6373
  838.0000   555.6031    10.0006     0.3092     0.0119     2.5027   -72.6058   608.6102   103.8727     7.8021     6.5939     7.8575
  838.5000   556.3573    10.0163     0.3063     0.0046     2.4952   -72.9451   608.1748   106.0075     7.7502     6.5058     7.8103
  839.0000   557.1114    10.0168     0.2938     0.0039     2.4953   -73.0326   607.7394   109.3471     7.7528     6.3325     7.5541
  839.5000   557.8655    10.0326     0.2818     0.0024     2.4983   -72.9160   607.3040   109.9693     7.7549     6.2485     7.2545
  840.0000   558.6197    10.0332     0.2800     0.0047     2.5028   -72.7967   606.8687   103.9781     7.7569     6.2082     7.0150
  840.5000   559.3738    10.0338     0.2998     0.0129     2.5148   -72.6974   591.4799   103.6967     7.7590     6.2542     6.9235
  841.0000   560.1279    10.0192     0.3046     0.0212     2.5230   -72.6995   591.0314   107.0428     7.7611     6.2998     7.1246
  841.5000   560.8820    10.0199     0.3028     0.0250     2.5298   -72.6985   605.5626   110.9952     7.7636     6.4336     7.4318
  842.0000   561.6362    10.0054     0.2790     0.0280     2.5381   -72.7528   605.0184   113.4618     7.7120     6.4806     7.8072
  842.5000   562.3903    10.0060     0.2757     0.0258     2.5396   -72.8156   604.5830   113.7484     7.6612     6.5279     7.8125
