~VERSION INFORMATION
 VERS.                2.0:   CWLS LOG ASCII STANDARD - VERSION 2.0
 WRAP.                 NO:   ONE LINE PER DEPTH STEP
~WELL INFORMATION
#MNEM.UNIT      DATA TYPE    INFORMATION
#----------   ------------   ------------------------------
 STRT.F            4.0000:   START DEPTH
 STOP.F         5696.0000:   STOP DEPTH
 STEP.F            0.5000:   STEP LENGTH
 NULL.          -999.2500:   NO VALUE
 COMP.       FLUOR DANIEL:   COMPANY
 WELL.   FLUOR "X" #72-10:   WELL
 FLD .             NPR #3:   FIELD
 LOC .      S10 T38N R78W:   LOCATION
 CNTY.            NATRONA:   COUNTY
 STAT.            WYOMING:   STATE
 CTRY. UNITED STATES OF AMERICA:   COUNTRY
 SRVC.      WESTERN ATLAS:   SERVICE COMPANY
 DATE.        26-SEP-1996:   LOGDATE
 API .     49025228080000:   API NUMBER
~CURVE INFORMATION
#MNEM.UNIT       API CODE    CURVE DESCRIPTION
#----------   ------------   ------------------------------
 DEPT.F                  :   
 GRR .GAPI   07 310 01 00:   GAMMA RAY FROM RESISTIVITY
 SPR .MV     07 010 01 00:   SPONTANEOUS POTENTIAL
 CALR.IN     07 280 01 00:   CALIPER FROM RESISTIVITY
 RD  .OHMM   07 220 10 00:   RESISTIVITY DEEP
 RS  .OHMM   07 220 09 00:   RESISTIVITY SHALLOW
 TENR.LBS    07 635 01 00:   TENSION FROM RESISTIVITY
~PARAMETER INFORMATION
#MNEM.UNIT          VALUE    DESCRIPTION
#----------   ------------   ------------------------------
 EKB .F         5178.0000:   Kelly bushing
 EGL .F         5168.0000:   Ground level
 EDF .F         5177.0000:   Drilling floor
 TD  .F         5698.0000:   Total depth
 CLNT.            A2DTECH:   Client Code
 SL  . 687' FNL & 1002' FEL:   Surface Location
 PD  .                 GL:   Permanent Datum
 EPD .F              5168:   Elevation Permanent Datum
 LMF .                 KB:   Log Measured From
 DMF .                 KB:   Drilling Measured From
 DAPD.F                10:   Feet Above Permanent Datum
 DATE.        26-SEP-1996:   Date Logged [DD-MMM-YYYY]
 DD  .F              5698:   Depth driller
 DL  .F              5697:   Depth logger
 BLI .F              5685:   Bottom log interval
 CS1 .IN            9.625:   Casing size
 CBD1.      9.625" @ 526':   Casing driller 1
 CBL1.F               526:   Casing logger 1
 BS1 .IN             8.75:   Bit size
 BSD1.F              5698:   Depth drilled with bit1
 DFT .               CHEM:   Type fluid in hole
 DFD .                9.1:   Density
 DFV .                 60:   Viscosity
 DFPH.                9.5:   pH
 DFL .                7.6:   Fluid loss
 MSS .               CIRC:   Source of sample
 RMS .OHMM           0.82:   Rm
 MST .F                64:   Rm Meas. temp.
 RMF .OHMM           0.64:   Rmf
 MFST.F                64:   Rmf Meas. temp.
 MFSS.               CALC:   Source Rmf.
 RMC .OHMM           1.08:   Rmc
 MCST.F                64:   Rmc Meas. temp.
 MCSS.               CALC:   Source Rmc.
 RMB .OHMM           0.29:   Rm. at BHT
 BHT .F               183:   BHT.
 TCS .HRS               5:   Time Circ. stopped
 MRT .F               183:   Maximum recorded temp.
 LUN .            HL-6530:   Logging unit number
 LUL .             CASPER:   Logging unit location
 ENGI.           BROWNLOW:   Recorded By
 ORIG.        2" 5" PRINT:   Origin of data
 UWI .     49025228080000:   Unique Well ID
 WITN.              HARDY:   Witnessed by
 DICO. A2D TECHNOLOGIES, INC.:   Digitizing Company
~OTHER INFORMATION
~A  DEPTH      GRR        SPR       CALR         RD         RS       TENR
# ...
 5256.0000    74.5279   -52.3328     9.0247    19.3682    13.5489   -18.5446
 5256.5000    73.0645   -52.1659     9.0173    20.4755    14.3284   -18.9889
 5257.0000    70.0866   -52.1530     9.0182    22.5645    15.2583   -19.4332
 5257.5000    65.9037   -51.8376     9.0189    24.5474    16.6211   -19.8775
 5258.0000    62.0307   -51.5219     9.0196    29.9864    18.0402   -20.3218
 5258.5000    60.5587   -51.0522     9.0353    36.4100    20.4483   -20.7661
 5259.0000    59.6892   -50.7368     9.0362    44.5168    23.8298   -21.2104
 5259.5000    50.9883   -50.4213     9.0217    57.8805    28.7945   -21.6546
 5260.0000    39.8379   -49.8033     9.0226   211.1885   122.7451   -22.0989
 5260.5000    22.5095   -49.0308     9.0217   364.4964   282.8818   -22.5432
 5261.0000     9.6040   -48.4128     9.0090   517.8043   456.1547   -22.9875
 5261.5000     8.1259   -47.7948     9.0098   370.9177   326.3467   -23.4318
 5262.0000    17.2084   -47.4794     9.0256   210.2548   214.3117   -23.8761
 5262.5000    22.9684   -47.1607     9.0414   184.3781   185.3134   -24.3204
 5263.0000    28.7612   -46.8453     9.0573   183.1326   186.6522   -24.7647
 5263.5000    31.7776   -46.6811     9.0580   225.4745   290.2183   -25.2090
 5264.0000    23.9927   -46.5170     9.0737   458.1121   536.1401   -25.6533
 5264.5000    14.3912   -46.5038     9.0744   711.0005   782.0620   -18.3454
 5265.0000    12.0187   -46.4880     9.0752   795.6606   755.6463   -25.7778
 5265.5000    12.7514   -46.4752     9.0911   366.4308   526.3062   -33.2103
 5266.0000    16.3191   -46.4623     9.0766   212.0718   235.0562   -33.0303
 5266.5000    19.9706   -46.4493     9.0774   185.9624   190.9521   -32.8521
 5267.0000    22.1162   -46.4333     9.0631   187.5039   200.5039   -40.3205
 5267.5000    20.9090   -46.4205     9.0490   237.0715   266.5206   -40.1413
 5268.0000    14.9708   -46.4076     9.0496   287.8558   312.6956   -47.5757
 5268.5000    11.6946   -46.0922     9.0428   229.0930   232.7104   -39.8190
 5269.0000    12.9366   -45.7735     9.0210   135.7281   146.0299   -32.1000
 5269.5000    18.9978   -45.4581     9.0067    71.3167    91.3122   -24.3809
 5270.0000    30.0134   -45.1427     8.9924    36.3319    66.8556   -24.2376
 5270.5000    58.2379   -44.9785     8.9932    25.7038    38.2911   -24.0910
 5271.0000    74.5401   -44.8139     8.9789    23.6507    34.7571   -23.9152
 5271.5000    82.1073   -44.4957     8.9798    22.8581    35.0082   -31.3835
 5272.0000    84.5541   -44.1803     8.9805    26.9976    38.3213   -31.2045
 5272.5000    81.8896   -43.8648     8.9812    34.1717    49.2058   -31.0607
 5273.0000    77.1075   -43.3254     8.9520    51.1422    65.4071   -30.8821
 5273.5000    72.0241   -42.5853     8.9377    80.1277   264.1206   -30.7575
 5274.0000    63.9287   -41.8453     8.9234   188.5372   494.0445   -30.5955
 5274.5000    50.0512   -41.0891     8.9241   319.9117   723.9684   -30.4522
 5275.0000    29.5281   -40.6196     8.9097   699.7973   953.8924   -30.2732
 5275.5000    13.4438   -39.9985     8.8956  1464.1953  1397.7545   -30.1299
 5276.0000    11.3725   -39.3741     8.8963  2938.6348  2354.2151   -29.9867
 5276.5000    19.5514   -39.0559     8.8970  2583.9346  2619.3335   -29.8434
 5277.0000    28.3235   -38.7376     8.8977  2141.5315  2133.8848   -29.6970
 5277.5000    41.0112   -38.4065     8.9136  1699.1285  1648.4359   -29.5209
 5278.0000    48.5784   -37.9459     8.9143  1256.7255  1162.3645   -29.3776
 5278.5000    54.6489   -37.4764     8.9151   814.3224   722.9755   -29.2345
 5279.0000    60.7101   -36.8556     8.9158   444.2538   522.0010   -29.0909
 5279.5000    69.4822   -36.3732     8.9165   358.4950   457.6742   -28.9121
 5280.0000    77.6518   -35.6101     8.9173   351.1756   457.7943   -28.7688
 5280.5000    78.2914   -34.3841     8.9181   509.2059   732.8430   -28.6255
 5281.0000    60.8470   -33.4608     8.9188   903.7194  1205.9680   -28.4822
 5281.5000    39.4341   -32.5120     8.9197  1581.0991  1679.0931   -20.7274
 5282.0000    16.3638   -30.7024     8.9204  9999.3105  4423.0142   -20.5841
 5282.5000    12.7861   -29.6277     8.9211 22472.2441  8275.9287   -12.8651
 5283.0000    15.2425   -29.4608     8.9218 27786.1328  9765.7539   -12.7218
 5283.5000    15.5808   -28.9784     8.9227 29992.8027  9905.4102   -12.5757
 5284.0000    14.1119   -27.9127     8.9234 30417.0488  9908.0107   -12.3994
 5284.5000    13.5452   -27.2919     8.9241 30632.9180  9572.8271   -27.4076
 5285.0000    12.9813   -26.8223     8.9248 20049.6680  8335.1494   -42.4517
 5285.5000    14.8349   -26.3399     8.9257  7997.0166  5444.8979   -42.2727
 5286.0000    26.9202   -25.8794     8.9414  3006.8052  2768.5007   -26.9420
 5286.5000    37.8007   -25.7124     8.9572  2660.2576  2461.2397   -34.4103
 5287.0000    42.0547   -25.6968     8.9579  2482.7527  2277.6931   -56.9585
 5287.5000    42.7035   -25.5295     8.9588  2103.1726  2032.3514   -56.8152
 5288.0000    42.7406   -25.3590     8.9594  1611.1565  1632.8596   -47.9907
 5288.5000    45.1874   -25.3433     8.9450  1119.1401  1233.3678   -41.3414
 5289.0000    52.1522   -25.1764     8.9459   627.1239   833.8760   -26.0466
 5289.5000    63.4434   -25.0091     8.9315   296.5319   434.3842   -25.9033
 5290.0000    76.3321   -24.9898     8.9324   260.0241   289.2332   -33.8342
 5290.5000    81.1885   -24.8229     8.9331   343.0999   364.1231   -48.3081
 5291.0000    79.1172   -24.6559     8.9338   408.0313   432.7450   -55.7764
 5291.5000    68.0097   -24.4761     8.9347   558.5667   621.9453   -55.5973
 5292.0000    56.6858   -23.8643     8.9505   818.4637   907.5801   -40.3025
 5292.5000    51.5270   -22.4870     8.9511  1078.3607  1242.8663   -24.9720
 5293.0000    50.9524   -20.6559     8.9519  1325.3137  1234.6003   -24.8287
 5293.5000    54.6133   -19.1020     8.9678  1183.0588  1192.8345   -32.2970
 5294.0000    58.2738   -18.2040     8.9685  1047.5529  1128.7500   -39.6970
 5294.5000    59.5160   -18.7896     8.9540   899.8725   867.5261   -54.7018
 5295.0000    62.5652   -19.3791     8.9399   751.7448   752.9300   -46.9471
 5295.5000    65.6143   -20.5985     8.9406   559.5735   616.4001   -39.2280
 5296.0000    68.0611   -22.2183     8.9262   456.7939   479.8702   -23.9332
 5296.5000    69.0414   -22.8077     8.9271   378.9677   359.9299   -23.7879
 5297.0000    72.9639   -23.2499     8.9128   351.2405   347.7537   -23.6108
 5297.5000    76.0130   -23.8477     8.9135   337.0113   352.7267   -31.0433
 5298.0000    77.5469   -24.4210     8.9144   441.6151   402.5143   -30.9000
 5298.5000    72.1605   -25.3130     8.9151   496.8859   465.7451   -38.3333
 5299.0000    59.2662   -26.8102     8.9158   514.4927   499.3244   -38.1534
 5299.5000    51.1708   -30.7781     8.9165   453.2635   402.5441   -45.5859
 5300.0000    45.7862   -34.0367     8.9178   140.0093   154.7402   -45.4426
 5300.5000    52.1486   -36.7442     8.9251    91.7874   108.6683   -45.2993
 5301.0000    68.8274   -37.6363     8.9324    85.0676    97.2801   -52.7318
 5301.5000    86.8707   -37.6077     8.9350    86.9608   100.7859   -52.5526
 5302.0000    87.8114   -37.2984     8.9511   100.4980   124.9437   -52.4095
 5302.5000    70.9811   -37.2828     8.9670   113.0759   135.8229   -52.2662
 5303.0000    68.6084   -37.4223     8.9829   118.7156   137.7561   -52.1211
 5303.5000    69.2574   -37.7176     8.9990   122.9755   137.7923   -51.9438
 5304.0000    69.5957   -38.5935     8.9846   126.4057   142.8369   -44.2247
 5304.5000    68.7292   -39.0356     8.9856   131.7943   162.8436   -36.5057
 5305.0000    61.8386   -39.3225     8.9714   147.2658   182.0026   -28.7866
 5305.5000    53.5878   -39.4542     8.9572   190.8068   200.6135   -21.0319
 5306.0000    46.8619   -38.9808     8.9431   187.6712   202.0628   -13.3128
 5306.5000    44.4893   -38.5112     8.9291   149.5471   157.4690     1.9820
 5307.0000    47.2373   -38.3443     8.9299   112.2261   129.1492     9.7010
 5307.5000    58.1178   -38.1645     8.9310   100.0325    90.9007     9.8485
