~VERSION INFORMATION
 VERS.                2.0:   CWLS LOG ASCII STANDARD - VERSION 2.0
 WRAP.                 NO:   ONE LINE PER DEPTH STEP
~WELL INFORMATION
#MNEM.UNIT      DATA TYPE    INFORMATION
#----------   ------------   ------------------------------
 STRT.F          728.0000:   START DEPTH
 STOP.F         3296.0000:   STOP DEPTH
 STEP.F            0.5000:   STEP LENGTH
 NULL.          -999.2500:   NO VALUE
 COMP.    FENIX & SCISSON:   COMPANY
 WELL. FENIX TX "AX" #55-34:   WELL
 FLD . N. P. R. - WILDCAT:   FIELD
 LOC .      S34 T39N R78W:   LOCATION
 CNTY.            NATRONA:   COUNTY
 STAT.            WYOMING:   STATE
 CTRY. UNITED STATES OF AMERICA:   COUNTRY
 SRVC.       SCHLUMBERGER:   SERVICE COMPANY
 DATE.        22-JUL-1981:   LOGDATE
 API .     49025108770000:   API NUMBER
~CURVE INFORMATION
#MNEM.UNIT       API CODE    CURVE DESCRIPTION
#----------   ------------   ------------------------------
 DEPT.F                  :   
 TENS.LBS    60 635 01 00:   TENSION FROM SONIC LOG
 DT  .US/F   60 520 00 00:   DELTA TIME
 RHOB.G/C3   45 350 01 00:   BULK DENSITY
 TEND.LBS    45 635 01 00:   TENSION FROM DENSITY LOG
 CORR.G/C3   45 356 01 00:   DENSITY CORRECTION
 CALD.IN     45 280 60 00:   CALIPER FROM DENSITY LOG
 NPHI.DEC    42 890 03 00:   NEUTRON POROSITY SANDSTONE
 TENR.LBS    07 635 01 00:   TENSION FROM RESISTIVITY
 SPR .MV     07 010 01 00:   SPONTANEOUS POTENTIAL
 GRR .GAPI   07 310 01 00:   GAMMA RAY FROM RESISTIVITY
 SFL .OHMM   07 220 01 00:   SHALLOW FOCUSED LOG RESISTIVITY
 ILM .OHMM   07 120 44 00:   INDUCTION LOG MEDIUM RESISTIVITY
 ILD .OHMM   07 120 46 00:   DEEP INDUCTION RESISTIVITY
~PARAMETER INFORMATION
#MNEM.UNIT          VALUE    DESCRIPTION
#----------   ------------   ------------------------------
 EKB .F         5092.0000:   Kelly bushing
 EGL .F         5082.0000:   Ground level
 EDF .F            0.0000:   Drilling floor
 TD  .F         3170.0000:   Total depth
 DATE.        22-JUL-1981:   Date logged
 CLNT.            A2DTECH:   Client Code
 SL  . 2012' FSL & 2774' FWL:   Surface Location
 PD  .                 GL:   Permanent Datum
 EPD .F              5082:   Elevation Permanent Datum
 LMF .                 KB:   Log Measured From
 DMF .                 KB:   Drilling Measured From
 DAPD.F                10:   Feet Above Permanent Datum
 DD  .F              3170:   Depth driller
 DL  .F              3110:   Depth logger
 BLI .F              3104:   Bottom log interval
 TLI .F               753:   Top log interval
 CS1 .IN            9.625:   Casing size
 CBD1.      9.625" @ 751':   Casing driller 1
 CBL1.F               753:   Casing logger 1
 BS1 .IN            7.875:   Bit size
 BSD1.F              3170:   Depth drilled with bit1
 DFT .                FGM:   Type fluid in hole
 DFD .                  9:   Density
 DFV .                  9:   Viscosity
 DFPH.                9.8:   pH
 DFL .                8.6:   Fluid loss
 MSS .           MUD/TANK:   Source of sample
 RMS .OHMM           1.72:   Rm
 MST .F                72:   Rm Meas. temp.
 RMF .OHMM           1.17:   Rmf
 MFST.F                70:   Rmf Meas. temp.
 MFSS.               MEAS:   Source Rmf.
 RMB .OHMM           0.90:   Rm. at BHT
 BHT .F               144:   BHT.
 TCS .HRS            1215:   Time Circ. stopped
 TLAB.HRS            0400:   Time logger at bottom
 MRT .F               144:   Maximum recorded temp.
 LUN .               8035:   Logging unit number
 LUL .               CSPR:   Logging unit location
 ENGI.            PURPICH:   Recorded By
 WITN.           R. SCOTT:   Witnessed by
 ORIG.           5" PRINT:   Origin of data
 UWI .     49025108770000:   Unique Well ID
 DICO. A2D TECHNOLOGIES, INC.:   Digitizing Company
~OTHER INFORMATION
~A   DEPT     TENS         DT         RHOB      TEND      CORR       CALD         NPHI     TENR        SPR         GRR       SFL        ILM        ILD   
# ...
 1534.0000  -999.2500  -999.2500     2.5540   916.2640     0.0310     7.8480     0.3210   554.5870   -69.8830   112.9300     7.6230     6.8040     7.2770
 1534.5000  -999.2500  -999.2500     2.5570   916.5930     0.0300     7.8470     0.3140   554.6560   -69.8830   110.6860     7.4670     6.7510     7.2200
 1535.0000  -999.2500  -999.2500     2.5680   916.9220     0.0320     7.8460     0.3080   554.7240   -69.8830   110.5730     7.3240     6.6970     7.1630
 1535.5000  -999.2500  -999.2500     2.5820   917.2510     0.0380     7.8440     0.3020   554.7930   -69.8830   114.7590     7.3870     6.6440     7.1060
 1536.0000  -999.2500  -999.2500     2.5830   917.5800     0.0410     7.8430     0.2970   554.8610   -69.8830   119.2680     7.4980     6.5900     7.0490
 1536.5000  -999.2500  -999.2500     2.5730   917.9090     0.0380     7.8420     0.2920   554.9300   -69.8830   123.3720     7.6090     6.5370     6.9920
 1537.0000  -999.2500  -999.2500     2.5680   918.2380     0.0340     7.8400     0.2920   554.9980   -69.8830   123.6530     7.7200     6.4830     6.9350
 1537.5000  -999.2500  -999.2500     2.5810   918.5680     0.0380     7.8390     0.2940   555.0670   -69.8830   122.7550     7.8100     6.4300     6.8780
 1538.0000  -999.2500  -999.2500     2.5990   918.8970     0.0440     7.8380     0.2960   555.1360   -69.8830   121.8160     7.6790     6.3760     6.8210
 1538.5000  -999.2500  -999.2500     2.5900   919.2260     0.0480     7.8360     0.3000   555.2040   -69.9600   120.7480     7.5180     6.3230     6.7640
 1539.0000  -999.2500  -999.2500     2.5600   919.5550     0.0360     7.8350     0.3000   555.2730   -70.1060   121.4210     7.3560     6.2670     6.7070
 1539.5000  -999.2500  -999.2500     2.5330   919.8840     0.0240     7.8340     0.3020   555.3410   -70.2520   122.3050     7.1680     6.2670     6.6820
 1540.0000  -999.2500  -999.2500     2.5250   920.2130     0.0160     7.8320     0.3240   555.4100   -70.3990   122.6350     7.1260     6.3830     6.7440
 1540.5000  -999.2500  -999.2500     2.5170   920.5430     0.0170     7.8310     0.3010   555.4780   -70.1870   122.2330     7.4600     6.3870     6.8060
 1541.0000  -999.2500  -999.2500     2.5180   920.8720     0.0180     7.8300     0.2990   555.5470   -69.9050   123.3030     7.5290     6.4300     6.8390
 1541.5000  -999.2500  -999.2500     2.5230   921.2010     0.0200     7.8280     0.2940   555.6160   -69.6760   125.1400     7.4160     6.4730     6.8850
 1542.0000  -999.2500  -999.2500     2.5340   921.5300     0.0210     7.8270     0.2940   555.6840   -69.4520   125.6520     7.3240     6.5150     6.9300
 1542.5000  -999.2500  -999.2500     2.5490   921.8590     0.0220     7.8270     0.2960   555.7530   -69.3010   123.6350     7.3240     6.5610     6.9750
 1543.0000  -999.2500  -999.2500     2.5670   922.1880     0.0240     7.8270     0.2950   555.8210   -69.3450   121.6940     7.7260     6.6820     7.0610
 1543.5000  -999.2500  -999.2500     2.5700   922.5180     0.0260     7.8270     0.2910   555.8900   -69.3850   119.7210     8.2150     6.6820     7.1260
 1544.0000  -999.2500  -999.2500     2.5620   922.8470     0.0270     7.8270     0.2900   555.9580   -69.4270   120.7820     8.4820     6.6720     7.1260
 1544.5000  -999.2500  -999.2500     2.5530   923.1760     0.0210     7.8270     0.2840   556.0270   -69.4740   121.8430     8.2290     6.6310     7.0880
 1545.0000  -999.2500  -999.2500     2.5450   923.5050     0.0150     7.8270     0.2820   556.0960   -69.6700   121.2870     8.0290     6.5910     7.0450
 1545.5000  -999.2500  -999.2500     2.5450   923.8340     0.0190     7.8270     0.2830   556.1640   -69.6920   120.3760     7.8280     6.5510     7.0010
 1546.0000  -999.2500  -999.2500     2.5470   924.1630     0.0230     7.8270     0.2910   556.2330   -69.6880   120.3900     7.6270     6.5100     6.9580
 1546.5000  -999.2500  -999.2500     2.5450   924.4920     0.0260     7.8270     0.2970   556.3010   -69.6880   122.5190     7.5120     6.4700     6.9150
 1547.0000  -999.2500  -999.2500     2.5410   924.8220     0.0230     7.8270     0.3120   556.3700   -69.6880   124.0120     7.4610     6.4290     6.8720
 1547.5000  -999.2500  -999.2500     2.5380   925.1510     0.0170     7.8270     0.3310   556.4380   -69.6880   122.7910     7.4100     6.3890     6.8290
 1548.0000  -999.2500  -999.2500     2.5340   925.4800     0.0130     7.8270     0.3540   556.5070   -69.6880   122.2000     7.3590     6.3830     6.8060
 1548.5000  -999.2500  -999.2500     2.5390   925.8090     0.0140     7.8270     0.3480   556.5760   -69.6940   121.7150     7.3240     6.3250     6.8060
 1549.0000  -999.2500  -999.2500     2.5460   926.1380     0.0160     7.8270     0.3330   556.6440   -69.7350   121.2490     7.3240     6.2670     6.6820
 1549.5000  -999.2500  -999.2500     2.5500   926.4670     0.0170     7.8270     0.3190   556.7130   -69.7760   119.7100     7.4630     6.3200     6.7170
 1550.0000  -999.2500  -999.2500     2.5420   926.7970     0.0190     7.8270     0.3160   556.7810   -69.8160   117.5750     7.6360     6.3730     6.7740
 1550.5000  -999.2500  -999.2500     2.5300   927.1260     0.0160     7.8270     0.3130   556.8500   -69.8540   115.4160     7.8080     6.4260     6.8310
 1551.0000  -999.2500  -999.2500     2.5230   927.4550     0.0120     7.8270     0.3080   556.9180   -69.9370   113.2150     7.9550     6.4790     6.8880
 1551.5000  -999.2500  -999.2500     2.5260   927.7840     0.0080     7.8270     0.3040   556.9870   -69.8480   112.9810     7.8580     6.5330     6.9440
 1552.0000  -999.2500  -999.2500     2.5390   928.1130     0.0150     7.8270     0.3000   557.0560   -69.5750   116.0500     7.7020     6.5860     7.0010
 1552.5000  -999.2500  -999.2500     2.5520   928.4420     0.0240     7.8270     0.3010   557.1240   -69.2940   116.7170     7.5980     6.6820     7.0610
 1553.0000  -999.2500  -999.2500     2.5660   928.7720     0.0300     7.8270     0.3040   557.1930   -69.0120   113.9660     7.7730     6.7440     7.1910
 1553.5000  -999.2500  -999.2500     2.5750   929.1010     0.0320     7.8270     0.3030   557.2610   -68.9660   111.1990     8.0010     6.6780     7.1910
 1554.0000  -999.2500  -999.2500     2.5660   929.4300     0.0340     7.8270     0.3000   557.3300   -69.0540   110.5750     8.2520     6.5960     7.0670
 1554.5000  -999.2500  -999.2500     2.5530   929.7590     0.0300     7.8270     0.2990   557.3980   -69.1450   115.9560     7.9390     6.5150     6.9800
 1555.0000  -999.2500  -999.2500     2.5410   930.0880     0.0190     7.8270     0.2930   557.4670   -69.2350   121.0560     7.5920     6.4330     6.8930
 1555.5000  -999.2500  -999.2500     2.5430   930.4170     0.0130     7.8270     0.2960   557.5360   -69.3260   123.9800     7.2460     6.3510     6.8060
 1556.0000  -999.2500  -999.2500     2.5490   930.7460     0.0150     7.8270     0.3000   557.6040   -69.4170   118.6200     6.9320     6.2700     6.7190
 1556.5000  -999.2500  -999.2500     2.5460   931.0760     0.0150     7.8270     0.3140   557.6730   -69.4750   113.4880     7.0070     6.1880     6.6310
 1557.0000  -999.2500  -999.2500     2.5440   931.4050     0.0140     7.8270     0.3200   557.7410   -69.3210   108.8720     7.0280     6.1530     6.5610
 1557.5000  -999.2500  -999.2500     2.5460   931.7340     0.0110     7.8270     0.3170   557.8100   -69.1680   109.5860     7.0500     6.0410     6.5010
 1558.0000  -999.2500  -999.2500     2.5450   932.0630     0.0100     7.8270     0.3150   557.8780   -69.0160   111.9930     7.0710     6.0370     6.4380
 1558.5000  -999.2500  -999.2500     2.5440   932.3920     0.0160     7.8270     0.3230   557.9470   -68.8630   114.1150     7.0920     6.0320     6.4260
 1559.0000  -999.2500  -999.2500     2.5470   932.7210     0.0240     7.8270     0.3360   558.0160   -68.7200   114.2280     7.1130     6.0260     6.4150
 1559.5000  -999.2500  -999.2500     2.5560   933.0510     0.0320     7.8270     0.3340   558.0840   -68.8070   114.3270     7.1910     6.0210     6.4030
