~VERSION INFORMATION
 VERS.                2.0:   CWLS LOG ASCII STANDARD - VERSION 2.0
 WRAP.                 NO:   ONE LINE PER DEPTH STEP
~WELL INFORMATION
#MNEM.UNIT      DATA TYPE    INFORMATION
#----------   ------------   ------------------------------
 STRT.F           50.0000:   START DEPTH
 STOP.F         5698.0000:   STOP DEPTH
 STEP.F            0.5000:   STEP LENGTH
 NULL.          -999.2500:   NO VALUE
 COMP. LAWRENCE - ALLISON:   COMPANY
 WELL. LAWRENCE TPX #57-3:   WELL
 FLD .              NPR 3:   FIELD
 LOC .       S3 T38N R78W:   LOCATION
 CNTY.            NATRONA:   COUNTY
 STAT.            WYOMING:   STATE
 CTRY. UNITED STATES OF AMERICA:   COUNTRY
 SRVC.       SCHLUMBERGER:   SERVICE COMPANY
 DATE.        09-AUG-1982:   LOGDATE
 API .     49025108900000:   API NUMBER
~CURVE INFORMATION
#MNEM.UNIT       API CODE    CURVE DESCRIPTION
#----------   ------------   ------------------------------
 DEPT.F                  :   
 TEND.LBS    45 635 01 00:   TENSION FROM DENSITY LOG
 CALD.IN     45 280 60 00:   CALIPER FROM DENSITY LOG
 NPHI.DEC    42 890 03 00:   NEUTRON POROSITY SANDSTONE
 CORR.G/C3   45 356 01 00:   DENSITY CORRECTION
 RHOB.G/C3   45 350 01 00:   BULK DENSITY
 SPR .MV     11 010 01 00:   SPONTANEOUS POTENTIAL FROM RESISTIVITY
 TENR.LBS    11 635 01 00:   TENSION FROM RESISTIVITY
 GRR .GAPI   11 310 01 00:   GAMMA RAY FROM RESISTIVITY
 LLD .OHMM   11 220 10 00:   LATEROLOG DEEP
 LLS .OHMM   11 220 09 00:   LATEROLOG LOG SHALLOW
 MSFL.OHMM   11 270 04 00:   MICRO SPHERICALLY FOCUSED
~PARAMETER INFORMATION
#MNEM.UNIT          VALUE    DESCRIPTION
#----------   ------------   ------------------------------
 EKB .F         5190.0000:   Kelly bushing
 EGL .F         5180.0000:   Ground level
 EDF .F         5189.0000:   Drilling floor
 TD  .F         5686.0000:   Total depth
 CLNT.            A2DTECH:   Client Code
 SL  . 1002' FSL & 2479' FEL:   Surface Location
 PD  .                 GL:   Permanent Datum
 EPD .F              5180:   Elevation Permanent Datum
 LMF .                 KB:   Log Measured From
 DMF .                 KB:   Drilling Measured From
 DAPD.F                10:   Feet Above Permanent Datum
 DATE.        09-AUG-1982:   Date Logged [DD-MMM-YYYY]
 DD  .F              5685:   Depth driller
 DL  .F              5686:   Depth logger
 BLI .F              5683:   Bottom log interval
 TLI .F               494:   Top log interval
 CS1 .IN            9.625:   Casing size
 CBD1.      9.625" @ 500':   Casing driller 1
 CBL1.F               494:   Casing logger 1
 BS1 .IN             8.75:   Bit size
 BSD1.F              5685:   Depth drilled with bit1
 DFT .                KCL:   Type fluid in hole
 DFD .                9.0:   Density
 DFV .                 38:   Viscosity
 DFPH.                8.5:   pH
 DFL .                9.0:   Fluid loss
 MSS .            MUDTANK:   Source of sample
 RMS .OHMM           0.27:   Rm
 MST .F                79:   Rm Meas. temp.
 RMF .OHMM           0.27:   Rmf
 MFST.F                79:   Rmf Meas. temp.
 MFSS.               MEAS:   Source Rmf.
 RMB .OHMM            .13:   Rm. at BHT
 BHT .F               164:   BHT.
 TCS .HRS            1300:   Time Circ. stopped
 MRT .F               164:   Maximum recorded temp.
 LUN .               8035:   Logging unit number
 LUL .               CSPR:   Logging unit location
 ENGI.            PERAKIS:   Recorded By
 WITN.           L. FIVAS:   Witnessed by
 ORIG.        2" 5" PRINT:   Origin of data
 UWI .     49025108900000:   Unique Well ID
 DICO. A2D TECHNIOLOGIES,INC.:   Digitizing Company
 RMC .OHMM           0.41:   Rmc
 MCST.F                79:   Rmc Meas. temp.
 MCSS.               CALC:   Source Rmc.
 TLAB.HRS            2000:   Time logger at bottom
~OTHER INFORMATION
~A  DEPTH     TEND       CALD       NPHI       CORR       RHOB        SPR       TENR        GRR        LLD        LLS       MSFL
# ...
 4289.5000  1576.3052    10.8747     0.0917     0.0219     2.6025   -71.9192  1604.8828    85.3026     5.9058     6.4859     8.5524
 4290.0000  1576.3052    10.9053     0.1507     0.0905     2.6388   -72.3062  1604.1622    98.6478     3.7280     4.0934     5.5377
 4290.5000  1576.3052    10.9360     0.2211     0.1502     2.5680   -72.5813  1603.4410   104.1066     2.9732     3.5932     5.5779
 4291.0000  1576.3052    10.9666     0.2837     0.1414     2.4182   -72.7671  1602.6986   105.6439     2.7203     3.2170     5.6184
 4291.5000  1576.3052    10.9973     0.3033     0.0416     2.3974   -72.9604  1601.8193   106.8794     2.4549     2.7880     5.4612
 4292.0000  1576.3052    11.0292     0.3025     0.0214     2.4123   -73.2041  1601.0989   109.3216     2.2929     2.6395     4.8302
 4292.5000  1576.3052    11.1189     0.2953     0.1168     2.5264   -73.4491  1600.4498   111.7647     2.2471     2.6220     4.6038
 4293.0000  1576.3052    11.2849     0.2998     0.1869     2.5689   -73.4580  1599.7004   110.2917     2.3301     2.7902     4.8002
 4293.5000  1576.3052    11.4659     0.3115     0.2070     2.5512   -73.4028  1598.9359   106.7008     2.5810     3.0101     5.6281
 4294.0000  1573.9224    11.5568     0.3220     0.1505     2.4840   -73.3460  1598.2008   102.5065     2.9022     3.2985     6.2014
 4294.5000  1567.1486    11.4220     0.3138     0.0387     2.4512   -73.2897  1597.4510   101.0271     2.9637     3.3388     6.3771
 4295.0000  1560.3749    11.2572     0.3054     0.0060     2.5012   -73.2336  1596.5938   101.3577     2.8261     3.1830     5.9954
 4295.5000  1559.2524    11.2728     0.2828     0.0075     2.5579   -73.1775  1595.8726   102.3343     2.7129     3.0763     5.5205
 4296.0000  1567.0682    11.3191     0.2785     0.0245     2.5832   -73.1213  1610.3245   105.9477     2.6051     2.9936     5.0832
 4296.5000  1574.8842    11.3817     0.2906     0.0366     2.5836   -73.0652  1609.4233   109.2949     2.5531     2.9323     5.0495
 4297.0000  1565.9137    11.4551     0.2981     0.0247     2.5691   -73.0091  1608.6954   109.6182     2.5364     2.9140     5.0866
 4297.5000  1553.2129    11.5159     0.2974     0.0069     2.5547   -72.9529  1622.9749   107.2411     2.5908     2.9149     5.0487
 4298.0000  1540.5121    11.5616     0.2941    -0.0035     2.5379   -72.8968  1622.0737   106.6630     2.6826     2.9358     5.1257
 4298.5000  1540.9065    11.5772     0.2950    -0.0065     2.5409   -72.8407  1606.3599   110.4571     2.8229     3.0602     5.3813
 4299.0000  1548.1641    11.5778     0.3058    -0.0042     2.5469   -72.7845  1605.6394   112.1617     3.2108     3.3014     5.6887
 4299.5000  1555.4216    11.5483     0.3169     0.0011     2.5551   -72.7284  1619.9401   108.5708     3.7367     3.5354     6.0138
 4300.0000  1556.2249    11.5188     0.3184     0.0056     2.5648   -72.6723  1604.1978    99.5519     4.4089     4.3487     7.2991
 4300.5000  1556.2249    11.4725     0.3090     0.0141     2.5783   -72.6163  1618.2406    89.0203     5.4210     5.5329     9.3612
 4301.0000  1556.2249    11.4148     0.2680     0.0250     2.5932   -72.5604  1617.3632    79.6954     6.5728     6.9913    11.6789
 4301.5000  1555.2744    11.3854     0.2358     0.0281     2.5984   -72.5007  1631.4844    67.6555     8.3078     8.4192    13.1369
 4302.0000  1548.4873    11.3860     0.1958     0.0184     2.5844   -72.3468  1630.5850    60.1405     9.6894     9.8187    13.4145
 4302.5000  1541.7001    11.3868     0.1668     0.0080     2.5687   -72.1818  1629.5062    56.2454    10.7931    10.9386    13.3129
 4303.0000  1537.3762    11.3877     0.1424     0.0036     2.5598   -72.0168  1628.6288    55.6682    11.4070    11.4021    14.1849
 4303.5000  1544.1633    11.3885     0.1238     0.0029     2.5650   -71.8518  1627.7523    55.6953    11.6486    11.6428    15.0007
 4304.0000  1550.9504    11.3894     0.1117     0.0051     2.5755   -71.6869  1626.8757    56.1038    11.7329    11.7254    15.3295
 4304.5000  1557.6431    11.3902     0.1023     0.0096     2.5793   -71.5220  1625.9983    60.2796    11.4972    11.5760    15.4226
 4305.0000  1564.0060    11.4061     0.0999     0.0051     2.5726   -71.3569  1610.1294    63.9260    11.3441    11.5005    15.2152
 4305.5000  1570.3690    11.4068     0.1026    -0.0014     2.5622   -71.1907  1609.2520    64.8575    11.1163    11.1933    15.1146
 4306.0000  1576.3052    11.4226     0.1087    -0.0051     2.5592   -71.0274  1598.8549    65.1856    10.7402    10.8188    14.9124
 4306.5000  1576.3052    11.4233     0.1110    -0.0021     2.5622   -70.9784  1592.5037    67.9270    10.2240    10.3852    14.4102
 4307.0000  1576.3052    11.4541     0.1134     0.0016     2.5653   -71.3947  1591.6042    71.2718     9.6326     9.8329    13.9250
 4307.5000  1576.3052    11.4701     0.1245    -0.0006     2.5668   -71.7225  1590.7524    70.0916     9.1203     9.3099    13.4561
 4308.0000  1576.3052    11.4858     0.1329    -0.0028     2.5660   -71.7906  1604.7977    67.7048     8.7547     8.8755    12.9135
 4308.5000  1576.3052    11.4866     0.1377    -0.0035     2.5653   -71.8627  1603.8979    66.5247     8.4618     8.4513    12.2921
 4309.0000  1576.3052    11.5023     0.1394    -0.0019     2.5661   -71.9298  1602.8947    68.4814     8.2351     8.0674    11.6501
 4309.5000  1576.3052    11.5031     0.1406     0.0011     2.5728   -71.9925  1602.0182    72.9191     8.0697     7.9599    11.4927
 4310.0000  1576.3052    11.5038     0.1477     0.0101     2.5836   -72.0567  1601.1996    78.3755     8.0724     8.0175    11.4167
 4310.5000  1576.3052    11.5045     0.1550     0.0064     2.5886   -72.2362  1606.5791    83.2285     8.0751     8.1872    11.4997
 4311.0000  1573.7450    11.5053     0.1604     0.0012     2.5662   -72.7000  1614.3923    81.7467     8.1336     8.1900    11.6627
 4311.5000  1567.3821    11.4909     0.1613     0.0005     2.5588   -73.1581  1613.4930    79.0582     8.0805     8.0255    11.8280
 4312.0000  1561.0190    11.4766     0.1598     0.0072     2.5700   -73.5177  1627.6187    76.9731     7.9728     7.8644    11.9132
 4312.5000  1554.5515    11.4776     0.1588     0.0134     2.5850   -73.8849  1626.5223    75.4913     7.7067     7.6537    11.2760
 4313.0000  1547.7644    11.4631     0.1603     0.0135     2.5896   -73.9026  1625.6449    76.1211     7.3978     7.3459    10.0286
 4313.5000  1540.9773    11.4488     0.1657     0.0083     2.5904   -73.9002  1624.7684    79.2030     7.0527     6.9927    10.0327
 4314.0000  1537.9769    11.4497     0.1733     0.0061     2.5951   -73.9015  1623.9879    85.3840     6.6318     6.4968     9.8984
 4314.5000  1544.3398    11.4353     0.1868     0.0136     2.6144   -74.0047  1623.0144    88.8703     6.1088     6.1513     9.5651
 4315.0000  1550.7028    11.4210     0.1975     0.0189     2.6114   -74.2821  1622.1379    85.5851     5.7788     5.9047     8.9913
 4315.5000  1556.2249    11.4194     0.2029     0.0167     2.5980   -74.5199  1621.2605    84.1033     5.5908     5.7072     8.5104
 4316.0000  1556.2249    11.4075     0.2107     0.0175     2.5869   -74.5942  1620.3839    82.6215     5.5159     5.5542     8.5127
 4316.5000  1556.2249    11.3783     0.2155     0.0197     2.5899   -74.6729  1619.4899    85.6646     5.4799     5.4427     8.6334
 4317.0000  1556.2249    11.3638     0.2185     0.0213     2.5966   -74.6614  1603.5980    88.1043     5.5200     5.5199     8.8775
 4317.5000  1556.2249    11.3495     0.2182     0.0221     2.5997   -74.6025  1602.6985    87.8292     5.5983     5.6757     9.2555
 4318.0000  1556.2249    11.3203     0.2167     0.0147     2.5870   -74.5439  1601.6646    87.2523     5.7169     5.9209     9.7202
 4318.5000  1554.5413    11.2910     0.2154     0.0043     2.5720   -74.5416  1600.7881    86.6755     5.9187     6.1322     9.7086
 4319.0000  1546.7100    11.2764     0.2163     0.0013     2.5662   -74.7332  1599.9106    86.4003     6.0858     6.2129     9.5883
 4319.5000  1538.8785    11.2473     0.2160     0.0014     2.5819   -74.8988  1599.0341    86.1252     6.1721     6.1724     9.7923
