~VERSION INFORMATION
 VERS.                2.0:   CWLS LOG ASCII STANDARD - VERSION 2.0
 WRAP.                 NO:   ONE LINE PER DEPTH STEP
~WELL INFORMATION
#MNEM.UNIT      DATA TYPE    INFORMATION
#----------   ------------   ------------------------------
 STRT.F         1053.5000:   START DEPTH
 STOP.F         3062.0000:   STOP DEPTH
 STEP.F            0.5000:   STEP LENGTH
 NULL.          -999.2500:   NO VALUE
 COMP.    FENIX & SCISSON:   COMPANY
 WELL.  FENIX "A" #301-11:   WELL
 FLD .              NPR-3:   FIELD
 LOC .      S11 T38N R78W:   LOCATION
 CNTY.            NATRONA:   COUNTY
 STAT.            WYOMING:   STATE
 CTRY. UNITED STATES OF AMERICA:   COUNTRY
 SRVC.      NL MCCULLOUGH:   SERVICE COMPANY
 DATE.        13-OCT-1977:   LOGDATE
 API .     49025104410000:   API NUMBER
~CURVE INFORMATION
#MNEM.UNIT       API CODE    CURVE DESCRIPTION
#----------   ------------   ------------------------------
 DEPT.F                  :   
 GR  .GAPI   35 310 01 00:   GAMMA RAY
 NEUT.NAPI   35 330 01 00:   NEUTRON
~PARAMETER INFORMATION
#MNEM.UNIT          VALUE    DESCRIPTION
#----------   ------------   ------------------------------
 EDF .F         5165.0000:   Drilling floor
 TD  .F         3097.0000:   Total depth
 CLNT.            A2DTECH:   Client Code
 PD  .                 DF:   Permanent Datum
 EPD .F              5165:   Elevation Permanent Datum
 LMF .                 GL:   Log Measured From
 DMF .                 DF:   Drilling Measured From
 DATE.        13-OCT-1977:   Date Logged [DD-MMM-YYYY]
 DD  .F              3097:   Depth driller
 BLI .F              3060:   Bottom log interval
 TLI .F              1060:   Top log interval
 BSD1.F              3097:   Depth drilled with bit1
 DFT .              WATER:   Type fluid in hole
 ENGI.            MUNDELL:   Recorded By
 ORIG.           5" PRINT:   Origin of data
 UWI .     49025104410000:   Unique Well ID
 DICO. A2D TECHNOLOGIES, INC.:   Digitizing Company
~OTHER INFORMATION
~A  DEPT         GR      NEUT   
# ...
 2147.0000   108.9931   273.7979
 2147.5000   109.6307   285.0022
 2148.0000   110.5695   290.0353
 2148.5000   109.3142   291.7021
 2149.0000   109.1564   291.0986
 2149.5000   109.6684   288.8604
 2150.0000   107.4291   288.2872
 2150.5000   103.6663   292.7551
 2151.0000   102.5675   300.0323
 2151.5000   101.9395   298.8940
 2152.0000   103.5048   302.2439
 2152.5000   102.4062   306.2388
 2153.0000   103.0316   306.2388
 2153.5000   100.3879   306.2388
 2154.0000    99.9193   309.0440
 2154.5000    99.7641   310.7271
 2155.0000    99.9227   307.9219
 2155.5000    99.2973   306.2388
 2156.0000    96.3212   303.9947
 2156.5000    93.6585   301.7506
 2157.0000    92.4063   300.0675
 2157.5000    93.5775   299.5064
 2158.0000    97.8947   297.2623
 2158.5000   100.7171   297.2623
 2159.0000   104.9500   300.0675
 2159.5000   106.2049   302.9308
 2160.0000   105.5799   302.3116
 2160.5000   104.9545   300.0675
 2161.0000   104.4863   298.3844
 2161.5000   104.1743   297.8234
 2162.0000   103.3922   299.5064
 2162.5000   103.8639   298.3376
 2163.0000   104.0494   294.4572
 2163.5000   103.3847   291.6520
 2164.0000   102.4583   290.5299
 2164.5000   101.6763   292.7741
 2165.0000   102.6181   292.7741
 2165.5000   104.1867   291.0556
 2166.0000   103.7181   288.8469
 2166.5000   101.6645   293.3351
 2167.0000   100.5872   294.4572
 2167.5000   100.5887   295.0182
 2168.0000   101.2170   291.0910
 2168.5000   101.6887   289.9689
 2169.0000   101.3570   295.0182
 2169.5000   100.1188   299.5064
 2170.0000   101.3801   301.7506
 2170.5000   102.6354   311.8491
 2171.0000   103.1070   329.2411
 2171.5000   103.7354   333.1683
 2172.0000   103.1100   330.9242
 2172.5000   102.6414   306.7998
 2173.0000   103.5836   307.9219
 2173.5000   103.7418   303.4337
 2174.0000   105.3105   290.5299
 2174.5000   105.9385   290.5390
 2175.0000   102.6493   297.2623
 2175.5000    99.3598   290.5299
 2176.0000    96.1517   288.2858
 2176.5000    94.3482   287.1638
 2177.0000    95.6035   300.0675
 2177.5000    95.7617   303.4337
 2178.0000    98.7408   303.3516
 2178.5000    98.1155   305.1168
 2179.0000    96.9981   310.7271
 2179.5000    95.6114   313.5322
 2180.0000    94.9860   309.0440
 2180.5000    94.6737   306.2388
 2181.0000    94.5185   302.8726
 2181.5000    94.9905   305.6778
 2182.0000    95.6941   303.9947
 2182.5000    97.5014   306.7998
 2183.0000    97.5029   314.6543
 2183.5000    96.8775   315.7763
 2184.0000    97.5059   317.5801
 2184.5000    97.3507   320.2646
 2185.0000    97.5246   317.4594
 2185.5000   100.0183   321.9477
 2186.0000    99.3929   319.7036
 2186.5000    98.4541   319.7036
 2187.0000   100.0228   322.6066
 2187.5000   101.2780   328.6801
 2188.0000   105.0535   328.1190
 2188.5000   103.7889   323.6308
 2189.0000   102.5366   340.4617
 2189.5000   100.0307   337.6566
 2190.0000    97.5247   337.0955
 2190.5000    98.1531   326.4359
 2191.0000    98.7815   325.8749
 2191.5000    96.7460   309.6050
 2192.0000    92.2028   304.5557
 2192.5000    91.1069   302.8726
 2193.0000    91.4222   308.5879
 2193.5000    91.8939   312.4102
 2194.0000    91.8891   306.7998
 2194.5000    91.4267   305.1168
 2195.0000    91.1152   306.2388
 2195.5000    90.8029   303.9947
 2196.0000    90.6477   305.1464
 2196.5000    90.0227   307.3609
 2197.0000    89.3909   303.9947
 2197.5000    87.2052   295.0182
 2198.0000    86.2664   293.3351
 2198.5000    88.3052   279.8704
 2199.0000    89.5604   266.9496
 2199.5000    89.8754   259.1122
 2200.0000    89.0933   255.7460
 2200.5000    85.3359   259.1122
 2201.0000    83.2978   255.1850
 2201.5000    85.0236   254.6240
 2202.0000    83.9280   255.7460
 2202.5000    83.1456   255.2345
 2203.0000    89.1704   243.6170
 2203.5000    90.4149   235.7938
 2204.0000    90.4149   236.8930
 2204.5000    89.9482   237.9962
 2205.0000    91.3483   236.8608
 2205.5000    91.1927   238.5402
 2206.0000    89.7927   236.2669
 2206.5000    92.4372   237.3701
 2207.0000    92.5928   232.8888
 2207.5000    90.2853   233.9880
 2208.0000    86.3703   233.9719
 2208.5000    85.4370   232.2828
 2209.0000    85.7481   232.9797
 2209.5000    86.6815   238.3807
 2210.0000    85.9037   239.4839
 2210.5000    85.7481   240.5791
 2211.0000    86.3703   255.0618
 2211.5000    86.6815   274.2625
 2212.0000    86.7323   269.2383
 2212.5000    87.0315   267.0023
 2213.0000    86.5588   266.3648
 2213.5000    87.0349   256.9525
 2214.0000    90.1476   253.0435
 2214.5000    89.9936   252.4818
 2215.0000    89.5280   274.2234
 2215.5000    88.7521   289.8322
 2216.0000    88.2868   297.6338
 2216.5000    88.2884   299.8590
 2217.0000    89.4329   300.9689
 2217.5000    90.6252   302.0775
 2218.0000    90.1601   305.4193
 2218.5000    90.6282   304.2973
 2219.0000    90.7853   322.6943
 2219.5000    89.8535   328.8230
 2220.0000    88.9215   330.4906
 2220.5000    87.9897   333.4220
 2221.0000    87.9715   338.8432
 2221.5000    86.4375   341.0697
 2222.0000    81.9278   341.6206
 2222.5000    79.7514   346.6341
 2223.0000    78.3529   371.1652
 2223.5000    78.0429   370.0445
 2224.0000    78.6670   367.2137
 2224.5000    79.6132   366.6865
 2225.0000    81.8854   366.1248
 2225.5000    83.3387   367.7910
 2226.0000    83.3402   380.0539
 2226.5000    83.9640   385.6250
 2227.0000    84.4322   383.3890
 2227.5000    84.5892   367.7694
 2228.0000    85.2130   355.1245
 2228.5000    85.5495   349.3549
 2229.0000    87.0831   346.0036
 2229.5000    87.7069   318.1157
 2230.0000    87.2417   303.0552
 2230.5000    88.0210   318.6626
 2231.0000    89.5781   324.2338
 2231.5000    89.8907   323.0364
 2232.0000    88.3366   311.9532
 2232.5000    88.3019   307.4867
 2233.0000    86.9396   303.0201
 2233.5000    87.8749   298.5535
 2234.0000    88.9653   296.3188
 2234.5000    88.1890   308.0227
 2235.0000    87.7238   307.4597
 2235.5000    87.2586   325.9307
 2236.0000    87.5757   326.9666
 2236.5000    88.3751   333.0940
 2237.0000    89.7525   336.9921
 2237.5000    89.1318   342.0056
 2238.0000    84.6220   347.5767
 2238.5000    82.7568   348.6867
 2239.0000    81.5134   345.0378
 2239.5000    80.7375   338.6381
 2240.0000    79.1302   354.2455
 2240.5000    76.6963   358.7013
 2241.0000    75.9196   362.0432
 2241.5000    75.7660   359.8058
 2242.0000    75.6115   358.6851
 2242.5000    75.9245   358.6797
 2243.0000    77.2181   358.6741
 2243.5000    74.3720   359.7842
 2244.0000    72.5067   360.8928
 2244.5000    75.4643   360.8874
 2245.0000    78.2659   353.6326
 2245.5000    79.6674   332.9942
 2246.0000    80.9134   313.4710
 2246.5000    82.1594   311.1978
 2247.0000    82.6276   296.1718
 2247.5000    83.4170   283.8981
 2248.0000    84.6530   253.7797
 2248.5000    85.2770   238.1601
 2249.0000    87.7675   238.1547
 2249.5000    90.2580   239.2646
 2250.0000    91.3484   243.1628
 2250.5000    92.7500   254.8680
 2251.0000    93.6848   252.6307
 2251.5000    93.6863   258.7594
 2252.0000    89.0214   256.5234
 2252.5000    88.7114   241.4615
 2253.0000    89.8022   235.8796
 2253.5000    89.9593   233.6436
 2254.0000    93.2276   234.1959
 2254.5000    94.3180   239.2080
 2255.0000    91.8306   242.5498
 2255.5000    89.3431   242.5431
 2256.0000    88.4116   240.3071
 2256.5000    89.3465   234.1671
 2257.0000    87.4812   230.8158
 2257.5000    86.5490   229.6951
 2258.0000    87.6398   230.8051
 2258.5000    90.2859   243.0680
 2259.0000    93.0913   245.2932
 2259.5000    93.7113   244.1712
 2260.0000    95.5798   237.4740
 2260.5000    97.1369   225.2004
 2261.0000   103.0498   215.1574
 2261.5000   105.5402   212.3637
 2262.0000   109.4679   209.5700
 2262.5000   108.3819   209.5634
 2263.0000   108.8524   207.8851
 2263.5000   108.3887   206.2068
 2264.0000   108.3917   210.6626
 2264.5000   108.3947   218.4643
 2265.0000   108.0658   232.0732
 2265.5000   107.6236   249.6806
 2266.0000   106.8488   249.6752
 2266.5000   105.9184   259.1499
 2267.0000   104.6769   261.9341
 2267.5000   104.9910   260.8121
 2268.0000   109.5489   260.8068
