~VERSION INFORMATION
 VERS.                2.0:   CWLS LOG ASCII STANDARD - VERSION 2.0
 WRAP.                 NO:   ONE LINE PER DEPTH STEP
~WELL INFORMATION
#MNEM.UNIT      DATA TYPE    INFORMATION
#----------   ------------   ------------------------------
 STRT.F          602.0000:   START DEPTH
 STOP.F         5553.0000:   STOP DEPTH
 STEP.F            0.5000:   STEP LENGTH
 NULL.          -999.2500:   NO VALUE
 COMP.         U. S. NAVY:   COMPANY
 WELL. U. S. 1-TP-33 NPR #3-33:   WELL
 FLD . TEAPOT NAVAL RESERVE:   FIELD
 LOC .      S33 T39N R78W:   LOCATION
 CNTY.            NATRONA:   COUNTY
 STAT.            WYOMING:   STATE
 CTRY. UNITED STATES OF AMERICA:   COUNTRY
 SRVC.       SCHLUMBERGER:   SERVICE COMPANY
 DATE.        24-JUN-1952:   LOGDATE
 API .     49025065260000:   API NUMBER
~CURVE INFORMATION
#MNEM.UNIT       API CODE    CURVE DESCRIPTION
#----------   ------------   ------------------------------
 DEPT.F                  :   
 SPR .MV     01 010 01 00:   SPONTANEOUS POTENTIAL FROM RES.
 ASN .OHMM   01 041 16 00:   AMPLIFIED SHORT NORMAL 16"
 LAT .OHMM   01 070 08 00:   LATERAL 8'
 LN  .OHMM   01 060 64 00:   LONG NORMAL 64"
~PARAMETER INFORMATION
#MNEM.UNIT          VALUE    DESCRIPTION
#----------   ------------   ------------------------------
 EKB .F         5160.0000:   Kelly bushing
 EGL .F         5147.0000:   Ground level
 TD  .F         5553.0000:   Total depth
 CLNT.            A2DTECH:   Client Code
 DATE.        24-JUN-1952:   Date Logged [DD-MMM-YYYY]
 DD  .F              5549:   Depth driller
 DL  .F              5553:   Depth logger
 BLI .F              5553:   Bottom log interval
 TLI .F               602:   Top log interval
 CBL1.F               602:   Casing logger 1
 BSD1.F              5549:   Depth drilled with bit1
 DFT .           GYP BASE:   Type fluid in hole
 DFD .                9.8:   Density
 DFV .                 44:   Viscosity
 MSS .           FLOWLINE:   Source of sample
 RMS .OHMM            1.4:   Rm
 MST .F                60:   Rm Meas. temp.
 RMB .OHMM           0.48:   Rm. at BHT
 BHT .F               175:   BHT.
 TCS .HRS             1.5:   Time Circ. stopped
 MRT .F               175:   Maximum recorded temp.
 LUN .                563:   Logging unit number
 ENGI.             SANDER:   Recorded By
 WITN.            GRIBBIN:   Witnessed by
 ORIG.      1" 2.5" PRINT:   Origin of data
 UWI .     49025065260000:   Unique Well ID
 DICO. A2D TECHNOLOGIES, INC.:   Digitizing Company
~OTHER INFORMATION
~A  DEPTH      SPR        ASN        LAT         LN
# ...
 4544.0000   -40.2169    17.7079    19.4743    23.1308
 4544.5000   -39.7555    17.1816    19.4764    22.2740
 4545.0000   -39.3880    16.6848    19.5691    21.8212
 4545.5000   -39.1563    16.0276    19.6860    21.6063
 4546.0000   -38.9070    15.1290    19.8029    21.4777
 4546.5000   -38.4810    14.2784    19.9136    21.3825
 4547.0000   -38.3321    14.2801    19.9161    21.3399
 4547.5000   -38.3304    14.2819    20.0107    21.3413
 4548.0000   -38.3286    14.3362    19.9981    21.3278
 4548.5000   -38.3267    14.5508    19.9588    21.2038
 4549.0000   -38.5438    15.1469    20.0671    21.2051
 4549.5000   -38.7719    16.2642    20.0697    21.2065
 4550.0000   -38.9999    17.2511    20.3571    21.3015
 4550.5000   -39.2280    18.0639    20.8380    21.5492
 4551.0000   -39.4607    18.6747    21.2968    21.8118
 4551.5000   -39.4589    19.0240    21.5504    21.9508
 4552.0000   -39.7961    19.1404    22.0803    22.3373
 4552.5000   -40.1404    19.1708    22.3751    23.0267
 4553.0000   -40.3686    19.1726    22.7216    24.3194
 4553.5000   -40.5947    19.1744    22.9850    25.7749
 4554.0000   -40.5929    19.1762    23.1153    26.9044
 4554.5000   -40.9433    19.0604    23.3767    27.4004
 4555.0000   -41.1607    19.0365    23.1785    27.6078
 4555.5000   -41.2233    19.0383    22.9511    27.8357
 4556.0000   -41.4514    19.0735    22.8114    28.0150
 4556.5000   -41.6796    19.1852    22.8294    28.1081
 4557.0000   -41.5423    19.1873    22.9588    28.1096
 4557.5000   -41.4375    19.3738    23.2679    28.2186
 4558.0000   -41.4357    19.4771    23.6143    28.2528
 4558.5000   -41.4339    19.5516    23.9145    28.2542
 4559.0000   -41.4318    19.7755    24.1822    28.2556
 4559.5000   -41.4304    19.9126    24.6838    28.2570
 4560.0000   -41.2951    20.0095    25.1046    28.1461
 4560.5000   -41.1411    20.0591    25.2593    28.1194
 4561.0000   -41.1175    20.0609    25.2614    28.0627
 4561.5000   -40.8515    20.0627    25.2432    27.9509
 4562.0000   -40.6543    20.0647    25.1230    27.8352
 4562.5000   -40.5625    19.5739    25.0179    27.6101
 4563.0000   -40.4768    18.8586    24.8263    27.3849
 4563.5000   -40.2451    18.2235    24.6498    27.0968
 4564.0000   -39.9855    17.8798    24.5143    26.7939
 4564.5000   -39.7817    17.4948    24.2765    26.5856
 4565.0000   -39.6964    17.2934    24.2786    26.5873
 4565.5000   -39.6041    17.0648    24.1993    26.5885
 4566.0000   -39.4071    16.8362    24.1933    26.5899
 4566.5000   -39.4052    16.6419    24.2850    26.6315
 4567.0000   -39.4036    16.6441    24.2872    26.7463
 4567.5000   -39.4018    16.9592    24.6250    26.8752
 4568.0000   -39.4000    17.4594    24.9714    26.8764
 4568.5000   -39.3982    18.0856    25.4848    26.9499
 4569.0000   -39.3963    18.7379    26.2029    27.0646
 4569.5000   -39.3946    19.2319    27.0122    27.1792
 4570.0000   -39.3929    19.4485    27.9284    27.3035
 4570.5000   -39.4948    19.6806    28.6763    27.6166
 4571.0000   -39.7228    19.8615    29.4248    28.0348
 4571.5000   -39.9589    19.9319    30.1405    28.4397
 4572.0000   -39.9571    19.8138    30.6076    28.7132
 4572.5000   -39.9554    19.5947    31.4129    28.2936
 4573.0000   -39.8433    19.2013    32.3067    28.0776
 4573.5000   -39.6661    18.5790    32.8040    27.6894
 4574.0000   -39.6643    17.7743    32.8886    26.9664
 4574.5000   -39.4340    16.9574    32.8865    26.0297
 4575.0000   -39.3750    16.1651    32.7739    25.3511
 4575.5000   -39.2563    15.4456    32.6612    24.5598
 4576.0000   -39.0247    14.8135    32.4229    24.0261
 4576.5000   -38.7930    14.2687    32.0808    23.6332
 4577.0000   -38.5614    13.8120    31.7189    23.2949
 4577.5000   -38.3298    13.5835    30.9040    22.9612
 4578.0000   -38.2214    13.3548    29.8790    22.6913
 4578.5000   -38.2196    13.3674    28.4235    22.6016
 4579.0000   -38.2062    13.8256    27.3015    22.4261
 4579.5000   -37.9300    14.8679    27.1706    22.2374
 4580.0000   -38.1142    16.0222    26.7718    22.1347
 4580.5000   -38.4722    16.6281    25.4340    22.1365
 4581.0000   -38.8562    16.7108    24.5053    22.0421
 4581.5000   -39.0843    16.3765    24.3646    21.9303
 4582.0000   -39.3497    15.7949    24.9171    21.8184
 4582.5000   -39.3482    14.9806    26.4967    21.7064
 4583.0000   -39.3464    14.5103    26.8910    21.5816
 4583.5000   -39.2641    13.9361    27.2122    21.5829
 4584.0000   -39.0077    13.4382    27.3181    21.5843
 4584.5000   -38.4837    13.1148    27.1779    21.5857
 4585.0000   -38.2833    12.9838    26.7931    21.5871
 4585.5000   -38.0517    13.1800    26.3930    21.5886
 4586.0000   -37.9071    13.6200    25.7914    21.6948
 4586.5000   -37.9368    14.2389    24.7063    21.8095
 4587.0000   -38.1891    14.9453    23.1163    21.9747
 4587.5000   -38.1875    15.8580    22.2324    22.2026
 4588.0000   -38.4849    16.6621    22.0286    22.4382
 4588.5000   -38.7554    17.5855    21.9507    22.7683
 4589.0000   -38.7915    18.3766    21.9529    23.2743
 4589.5000   -39.0374    18.9545    21.9922    23.7869
 4590.0000   -39.2478    19.5919    22.2430    24.2978
 4590.5000   -39.3196    19.9034    22.7710    24.9875
 4591.0000   -39.3179    20.1755    23.1929    26.8022
 4591.5000   -39.3605    20.4548    23.3921    27.9201
 4592.0000   -39.5999    20.7640    23.4152    28.8878
 4592.5000   -39.5982    20.8902    23.5394    29.7120
 4593.0000   -39.5964    20.7856    23.5414    30.0422
 4593.5000   -39.5946    20.5940    23.7822    30.1786
 4594.0000   -39.5929    20.2653    24.0771    30.0880
 4594.5000   -39.5910    19.8542    24.3088    29.9761
 4595.0000   -39.5893    19.7377    24.5501    29.7892
 4595.5000   -39.5875    19.5305    24.8822    29.4509
 4596.0000   -39.5857    19.3867    25.2286    29.0620
 4596.5000   -39.5839    19.1760    25.5750    28.7739
 4597.0000   -39.5821    18.8675    25.8701    28.4356
 4597.5000   -39.5804    18.6395    25.9893    28.0970
 4598.0000   -39.5786    18.4254    25.9914    27.7432
 4598.5000   -39.5768    18.1237    25.9936    27.2431
 4599.0000   -39.5110    17.8453    25.8270    27.0421
 4599.5000   -39.2875    17.6243    25.5130    26.8169
 4600.0000   -39.2857    17.4033    25.2857    26.5918
 4600.5000   -39.2839    17.2935    24.8286    26.3863
 4601.0000   -39.2821    17.1837    24.4584    26.2669
 4601.5000   -39.2804    17.0739    24.2335    26.1624
 4602.0000   -39.2638    16.9641    24.1819    26.0506
 4602.5000   -38.9908    16.8577    24.3063    25.8872
 4603.0000   -38.9893    16.8591    24.7674    25.6863
 4603.5000   -38.9875    16.8605    24.9584    25.5717
 4604.0000   -38.9085    16.8619    25.2592    25.4625
 4604.5000   -38.6982    16.8633    25.7881    25.3506
 4605.0000   -38.6962    16.8646    26.4726    25.2388
 4605.5000   -38.6946    16.8663    27.1588    25.1269
 4606.0000   -38.6929    16.8674    27.7171    25.0168
 4606.5000   -38.6911    16.8688    28.2132    25.0183
 4607.0000   -38.6893    16.8702    28.5593    24.9317
 4607.5000   -38.6873    16.8715    28.9055    24.8806
 4608.0000   -38.6857    16.8731    29.3088    24.8820
 4608.5000   -38.6839    16.7797    29.5017    24.8834
 4609.0000   -38.7724    16.7376    29.8008    24.8851
 4609.5000   -38.9663    16.6982    30.1070    24.9560
 4610.0000   -38.9641    16.5884    30.3262    25.0594
 4610.5000   -39.1709    16.4656    30.4588    25.1011
 4611.0000   -39.2464    16.3688    30.4600    25.1484
 4611.5000   -39.2446    16.3301    30.1780    25.2642
 4612.0000   -39.2429    16.3315    29.4627    25.3904
 4612.5000   -39.2410    16.3674    28.3897    25.5994
 4613.0000   -39.2393    16.6106    27.7516    25.7538
 4613.5000   -39.2375    16.7134    27.3456    25.9649
 4614.0000   -39.2357    16.8260    27.1090    26.2898
 4614.5000   -39.2815    16.9862    26.9497    26.5371
 4615.0000   -39.5178    17.2721    26.7393    26.7498
 4615.5000   -39.5161    17.8606    26.6158    27.0576
 4616.0000   -39.5143    18.3868    26.5123    27.3524
 4616.5000   -39.6225    18.9439    26.3221    27.6035
