~VERSION INFORMATION
 VERS.                2.0:   CWLS LOG ASCII STANDARD - VERSION 2.0
 WRAP.                 NO:   ONE LINE PER DEPTH STEP
~WELL INFORMATION
#MNEM.UNIT      DATA TYPE    INFORMATION
#----------   ------------   ------------------------------
 STRT.F         2933.0000:   START DEPTH
 STOP.F         5494.0000:   STOP DEPTH
 STEP.F            0.5000:   STEP LENGTH
 NULL.          -999.2500:   NO VALUE
 COMP.    FENIX & SCISSON:   COMPANY
 WELL. FENIX "TPX" #56-10:   WELL
 FLD .        TEAPOT DOME:   FIELD
 LOC .      S10 T38N R78W:   LOCATION
 CNTY.            NATRONA:   COUNTY
 STAT.            WYOMING:   STATE
 CTRY. UNITED STATES OF AMERICA:   COUNTRY
 SRVC.       SCHLUMBERGER:   SERVICE COMPANY
 DATE.        22-MAY-1978:   LOGDATE
 API .     49025106100000:   API NUMBER
~CURVE INFORMATION
#MNEM.UNIT       API CODE    CURVE DESCRIPTION
#----------   ------------   ------------------------------
 DEPT.F                  :   
 NPHI.DEC    42 890 03 00:   NEUTRON POROSITY SANDSTONE
 GRD .GAPI   45 310 01 00:   GAMMA RAY FROM DENSITY LOG
 CALD.IN     45 280 60 00:   CALIPER FROM DENSITY LOG
 CORR.G/C3   45 356 01 00:   DENSITY CORRECTION
 RHOB.G/C3   45 350 01 00:   BULK DENSITY
 SPR .MV     07 010 01 00:   SPONTANEOUS POTENTIAL
 ILD .OHMM   07 120 46 00:   INDUCTION LOG DEEP RESISTIVITY
 ILM .OHMM   07 120 44 00:   INDUCTION LOG MEDIUM RESISTIVITY
 SFL .OHMM   07 220 01 00:   SHALLOW FOCUSED LOG RESISITIVITY
 DT  .US/F   60 520 00 00:   DELTA TIME
~PARAMETER INFORMATION
#MNEM.UNIT          VALUE    DESCRIPTION
#----------   ------------   ------------------------------
 EKB .F         5212.0000:   Kelly bushing
 EGL .F         5202.0000:   Ground level
 TD  .F         5500.0000:   Total depth
 CLNT.            A2DTECH:   Client Code
 SL  . 1270' FSL & 2130' FEL:   Surface Location
 PD  .                 GL:   Permanent Datum
 EPD .F              5202:   Elevation Permanent Datum
 LMF .                 KB:   Log Measured From
 DMF .                 KB:   Drilling Measured From
 DAPD.F                10:   Feet Above Permanent Datum
 DATE.        22-MAY-1978:   Date Logged [DD-MMM-YYYY]
 DD  .F              5500:   Depth driller
 DL  .F              5499:   Depth logger
 BLI .F              5497:   Bottom log interval
 TLI .F              2971:   Top log interval
 CS1 .IN            8.625:   Casing size
 CBD1.     8.625" @ 2972':   Casing driller 1
 CBL1.F              2971:   Casing logger 1
 BS1 .IN            7.875:   Bit size
 BSD1.F              5500:   Depth drilled with bit1
 DFT .                FGM:   Type fluid in hole
 DFD .                9.3:   Density
 DFV .                 57:   Viscosity
 DFPH.               10.5:   pH
 DFL .                  6:   Fluid loss
 MSS .           MUD TANK:   Source of sample
 RMS .OHMM           0.93:   Rm
 MST .F                58:   Rm Meas. temp.
 RMF .OHMM           0.71:   Rmf
 MFST.F                61:   Rmf Meas. temp.
 MFSS.               MEAS:   Source Rmf.
 RMB .OHMM           0.27:   Rm. at BHT
 BHT .F               198:   BHT.
 TCS .HRS            1500:   Time Circ. stopped
 TLAB.HRS            0100:   Time logger at bottom
 MRT .F               198:   Maximum recorded temp.
 LUN .               8039:   Logging unit number
 LUL .               CSPR:   Logging unit location
 ENGI.          CHALUPSKY:   Recorded By
 WITN.            RHOADES:   Witnessed by
 ORIG.      2.5" 5" PRINT:   Origin of data
 UWI .     49025106100000:   Unique Well ID
 DICO. A2D TECHNOLOGIES, INC.:   Digitizing Company
~OTHER INFORMATION
~A  DEPTH     NPHI        GRD       CALD       CORR       RHOB        SPR        ILD        ILM        SFL         DT
# ...
 3301.5000     0.3135   136.5853    11.3758     0.1952     2.4468   -54.1977     4.3195     4.2510     4.7409    91.1464
 3302.0000     0.3211   134.9871    11.3760     0.2012     2.4320   -54.5021     4.3166     4.1899     4.7386    91.6034
 3302.5000     0.3201   136.4254    11.3761     0.1893     2.4024   -54.8065     4.3136     4.1873     4.6712    91.7596
 3303.0000     0.3101   139.3614    11.3162     0.1656     2.3935   -55.1109     4.3107     4.1847     4.6689    91.3895
 3303.5000     0.3093   141.3581    11.2563     0.1301     2.3832   -55.4153     4.2485     4.1822     4.7027    91.3202
 3304.0000     0.3107   142.2651    11.1964     0.1209     2.4069   -55.1224     4.2456     4.1798     4.7296    91.1757
 3304.5000     0.3131   141.8795    11.1340     0.1715     2.4277   -54.5313     4.1844     4.1770     4.7268    91.1078
 3305.0000     0.3149   140.2610    11.0440     0.1774     2.4219   -53.9403     4.1815     4.1745     4.5636    90.8867
 3305.5000     0.3184   140.8640    11.0167     0.1345     2.3769   -53.3492     4.1787     4.1719     4.4676    91.7215
 3306.0000     0.3304   144.7229    11.0619     0.0871     2.3610   -53.0566     4.2341     4.1983     4.5283    92.2537
 3306.5000     0.3392   145.9398    11.1371     0.0405     2.4054   -52.8900     4.2606     4.2249     4.6528    92.2597
 3307.0000     0.3356   144.4377    11.1372     0.0096     2.4513   -52.7698     4.2873     4.2813     4.8480    91.8145
 3307.5000     0.3196   140.0291    11.0986    -0.0047     2.4572   -52.6264     4.2837     4.2786     4.9825    91.2189
 3308.0000     0.3119   136.5861    11.0174    -0.0060     2.4602   -52.1860     4.2807     4.2759     4.9796    90.3226
 3308.5000     0.3161   137.5564    10.9462     0.0037     2.4735   -51.8919     4.2483     4.2139     4.9772    89.5767
 3309.0000     0.3256   138.7731    10.8976     0.0122     2.4857   -51.8993     4.1581     4.0961     4.9748    89.7330
 3309.5000     0.3339   141.1946    10.8540     0.0147     2.5061   -52.2037     4.0982     4.0372     4.9040    90.1900
 3310.0000     0.3286   144.2184    10.8078     0.0044     2.4978   -52.5081     3.9835     3.9243     4.7676    90.6471
 3310.5000     0.3083   148.4471    10.7779    -0.0005     2.4831   -53.2602     3.8989     3.8678     4.6351    90.8034
 3311.0000     0.3012   151.4710    10.7781    -0.0002     2.4730   -54.0123     3.8162     3.7597     4.4098    91.2605
 3311.5000     0.3046   156.9045    10.7482    -0.0002     2.4658   -53.7182     3.7084     3.6293     4.1375    92.3191
 3312.0000     0.3254   159.3260    10.7183    -0.0002     2.4587   -53.4269     3.6032     3.5035     3.9413    93.3776
 3312.5000     0.3298   159.3378    10.7185    -0.0028     2.4505   -53.8807     3.5249     3.4531     3.9169    93.9851
 3313.0000     0.3221   156.9400    10.7186    -0.0082     2.4440   -54.3344     3.4536     3.4034     3.9427    94.2918
 3313.5000     0.3197   156.3495    10.7488    -0.0120     2.4370   -54.6388     3.4037     3.3545     3.9131    94.2977
 3314.0000     0.3251   158.2010    10.7490    -0.0064     2.4295   -54.9433     3.3546     3.3062     3.8574    94.2235
 3314.5000     0.3359   161.2311    10.7491     0.0034     2.4333   -54.9747     3.3063     3.3042     3.6476    94.3448
 3315.0000     0.3456   163.6749    10.7192     0.0147     2.4454   -55.2549     3.2586     3.2567     3.5462    95.3311
 3315.5000     0.3476   164.2289    10.7194     0.0267     2.4544   -54.9608     3.2563     3.2098     3.4957    95.9771
 3316.0000     0.3372   164.1368    10.6595     0.0312     2.4479   -54.3696     3.2094     3.1636     3.5433    95.6823
 3316.5000     0.3269   162.7952    10.5970     0.0116     2.4204   -53.7785     3.1631     3.1181     3.5910    95.0867
 3317.0000     0.3209   159.1485    10.5396     0.0042     2.4145   -53.1888     3.1174     3.1162     3.5395    94.4160
 3317.5000     0.3168   156.8774    10.5398     0.0116     2.4130   -53.1947     3.1153     3.1138     3.4650    93.7452
 3318.0000     0.3144   154.0721    10.5399     0.0412     2.4174   -52.9006     3.1132     3.1119     3.3921    93.4504
 3318.5000     0.3156   148.5972    10.5401     0.0766     2.4263   -52.9079     3.0896     3.1100     3.4142    93.3045
 3319.0000     0.3204   147.4435    10.5402     0.1225     2.4367   -52.9138     3.0662     3.1081     3.5327    92.8608
 3319.5000     0.3222   151.4211    10.5404     0.1654     2.4286   -52.9197     2.9593     3.0634     3.6371    91.2878
 3320.0000     0.3162   156.1455    10.5505     0.1358     2.3420   -52.6269     2.8174     2.9985     3.5289    90.0155
 3320.5000     0.3109   157.1205    10.6008     0.0885     2.2917   -52.0359     2.6637     2.9349     3.4787    88.5177
 3321.0000     0.3043   156.4822    10.6434     0.0352     2.3050   -52.1911     2.5536     2.8135     3.3819    88.3718
 3321.5000     0.2955   154.3876    10.6749     0.0317     2.3435   -52.6448     2.4480     2.6972     3.2427    88.3792
 3322.0000     0.3074   149.9300    10.7363     0.0796     2.3598   -53.2838     2.3960     2.5149     2.9825    87.8588
 3322.5000     0.3726   145.1225    10.8303     0.0943     2.3189   -54.1765     2.4447     2.2808     2.6314    87.9400
 3323.0000     0.3915   140.0333    11.1871     0.0973     2.2115   -54.4548     2.5822     2.1564     2.1070    92.3068
 3323.5000     0.3933   130.6884    11.9831     0.0588     2.1843   -54.3100     2.7274     2.3748     1.9517   101.2124
 3324.0000     0.3625   125.8809    11.8631     0.0229     2.1779   -54.1666     2.9210     2.9223     2.3356   104.2389
 3324.5000     0.3205   123.4831    11.3527    -0.0063     2.2181   -54.0232     3.0853     3.4494     3.3941   103.1090
 3325.0000     0.3011   123.4950    10.7523     0.0015     2.3221   -54.4783     3.2363     3.5938     4.9666    95.9404
 3325.5000     0.2915   125.9164    10.6323     0.0101     2.4087   -54.7827     3.3515     3.6430     5.7022    87.6012
 3326.0000     0.2879   129.5427    10.5424     0.0083     2.4323   -55.2364     3.3925     3.6648     5.6210    83.3214
 3326.5000     0.2909   133.1690    10.5725     0.0100     2.4353   -55.6900     3.3430     3.6291     4.9546    84.9063
 3327.0000     0.3228   134.3857    10.6327     0.0303     2.3802   -55.6959     3.2947     3.3211     4.0941    85.2130
 3327.5000     0.3884   134.3975    10.7830     0.0638     2.3269   -55.4033     3.2025     2.7522     3.1105    88.4520
 3328.0000     0.4192   133.1730    11.6240     0.1276     2.2103   -55.1106     3.2004     2.6021     2.3104    96.3527
 3328.5000     0.4149   130.6454    12.9768     0.1146     2.1177   -54.8179     3.1982     2.7872     2.5095   101.7717
 3329.0000     0.4002   124.6429    12.9004     0.0765     2.1035   -53.9283     3.1521     3.1779     3.0880   104.1084
 3329.5000     0.3501   123.6014    11.8536     0.0340     2.1809   -53.6357     3.1066     3.4040     4.1870   102.3099
 3330.0000     0.2946   125.0610    11.0291     0.0141     2.3362   -53.3431     2.9988     3.4261     5.0113    93.1429
 3330.5000     0.2903   127.8110    10.8315     0.0040     2.3821   -53.3504     2.8948     3.4478     5.2951    89.5175
 3331.0000     0.2921   133.8274    10.7841     0.0176     2.4087   -53.3563     2.7751     3.1921     4.8696    87.2599
 3331.5000     0.3108   142.3864    10.7755     0.0712     2.4058   -53.3622     2.6420     2.8551     4.1790    86.5217
 3332.0000     0.3246   154.4837    10.8644     0.1384     2.2970   -53.3681     2.5503     2.4158     3.3462    90.9125
 3332.5000     0.4197   159.8193    11.3064     0.1598     2.0685   -53.0740     2.5135     2.0727     2.0878    95.2041
 3333.0000     0.4349   157.6147    11.7607     0.1548     1.9724   -52.7813     2.4944     2.0693     1.7917   100.3980
 3333.5000     0.4379   150.4134    12.1149     0.0606     1.8763   -53.0872     2.4752     2.1882     1.8668   109.5769
 3334.0000     0.4184   140.9146    12.3465    -0.0067     1.8707   -53.3916     2.5080     2.4266     2.3292   110.1829
 3334.5000     0.3456   130.4861    12.2028    -0.0517     1.9710   -53.6945     2.5767     2.8059     3.3719   105.0023
