~VERSION INFORMATION
 VERS.                2.0:   CWLS LOG ASCII STANDARD - VERSION 2.0
 WRAP.                 NO:   ONE LINE PER DEPTH STEP
~WELL INFORMATION
#MNEM.UNIT      DATA TYPE    INFORMATION
#----------   ------------   ------------------------------
 STRT.F            0.5000:   START DEPTH
 STOP.F         3195.0000:   STOP DEPTH
 STEP.F            0.5000:   STEP LENGTH
 NULL.          -999.2500:   NO VALUE
 COMP.   TESORO PETROLEUM:   COMPANY
 WELL. TESORO NPR 3 "A" #15-10:   WELL
 FLD .        TEAPOT DOME:   FIELD
 LOC .      S10 T38N R78W:   LOCATION
 CNTY.            NATRONA:   COUNTY
 STAT.            WYOMING:   STATE
 CTRY. UNITED STATES OF AMERICA:   COUNTRY
 SRVC.       SCHLUMBERGER:   SERVICE COMPANY
 DATE.        03-JUL-1969:   LOGDATE
 API .     49025600130000:   API NUMBER
~CURVE INFORMATION
#MNEM.UNIT       API CODE    CURVE DESCRIPTION
#----------   ------------   ------------------------------
 DEPT.F                  :   
 SPR .MV     05 010 01 00:   SPONTANEOUS POTENTIAL FROM RES.
 ASN .OHMM   05 041 16 00:   AMPLIFIED SHORT NORMAL 16"
 ILD .OHMM   05 120 46 00:   INDUCTION LOG DEEP
 CALD.IN     45 280 60 00:   CALIPER FROM DENSITY LOG
 GRD .GAPI   45 310 01 00:   GAMMA RAY FROM DENSITY LOG
 RHOB.G/C3   45 350 01 00:   BULK DENSITY
~PARAMETER INFORMATION
#MNEM.UNIT          VALUE    DESCRIPTION
#----------   ------------   ------------------------------
 EKB .F         5250.0000:   Kelly bushing
 EGL .F         5237.0000:   Ground level
 EDF .F            0.0000:   Drilling floor
 TD  .F         3200.0000:   Total depth
 CLNT.            A2DTECH:   Client Code
 SL  . 990' FWL & 1980' FSL:   Surface Location
 PD  .                 GL:   Permanent Datum
 EPD .F              5237:   Elevation Permanent Datum
 LMF .                 KB:   Log Measured From
 DMF .                 KB:   Drilling Measured From
 DAPD.F                13:   Feet Above Permanent Datum
 DATE.        03-JUL-1969:   Date Logged [DD-MMM-YYYY]
 DD  .F              3200:   Depth driller
 DL  .F              3196:   Depth logger
 BLI .F              3195:   Bottom log interval
 TLI .F               676:   Top log interval
 CS1 .IN            10.75:   Casing size
 CBD1.      10.75" @ 675':   Casing driller 1
 CBL1.F               676:   Casing logger 1
 BS1 .IN            6.125:   Bit size
 BSD1.F              3200:   Depth drilled with bit1
 DFT .      FRESH GEL MUD:   Type fluid in hole
 DFD .                9.5:   Density
 DFV .                 46:   Viscosity
 DFPH.                9.5:   pH
 DFL .                6.4:   Fluid loss
 MSS .           FLOWLINE:   Source of sample
 RMS .OHMM           2.05:   Rm
 MST .F                76:   Rm Meas. temp.
 RMF .OHMM           1.49:   Rmf
 MFST.F                78:   Rmf Meas. temp.
 MFSS.               MEAS:   Source Rmf.
 RMB .OHMM           1.34:   Rm. at BHT
 BHT .F               116:   BHT.
 TCS .HRS               2:   Time Circ. stopped
 MRT .F               116:   Maximum recorded temp.
 LUN .               4507:   Logging unit number
 LUL .               CSPR:   Logging unit location
 ENGI.             KNOBEL:   Recorded By
 WITN.                MAY:   Witnessed by
 ORIG.        2" 5" PRINT:   Origin of data
 UWI .     49025600130000:   Unique Well ID
 DICO. A2D TECHNOLOGIES, INC.:   Digitizing Company
~OTHER INFORMATION
~A    DEPT     SPR          ASN      ILD       CALD        GRD       RHOB   
# ...
 2704.5000   -25.6872     9.7717     7.3528    11.0000   104.9054     2.5408
 2705.0000   -25.8407     9.7744     7.4363    11.0000   104.6912     2.5490
 2705.5000   -25.8325     9.8530     7.5215    10.9853   105.8002     2.5595
 2706.0000   -25.7154     9.9609     7.4549    10.9706   106.9076     2.5835
 2706.5000   -25.7891     9.9342     7.3861    10.9559   105.8139     2.5851
 2707.0000   -25.8665     9.8016     7.2488    10.9412   104.4985     2.5694
 2707.5000   -25.9430     9.7291     7.2571    10.9412   101.8614     2.5657
 2708.0000   -26.0193     9.6874     7.2654    10.9265    96.1422     2.5567
 2708.5000   -26.0956     9.9464     7.3508    10.9118    96.5888     2.5658
 2709.0000   -26.1718     9.7582     7.3592    10.8971    97.9165     2.5689
 2709.5000   -26.2481    10.3684     7.5175    10.8824   102.1091     2.5636
 2710.0000   -26.3244    10.3771     7.6778    10.8814   104.7584     2.5511
 2710.5000   -26.4007    10.2337     7.8361    10.8676   102.1214     2.5404
 2711.0000   -26.4770    10.0902     7.9194    10.8529    97.9440     2.5427
 2711.5000   -26.5534     9.9469     8.0030    10.8235    95.0866     2.5511
 2712.0000   -26.6295     9.9556     7.9382    10.8235    95.7535     2.5555
 2712.5000   -26.6740     9.9626     7.8695    10.8088   100.1665     2.5541
 2713.0000   -26.6605     9.8191     7.5801    10.7647   103.6968     2.5503
 2713.5000   -26.4966     9.6757     7.4385    10.7059   105.6853     2.5331
 2714.0000   -26.6836     9.3835     7.2969    10.6912   107.2348     2.5496
 2714.5000   -26.6506     9.8150     7.1574    10.6471   108.1219     2.5579
 2715.0000   -26.7152     9.6548     7.0929    10.6324   106.5862     2.5520
 2715.5000   -26.6829     9.5387     7.1013    10.6029   104.7467     2.5445
 2716.0000   -26.4592     9.4677     7.0345    10.5882   103.0757     2.5242
 2716.5000   -26.3196     9.4419     6.8931    10.5588   101.5400     2.5190
 2717.0000   -26.1930     9.4471     6.8285    10.5294    99.0523     2.5220
 2717.5000   -26.0332     9.4653     6.7598    10.5147    96.9267     2.5266
 2718.0000   -25.8471     9.4216     6.7724    10.4973    98.4761     2.5258
 2718.5000   -25.7723     9.3394     6.7807    10.4706   101.1637     2.5236
 2719.0000   -25.7031     9.2845     6.7891    10.4412   105.0978     2.5267
 2719.5000   -25.6990     9.2887     6.7976    10.4118   103.7823     2.5312
 2720.0000   -25.9143     9.3842     6.8078    10.3971   100.4701     2.5342
 2720.5000   -25.7880     9.4786     6.8912    10.3824    99.6095     2.5328
 2721.0000   -25.9062     9.5730     6.9745    10.3676    99.3954     2.5343
 2721.5000   -26.0356     9.6083     6.9079    10.3529   100.3046     2.5418
 2722.0000   -26.1657     9.5073     6.7684    10.3529   103.3754     2.5501
 2722.5000   -26.2957     9.3460     6.7017    10.3451   105.3639     2.5532
 2723.0000   -26.4241     9.1960     6.5602    10.3382   106.4774     2.5555
 2723.5000   -26.6721     9.0547     6.4936    10.3382   107.3600     2.5600
 2724.0000   -26.9909     8.9086     6.3541    10.3529   107.1443     2.5630
 2724.5000   -27.2462     8.7915     6.2146    10.3529   105.6018     2.5585
 2725.0000   -27.0220     8.6774     6.1459    10.3529   100.3314     2.5503
 2725.5000   -26.6156     8.6204     6.0814    10.3529    99.0159     2.5428
 2726.0000   -26.5258     8.5955     6.0147    10.3676    99.6828     2.5376
 2726.5000   -26.3139     8.6610     6.0252    10.3971   100.1310     2.5324
 2727.0000   -26.1090     8.7554     6.0335    10.3971   101.2384     2.5294
 2727.5000   -26.2663     8.7896     5.8919    10.4118   102.3459     2.5287
 2728.0000   -26.2756     8.7337     5.7504    10.4412   103.6751     2.5340
 2728.5000   -26.4077     8.7540     5.6088    10.4559   101.8877     2.5498
 2729.0000   -26.5796     8.7732     5.5442    10.5000    95.5238     2.5641
 2729.5000   -26.7529     8.7774     5.6297    10.5147    93.5449     2.5663
 2730.0000   -26.9256     8.8729     5.9379    10.5147    89.1663     2.5589
 2730.5000   -27.1016     9.3583     6.3960    10.5294    84.7790     2.5371
 2731.0000   -27.2736     9.9038     7.1561    10.5000    79.5132     2.5244
 2731.5000   -27.0595    11.5907     7.9890    10.4645    69.8563     2.5109
 2732.0000   -27.7519    14.3010     9.2717    10.4118    67.6640     2.4997
 2732.5000   -28.7013    18.9662    11.2312    10.3529    69.4273     2.4637
 2733.0000   -29.5693    23.4818    13.4134    10.2941    72.5083     2.4277
 2733.5000   -31.1299    27.2448    17.0200    10.2337    74.9292     2.3902
 2734.0000   -32.5496    29.1280    21.2924    10.1618    76.9109     2.3782
 2734.5000   -34.0420    30.5702    26.3341    10.1176    72.5248     2.4015
 2735.0000   -34.5432    31.6171    28.5164    10.0588    67.2591     2.4060
 2735.5000   -35.4043    32.2222    28.7496    10.0147    64.1895     2.3790
 2736.0000   -35.9599    32.5264    27.7855     9.9706    64.1947     2.3700
 2736.5000   -36.4460    32.7005    27.2691     9.9261    63.7617     2.3776
 2737.0000   -36.9713    32.9855    27.0526     9.8824    63.3263     2.3791
 2737.5000   -37.2164    33.1394    26.9110     9.8529    61.9780     2.3664
 2738.0000   -37.5704    33.1429    26.6966     9.8235    60.0447     2.3521
 2738.5000   -37.8889    33.1473    26.4798     9.8235    58.0732     2.3567
 2739.0000   -37.8959    33.1508    26.1157     9.8235    54.9593     2.3822
 2739.5000   -37.8943    32.8536    25.5993     9.8235    52.5929     2.4033
 2740.0000   -37.8607    32.8571    25.2328     9.8235    53.9170     2.4063
 2740.5000   -37.6790    33.0119    25.0163     9.8235    55.8986     2.3943
 2741.0000   -37.5010    33.1658    25.0267     9.8235    59.6385     2.3906
 2741.5000   -37.3231    33.3197    25.0350     9.8235    66.0126     2.4169
 2742.0000   -37.1451    33.4737    25.8021     9.8235    67.5550     2.4740
 2742.5000   -36.9676    33.9292    26.7780     9.8088    70.4164     2.4755
 2743.0000   -36.7882    34.2334    27.7608     9.8088    70.6398     2.4598
 2743.5000   -36.7128    34.5377    28.6687     9.8088    68.8892     2.4546
 2744.0000   -36.7702    34.8622    28.9790     9.7941    66.0405     2.4711
 2744.5000   -36.5684    35.2975    28.9874     9.7941    63.8494     2.4794
 2745.0000   -36.5029    35.3762    28.9957     9.7794    61.2191     2.4667
 2745.5000   -36.3591    35.2294    28.9312     9.7647    59.4672     2.4547
 2746.0000   -36.3486    34.6323    28.5647     9.7647    60.1325     2.4390
 2746.5000   -36.6840    34.1095    27.5236     9.7500    61.8945     2.4247
 2747.0000   -36.8712    33.5867    26.0348     9.7353    65.9617     2.4217
 2747.5000   -37.0670    32.7632    25.0686     9.7500    70.0319     2.4278
 2748.0000   -37.1273    30.9631    24.1949     9.7500    70.4762     2.4226
 2748.5000   -36.8957    30.3642    23.9558     9.7500    70.0199     2.4248
 2749.0000   -36.7145    30.1430    23.5965     9.7500    69.1686     2.4249
 2749.5000   -36.5391    30.0714    23.2300     9.7500    69.1750     2.4399
 2750.0000   -36.5127    30.5269    23.0128     9.7647    70.0586     2.4534
 2750.5000   -36.6396    31.4327    23.8478     9.7647    69.8453     2.4460
 2751.0000   -36.8126    31.5890    24.9056     9.7647    68.3131     2.4175
 2751.5000   -36.9862    32.3450    26.3404     9.7647    66.1219     2.4205
 2752.0000   -37.1613    33.2515    28.2166     9.7600    63.9321     2.4311
 2752.5000   -37.3509    35.4439    30.1726     9.7494    62.3999     2.4761
 2753.0000   -37.3535    38.5240    31.7555     9.7595    60.8676     2.4949
 2753.5000   -36.7253    40.7838    32.2122     9.7585    59.1158     2.4965
 2754.0000   -36.4706    42.3032    32.5939     9.7575    63.0496     2.5245
 2754.5000   -36.2686    42.7470    32.6026     9.7567    65.0380     2.5288
 2755.0000   -36.3354    41.9251    32.3847     9.7559    67.4671     2.5258
 2755.5000   -36.3162    39.8776    31.8669     9.7548    70.1179     2.5250
 2756.0000   -36.3029    36.5961    29.6954     9.7540    69.2429     2.4523
