~VERSION INFORMATION
 VERS.                2.0:   CWLS LOG ASCII STANDARD - VERSION 2.0
 WRAP.                 NO:   ONE LINE PER DEPTH STEP
~WELL INFORMATION
#MNEM.UNIT      DATA TYPE    INFORMATION
#----------   ------------   ------------------------------
 STRT.F          199.5000:   START DEPTH
 STOP.F         2983.0000:   STOP DEPTH
 STEP.F            0.5000:   STEP LENGTH
 NULL.          -999.2500:   NO VALUE
 COMP.    FENIX & SCISSON:   COMPANY
 WELL. FENIX (UE-49) "AX" #52-29:   WELL
 FLD . U.S. NAVAL PETROLEUM RESERVE #3:   FIELD
 LOC .      S29 T39N R78W:   LOCATION
 CNTY.            NATRONA:   COUNTY
 STAT.            WYOMING:   STATE
 CTRY. UNITED STATES OF AMERICA:   COUNTRY
 SRVC.           BIRDWELL:   SERVICE COMPANY
 DATE.        07-AUG-1977:   LOGDATE
 API .     49025104090000:   API NUMBER
~CURVE INFORMATION
#MNEM.UNIT       API CODE    CURVE DESCRIPTION
#----------   ------------   ------------------------------
 DEPT.F                  :   
 GRD .GAPI   45 310 01 00:   GAMMA RAY FROM DENSITY LOG
 CALD.IN     45 280 60 00:   CALIPER FROM DENSITY LOG
 DEN .G/C3   45 350 01 00:   BULK DENSITY
 DCOR.G/C3   45 356 01 00:   DENSITY CORRECTION
 SN  .OHMM   05 040 16 00:   SHORT NORMAL 16"
 ILD .OHMM   05 120 46 00:   INDUCTION LOG DEEP RESISTIVITY
~PARAMETER INFORMATION
#MNEM.UNIT          VALUE    DESCRIPTION
#----------   ------------   ------------------------------
 EKB .F         4995.0000:   Kelly bushing
 EGL .F         4985.0000:   Ground level
 EDF .F            0.0000:   Drilling floor
 TD  .F         2973.0000:   Total depth
 DATE.         7-AUG-1977:   Date logged
 CLNT.            A2DTECH:   Client Code
 SL  . 1400' FNL & 2380' FEL:   Surface Location
 PD  .                 GL:   Permanent Datum
 EPD .F              4985:   Elevation Permanent Datum
 LMF .                 KB:   Log Measured From
 DMF .                 KB:   Drilling Measured From
 DAPD.F                10:   Feet Above Permanent Datum
 DD  .F              2972:   Depth driller
 DL  .F              2973:   Depth logger
 BLI .F              2968:   Bottom log interval
 TLI .F               216:   Top log interval
 CS1 .IN            8.625:   Casing size
 CBD1.      8.625" @ 216':   Casing driller 1
 CBL1.F               216:   Casing logger 1
 BS1 .IN            7.875:   Bit size
 BSD1.F              2972:   Depth drilled with bit1
 DFT .            GEL-KCL:   Type fluid in hole
 DFD .                8.9:   Density
 DFV .                 33:   Viscosity
 DFL .                  9:   Fluid loss
 MSS .            MUD PIT:   Source of sample
 RMS .OHMM           0.26:   Rm
 MST .F                73:   Rm Meas. temp.
 RMF .OHMM           0.26:   Rmf
 MFST.F                72:   Rmf Meas. temp.
 RMC .OHMM           0.96:   Rmc
 MCST.F                72:   Rmc Meas. temp.
 MFSS.              PRESS:   Source Rmf.
 RMB .OHMM           0.14:   Rm. at BHT
 BHT .F               130:   BHT.
 TCS .HRS               5:   Time Circ. stopped
 MRT .F               130:   Maximum recorded temp.
 LUN .               2958:   Logging unit number
 LUL .             CASPER:   Logging unit location
 ENGI.                LAW:   Recorded By
 WITN.             RHODES:   Witnessed by
 ORIG.           5" PRINT:   Origin of data
 UWI .     49025104090000:   Unique Well ID
 DICO. A2D TECHNOLOGIES, INC.:   Digitizing Company
~OTHER INFORMATION
~A   DEPT       GRD      CALD        DEN       DCOR         SN        ILD   
# ...
 2019.5000    72.1920     8.4860     2.5280     0.0110     6.0040     6.1030
 2020.0000    75.6490     8.4870     2.5190     0.0110     5.9790     6.0940
 2020.5000    78.1480     8.4880     2.5070     0.0110     5.9530     6.0850
 2021.0000    72.9530     8.4880     2.5020     0.0110     5.9280     6.0760
 2021.5000    77.7770     8.4890     2.4980     0.0090     5.9020     5.6980
 2022.0000    83.9270     8.4900     2.4940     0.0120     5.8760     5.6460
 2022.5000    83.4740     8.4910     2.4930     0.0130     5.8570     5.6460
 2023.0000    89.1460     8.4910     2.4940     0.0130     6.0160     5.6460
 2023.5000    96.0200     8.4920     2.4940     0.0160     6.1320     5.6460
 2024.0000    92.3540     8.4930     2.4950     0.0210     6.0420     5.6460
 2024.5000    86.0210     8.4940     2.5000     0.0230     5.9660     5.6720
 2025.0000    83.8360     8.4940     2.5040     0.0240     5.9930     5.8020
 2025.5000    80.0200     8.4950     2.5000     0.0210     6.0210     6.0110
 2026.0000    80.8960     8.4960     2.4990     0.0220     6.1850     6.2190
 2026.5000    80.7620     8.4970     2.4920     0.0230     6.3650     6.4550
 2027.0000    79.8070     8.4970     2.4980     0.0190     6.5460     6.7480
 2027.5000    86.0410     8.4980     2.4960     0.0210     6.7270     7.0400
 2028.0000    83.8850     8.4990     2.4940     0.0260     6.8970     7.2320
 2028.5000    82.2190     8.5000     2.5000     0.0310     7.0470     7.3850
 2029.0000    87.6100     8.4970     2.5020     0.0270     7.1970     7.6620
 2029.5000    83.4020     8.4920     2.4940     0.0300     7.2530     7.7820
 2030.0000    81.3340     8.4870     2.4990     0.0250     7.2810     7.6450
 2030.5000    83.7800     8.4820     2.4970     0.0190     7.2980     7.5280
 2031.0000    85.6780     8.4770     2.4860     0.0130     7.1740     7.4170
 2031.5000    81.2850     8.4720     2.4790     0.0130     7.0850     7.3340
 2032.0000    74.2720     8.4670     2.4730     0.0170     6.9950     7.2500
 2032.5000    75.7040     8.4620     2.4760     0.0220     6.9080     7.1660
 2033.0000    81.3800     8.4640     2.4790     0.0270     6.8370     7.0830
 2033.5000    94.2180     8.4690     2.4900     0.0260     6.7200     7.0360
 2034.0000    90.1140     8.4740     2.4900     0.0230     6.7670     7.0620
 2034.5000    87.6940     8.4780     2.4840     0.0250     6.8390     7.0800
 2035.0000    83.3460     8.4830     2.4780     0.0160     6.9080     7.0980
 2035.5000    78.6920     8.4880     2.4730     0.0160     6.9080     7.1410
 2036.0000    84.2420     8.4930     2.4690     0.0090     6.9910     7.2530
 2036.5000    83.2100     8.4980     2.4790     0.0140     7.0870     7.4370
 2037.0000    85.3540     8.4930     2.4680     0.0210     7.1830     7.6210
 2037.5000    81.1770     8.4810     2.4730     0.0230     7.2320     7.6400
 2038.0000    80.0540     8.4690     2.4730     0.0300     7.2320     7.6400
 2038.5000    82.1210     8.4670     2.4790     0.0250     7.3180     7.6400
 2039.0000    82.9450     8.4870     2.4830     0.0210     7.4330     7.6400
 2039.5000    83.6600     8.4990     2.4790     0.0220     7.3800     7.6400
 2040.0000    79.3890     8.4970     2.4770     0.0220     7.3400     7.7010
 2040.5000    79.2190     8.4950     2.4770     0.0230     7.2980     7.7660
 2041.0000    79.1630     8.4930     2.4780     0.0160     7.5930     7.8840
 2041.5000    81.4720     8.4900     2.4690     0.0130     7.8530     8.0190
 2042.0000    82.7370     8.4880     2.4600     0.0140     7.6880     8.1470
 2042.5000    81.6340     8.4860     2.4610     0.0190     7.5710     7.8530
 2043.0000    84.8370     8.4840     2.4720     0.0240     7.8890     8.3600
 2043.5000    84.8070     8.4820     2.4830     0.0230     7.9990     8.6980
 2044.0000    82.9920     8.4800     2.4870     0.0180     7.8530     9.0110
 2044.5000    85.6510     8.4770     2.4770     0.0150     8.0200     8.5800
 2045.0000    81.7320     8.4750     2.4680     0.0180     8.2220     7.8530
 2045.5000    84.8570     8.4730     2.4700     0.0230     7.9250     7.4950
 2046.0000    82.7210     8.4710     2.4770     0.0280     7.6340     7.2330
 2046.5000    80.1700     8.4690     2.4840     0.0260     7.3430     7.0230
 2047.0000    83.8560     8.4660     2.4850     0.0230     7.2140     6.8840
 2047.5000    87.1580     8.4640     2.4770     0.0240     7.1140     6.8310
 2048.0000    80.7860     8.4620     2.4690     0.0280     7.0540     6.7820
 2048.5000    74.3610     8.4610     2.4650     0.0340     7.0000     6.8080
 2049.0000    71.7490     8.4610     2.4650     0.0380     6.9710     6.8320
 2049.5000    79.0770     8.4610     2.4580     0.0630     7.0780     6.8600
 2050.0000    73.5800     8.4620     2.4530     0.0790     7.1990     6.8920
 2050.5000    76.5950     8.4620     2.5130     0.0350     7.2980     6.9240
 2051.0000    81.6280     8.4620     2.4980     0.0120     7.2710     6.9710
 2051.5000    85.9220     8.4630     2.4860     0.0140     7.2500     6.9510
 2052.0000    83.8230     8.4630     2.4880     0.0100     7.2000     6.9080
 2052.5000    81.5650     8.4630     2.4760     0.0170     6.9450     6.6590
 2053.0000    79.5790     8.4640     2.4880     0.0230     6.6900     6.0570
 2053.5000    83.9910     8.4640     2.5050     0.0230     6.4190     6.0020
 2054.0000    78.3860     8.4640     2.5120     0.0280     6.2300     5.6460
 2054.5000    80.7720     8.4650     2.5160     0.0280     6.0210     5.6750
 2055.0000    84.4070     8.4650     2.5150     0.0270     5.9660     5.7510
 2055.5000    83.2980     8.4650     2.5140     0.0330     5.9820     5.5440
 2056.0000    87.1730     8.4660     2.5270     0.0340     6.0110     5.4630
 2056.5000    76.6900     8.4660     2.5300     0.0220     6.0410     5.3940
 2057.0000    80.4670     8.4660     2.5220     0.0110     6.0760     5.4780
 2057.5000    80.0290     8.4670     2.5150     0.0120     6.0640     5.5540
 2058.0000    86.0330     8.4670     2.5150     0.0130     6.0480     5.6980
 2058.5000    91.5590     8.4670     2.5110     0.0180     6.0330     5.6470
 2059.0000    87.6150     8.4680     2.5120     0.0230     6.0170     5.5140
 2059.5000    92.7160     8.4680     2.5140     0.0260     6.0000     5.3150
 2060.0000    88.9540     8.4690     2.5110     0.0270     5.9820     5.1050
 2060.5000    83.9590     8.4690     2.5090     0.0320     5.9660     5.4380
 2061.0000    81.1420     8.4690     2.5100     0.0280     6.0370     5.7750
 2061.5000    83.9910     8.4700     2.5110     0.0140     6.1070     5.8780
 2062.0000    85.6880     8.4700     2.5000     0.0150     6.4190     5.9820
 2062.5000    82.1690     8.4700     2.4950     0.0170     6.3610     6.0860
 2063.0000    83.6200     8.4710     2.4960     0.0160     6.4540     6.1890
 2063.5000    84.5490     8.4710     2.4970     0.0130     6.5280     6.2450
 2064.0000    81.7810     8.4710     2.4950     0.0080     6.5620     6.1880
 2064.5000    80.8660     8.4720     2.4910     0.0040     6.5890     6.2410
 2065.0000    80.6610     8.4720     2.4850     0.0050     6.5980     6.3200
 2065.5000    76.1500     8.4720     2.4770     0.0140     6.5560     6.3610
 2066.0000    78.0820     8.4730     2.4910     0.0230     6.5260     6.1320
 2066.5000    76.5220     8.4730     2.4990     0.0210     6.4970     6.1510
 2067.0000    77.4060     8.4730     2.4980     0.0220     6.4680     6.1780
 2067.5000    71.5620     8.4740     2.5040     0.0210     6.4390     6.2050
 2068.0000    76.0080     8.4740     2.5060     0.0240     6.3610     6.2320
 2068.5000    79.9840     8.4740     2.5040     0.0220     6.4220     6.2530
 2069.0000    78.6370     8.4750     2.5010     0.0220     6.4880     6.2670
 2069.5000    76.3620     8.4750     2.4920     0.0220     6.5540     6.2820
 2070.0000    76.3020     8.4750     2.4890     0.0220     6.5980     6.3030
 2070.5000    75.5870     8.4760     2.4940     0.0270     6.4790     6.2250
 2071.0000    74.2300     8.4760     2.4900     0.0250     6.1880     5.9900
