~VERSION INFORMATION
 VERS.                2.0:   CWLS LOG ASCII STANDARD - VERSION 2.0
 WRAP.                 NO:   ONE LINE PER DEPTH STEP
~WELL INFORMATION
#MNEM.UNIT      DATA TYPE    INFORMATION
#----------   ------------   ------------------------------
 STRT.F            0.0000:   START DEPTH
 STOP.F         4000.0000:   STOP DEPTH
 STEP.F            0.5000:   STEP LENGTH
 NULL.          -999.2500:   NO VALUE
 COMP. LAWRENCE &  ALLISON ASSOC.:   COMPANY
 WELL. LAWRENCE NPR 3 "TX" #14-28:   WELL
 FLD .              N P R:   FIELD
 LOC .      S28 T39N R78W:   LOCATION
 CNTY.            NATRONA:   COUNTY
 STAT.            WYOMING:   STATE
 CTRY. UNITED STATES OF AMERICA:   COUNTRY
 SRVC.      DRESSER ATLAS:   SERVICE COMPANY
 DATE.        11-APR-1984:   LOGDATE
 API .     49025109710000:   API NUMBER
~CURVE INFORMATION
#MNEM.UNIT       API CODE    CURVE DESCRIPTION
#----------   ------------   ------------------------------
 DEPT.F                  :   
 RHOB.G/C3   45 350 01 00:   BULK DENSITY
 CORR.G/C3   45 356 01 00:   DENSITY CORRECTION
 TEND.LBS    45 635 01 00:   TENSION FROM DENSITY LOG
 CNC .DEC    42 890 03 00:   NEUTRON PORISITY SANDSTONE
 DT  .US/F   60 520 00 00:   DELTA TIME
 TENS.LBS    60 635 01 00:   TENSION FROM SONIC LOG
 GRR .GAPI   07 310 01 00:   GAMMA RAY FROM RESISTIVITY
 SPR .MV     07 010 01 00:   SPONTANEOUS POTENTIAL
 CALR.IN     07 280 01 00:   CALIPER FROM RESISTIVITY
 TENR.LBS    07 635 01 00:   TENSION
 RILD.OHMM   07 120 46 00:   INDUCTION LOG DEEP RESISTIVITY
 RILM.OHMM   07 120 44 00:   INDUCTION LOG MEDIUM RESISTIVITY
 RFOC.OHMM   07 220 01 00:   RESISTIVITY FOCUSED LOG RES.
~PARAMETER INFORMATION
#MNEM.UNIT          VALUE    DESCRIPTION
#----------   ------------   ------------------------------
 EKB .F         5024.0000:   Kelly bushing
 EGL .F         5014.0000:   Ground level
 TD  .F         3996.0000:   Total depth
 DATE.        11-APR-1984:   Date logged
 CLNT.            A2DTECH:   Client Code
 SL  . 250' FWL & 2100' FNL:   Surface Location
 PD  .                 GL:   Permanent Datum
 EPD .F              5014:   Elevation Permanent Datum
 LMF .                 KB:   Log Measured From
 DMF .                 KB:   Drilling Measured From
 DD  .F              3996:   Depth driller
 DL  .F              3994:   Depth logger
 BLI .F              3992:   Bottom log interval
 CS1 .IN            8.625:   Casing size
 CBD1.      8.625" @ 404':   Casing driller 1
 CBL1.F               404:   Casing logger 1
 BS1 .IN            7.875:   Bit size
 DFT .            GEL/KCL:   Type fluid in hole
 DFD .                9.1:   Density
 DFV .                 38:   Viscosity
 DFPH.                  8:   pH
 DFL .                 14:   Fluid loss
 MSS .           FLOWLINE:   Source of sample
 RMS .OHMM           .417:   Rm
 MST .F                90:   Rm Meas. temp.
 RMF .OHMM           .313:   Rmf
 MFST.F                90:   Rmf Meas. temp.
 RMC .OHMM           .521:   Rmc
 MCST.F                90:   Rmc Meas. temp.
 MFSS.               CALC:   Source Rmf.
 RMB .OHMM            .25:   Rm. at BHT
 BHT .F               150:   BHT.
 TCS .HRS               3:   Time Circ. stopped
 MRT .F               150:   Maximum recorded temp.
 LUN .               6307:   Logging unit number
 LUL .               GLTE:   Logging unit location
 ENGI.           FAHLSING:   Recorded By
 WITN.             STRONG:   Witnessed by
 ORIG.           5" PRINT:   Origin of data
 UWI .     49025109710000:   Unique Well ID
 DICO. A2D TECHNOLOGIES, INC.:   Digitizing Company
 DAPD.F                10:   Feet Above Permanent Datum
 BSD1.F              3996:   Depth drilled with bit1
 MCSS.               CALC:   Source Rmc.
~OTHER INFORMATION
~A    DEPT    RHOB       CORR       TEND        CNC         DT       TENS         GRR       SPR       CALR       TENR       RILD       RILM       RFOC   
# ...
 1612.0000  -999.2500  -999.2500  -999.2500  -999.2500  -999.2500  -999.2500   114.8870   -40.1180     8.8840   -55.3890     7.7820     7.3920     7.0330
 1612.5000  -999.2500  -999.2500  -999.2500  -999.2500  -999.2500  -999.2500   111.2430   -40.2320     8.8840   -55.3890     7.8820     7.5290     7.1260
 1613.0000  -999.2500  -999.2500  -999.2500  -999.2500  -999.2500  -999.2500   114.5430   -40.3460     8.8840   -55.3890     7.8820     7.3860     6.9400
 1613.5000  -999.2500  -999.2500  -999.2500  -999.2500  -999.2500  -999.2500   116.2430   -40.4590     8.8840   -55.3890     7.8100     7.1910     6.7460
 1614.0000  -999.2500  -999.2500  -999.2500  -999.2500  -999.2500  -999.2500   112.6520   -40.5720     8.8840   -55.3890     7.4880     6.8210     6.3890
 1614.5000  -999.2500  -999.2500  -999.2500  -999.2500  -999.2500  -999.2500   115.6820   -40.6800     8.8840   -55.3890     7.0720     6.4400     6.0310
 1615.0000  -999.2500  -999.2500  -999.2500  -999.2500  -999.2500  -999.2500   118.2370   -40.7690     8.8840   -55.3890     6.6550     6.0410     5.6740
 1615.5000  -999.2500  -999.2500  -999.2500  -999.2500  -999.2500  -999.2500   114.3540   -40.8600     8.8840   -55.3890     6.3250     5.9310     5.4610
 1616.0000  -999.2500  -999.2500  -999.2500  -999.2500  -999.2500  -999.2500   105.9380   -40.9500     8.8840   -55.3890     6.3830     5.9860     5.5910
 1616.5000  -999.2500  -999.2500  -999.2500  -999.2500  -999.2500  -999.2500   102.5320   -41.0400     8.8840   -55.3890     6.6210     6.2340     5.9020
 1617.0000  -999.2500  -999.2500  -999.2500  -999.2500  -999.2500  -999.2500   103.4050   -41.1300     8.8840   -55.3890     7.0030     6.5350     6.2130
 1617.5000  -999.2500  -999.2500  -999.2500  -999.2500  -999.2500  -999.2500   109.5250   -41.2200     8.8840   -55.3890     7.3850     6.8370     6.5250
 1618.0000  -999.2500  -999.2500  -999.2500  -999.2500  -999.2500  -999.2500   115.7700   -41.3370     8.8840   -55.3890     7.6680     7.1380     6.8360
 1618.5000  -999.2500  -999.2500  -999.2500  -999.2500  -999.2500  -999.2500   116.6910   -41.4620     8.8840   -55.3890     7.7710     7.4400     7.1260
 1619.0000  -999.2500  -999.2500  -999.2500  -999.2500  -999.2500  -999.2500   114.7530   -41.5810     8.8840   -55.3890     7.8390     7.5980     7.2580
 1619.5000  -999.2500  -999.2500  -999.2500  -999.2500  -999.2500  -999.2500   113.1930   -42.0590     8.8840   -55.3890     7.9070     7.5860     7.2270
 1620.0000  -999.2500  -999.2500  -999.2500  -999.2500  -999.2500  -999.2500   111.1740   -42.7500     8.8840   -55.3890     7.9550     7.5780     7.2030
 1620.5000  -999.2500  -999.2500  -999.2500  -999.2500  -999.2500  -999.2500   109.7260   -43.4440     8.8840   -55.3890     7.9220     7.5710     7.1790
 1621.0000  -999.2500  -999.2500  -999.2500  -999.2500  -999.2500  -999.2500   109.6460   -44.1390     8.8840   -55.3890     7.8970     7.5630     7.1550
 1621.5000  -999.2500  -999.2500  -999.2500  -999.2500  -999.2500  -999.2500   109.6010   -44.8330     8.8840   -55.3890     7.8720     7.5550     7.1310
 1622.0000  -999.2500  -999.2500  -999.2500  -999.2500  -999.2500  -999.2500   112.3830   -45.5400     8.8840   -55.3890     7.8470     7.5470     7.1070
 1622.5000  -999.2500  -999.2500  -999.2500  -999.2500  -999.2500  -999.2500   116.5430   -45.4680     8.8840   -55.3890     7.8220     7.5390     7.0830
 1623.0000  -999.2500  -999.2500  -999.2500  -999.2500  -999.2500  -999.2500   119.0630   -45.0300     8.8840   -55.3890     7.7970     7.5310     7.0590
 1623.5000  -999.2500  -999.2500  -999.2500  -999.2500  -999.2500  -999.2500   119.8990   -44.5830     8.8840   -55.3890     7.7720     7.5030     7.0350
 1624.0000  -999.2500  -999.2500  -999.2500  -999.2500  -999.2500  -999.2500   120.6410   -44.1360     8.8840   -55.3890     7.7470     7.4680     7.0120
 1624.5000  -999.2500  -999.2500  -999.2500  -999.2500  -999.2500  -999.2500   121.3890   -43.6900     8.8840   -55.3890     7.7220     7.4340     6.9880
 1625.0000  -999.2500  -999.2500  -999.2500  -999.2500  -999.2500  -999.2500   120.9910   -43.2430     8.8840   -55.3890     7.6970     7.4000     6.9640
 1625.5000  -999.2500  -999.2500  -999.2500  -999.2500  -999.2500  -999.2500   120.4540   -42.7960     8.8840   -55.3890     7.6720     7.3660     6.9400
 1626.0000  -999.2500  -999.2500  -999.2500  -999.2500  -999.2500  -999.2500   119.7950   -42.3320     8.8840   -55.3890     7.6470     7.3310     6.9160
 1626.5000  -999.2500  -999.2500  -999.2500  -999.2500  -999.2500  -999.2500   118.6880   -42.2250     8.8840   -55.3890     7.6220     7.2970     6.8920
 1627.0000  -999.2500  -999.2500  -999.2500  -999.2500  -999.2500  -999.2500   118.2130   -42.2230     8.8840   -55.3890     7.5980     7.2580     6.8690
 1627.5000  -999.2500  -999.2500  -999.2500  -999.2500  -999.2500  -999.2500   117.9460   -42.2240     8.8840   -55.3890     7.6650     7.2960     6.9360
 1628.0000  -999.2500  -999.2500  -999.2500  -999.2500  -999.2500  -999.2500   119.0720   -42.2240     8.8840   -55.3890     7.7300     7.3410     7.0000
 1628.5000  -999.2500  -999.2500  -999.2500  -999.2500  -999.2500  -999.2500   121.8700   -42.2240     8.8880   -55.3890     7.7390     7.3860     7.0610
 1629.0000  -999.2500  -999.2500  -999.2500  -999.2500  -999.2500  -999.2500   124.5480   -42.2250     8.8920   -55.3890     8.0680     7.6270     7.3450
 1629.5000  -999.2500  -999.2500  -999.2500  -999.2500  -999.2500  -999.2500   123.0560   -42.2240     8.8960   -55.3890     8.3750     7.8960     7.6100
 1630.0000  -999.2500  -999.2500  -999.2500  -999.2500  -999.2500  -999.2500   118.7220   -42.2260     8.8990   -55.3890     8.6830     8.1650     7.8760
 1630.5000  -999.2500  -999.2500  -999.2500  -999.2500  -999.2500  -999.2500   117.9180   -42.0300     8.9030   -55.3890     8.9900     8.4320     8.0360
 1631.0000  -999.2500  -999.2500  -999.2500  -999.2500  -999.2500  -999.2500   118.4330   -41.7010     8.9070   -55.3890     9.2980     8.6810     8.1520
 1631.5000  -999.2500  -999.2500  -999.2500  -999.2500  -999.2500  -999.2500   121.4560   -41.3700     8.9110   -55.3890     9.4700     8.7990     8.2520
 1632.0000  -999.2500  -999.2500  -999.2500  -999.2500  -999.2500  -999.2500   122.6770   -41.0390     8.9140   -55.3890     9.3450     8.7620     8.1280
 1632.5000  -999.2500  -999.2500  -999.2500  -999.2500  -999.2500  -999.2500   122.1870   -40.7090     8.9180   -55.3890     9.1120     8.4930     7.8950
 1633.0000  -999.2500  -999.2500  -999.2500  -999.2500  -999.2500  -999.2500   117.4150   -40.3780     8.9220   -55.3890     8.8800     8.2230     7.6620
 1633.5000  -999.2500  -999.2500  -999.2500  -999.2500  -999.2500  -999.2500   112.6610   -40.0470     8.9260   -55.3890     8.6470     7.9540     7.4290
 1634.0000  -999.2500  -999.2500  -999.2500  -999.2500  -999.2500  -999.2500   110.0340   -39.7170     8.9290   -55.3890     8.4140     7.6840     7.1960
 1634.5000  -999.2500  -999.2500  -999.2500  -999.2500  -999.2500  -999.2500   112.3340   -39.3860     8.9330   -55.3890     8.1810     7.4150     6.9630
 1635.0000  -999.2500  -999.2500  -999.2500  -999.2500  -999.2500  -999.2500   116.0020   -39.0580     8.9370   -55.3890     7.9480     7.1460     6.8060
 1635.5000  -999.2500  -999.2500  -999.2500  -999.2500  -999.2500  -999.2500   115.1970   -38.7470     8.9410   -55.3890     7.7450     6.7710     5.9460
 1636.0000  -999.2500  -999.2500  -999.2500  -999.2500  -999.2500  -999.2500   110.4210   -37.8440     8.9440   -55.3890     7.4290     5.9950     4.8280
 1636.5000  -999.2500  -999.2500  -999.2500  -999.2500  -999.2500  -999.2500   109.6200   -36.8790     8.9480   -55.3890     7.1140     5.2200     3.9730
 1637.0000  -999.2500  -999.2500  -999.2500  -999.2500  -999.2500  -999.2500   110.8440   -35.9120     8.9520   -55.3890     6.7980     4.4440     3.4730
 1637.5000  -999.2500  -999.2500  -999.2500  -999.2500  -999.2500  -999.2500   111.6140   -34.9460     8.9560   -55.3890     6.4420     3.6680     2.9740
