~VERSION INFORMATION
 VERS.                2.0:   CWLS LOG ASCII STANDARD - VERSION 2.0
 WRAP.                 NO:   ONE LINE PER DEPTH STEP
~WELL INFORMATION
#MNEM.UNIT      DATA TYPE    INFORMATION
#----------   ------------   ------------------------------
 STRT.F           61.5000:   START DEPTH
 STOP.F         4220.0000:   STOP DEPTH
 STEP.F            0.5000:   STEP LENGTH
 NULL.          -999.2500:   NO VALUE
 COMP.   LAWRENCE ALLISON:   COMPANY
 WELL. ALLISON NPR 3 "LX" #28-34:   WELL
 FLD .                NPR:   FIELD
 LOC .      S34 T39N R78W:   LOCATION
 CNTY.            NATRONA:   COUNTY
 STAT.            WYOMING:   STATE
 CTRY. UNITED STATES OF AMERICA:   COUNTRY
 SRVC.       DRESER ATLAS:   SERVICE COMPANY
 DATE.        23-MAR-1983:   LOGDATE
 API .     49025109190000:   API NUMBER
~CURVE INFORMATION
#MNEM.UNIT       API CODE    CURVE DESCRIPTION
#----------   ------------   ------------------------------
 DEPT.F                  :   
 TEND.LBS    45 635 01 00:   TENSION FROM DENSITY LOG
 CORR.G/C3   45 356 01 00:   DENSITY CORRECTION
 RHOB.G/C3   45 350 01 00:   BULK DENSITY
 CN  .DEC    42 890 00 00:   Neutron Porosity
 SPR .MV     07 010 01 00:   SPONTANEOUS POTENTIAL
 GRR .GAPI   07 310 01 00:   GAMMA RAY FROM RESISTIVITY
 TENR.LBS    07 635 01 00:   TENSION FROM RESISTIVITY
 RILD.OHMM   07 120 46 00:   DEEP INDUCTION RESISTIVITY
 RILM.OHMM   07 120 44 00:   INDUCTION LOG MEDIUM RESISTIVITY
 RFOC.OHMM   07 220 01 00:   RESISTIVITY FOCUSED LOG RES.
 TENS.LBS    60 635 01 00:   TENSION FROM SONIC LOG
 DT  .US/F   60 520 00 00:   DELTA TIME
 CALS.IN     60 280 50 00:   CALIPER FROM SONIC LOG
~PARAMETER INFORMATION
#MNEM.UNIT          VALUE    DESCRIPTION
#----------   ------------   ------------------------------
 EKB .F         5184.0000:   Kelly bushing
 EGL .F         5174.0000:   Ground level
 EDF .F            0.0000:   Drilling floor
 TD  .F         4397.0000:   Total depth
 DATE.        23-MAR-1983:   Date logged
 CLNT.            A2DTECH:   Client Code
 SL  . 942' FWL & 645' FSL:   Surface Location
 PD  .                 GL:   Permanent Datum
 EPD .F              5174:   Elevation Permanent Datum
 LMF .                 KB:   Log Measured From
 DMF .                 KB:   Drilling Measured From
 DAPD.F                10:   Feet Above Permanent Datum
 DD  .F              4397:   Depth driller
 DL  .F              4203:   Depth logger
 BLI .F              4201:   Bottom log interval
 CS1 .IN            9.625:   Casing size
 CBD1.      9.625" @ 659':   Casing driller 1
 CBL1.F               658:   Casing logger 1
 BS1 .IN             8.75:   Bit size
 BSD1.F              4397:   Depth drilled with bit1
 DFT .   GEL/DRISPACK/KCL:   Type fluid in hole
 DFD .                8.6:   Density
 DFV .                 36:   Viscosity
 DFPH.                8.5:   pH
 DFL .                 18:   Fluid loss
 MSS .               TANK:   Source of sample
 RMS .OHMM           0.55:   Rm
 MST .F                74:   Rm Meas. temp.
 RMF .OHMM           0.43:   Rmf
 MFST.F                66:   Rmf Meas. temp.
 RMC .OHMM           0.69:   Rmc
 MCST.F                74:   Rmc Meas. temp.
 MFSS.               MEAS:   Source Rmf.
 MCSS.               CALC:   Source Rmc.
 RMB .OHMM           0.33:   Rm. at BHT
 BHT .F               122:   BHT.
 TCS .HRS             5.5:   Time Circ. stopped
 MRT .F               122:   Maximum recorded temp.
 LUN .               6270:   Logging unit number
 LUL .              WLSTN:   Logging unit location
 ENGI.             REEVES:   Recorded By
 WITN.             STRONG:   Witnessed by
 ORIG.           5" PRINT:   Origin of data
 UWI .     49025109190000:   Unique Well ID
 DICO. A2D TECHNOLOGIES, INC.:   Digitizing Company
~OTHER INFORMATION
~A   DEPT     TEND       CORR       RHOB         CN        SPR         GRR      TENR       RILD       RILM       RFOC       TENS         DT       CALS   
# ...
 3935.5000   -85.1700     0.1040     2.0030     0.3460   -49.7780   159.2140  -236.8570     1.0960     1.1030     1.4490  -260.3690   103.5540    15.4740
 3936.0000   -71.1980     0.0550     2.0070     0.3410   -50.0780   141.6500  -241.0820     1.0740     1.1340     1.3510  -258.8410   102.9600    15.4750
 3936.5000   -57.2260     0.0310     2.1400     0.3180   -50.3820   125.4820  -244.9900     1.0630     1.1800     1.3830  -257.3140   102.2880    15.4760
 3937.0000   -44.5890     0.0560     2.2520     0.3040   -50.6900   118.7790  -243.4760     1.1110     1.2270     1.4500  -255.7870   101.6160    15.4770
 3937.5000   -34.5690     0.0520     2.2900     0.3150   -50.9880   112.5530  -242.0670     1.1550     1.2740     1.5170  -254.2590   101.1020    15.4780
 3938.0000   -34.5690     0.0360     2.3260     0.3120   -51.2910   108.3120  -240.6590     1.2000     1.3210     1.5540  -252.7320   100.9580    15.4790
 3938.5000   -34.5690     0.0230     2.3650     0.3060   -51.6250   105.8670  -239.2510     1.2440     1.3680     1.5900  -251.2050   100.8140    15.4800
 3939.0000   -50.8870     0.0070     2.3840     0.3000   -51.7530   104.4680  -237.8420     1.2880     1.4150     1.6350  -249.6770   100.2060    15.4810
 3939.5000   -68.8520    -0.0060     2.3920     0.2940   -51.5240   101.6260  -236.4340     1.3260     1.4550     1.6810  -248.1500    99.1520    15.4820
 3940.0000   -84.6690     0.0140     2.3940     0.2880   -51.3300    99.2250  -234.9700     1.3550     1.4430     1.7260  -246.6230    98.0980    15.4830
 3940.5000   -72.5780     0.1640     2.3560     0.2830   -51.1280    98.9970  -161.9240     1.3760     1.4100     1.7820  -244.9800    97.0440    15.4840
 3941.0000   -55.8120     0.2210     2.3000     0.2950   -50.9230   100.5020  -104.7090     1.3620     1.3760     1.7660  -134.5380    96.1240    15.4850
 3941.5000   -39.0450     0.1760     2.2670     0.3170   -50.7220   102.7620  -162.9260     1.3260     1.3430     1.7230  -158.8930    96.0350    15.4860
 3942.0000   -24.5490     0.1370     2.2710     0.3390   -50.5190   105.1350  -244.9900     1.2890     1.3100     1.6790  -180.4930    96.3250    15.4870
 3942.5000    -4.5090     0.1280     2.3270     0.3620   -50.3160   106.4230  -220.1400     1.2520     1.2770     1.6360  -244.9800    97.8790    15.4880
 3943.0000    -8.4500     0.1260     2.3080     0.3550   -50.1140   105.0230  -179.5790     1.2150     1.2430     1.5930  -250.9040    99.2470    15.4890
 3943.5000   -12.6420     0.1220     2.2740     0.3460   -49.9110   101.2190  -164.8300     1.1870     1.2100     1.5500  -184.7390   100.1410    15.4900
 3944.0000   -14.5290     0.1560     2.2450     0.3610   -49.7090    97.6030  -189.8460     1.1510     1.1660     1.5090  -178.7650   100.0480    15.4910
 3944.5000   -14.5290     0.1930     2.2390     0.3780   -49.5060    93.4030  -219.4220     1.1620     1.2290     1.4790  -174.6990    99.4040    15.4920
 3945.0000   -41.5830     0.2200     2.2670     0.3780   -49.3040    91.8850  -999.2500     1.2280     1.3240     1.4690  -245.8070    97.5540    15.4930
 3945.5000   -69.8770     0.2080     2.2980     0.3730   -49.1020    90.0520  -999.2500     1.2930     1.4190     1.4550  -247.2910    95.4370    15.4930
 3946.0000   -98.1710     0.1840     2.3290     0.3640   -48.8990    90.0440  -999.2500     1.3870     1.5140     1.5290  -248.7750    94.1160    15.4940
 3946.5000   -91.1720     0.1580     2.3610     0.3100   -48.6970    90.0470  -999.2500     1.5090     1.6100     1.6790  -250.2590    97.5290    15.4950
 3947.0000   -73.5670     0.1450     2.3820     0.3080   -48.4940    90.9720  -999.2500     1.6320     1.7050     1.8290  -251.7420    99.9400    15.4960
 3947.5000   -55.9620     0.1370     2.3870     0.3050   -48.2920    92.3350  -999.2500     1.7540     1.8000     1.9780  -253.2260    98.5340    15.4970
 3948.0000   -38.3570     0.1470     2.3840     0.3170   -48.0890    93.4970  -999.2500     1.8760     1.8950     2.1280  -254.7100    95.4710    15.4980
 3948.5000   -32.7750     0.1570     2.3100     0.3340   -47.8870    99.6820  -999.2500     1.9630     1.9400     2.2240  -256.1930    92.3090    15.4990
 3949.0000   -30.4880     0.1630     2.2150     0.3340   -47.6860    97.7680  -999.2500     1.9860     1.9990     2.1950  -257.6770    92.1100    15.5000
 3949.5000   -28.2020     0.1670     2.1200     0.3340   -47.4790    94.6300  -999.2500     2.0500     2.0580     2.1430  -259.1610    91.9080    15.5000
 3950.0000   -25.9150     0.1720     2.0510     0.3280   -47.3770    92.4200  -999.2500     2.1250     2.1180     1.9390  -260.6440    91.7060    15.5000
 3950.5000   -34.6690     0.2100     2.0740     0.3170   -47.3530    94.5270  -999.2500     2.2010     2.1770     1.8150  -262.1280    91.5040    15.5000
 3951.0000   -59.8200     0.2230     2.1090     0.3060   -47.3230    97.0310  -999.2500     2.2760     2.2650     1.8380  -263.6120    91.3020    15.5000
 3951.5000   -84.9700     0.2020     2.1560     0.3010   -47.2930    99.3380  -999.2500     2.3510     2.2850     1.9480  -265.0600    91.1040    15.5000
 3952.0000   -81.8300     0.1410     2.2130     0.3040   -47.2640    97.9310  -999.2500     2.4040     2.3340     2.2810  -264.5850    91.1040    15.5000
 3952.5000   -60.8720     0.0790     2.2930     0.3020   -47.2340    96.6800  -999.2500     2.4570     2.3840     2.7540  -264.1210    91.1040    15.5000
 3953.0000   -44.5890     0.0650     2.3500     0.2960   -47.2040    99.1550  -999.2500     2.5110     2.4330     2.9330  -263.6560    91.1040    15.5000
 3953.5000   -41.6260     0.0540     2.3750     0.2900   -47.1750   101.6930  -999.2500     2.5640     2.4820     2.9330  -263.1920    91.1040    15.5000
 3954.0000   -38.0330     0.0610     2.3750     0.2840   -47.1450   104.4090  -999.2500     2.6260     2.5310     2.6550  -262.7280    91.5050    15.5000
 3954.5000   -34.5690     0.0680     2.3720     0.2780   -47.1160   106.8360  -999.2500     2.6080     2.5780     2.3940  -262.2640    92.2760    15.5000
 3955.0000   -34.5690     0.0760     2.3630     0.2710   -47.0860   109.6060  -999.2500     2.5880     2.4790     2.4260  -261.7990    93.4900    15.5000
 3955.5000   -34.5690     0.0810     2.3520     0.2700   -47.0570   111.1600  -999.2500     2.5670     2.3510     2.4570  -261.3350    94.1780    15.5000
 3956.0000   -23.7470     0.0940     2.3470     0.2760   -47.0260   111.6760  -999.2500     2.5460     2.3750     2.4870  -260.8710    94.3040    15.5000
 3956.5000   -14.5290     0.0750     2.3470     0.2850   -46.9970   112.3000  -999.2500     2.5250     2.4130     2.5180  -260.4070    94.4310    15.5000
 3957.0000   -16.2930     0.0600     2.3410     0.2800   -46.9440   112.8290  -999.2500     2.5040     2.4510     2.5480  -259.9430    94.5180    15.5000
 3957.5000   -17.9690     0.0670     2.3300     0.2750   -46.8940   114.3520  -999.2500     2.4840     2.4890     2.5790  -259.4780    94.5180    15.5000
 3958.0000   -19.6460     0.0650     2.3350     0.2710   -46.8440   116.9720  -999.2500     2.4970     2.5270     2.6100  -259.0140    94.3350    15.5000
 3958.5000   -21.3230     0.0490     2.3580     0.2710   -46.7950   119.7110  -999.2500     2.5080     2.5780     2.6400  -258.5500    94.1160    15.5000
 3959.0000   -22.9990     0.0330     2.3790     0.2660   -46.7400   122.3060  -999.2500     2.5200     2.5200     2.7250  -258.0860    93.1120    15.5000
 3959.5000   -24.5490     0.0250     2.3990     0.2540   -46.6990   128.9090  -999.2500     2.5310     2.4330     2.6640  -257.6210    91.9970    15.5000
 3960.0000   -15.5310     0.0250     2.4070     0.2460   -46.6370   142.8720  -999.2500     2.4390     2.3460     2.5370  -257.1570    90.9440    15.5000
 3960.5000    -7.1480     0.0250     2.4130     0.2530   -46.5600   162.9300  -999.2500     2.3540     2.2600     2.4100  -256.6930    90.5020    15.5000
 3961.0000    -4.5090     0.0140     2.4210     0.2650   -46.0430   186.6700  -999.2500     2.2680     2.1730     2.2830  -256.2290    90.5020    15.5000
