~VERSION INFORMATION
 VERS.                2.0:   CWLS LOG ASCII STANDARD - VERSION 2.0
 WRAP.                 NO:   ONE LINE PER DEPTH STEP
~WELL INFORMATION
#MNEM.UNIT      DATA TYPE    INFORMATION
#----------   ------------   ------------------------------
 STRT.F            0.0000:   START DEPTH
 STOP.F         4030.0000:   STOP DEPTH
 STEP.F            0.5000:   STEP LENGTH
 NULL.          -999.2500:   NO VALUE
 COMP.  FENIX AND SCISSON:   COMPANY
 WELL.  FENIX "LX" #33-10:   WELL
 FLD . TEAPOT DOME (NPR #3):   FIELD
 LOC .      S10 T38N R78W:   LOCATION
 CNTY.            NATRONA:   COUNTY
 STAT.            WYOMING:   STATE
 CTRY. UNITED STATES OF AMERICA:   COUNTRY
 SRVC.       SCHLUMBERGER:   SERVICE COMPANY
 DATE.        03-APR-1978:   LOGDATE
 API .     49025105980000:   API NUMBER
~CURVE INFORMATION
#MNEM.UNIT       API CODE    CURVE DESCRIPTION
#----------   ------------   ------------------------------
 DEPT.F                  :   
 SPR .MV     07 010 01 00:   SPONTANEOUS POTENTIAL
 ILD .OHMM   07 120 46 00:   DEEP INDUCTION RESISTIVITY
 SFL .OHMM   07 220 01 00:   SHALLOW FOCUSED LOG RESISTIVITY
 ILM .OHMM   07 120 44 00:   INDUCTION LOG MEDIUM RESISTIVITY
 NPHI.DEC    42 890 03 00:   NEUTRON POROSITY SANDSTONE
 GRD .GAPI   45 310 01 00:   GAMMA RAY FROM DENSITY LOG
 CALD.IN     45 280 60 00:   CALIPER FROM DENSITY LOG
 RHOB.G/C3   45 350 01 00:   BULK DENSITY
 CORR.G/C3   45 356 01 00:   DENSITY CORRECTION
~PARAMETER INFORMATION
#MNEM.UNIT          VALUE    DESCRIPTION
#----------   ------------   ------------------------------
 EKB .F         5232.0000:   Kelly bushing
 EGL .F         5222.0000:   Ground level
 EDF .F            0.0000:   Drilling floor
 EPD .F         5222.0000:   Permanent datum
 TD  .F         4040.0000:   Total depth
 DATE.        03-APR-1978:   Date logged
 CLNT.            A2DTECH:   Client Code
 SL  . 1700' FNL & 1700' FWL:   Surface Location
 PD  .                 GL:   Permanent Datum
 DD  .F              4040:   Depth driller
 DL  .F              4031:   Depth logger
 BLI .F              4025:   Bottom log interval
 CS1 .IN            8.625:   Casing size
 CBD1.      8.625" @ 503':   Casing driller 1
 CBL1.F               504:   Casing logger 1
 BS1 .IN            7.875:   Bit size
 DFT .           CHEM GEL:   Type fluid in hole
 DFD .                9.5:   Density
 DFV .                 43:   Viscosity
 DFPH.               11.5:   pH
 DFL .                4.4:   Fluid loss
 MSS .            MUD PIT:   Source of sample
 RMS .OHMM           1.16:   Rm
 MST .F                80:   Rm Meas. temp.
 RMF .OHMM           0.93:   Rmf
 MFST.F                80:   Rmf Meas. temp.
 RMC .OHMM           1.74:   Rmc
 MCST.F                80:   Rmc Meas. temp.
 MFSS.               MEAS:   Source Rmf.
 RMB .OHMM          0.742:   Rm. at BHT
 BHT .F               125:   BHT.
 TCS .HRS            0800:   Time Circ. stopped
 MRT .F               125:   Maximum recorded temp.
 LUN .               7660:   Logging unit number
 LUL .                GLT:   Logging unit location
 ENGI.            TOEPPER:   Recorded By
 WITN.           MCGINLEY:   Witnessed by
 ORIG.         2.5" PRINT:   Origin of data
 UWI .     49025105980000:   Unique Well ID
 DICO. A2D TECHNOLOGIES, INC.:   Digitizing Company
 DAPD.                 10:   Feet Above Permanent Datum
 BSD1.               4040:   Depth drilled with bit1
 MCSS.               CALC:   Source Rmc.
 LMF .                 KB:   Log Measured From
 DMF .                 KB:   Drilling Measured From
 TLI .                504:   Top log interval
 TLAB.               1000:   Time logger at bottom
~OTHER INFORMATION
~A    DEPT     SPR        ILD        SFL        ILM       NPHI         GRD      CALD       RHOB       CORR   
# ...
  511.0000   -18.5890    11.5390    11.2630     9.4120     0.2770    77.9130    11.0750     2.4410     0.0090
  511.5000   -19.4270     9.7650    10.9150     9.4120     0.2540    78.1590    11.0680     2.4860     0.0170
  512.0000   -20.2690    11.2130    10.5680    11.0690     0.2570    78.4020    11.0690     2.4860     0.0150
  512.5000   -20.9010    13.2230    10.2210    17.9110     0.2610    78.6110    11.0780     2.4790     0.0140
  513.0000   -21.4240    15.4620     9.8730    17.2650     0.2620    79.0130    11.0790     2.4750     0.0120
  513.5000   -21.9610    14.3270     9.4120    15.3120     0.2590    77.8900    11.0840     2.4730     0.0110
  514.0000   -22.5040    13.0480     9.4510    13.1100     0.2530    76.1290    11.0880     2.4710     0.0120
  514.5000   -22.9990    11.7690     9.5960    10.9080     0.2500    74.3660    11.0920     2.4850     0.0160
  515.0000   -23.9390    10.4900     9.7410     9.2410     0.2490    75.3550    11.0960     2.5070     0.0180
  515.5000   -25.3540     9.7650     9.8860     9.2140     0.2490    76.5590    11.1000     2.5040     0.0250
  516.0000   -26.7130     9.7220    10.0310     9.1820     0.2500    77.8880    11.1040     2.5110     0.0340
  516.5000   -28.0890     9.6550    10.1760     9.1500     0.2550    79.1340    11.1080     2.5180     0.0430
  517.0000   -29.4900     9.5870    10.3220     9.1180     0.2590    80.4140    11.1120     2.5210     0.0450
  517.5000   -30.4650     9.5190    10.4670     9.0860     0.2590    81.5800    11.1160     2.5190     0.0270
  518.0000   -30.4260     9.4510    10.7050     9.0720     0.2540    82.4550    11.1200     2.5000    -0.0050
  518.5000   -30.4150     9.3840    10.5100     8.9610     0.2500    83.3280    11.1240     2.4850    -0.0330
  519.0000   -30.3750     9.3160    10.4370     8.8660     0.2490    84.2340    11.1280     2.4310    -0.0650
  519.5000   -30.3430     9.2480    10.3600     8.7710     0.2530    84.4720    11.1320     2.3900    -0.0920
  520.0000   -30.3120     9.1810    10.2840     8.6760     0.2570    84.3040    11.1360     2.3460    -0.1180
  520.5000   -30.2780     9.1130    10.2070     8.5820     0.2610    84.1750    11.1390     2.4170    -0.0610
  521.0000   -30.2460     9.0450    10.1310     8.4870     0.2650    84.0480    11.1340     2.4050    -0.0730
  521.5000   -30.2130     8.9770    10.0540     8.3920     0.2690    83.9080    11.1270     2.3930    -0.0850
  522.0000   -30.1820     8.9100     9.9780     8.2970     0.2750    83.7930    11.1210     2.4460    -0.0350
  522.5000   -30.1480     8.8420     9.9010     8.2020     0.2710    83.5890    11.1150     2.4350    -0.0740
  523.0000   -30.1200     8.7740     9.8250     8.1070     0.2660    83.3280    11.1090     2.3830    -0.1100
  523.5000   -30.0850     8.7060     9.7490     8.0120     0.2690    83.0860    11.1030     2.3140    -0.1640
  524.0000   -30.2180     8.6390     9.6720     7.9170     0.2730    82.8230    11.0970     2.3240    -0.1550
  524.5000   -30.3910     8.5650     9.5960     7.8220     0.2760    82.6080    11.0900     2.3540    -0.1270
  525.0000   -30.5650     8.4690     9.5190     7.7270     0.2730    82.3290    11.0840     2.3810    -0.1010
  525.5000   -30.7360     8.3720     9.4430     7.6200     0.2700    82.0090    11.0780     2.4080    -0.0770
  526.0000   -30.9100     8.2760     9.3660     7.5040     0.2670    80.5520    11.0720     2.4560    -0.0480
  526.5000   -31.0810     8.1800     9.2900     7.3880     0.2710    79.3060    11.0660     2.4450    -0.0170
  527.0000   -31.2550     8.0830     9.2410     7.2720     0.2750    79.8370    11.0590     2.4240    -0.0280
  527.5000   -31.4290     7.9870     9.0780     7.1570     0.2790    81.0170    11.0530     2.4400    -0.0410
  528.0000   -31.5920     7.8910     8.7800     7.0410     0.2830    82.2000    11.0470     2.4290    -0.0540
  528.5000   -31.8170     7.7940     8.4820     6.9250     0.2870    83.3150    11.0410     2.3820    -0.0610
  529.0000   -32.0900     7.6890     8.1250     6.8090     0.2910    84.4760    11.0360     2.4210    -0.0190
  529.5000   -32.3570     7.3860     7.6130     6.6930     0.2950    84.9410    11.0270     2.4760     0.0120
  530.0000   -32.6190     6.7780     6.8830     6.5770     0.3000    85.4050    11.0240     2.4710     0.0080
  530.5000   -32.8780     6.1690     6.1530     6.1690     0.3190    85.8090    11.0290     2.4420    -0.0010
  531.0000   -33.1710     5.5610     5.4230     5.4360     0.3480    86.7870    11.1400     2.4160    -0.0010
  531.5000   -33.1280     5.2260     4.4290     4.7030     0.3720    88.8280    11.2400     2.4010     0.0280
  532.0000   -32.8010     4.3220     4.4460     3.9710     0.3960    89.5300    11.3370     2.4240     0.1650
  532.5000   -32.5100     3.4560     4.5140     2.9560     0.4110    89.9800    11.4400     2.4580     0.0840
  533.0000   -32.2020     3.1240     4.5830     3.1240     0.3830    87.5100    11.5740     2.3870     0.0090
  533.5000   -32.0600     4.6380     4.6520     3.7280     0.3500    83.4660    11.3870     2.3960     0.0220
  534.0000   -32.0750     7.6890     4.7670     4.4780     0.3080    81.7570    11.0660     2.5030     0.0300
  534.5000   -32.0670     7.6250     5.3630     5.2010     0.2570    84.0800    11.1000     2.5410     0.0310
  535.0000   -32.0800     7.4550     5.8660     5.8770     0.2560    85.9080    11.0830     2.5500     0.0300
  535.5000   -32.0610     7.2760     6.3680     6.5540     0.2540    87.9210    11.0720     2.5480     0.0290
  536.0000   -32.0650     7.7150     6.8700     7.2300     0.2540    88.1340    11.0700     2.5420     0.0280
  536.5000   -32.1680     8.5240     7.4110     7.5340     0.2540    87.5320    11.0620     2.5330     0.0310
  537.0000   -32.4680     9.2410     7.5590     7.9070     0.2580    86.9890    11.1160     2.5360     0.0350
  537.5000   -32.7620     9.3000     7.7190     8.2800     0.2620    87.9050    11.1730     2.5400     0.0410
  538.0000   -33.0390     9.3520     7.8790     8.6520     0.2650    88.9710    11.2310     2.5250     0.0190
  538.5000   -33.2930     9.4120     8.0390     9.0720     0.2690    90.1750    11.2870     2.5140     0.0300
  539.0000   -33.4210     9.5390     8.1980     9.1470     0.2720    90.1930    11.3500     2.5300     0.0310
  539.5000   -34.0490     9.6830     8.3580     9.2330     0.2760    87.7470    11.3620     2.5240     0.0250
  540.0000   -34.4800     9.8280     8.5180     9.3180     0.2800    85.8910    11.3170     2.5170     0.0190
  540.5000   -34.4170     9.9730     8.6780     9.4030     0.2800    85.0540    11.2780     2.5070     0.0150
  541.0000   -34.7720    10.1180     8.8380     9.4890     0.2740    84.1140    11.2370     2.5040     0.0160
  541.5000   -34.9000    10.2620     8.9980     9.5740     0.2680    83.8630    11.2170     2.5140     0.0180
  542.0000   -34.5500    10.4070     9.1580     9.6600     0.2620    84.3430    11.2290     2.5220     0.0200
  542.5000   -34.4510    10.5520     9.3180     9.7450     0.2560    84.5390    11.2370     2.5310     0.0220
  543.0000   -34.4590    10.6960     9.4780     9.8310     0.2470    84.5140    11.2460     2.5390     0.0240
  543.5000   -34.4910    10.8410     9.6380     9.9160     0.2500    84.5260    11.2550     2.5480     0.0250
  544.0000   -34.8090    10.9860     9.7980    10.0020     0.2530    84.5240    11.2640     2.5410     0.0280
  544.5000   -35.1420    11.1310     9.9570    10.0870     0.2560    84.5230    11.2730     2.5500     0.0330
  545.0000   -35.2700    11.2750    10.1300    10.1730     0.2540    84.5240    11.2820     2.5560     0.0380
  545.5000   -35.2570    11.4200    10.0540    10.2580     0.2510    84.5240    11.2910     2.5590     0.0510
  546.0000   -35.2580    11.5220     9.9040    10.3180     0.2430    84.5240    11.2990     2.5240     0.0230
  546.5000   -35.2600    11.5100     9.7550    10.3180     0.2470    84.5240    11.3080     2.5350     0.0350
  547.0000   -35.2580    11.4970     9.5870    10.3180     0.2540    84.5240    11.3170     2.5520     0.0610
