~VERSION INFORMATION
 VERS.                2.0:   CWLS LOG ASCII STANDARD - VERSION 2.0
 WRAP.                 NO:   ONE LINE PER DEPTH STEP
~WELL INFORMATION
#MNEM.UNIT      DATA TYPE    INFORMATION
#----------   ------------   ------------------------------
 STRT.F          200.5000:   START DEPTH
 STOP.F         3012.5000:   STOP DEPTH
 STEP.F            0.5000:   STEP LENGTH
 NULL.          -999.2500:   NO VALUE
 COMP.    FENIX & SCISSON:   COMPANY
 WELL.  FENIX "AX" #75-29:   WELL
 FLD .              NPR-3:   FIELD
 LOC .      S29 T39N R78W:   LOCATION
 CNTY.            NATRONA:   COUNTY
 STAT.            WYOMING:   STATE
 CTRY. UNITED STATES OF AMERICA:   COUNTRY
 SRVC.           BIRDWELL:   SERVICE COMPANY
 DATE.        15-FEB-1978:   LOGDATE
 API .     49025105830000:   API NUMBER
~CURVE INFORMATION
#MNEM.UNIT       API CODE    CURVE DESCRIPTION
#----------   ------------   ------------------------------
 DEPT.F                  :   
 GRD .GAPI   45 310 01 00:   GAMMA RAY FROM DENSITY LOG
 CALD.IN     45 280 60 00:   CALIPER FROM DENSITY LOG
 DEN .G/C3   45 350 01 00:   BULK DENSITY
 DCOR.G/C3   45 356 01 00:   DENSITY CORRECTION
 SPR .MV     05 010 01 00:   SPONTANEOUS POTENTIAL
 SN  .OHMM   05 040 16 00:   SHORT NORMAL 16"
 RILD.OHMM   05 120 46 00:   DEEP INDUCTION RESISTIVITY
~PARAMETER INFORMATION
#MNEM.UNIT          VALUE    DESCRIPTION
#----------   ------------   ------------------------------
 EKB .F         5042.0000:   Kelly bushing
 EGL .F         5032.0000:   Ground level
 EDF .F            0.0000:   Drilling floor
 TD  .F         3010.0000:   Total depth
 DATE.        15-FEB-1978:   Date logged
 CLNT.            A2DTECH:   Client Code
 SL  . 2550' FSL & 950' FEL:   Surface Location
 PD  .                 GL:   Permanent Datum
 EPD .F              5032:   Elevation Permanent Datum
 LMF .                 KB:   Log Measured From
 DMF .                 KB:   Drilling Measured From
 DAPD.F                10:   Feet Above Permanent Datum
 DD  .F              3010:   Depth driller
 DL  .F              3010:   Depth logger
 BLI .F              3002:   Bottom log interval
 TLI .F               200:   Top log interval
 CS1 .IN            8.625:   Casing size
 CBD1.      8.625" @ 222':   Casing driller 1
 CBL1.F               222:   Casing logger 1
 BS1 .IN            7.875:   Bit size
 BSD1.F              3010:   Depth drilled with bit1
 DFT .         LIGNO/SULF:   Type fluid in hole
 DFD .                9.1:   Density
 DFV .                 33:   Viscosity
 DFPH.                 10:   pH
 DFL .                4.9:   Fluid loss
 MSS .           FLOWLINE:   Source of sample
 RMS .OHMM              2:   Rm
 MST .F                66:   Rm Meas. temp.
 RMF .OHMM            2.2:   Rmf
 MFST.F                58:   Rmf Meas. temp.
 RMC .OHMM            1.8:   Rmc
 MCST.F                60:   Rmc Meas. temp.
 MFSS.               MEAS:   Source Rmf.
 RMB .OHMM            1.7:   Rm. at BHT
 BHT .F               118:   BHT.
 TCS .HRS               5:   Time Circ. stopped
 MRT .F               118:   Maximum recorded temp.
 LUN .               2958:   Logging unit number
 LUL .               CASP:   Logging unit location
 ENGI.            POINTER:   Recorded By
 WITN.           MCGINLEY:   Witnessed by
 ORIG.           5" PRINT:   Origin of data
 UWI .     49025105830000:   Unique Well ID
 DICO. A2D TECHNOLOGIES, INC.:   Digitizing Company
~OTHER INFORMATION
~A   DEPT       GRD      CALD        DEN       DCOR        SPR         SN       RILD   
# ...
 2612.0000    73.7310     7.9210     2.4760     0.0700   -39.2360    10.0920     8.9640
 2612.5000    69.8560     7.9210     2.4920     0.0690   -39.1930    10.0980     8.8960
 2613.0000    69.6160     7.9210     2.5050     0.0680   -39.5410    10.1030     8.7780
 2613.5000    69.7530     7.9210     2.4940     0.0680   -39.8900    10.1100     8.5380
 2614.0000    70.3880     7.9210     2.5000     0.0670   -40.2460     9.6890     8.2970
 2614.5000    72.9100     7.9210     2.5090     0.0660   -40.3610     9.3910     8.1920
 2615.0000    74.6390     7.9210     2.5080     0.0650   -40.4010     9.2880     8.0440
 2615.5000    74.0150     7.9210     2.5120     0.0680   -40.4370     9.1620     7.9130
 2616.0000    73.7480     7.9200     2.5050     0.0680   -40.4730     8.8480     7.6980
 2616.5000    77.8360     7.9180     2.5030     0.0680   -40.5090     8.4850     7.4830
 2617.0000    79.2300     7.9150     2.5110     0.0690   -40.5140     8.2640     7.3210
 2617.5000    80.2750     7.9130     2.5180     0.0690   -40.3930     8.4070     7.3210
 2618.0000    81.8120     7.9100     2.5120     0.0690   -40.2750     8.2050     7.1660
 2618.5000    81.6840     7.9080     2.5060     0.0690   -40.1570     7.8690     7.0560
 2619.0000    81.6200     7.9050     2.5110     0.0680   -40.0400     7.7720     6.7660
 2619.5000    85.4000     7.9030     2.5180     0.0680   -39.9400     7.6670     6.4530
 2620.0000    89.6710     7.9000     2.5220     0.0660   -40.0740     7.5270     6.1410
 2620.5000    90.8240     7.8980     2.5200     0.0640   -40.2140     7.1220     5.8280
 2621.0000    90.9900     7.8950     2.5170     0.0620   -40.3380     6.6710     5.5860
 2621.5000    90.2360     7.8930     2.5060     0.0590   -40.3390     6.1200     5.3980
 2622.0000    89.4860     7.8900     2.4950     0.0580   -40.3390     5.9220     5.1450
 2622.5000    88.0020     7.8880     2.4890     0.0600   -40.3390     5.9310     5.1100
 2623.0000    90.4960     7.8850     2.4900     0.0620   -40.3390     5.9440     5.1570
 2623.5000    91.2580     7.8830     2.5000     0.0630   -40.3390     5.9570     5.1940
 2624.0000    93.0160     7.8810     2.4980     0.0650   -40.3390     5.9700     5.2320
 2624.5000    91.6250     7.8820     2.4950     0.0660   -40.3390     6.0200     5.2940
 2625.0000    88.5590     7.8830     2.5110     0.0670   -40.3390     6.1240     5.3930
 2625.5000    85.3910     7.8840     2.5140     0.0650   -40.3330     6.2280     5.4920
 2626.0000    85.2760     7.8850     2.5100     0.0630   -40.5210     6.3760     5.5520
 2626.5000    87.1570     7.8860     2.5260     0.0620   -40.7500     6.3390     5.4800
 2627.0000    89.0840     7.8870     2.5210     0.0620   -40.9820     6.2750     5.4060
 2627.5000    90.8920     7.8880     2.5150     0.0630   -41.1970     6.2320     5.3320
 2628.0000    89.3390     7.8890     2.5100     0.0630   -41.3950     6.2020     5.2540
 2628.5000    85.2960     7.8900     2.5040     0.0640   -41.4980     6.1500     5.2320
 2629.0000    85.1530     7.8910     2.5000     0.0640   -41.3500     6.0940     5.2000
 2629.5000    86.9480     7.8920     2.4940     0.0650   -41.1290     6.0380     5.1530
 2630.0000    91.7200     7.8930     2.4990     0.0660   -40.8990     5.9770     5.1100
 2630.5000    95.7530     7.8940     2.5050     0.0700   -40.6700     6.0540     5.1450
 2631.0000    95.6290     7.8950     2.5060     0.0740   -40.4780     6.1400     5.1760
 2631.5000    90.7130     7.8960     2.5060     0.0770   -40.3370     6.2590     5.2050
 2632.0000    87.5070     7.8970     2.5250     0.0750   -40.1950     6.4290     5.4980
 2632.5000    86.6260     7.8980     2.5170     0.0740   -40.0570     6.5870     5.7720
 2633.0000    85.7410     7.8990     2.5070     0.0740   -39.9550     6.7380     6.0450
 2633.5000    84.5300     7.9000     2.4960     0.0740   -40.0640     7.0670     6.4390
 2634.0000    77.1530     7.9010     2.4870     0.0750   -40.1700     7.9120     6.9000
 2634.5000    71.7110     7.8930     2.4800     0.0750   -40.2750     8.8660     7.3620
 2635.0000    70.6170     7.8850     2.4720     0.0750   -40.3790     9.8200     7.8230
 2635.5000    70.8720     7.8780     2.4710     0.0740   -40.4840    10.7840     8.3450
 2636.0000    74.3140     7.8710     2.4730     0.0710   -40.4990    10.4890     9.2190
 2636.5000    78.0390     7.8630     2.4750     0.0690   -40.4240    10.8830     9.0830
 2637.0000    80.7620     7.8560     2.4720     0.0670   -40.3490    10.5660     8.8470
 2637.5000    81.8830     7.8480     2.4780     0.0660   -40.2730    10.1220     8.6100
 2638.0000    79.3130     7.8420     2.4750     0.0690   -40.1990     9.9750     8.4140
 2638.5000    78.2400     7.8480     2.4660     0.0690   -40.1380     9.9250     8.4620
 2639.0000    79.6640     7.8530     2.4710     0.0680   -40.1390    10.0170     8.4850
 2639.5000    81.6380     7.8590     2.4740     0.0670   -40.1400     9.8170     8.2660
 2640.0000    83.7890     7.8550     2.4650     0.0690   -40.1390     9.3910     8.1000
 2640.5000    84.6750     7.8420     2.4670     0.0710   -40.1390     9.3910     7.9340
 2641.0000    86.1780     7.8280     2.4700     0.0790   -40.1390     9.3910     7.8820
 2641.5000    85.4320     7.8150     2.4750     0.0860   -40.1390     9.1390     7.8820
 2642.0000    87.0540     7.8020     2.4880     0.0860   -40.1390     8.9680     7.8540
 2642.5000    85.7690     7.7890     2.5010     0.0870   -40.1400     8.9680     7.7470
 2643.0000    82.6360     7.7820     2.5060     0.0870   -40.1380     8.9680     7.6670
 2643.5000    78.9770     7.7820     2.5040     0.0860   -39.9510     9.0020     7.7380
 2644.0000    78.2770     7.7820     2.5110     0.0820   -39.7390     9.0510     7.4210
 2644.5000    78.9890     7.7820     2.4970     0.0820   -39.5560     8.8000     7.1880
 2645.0000    81.4110     7.7860     2.4760     0.0840   -39.7980     8.5280     7.3210
 2645.5000    89.0960     7.7940     2.4810     0.0960   -40.0460     8.2540     6.8640
 2646.0000    96.6540     7.8020     2.4890     0.0960   -40.2990     8.6430     6.9640
 2646.5000   100.0220     7.8100     2.4800     0.0890   -40.1770     8.3160     7.1220
 2647.0000    98.8920     7.8170     2.4830     0.0720   -39.9850     7.9550     7.0960
 2647.5000    91.9970     7.8250     2.4770     0.0660   -39.7870     7.9550     7.0560
 2648.0000    85.2600     7.8330     2.4730     0.0680   -39.5760     8.0450     7.1220
 2648.5000    82.4740     7.8410     2.4870     0.0710   -39.9450     8.3070     7.0760
 2649.0000    81.1280     7.8560     2.5000     0.0680   -40.4670     8.4850     6.9920
 2649.5000    79.9290     7.8730     2.5160     0.0640   -40.9490     8.4770     6.9070
 2650.0000    79.1750     7.8890     2.5090     0.0610   -41.1000     8.4070     6.8220
 2650.5000    84.9880     7.9060     2.5060     0.0610   -41.0340     8.1130     6.7370
 2651.0000    90.9410     7.9220     2.5110     0.0600   -40.8740     7.8450     6.6770
 2651.5000    93.5010     7.9390     2.5150     0.0590   -40.6370     7.5960     6.7200
 2652.0000    91.7070     7.9560     2.5200     0.0550   -40.4040     7.5270     6.8680
 2652.5000    85.9740     7.9610     2.5210     0.0500   -40.1720     7.8310     7.1880
 2653.0000    80.5670     7.9640     2.5160     0.0520   -39.9400     8.1780     7.1220
 2653.5000    68.3860     7.9650     2.5220     0.0580   -39.7090     8.8500     7.3210
 2654.0000    66.3640     7.9670     2.5320     0.0640   -39.4790     9.4960     7.6320
 2654.5000    66.7840     7.9690     2.5410     0.0670   -39.4770    10.0170     8.1270
 2655.0000    71.2490     7.9710     2.5480     0.0660   -39.7870    10.1100     8.6230
 2655.5000    72.1860     7.9730     2.5530     0.0650   -40.0910    10.0640     8.8440
 2656.0000    77.6800     7.9750     2.5510     0.0640   -40.3120     9.9950     8.9680
 2656.5000    82.3390     7.9770     2.5460     0.0640   -40.1290     9.8780     8.7230
 2657.0000    82.8580     7.9780     2.5480     0.0650   -39.9530     9.7600     8.4850
