~VERSION INFORMATION
 VERS.                2.0:   CWLS LOG ASCII STANDARD - VERSION 2.0
 WRAP.                 NO:   ONE LINE PER DEPTH STEP
~WELL INFORMATION
#MNEM.UNIT      DATA TYPE    INFORMATION
#----------   ------------   ------------------------------
 STRT.F          494.0000:   START DEPTH
 STOP.F         4999.5000:   STOP DEPTH
 STEP.F            0.5000:   STEP LENGTH
 NULL.          -999.2500:   NO VALUE
 COMP.    FENIX & SCISSON:   COMPANY
 WELL.  FENIX "LX" #26-23:   WELL
 FLD . MPR #3 (TEAPOT DOME):   FIELD
 LOC .      S23 T38N R78W:   LOCATION
 CNTY.            NATRONA:   COUNTY
 STAT.            WYOMING:   STATE
 CTRY. UNITED STATES OF AMERICA:   COUNTRY
 SRVC.       SCHLUMBERGER:   SERVICE COMPANY
 DATE.        11-AUG-1978:   LOGDATE
 API .     49025107340000:   API NUMBER
~CURVE INFORMATION
#MNEM.UNIT       API CODE    CURVE DESCRIPTION
#----------   ------------   ------------------------------
 DEPT.F                  :   
 NPHI.DEC    42 890 03 00:   NEUTRON POROSITY SANDSTONE
 TEND.LBS    45 635 01 00:   TENSION FORM DENSITY LOG
 GRD .GAPI   45 310 01 00:   GAMMA RAY FROM DENSITY LOG
 CALD.IN     45 280 60 00:   CALIPER FROM DENSITY LOG
 DRHO.G/C3   45 356 01 00:   DENSITY CORRECTION
 RHOB.G/C3   45 350 01 00:   BULK DENSITY
 SPR .MV     07 010 01 00:   SPONTANEOUS POTENTIAL
 TENR.LBS    07 635 01 00:   TENSION FROM RESISTIVITY LOG
 ILD .OHMM   07 120 46 00:   INDUCTION LOG DEEP RESISTIVITY
 ILM .OHMM   07 120 44 00:   INDUCTION LOG MEDIUM RESISTIVITY
 SFL .OHMM   07 220 01 00:   SPHERICALLY FOCUSED LOG RESISITIVITY
~PARAMETER INFORMATION
#MNEM.UNIT          VALUE    DESCRIPTION
#----------   ------------   ------------------------------
 EKB .F         5335.0000:   Kelly bushing
 EGL .F         5325.0000:   Ground level
 EDF .F            0.0000:   Drilling floor
 EPD .F         5325.0000:   Permanent datum
 TD  .F         5000.0000:   Total depth
 CLNT.            A2DTECH:   Client Code
 SL  . 1600' FSL & 903' FWL:   Surface Location
 PD  .                 GL:   Permanent Datum
 LMF .                 KB:   Log Measured From
 DMF .                 KB:   Drilling Measured From
 DAPD.F                10:   Feet Above Permanent Datum
 DATE.        11-AUG-1978:   Date Logged [DD-MMM-YYYY]
 DD  .F              5000:   Depth driller
 DL  .F              4998:   Depth logger
 BLI .F              4992:   Bottom log interval
 TLI .F               525:   Top log interval
 CS1 .IN            9.625:   Casing size
 CBD1.      9.625" @ 521':   Casing driller 1
 CBL1.F               521:   Casing logger 1
 BS1 .IN             8.75:   Bit size
 BSD1.F              5000:   Depth drilled with bit1
 DFD .                9.1:   Density
 MSS .            MUD PIT:   Source of sample
 RMS .OHMM          0.897:   Rm
 MST .F                64:   Rm Meas. temp.
 RMF .OHMM          0.821:   Rmf
 MFST.F                64:   Rmf Meas. temp.
 MFSS.               MEAS:   Source Rmf.
 BHT .F               135:   BHT.
 TCS .HRS              03:   00:   Time Circ. stopped
 TLAB.HRS              09:   00:   Time logger at bottom
 MRT .F               135:   Maximum recorded temp.
 LUL .               CSPR:   Logging unit location
 ENGI.              CRAIG:   Recorded By
 ORIG.           5" PRINT:   Origin of data
 UWI .     49025107340000:   Unique Well ID
 DICO. A2D TECHNOLOGIES, INC.:   Digitizing Company
 DFV .                 40:   Viscosity
 DFPH.                 12:   pH
 DFL .                  4:   Fluid loss
~OTHER INFORMATION
~A  DEPTH     NPHI       TEND        GRD       CALD       DRHO       RHOB        SPR       TENR        ILD        ILM        SFL
# ...
 1714.0000     0.3355  1329.9004    96.1408    12.7921     0.0745     2.4007   -29.0408   952.0673     5.8149     5.7617     5.2949
 1714.5000     0.3252  1319.9633    94.0254    12.8377     0.1178     2.4353   -28.9181   937.1124     6.0247     5.9246     5.8107
 1715.0000     0.3106  1314.2294    93.4056    12.7924     0.1527     2.4659   -28.2844   938.0272     6.1553     6.0082     6.2451
 1715.5000     0.3019  1329.0558    93.4093    13.2320     0.1936     2.4970   -28.0623   938.7596     6.3308     5.9263     6.3760
 1716.0000     0.2986  1328.7040    93.7233    13.5806     0.2073     2.5038   -27.8484   939.6741     6.5124     5.9271     6.3294
 1716.5000     0.2920  1343.4600    94.3484    13.6262     0.2133     2.5030   -27.6425   940.4058     6.6519     5.9279     6.1499
 1717.0000     0.2892  1343.1578    95.3198    13.5203     0.2209     2.4955   -27.4407   941.1377     6.8433     5.9306     5.9327
 1717.5000     0.2944  1342.8267    97.1545    13.3083     0.2179     2.4616   -27.3927   941.8696     6.8905     6.1389     5.8894
 1718.0000     0.3069  1342.5450    99.0237    12.8540     0.1964     2.4379   -27.6863   942.7844     6.9875     6.3124     6.0597
 1718.5000     0.3505  1342.2556    98.4046    12.9450     0.1458     2.4291   -28.0392   927.8296     7.0863     6.5815     6.3704
 1719.0000     0.3478  1341.9548    97.4745    13.1573     0.1063     2.4306   -28.5164   928.7443     7.2901     6.8146     6.9412
 1719.5000     0.3405  1326.6166    97.1664    13.3999     0.0949     2.4554   -29.0037   929.4763     7.2881     7.0072     7.4080
 1720.0000     0.3017  1326.3110    98.4137    13.5970     0.0851     2.4690   -29.4911   930.2326     7.3385     6.8164     7.5621
 1720.5000     0.2831  1325.9592   100.2836    12.9759     0.0532     2.4789   -29.9776   931.1230     7.3892     6.6310     7.3472
 1721.0000     0.2620  1325.7142   100.9086    12.3700     0.0304     2.5209   -30.4638   916.3510     7.3867     6.4953     6.9372
 1721.5000     0.2599  1325.4135   101.5337    12.2187     0.0585     2.5593   -30.6747   917.0829     7.2797     6.4066     6.4561
 1722.0000     0.2593  1325.1128   104.6471    12.2491     0.1700     2.5848   -30.1238   917.8295     7.1227     6.4077     6.0527
 1722.5000     0.2820  1324.8120   105.5832    12.4311     0.2064     2.5841   -30.1263   918.7297     7.0196     6.4531     5.9658
 1723.0000     0.2967  1324.4812   105.8974    12.6888     0.2132     2.5441   -29.6430   919.4616     6.9676     6.6355     6.0081
 1723.5000     0.3037  1339.2480   104.6568    13.0375     0.1798     2.4690   -28.8875   920.1935     6.9161     6.8231     6.3159
 1724.0000     0.3079  1338.9473   102.7935    13.0073     0.1468     2.4515   -28.9007   920.9302     6.9142     6.9677     6.6939
 1724.5000     0.3024  1338.6039   101.2413    12.8105     0.0774     2.4786   -28.8994   921.8402     7.0619     6.9204     7.0301
 1725.0000     0.2946  1338.3458    99.6891    12.6288     0.0425     2.5079   -28.9002   922.5721     7.1111     6.9695     7.2334
 1725.5000     0.2918  1338.0409    99.6921    12.4320     0.0288     2.5365   -28.9010   923.3041     7.1603     7.0189     7.3898
 1726.0000     0.2861  1337.7443   100.6289    12.3109     0.0190     2.5546   -28.8992   924.0359     7.2093     6.9715     7.1782
 1726.5000     0.2783  1322.3699   101.8761    12.2050     0.0167     2.5568   -28.7634   924.9507     7.1554     6.7817     6.6825
 1727.0000     0.2692  1322.0884   103.7453    12.1900     0.0174     2.5553   -28.2856   925.6827     7.1535     6.6427     6.4005
 1727.5000     0.2653  1321.8044   107.1698    12.1902     0.0182     2.5567   -27.8133   926.4146     7.2034     6.5070     6.2189
 1728.0000     0.2655  1321.5037   110.2832    12.1903     0.0379     2.5658   -27.3401   927.1465     7.2531     6.4628     6.1737
 1728.5000     0.2677  1321.2030   111.8486    12.2056     0.0637     2.5733   -26.9021   928.0613     7.3552     6.6457     6.2170
 1729.0000     0.2803  1320.8918   109.6678    12.2816     0.0728     2.5730   -26.8100   928.7932     7.4592     6.8811     6.6301
 1729.5000     0.2915  1335.6479   107.4935    12.3726     0.0641     2.5484   -26.7287   929.5251     7.5647     7.1249     7.1214
 1730.0000     0.2909  1335.2961   102.5198    12.6151     0.0128     2.5310   -26.6487   930.2571     7.6717     7.3775     7.4865
 1730.5000     0.2812  1335.0376   100.0344    12.3123     0.0121     2.5415   -26.5563   931.0078     7.8918     7.5860     7.7030
 1731.0000     0.2764  1334.7330    99.1042    12.1609     0.0219     2.5536   -26.1732   931.9037     8.0028     7.6930     7.6467
 1731.5000     0.2740  1319.3436    99.1073    12.1610     0.0242     2.5573   -26.3294   932.6357     8.0581     7.8558     7.6457
 1732.0000     0.2652  1319.0620    99.1110    12.1613     0.0189     2.5528   -26.8906   917.6807     8.1138     7.9196     7.5901
 1732.5000     0.2522  1318.7970    98.8029    12.1614     0.0135     2.5543   -27.4111   918.6047     8.1116     8.0233     7.4812
 1733.0000     0.2447  1318.4962    97.2507    12.1918     0.0272     2.5610   -27.6748   935.0143     8.1094     7.9135     7.3209
 1733.5000     0.2422  1318.1954    93.5212    12.2071     0.0591     2.5730   -27.9113   935.7462     8.1067     7.6451     7.2158
 1734.0000     0.2444  1317.8656    89.7917    12.2376     0.0841     2.6009   -28.1312   936.4780     8.1045     7.4369     7.1122
 1734.5000     0.2631  1317.5841    87.3063    12.2529     0.1152     2.6091   -28.3696   937.2099     7.9871     7.2343     7.1112
 1735.0000     0.2688  1317.2931    91.0426    12.3137     0.1143     2.5940   -28.0705   938.1248     7.8715     7.0376     7.0574
 1735.5000     0.2724  1316.9924    94.1560    12.3290     0.0954     2.5737   -27.9295   938.7958     7.7570     7.0385     7.0004
 1736.0000     0.2748  1331.7771    96.3362    12.3594     0.0590     2.5609   -27.9387   939.5349     7.6996     7.0394     6.9074
 1736.5000     0.2742  1331.4253    98.5165    12.3899     0.0446     2.5526   -28.1890   940.4424     7.6975     7.0405     6.9064
 1737.0000     0.2691  1331.1277    98.5195    12.4052     0.0370     2.5480   -28.4050   925.4874     7.6954     7.0905     6.8562
 1737.5000     0.2606  1330.7919    97.2524    12.4356     0.0317     2.5337   -28.3093   941.9063     7.6933     7.0914     6.8063
 1738.0000     0.2542  1330.5262    95.7268    12.4812     0.0294     2.5231   -28.7354   942.6381     7.6907     7.0433     6.8052
 1738.5000     0.2530  1330.2255    94.4849    12.4965     0.0438     2.5201   -28.8692   943.5530     7.6338     6.8994     6.7557
 1739.0000     0.2654  1329.9248    94.7997    12.5421     0.0605     2.5351   -28.7224   944.2849     7.5233     6.8524     6.7442
 1739.5000     0.2835  1329.6240    94.8027    12.5574     0.0726     2.5464   -28.9566   945.0168     7.4144     6.8535     6.7057
 1740.0000     0.2755  1329.3138    92.9394    12.5727     0.0688     2.5486   -28.8840   945.7486     7.3590     6.8544     6.6567
 1740.5000     0.2648  1329.0226    92.3203    12.5881     0.0392     2.5208   -28.5416   946.6635     7.4103     6.8555     6.6083
 1741.0000     0.2630  1328.6805    92.9461    12.6034     0.0339     2.5147   -27.9305   947.3954     7.4078     6.8088     6.5603
 1741.5000     0.2639  1328.4210    94.8153    12.6035     0.0438     2.5245   -27.6825   948.1274     7.4058     6.6697     6.5126
 1742.0000     0.2729  1328.1202    95.1294    12.6188     0.0680     2.5516   -27.7105   948.8591     7.4087     6.5332     6.4650
 1742.5000     0.2841  1327.8196    94.1992    12.6644     0.0786     2.5666   -27.8869   949.6124     7.5085     6.4889     6.5106
 1743.0000     0.2919  1327.4840    92.3360    12.7403     0.0832     2.5661   -28.0612   950.5060     7.6142     6.6726     6.6036
 1743.5000     0.2943  1327.2025    91.7169    12.8466     0.0823     2.5462   -28.2349   951.2377     7.6121     6.8137     6.8434
 1744.0000     0.2886  1326.9174    91.7206    12.8770     0.0665     2.5319   -28.2990   951.9697     7.7198     6.9098     7.0481
