~VERSION INFORMATION
 VERS.                2.0:   CWLS LOG ASCII STANDARD - VERSION 2.0
 WRAP.                 NO:   ONE LINE PER DEPTH STEP
~WELL INFORMATION
#MNEM.UNIT      DATA TYPE    INFORMATION
#----------   ------------   ------------------------------
 STRT.F           50.0000:   START DEPTH
 STOP.F         2832.5000:   STOP DEPTH
 STEP.F            0.5000:   STEP LENGTH
 NULL.          -999.2500:   NO VALUE
 COMP.    FENIX & SCISSON:   COMPANY
 WELL. FENIX NPR 3 "AX" #87-20:   WELL
 FLD .              N P R:   FIELD
 LOC .      S20 T39N R78W:   LOCATION
 CNTY.            NATRONA:   COUNTY
 STAT.            WYOMING:   STATE
 CTRY. UNITED STATES OF AMERICA:   COUNTRY
 SRVC.           BIRDWELL:   SERVICE COMPANY
 DATE.        01-AUG-1978:   LOGDATE
 API .     49025106780000:   API NUMBER
~CURVE INFORMATION
#MNEM.UNIT       API CODE    CURVE DESCRIPTION
#----------   ------------   ------------------------------
 DEPT.F                  :   
 CALD.IN     45 280 60 00:   CALIPER FROM DENSITY LOG
 CORR.G/C3   45 356 01 00:   DENSITY CORRECTION
 GRD .GAPI   45 310 01 00:   GAMMA RAY FROM DENSITY LOG
 RHOB.G/C3   45 350 01 00:   BULK DENSITY
 SPR .MV     05 010 01 00:   SPONTANEOUS POTENTIAL
 ILD .OHMM   05 120 46 00:   DEEP INDUCTION RESISTIVITY
 SN  .OHMM   05 040 00 00:   SHORT NORMAL
~PARAMETER INFORMATION
#MNEM.UNIT          VALUE    DESCRIPTION
#----------   ------------   ------------------------------
 EKB .F         5007.0000:   Kelly bushing
 EGL .F         4997.0000:   Ground level
 EDF .F            0.0000:   Drilling floor
 EPD .F            0.0000:   Permanent datum
 TD  .F         2832.0000:   Total depth
 DATE.        01-AUG-1978:   Date logged
 CLNT.            A2DTECH:   Client Code
 SL  . 940' FSL & 200' FEL:   Surface Location
 PD  .                 GL:   Permanent Datum
 DD  .F              2825:   Depth driller
 DL  .F              2832:   Depth logger
 BLI .F              2826:   Bottom log interval
 CS1 .IN            8.625:   Casing size
 CBD1.      8.625" @ 140':   Casing driller 1
 CBL1.F               240:   Casing logger 1
 BS1 .IN            7.875:   Bit size
 DFT .            KCL/GEL:   Type fluid in hole
 DFD .                  9:   Density
 DFV .                 34:   Viscosity
 DFL .                  8:   Fluid loss
 MSS .           FLOWLINE:   Source of sample
 RMS .OHMM            1.5:   Rm
 MST .F                70:   Rm Meas. temp.
 RMF .OHMM            .70:   Rmf
 MFST.F                72:   Rmf Meas. temp.
 RMC .OHMM            2.2:   Rmc
 MCST.F                75:   Rmc Meas. temp.
 MFSS.               MEAS:   Source Rmf.
 TCS .HRS               6:   Time Circ. stopped
 LUN .               3007:   Logging unit number
 LUL .               CASP:   Logging unit location
 ENGI.            POINTER:   Recorded By
 WITN.              AMEND:   Witnessed by
 ORIG.           5" PRINT:   Origin of data
 UWI .     49025106780000:   Unique Well ID
 DICO. A2D TECHNOLOGIES, INC.:   Digitizing Company
 DAPD.                 10:   Feet Above Permanent Datum
 BSD1.F              2825:   Depth drilled with bit1
 LMF .                 KB:   Log Measured From
 DMF .                 KB:   Drilling Measured From
 TLI .F               140:   Top log interval
~OTHER INFORMATION
~A   DEPT     CALD       CORR         GRD      RHOB        SPR        ILD         SN   
# ...
  823.5000     9.4680     0.1210    99.7970     2.5690   -24.2750     9.8890     9.4870
  824.0000     9.4650     0.1220    93.0510     2.5660   -24.3150     9.8890     9.4810
  824.5000     9.4520     0.1330    92.5000     2.5650   -24.3560     9.8900     9.4760
  825.0000     9.4390     0.1450    93.0290     2.5680   -24.3970     9.8930     9.4700
  825.5000     9.4260     0.1480    93.1020     2.5930   -24.4360     9.8960     9.4650
  826.0000     9.4130     0.1450    93.0900     2.6150   -24.5610     9.8990     9.4590
  826.5000     9.4000     0.1390    93.7560     2.6180   -24.5840     9.9020     9.4540
  827.0000     9.3890     0.1280    94.6510     2.6180   -24.4590     9.9050     9.4480
  827.5000     9.3940     0.1180    94.8290     2.6040   -24.3350     9.9080     9.4430
  828.0000     9.3990     0.1190    95.1420     2.5880   -24.2570     9.9110     9.4370
  828.5000     9.4040     0.1270    96.4050     2.5740   -24.2580     9.9140     9.4320
  829.0000     9.4090     0.1330    98.0230     2.5750   -24.2570     9.9170     9.4260
  829.5000     9.3610     0.1340    98.5740     2.5960   -24.2570     9.9200     9.4210
  830.0000     9.2800     0.1230    98.9470     2.5950   -24.2570     9.9230     9.4150
  830.5000     9.2830     0.1180   101.2280     2.5920   -24.2570     9.9260     9.4100
  831.0000     9.3290     0.1210   100.6440     2.5900   -24.2520     9.9290     9.4040
  831.5000     9.3200     0.1240   100.0030     2.5790   -24.4960     9.9320     9.3990
  832.0000     9.3080     0.1280   101.0430     2.5850   -24.8390     9.9350     9.3930
  832.5000     9.2970     0.1150   106.2290     2.6180   -24.8490     9.9380     9.3880
  833.0000     9.2900     0.1080   109.5300     2.6100   -24.5620     9.9410     9.3820
  833.5000     9.3160     0.1010   109.7950     2.5950   -24.2510     9.9440     9.3770
  834.0000     9.3510     0.0850   104.9540     2.6060   -24.0620     9.9470     9.3710
  834.5000     9.3880     0.0600   101.9970     2.5600   -24.2720     9.9500     9.3660
  835.0000     9.3840     0.0600   104.9300     2.5630   -24.4870     9.9530     9.3610
  835.5000     9.3790     0.0860   106.4300     2.4900   -24.6600     9.9560     9.3610
  836.0000     9.3730     0.1310   107.3730     2.4910   -24.6530     9.9590     9.3610
  836.5000     9.3740     0.1900   107.4800     2.5450   -24.0120     9.9630     9.3610
  837.0000     9.3870     0.1860   107.5860     2.6270   -23.4610     9.9660     9.3610
  837.5000     9.4000     0.1360   108.2520     2.6990   -23.5080     9.9690     9.3610
  838.0000     9.4130     0.0890   102.3750     2.6560   -23.5420     9.9720     9.3610
  838.5000     9.4260     0.0700   109.9090     2.5720   -23.5750     9.9750     9.3610
  839.0000     9.4380     0.0930   108.9290     2.5200   -23.6080     9.9780     9.3610
  839.5000     9.4510     0.1090   109.2140     2.5510   -23.6420     9.9800     9.3610
  840.0000     9.4640     0.1170   111.6550     2.5440   -23.7620     9.9800     9.3610
  840.5000     9.4660     0.1220   113.3130     2.5540   -24.3460     9.9800     9.3610
  841.0000     9.4540     0.1200   112.9680     2.5760   -24.4550     9.9800     9.3610
  841.5000     9.4610     0.1190   112.6390     2.5710   -24.4570     9.9800     9.3610
  842.0000     9.5130     0.1170   110.9660     2.5680   -24.4560     9.9800     9.3610
  842.5000     9.5630     0.1160   110.9410     2.5730   -24.4550     9.9800     9.3610
  843.0000     9.5870     0.1140   112.0190     2.5750   -24.4550     9.9830     9.3610
  843.5000     9.5870     0.1130   107.4790     2.5780   -24.4550     9.9880     9.3610
  844.0000     9.5870     0.1170   107.0110     2.5590   -24.4550     9.9940     9.3610
  844.5000     9.5870     0.1220   104.5620     2.5650   -24.4560     9.9990     9.2980
  845.0000     9.5870     0.1240   103.4320     2.5710   -24.4560    10.0040     9.2260
  845.5000     9.5870     0.1240   105.5810     2.5740   -24.4750    10.0100     9.1550
  846.0000     9.5870     0.1240   106.1420     2.5720   -24.5090    10.0150     9.1080
  846.5000     9.5870     0.1240   107.0460     2.5690   -24.5440    10.0210     9.1080
  847.0000     9.5870     0.1240   108.0520     2.5690   -24.5790    10.0260     9.1080
  847.5000     9.5840     0.1240   108.5170     2.5690   -24.6130    10.0310     9.1080
  848.0000     9.5720     0.1240   110.5670     2.5710   -24.6480    10.0370     9.1080
  848.5000     9.5600     0.1260   111.6210     2.5760   -24.6560    10.0420     9.1080
  849.0000     9.5480     0.1290   111.8160     2.5780   -24.4870    10.0480     9.1080
  849.5000     9.5360     0.1340   114.0660     2.5670   -24.2380    10.0530     9.1080
  850.0000     9.5290     0.1400   117.1870     2.5870   -24.0560    10.0590     9.1080
  850.5000     9.5480     0.1390   120.2580     2.5920   -24.0720    10.0640     9.1080
  851.0000     9.5670     0.1380   121.5510     2.5890   -24.1180    10.0720     9.1080
  851.5000     9.5860     0.1370   120.4540     2.5940   -24.1630    10.0650     9.1080
  852.0000     9.5840     0.1360   116.3210     2.5990   -24.2080    10.0520     9.1080
  852.5000     9.5770     0.1350   113.3010     2.6000   -24.2530    10.0390     9.1080
  853.0000     9.5690     0.1340   116.1570     2.5980   -24.2970    10.0270     9.1080
  853.5000     9.5610     0.1330   118.4330     2.5890   -24.3420    10.0140     9.1080
  854.0000     9.5530     0.1320   120.3710     2.5860   -24.3870    10.0010     9.1080
  854.5000     9.5460     0.1320   115.5210     2.5890   -24.4310     9.9880     9.1080
  855.0000     9.5380     0.1340   114.1960     2.5820   -24.4550     9.9750     9.1080
  855.5000     9.5310     0.1440   112.2040     2.5760   -24.4550     9.9620     9.1080
  856.0000     9.5070     0.1480   106.6880     2.5820   -24.4550     9.9490     9.1080
  856.5000     9.5050     0.1500   104.2140     2.5840   -24.4550     9.9370     9.1010
  857.0000     9.5020     0.1500   103.5640     2.5860   -24.4550     9.9240     9.0920
  857.5000     9.4980     0.1450   104.3110     2.5950   -24.4550     9.9110     9.0820
  858.0000     9.4950     0.1390   106.2250     2.5820   -24.4560     9.8980     9.0720
  858.5000     9.4920     0.1400   108.1080     2.5630   -24.4970     9.8890     9.0620
  859.0000     9.4880     0.1510   109.9820     2.5590   -24.5390     9.8890     9.0520
  859.5000     9.4860     0.1660   111.8790     2.5610   -24.5810     9.8890     9.0430
  860.0000     9.4830     0.1700   111.7560     2.5740   -24.6250     9.8890     9.0330
  860.5000     9.4800     0.1670   110.1720     2.5950   -24.6450     9.8890     9.0250
  861.0000     9.4760     0.1650   111.3180     2.5950   -24.4150     9.8890     8.9430
  861.5000     9.4730     0.1620   113.6340     2.5930   -24.2450     9.8900     8.8600
  862.0000     9.4700     0.1590   115.9160     2.5920   -24.2150     9.8610     8.7810
  862.5000     9.4600     0.1560   117.2790     2.5920   -24.1840     9.8260     8.7680
  863.0000     9.4200     0.1500   118.1740     2.5910   -24.1510     9.7910     8.7520
  863.5000     9.3810     0.1450   119.8570     2.5870   -24.1200     9.7560     8.7370
  864.0000     9.3700     0.1440   121.9430     2.5820   -24.0880     9.7220     8.7210
  864.5000     9.3690     0.1480   118.8840     2.5770   -24.0560     9.6870     8.7050
  865.0000     9.3700     0.1520   115.4770     2.5800   -24.0240     9.6520     8.5890
  865.5000     9.3700     0.1440   114.9200     2.6020   -23.9920     9.6220     8.4840
  866.0000     9.3700     0.1230   112.1460     2.6020   -23.9600     9.3390     8.3800
  866.5000     9.3700     0.1090   108.2380     2.5980   -23.9270     9.0250     8.2760
  867.0000     9.3710     0.1040   109.4990     2.5950   -23.8930     9.0110     8.1720
  867.5000     9.3820     0.0880   110.7580     2.5950   -23.8700     8.9970     8.0870
  868.0000     9.3920     0.0700   112.0050     2.5840   -24.2750     8.9820     8.0760
  868.5000     9.4020     0.0670   113.2470     2.5620   -24.6660     8.9680     8.0660
