~VERSION INFORMATION
 VERS.                2.0:   CWLS LOG ASCII STANDARD - VERSION 2.0
 WRAP.                 NO:   ONE LINE PER DEPTH STEP
~WELL INFORMATION
#MNEM.UNIT      DATA TYPE    INFORMATION
#----------   ------------   ------------------------------
 STRT.F           58.0000:   START DEPTH
 STOP.F         5662.0000:   STOP DEPTH
 STEP.F            0.5000:   STEP LENGTH
 NULL.          -999.2500:   NO VALUE
 COMP. DEPARTMENT OF ENERGY:   COMPANY
 WELL. DEPARTMENT NPR 3 67 "X" #1-10:   WELL
 FLD .              NPR 3:   FIELD
 LOC .      S10 T38N R78W:   LOCATION
 CNTY.            NATRONA:   COUNTY
 STAT.            WYOMING:   STATE
 CTRY. UNITED STATES OF AMERICA:   COUNTRY
 SRVC.       SCHLUMBERGER:   SERVICE COMPANY
 DATE.        05-FEB-2002:   LOGDATE
 API .     49025230400000:   API NUMBER
~CURVE INFORMATION
#MNEM.UNIT       API CODE    CURVE DESCRIPTION
#----------   ------------   ------------------------------
 DEPT.F                  :   
 TEND.LBS    45 635 01 00:   TENSION FROM DENSITY LOG
 PEFZ.B/E    45 358 01 00:   HILT PHOTOELECTRIC FACTOR
 HDRA.G/C3   45 356 01 00:   DELTA RHO HIP TOOL
 NPHI.DEC    42 890 03 00:   NEUTRON POROSITY SANDSTONE
 TENS.LBS    60 635 01 00:   TENSION
 DT  .US/F   60 520 00 00:   DELTA TIME
 TENR.LBS    07 635 01 00:   TENSION FROM RESISTIVITY
 CALR.IN     07 280 01 00:   CALIPER FROM RESISTIVITY
 GRR .GAPI   07 310 01 00:   GAMMA RAY FROM RESISTIVITY
 RXOZ.OHMM   11 270 04 00:   STD. RES. INVADED ZONE RESISTIVITY
 HLLD.OHMM   11 220 10 00:   LATEROLOG DEEP RES.
 HLLS.OHMM   11 220 09 00:   LATEROLOG SHALLOW RES.
 HRLD.OHMM   11 120 46 00:   HIGH RESOULATION DEEP RESISTIVITY
 RHOZ.G/C3   45 350 01 00:   HILT BULK DENSITY
~PARAMETER INFORMATION
#MNEM.UNIT          VALUE    DESCRIPTION
#----------   ------------   ------------------------------
 EKB .F         5205.7000:   Kelly bushing
 EGL .F         5195.7000:   Ground level
 EDF .F            0.0000:   Drilling floor
 EPD .F         5195.7000:   Permanent datum
 TD  .F         5654.0000:   Total depth
 DATE.        05-FEB-2002:   Date logged
 CLNT.            A2DTECH:   Client Code
 SL  . 1503' FEL & 721' FSL:   Surface Location
 PD  .                 GL:   Permanent Datum
 DAPD.F                10:   Feet Above Permanent Datum
 DD  .F              5650:   Depth driller
 DL  .F              5654:   Depth logger
 BLI .F              5646:   Bottom log interval
 TLI .F               499:   Top log interval
 CS1 .IN            9.625:   Casing size
 CBD1.      9.625" @ 505':   Casing driller 1
 CBL1.F               499:   Casing logger 1
 BS1 .IN            8.875:   Bit size
 BSD1.F              5650:   Depth drilled with bit1
 DFT .           GEL/CHEM:   Type fluid in hole
 DFD .                9.2:   Density
 DFV .                 52:   Viscosity
 DFPH.                8.5:   pH
 DFL .                6.8:   Fluid loss
 MSS .           FLOWLINE:   Source of sample
 RMS .OHMM           .954:   Rm
 MST .F                57:   Rm Meas. temp.
 RMF .OHMM           .734:   Rmf
 MFST.F                57:   Rmf Meas. temp.
 MFSS.              PRESS:   Source Rmf.
 RMB .OHMM           .403:   Rm. at BHT
 BHT .F               143:   BHT.
 TLAB.HRS            1208:   Time logger at bottom
 MRT .F               143:   Maximum recorded temp.
 LUN .               2211:   Logging unit number
 LUL .             CASPER:   Logging unit location
 ENGI.           R. SROUR:   Recorded By
 WITN.        M. MILLIKEN:   Witnessed by
 ORIG.           5" PRINT:   Origin of data
 UWI .     49025230400000:   Unique Well ID
 DICO. A2D TECHNOLOGIES, INC.:   Digitizing Company
 RMC .               1.24:   Rmc
 MCST.                 57:   Rmc Meas. temp.
 MCSS.              PRESS:   Source Rmc.
 TCS .                200:   Time Circ. stopped
~OTHER INFORMATION
~A   DEPT     TEND       PEFZ       HDRA       NPHI       TENS         DT       TENR       CALR         GRR      RXOZ       HLLD       HLLS       HRLD       RHOZ   
# ...
 3218.5000  1930.7939     2.8060     0.0510     0.3230  1383.0850    80.3560  1975.0040     9.5900   120.4920     3.6490     3.8480     4.4220     3.6830     2.4820
 3219.0000  1931.0280     2.7880     0.0380     0.2970  1383.0850    80.7410  1973.6880     9.5600   123.1650     5.3100     5.4080     5.7130     4.8760     2.5060
 3219.5000  1931.2610     2.7700     0.0190     0.2740  1383.0850    81.0090  1972.3719     9.5310   127.0280     5.1050     5.2470     5.5560     5.5580     2.5040
 3220.0000  1931.4940     2.7760     0.0220     0.2750  1383.0850    81.1430  1971.0560     9.5190   128.3970     4.8010     5.1190     5.3100     5.1660     2.5080
 3220.5000  1931.7280     2.8540     0.0280     0.2770  1383.0850    81.1380  1969.7400     9.5110   128.1290     4.7580     5.1660     5.3100     5.2610     2.5180
 3221.0000  1931.9611     2.9320     0.0290     0.2710  1383.0850    80.7460  1968.4240     9.5070   125.7560     5.8350     5.8380     6.0400     5.7420     2.5290
 3221.5000  1932.1949     2.8760     0.0180     0.2550  1383.0850    79.8480  1967.1080     9.5020   121.3700     6.4520     6.5370     6.6740     6.3050     2.5350
 3222.0000  1932.4280     2.8090     0.0100     0.2400  1383.0850    78.9910  1965.7910     9.4960   116.0560     6.8300     6.8900     6.8810     6.7970     2.5400
 3222.5000  1932.6620     2.7390     0.0070     0.2360  1383.0850    78.1590  1964.4750     9.4910   109.7380     7.0730     7.0180     7.0500     6.5920     2.5440
 3223.0000  1932.8950     2.7180     0.0040     0.2360  1383.0850    77.9240  1963.1591     9.4850   111.3910     7.1800     7.1460     7.1260     6.2690     2.5380
 3223.5000  1933.1290     2.6980     0.0020     0.2360  1383.0850    77.6960  1961.8430     9.4800   115.8490     6.8940     7.2780     7.2000     6.1460     2.5420
 3224.0000  1933.3621     2.6780     0.0010     0.2340  1383.0850    77.3980  1960.5270     9.4740   120.1550     6.6740     7.4230     7.2740     6.3990     2.5460
 3224.5000  1933.5959     2.6590     0.0010     0.2180  1383.0850    77.0030  1959.2111     9.4710   124.1600     6.6740     7.5680     7.3480     6.6480     2.5500
 3225.0000  1933.8290     2.6340     0.0000     0.2100  1383.0850    76.7660  1957.8950     9.4710   126.3550     6.9860     7.6710     7.4220     6.8960     2.5470
 3225.5000  1934.0630     2.6090     0.0000     0.2190  1383.0850    77.2180  1956.5790     9.4710   128.0420     6.8700     7.7490     7.4960     7.1450     2.5490
 3226.0000  1934.2960     2.5840     0.0000     0.2250  1383.0850    78.1550  1956.3060     9.4750   127.6600     6.6740     7.8080     7.5700     7.2630     2.5560
 3226.5000  1934.5291     2.5590     0.0000     0.2230  1383.0850    79.6740  1956.3060     9.4800   127.4330     6.6740     7.8670     7.6440     7.2900     2.5640
 3227.0000  1934.7629     2.5800     0.0000     0.2200  1383.0850    81.1930  1956.3060     9.4850   127.5750     6.6740     7.9270     7.7170     7.3180     2.5620
 3227.5000  1934.9960     2.6060     0.0000     0.2170  1383.0850    82.2660  1956.3060     9.4900   128.9910     6.7210     8.0900     7.7910     7.3460     2.5550
 3228.0000  1935.2300     2.6320     0.0000     0.2160  1383.0850    83.0080  1956.3060     9.4950   130.4050     6.9830     8.3500     7.8680     7.3730     2.5560
 3228.5000  1935.4630     2.6570     0.0000     0.2180  1383.0850    83.5650  1956.3060     9.5000   130.5600     7.4480     8.6220     7.8680     7.4060     2.5580
 3229.0000  1935.6970     2.6830     0.0000     0.2270  1383.0850    83.9770  1956.3060     9.5050   128.3500     7.3130     8.2560     7.8680     7.4480     2.5510
 3229.5000  1935.9301     2.7090     0.0000     0.2380  1383.0850    84.5200  1956.3060     9.5100   124.1620     6.9320     7.8770     7.8680     7.2560     2.5390
 3230.0000  1936.1639     2.7380     0.0000     0.2380  1383.0850    85.8270  1956.3060     9.5160   122.9110     6.5520     7.4980     7.8680     6.9860     2.5310
 3230.5000  1936.3970     2.7690     0.0030     0.2330  1383.0850    87.1340  1956.3060     9.5210   125.6490     6.3170     7.2460     7.8910     7.2600     2.5440
 3231.0000  1936.6310     2.8000     0.0080     0.2270  1383.0850    87.9100  1956.3060     9.5260   124.9350     6.5000     8.0970     8.0610     7.5520     2.5560
 3231.5000  1936.8640     2.7980     0.0070     0.2170  1383.0850    87.2180  1956.3060     9.5310   118.5480     7.0540     9.4470     8.3120     7.8440     2.5730
 3232.0000  1937.0980     2.7630     0.0060     0.2110  1383.0850    85.8990  1956.3060     9.5310   111.9160     7.6550     9.1460     8.2620     8.1610     2.5680
 3232.5000  1937.3311     2.7280     0.0050     0.2130  1383.0850    84.7260  1956.3060     9.5410   109.9970     7.7250     8.5650     8.1660     7.8080     2.5650
 3233.0000  1937.5640     2.6960     0.0030     0.2200  1383.0850    84.6280  1956.3060     9.5590   114.6420     7.2910     8.1610     8.0700     7.4170     2.5580
 3233.5000  1937.7980     2.6730     0.0010     0.2290  1383.0850    85.2840  1956.3060     9.5800   119.5410     6.8590     8.3590     7.9740     6.9980     2.5510
 3234.0000  1938.0310     2.6520    -0.0010     0.2420  1383.0850    86.3970  1956.3060     9.6280   121.7580     7.0500     8.4650     7.8780     7.0580     2.5460
 3234.5000  1938.2650     2.6370     0.0000     0.2590  1383.0850    87.4130  1956.3060     9.7460   120.0020     6.9650     8.0740     7.8260     7.1800     2.5420
 3235.0000  1938.4980     2.6510     0.0010     0.2550  1383.0850    87.9300  1956.3060     9.6220   117.6540     6.7350     7.7960     7.7790     6.8590     2.5450
 3235.5000  1938.7321     2.6640     0.0000     0.2520  1383.0850    87.5120  1956.3060     9.5290   115.1550     7.0500     7.9260     7.7330     7.0350     2.5450
 3236.0000  1938.9650     2.6770     0.0000     0.2570  1383.0850    86.3920  1956.3060     9.5310   115.5250     6.8300     8.0130     7.6860     7.3800     2.5500
 3236.5000  1939.1990     2.6900    -0.0010     0.2540  1383.0850    84.8180  1956.3060     9.5310   119.5160     6.5740     7.8890     7.6390     7.3670     2.5510
 3237.0000  1939.4320     2.7080     0.0020     0.2460  1383.0850    83.3330  1953.9760     9.5310   123.9180     6.7500     7.7960     7.5920     7.3390     2.5420
 3237.5000  1939.6660     2.7810     0.0140     0.2370  1383.0850    80.2510  1951.7820     9.5310   124.8850     6.9220     7.8680     7.5850     7.3630     2.5280
 3238.0000  1939.8990     2.8730     0.0370     0.2330  1383.0850    77.4630  1949.5880     9.5310   123.4880     6.5380     7.6550     7.5850     6.8390     2.5350
 3238.5000  1940.1331     2.9550     0.0580     0.2400  1383.0850    77.4630  1947.3950     9.5300   122.1820     5.9800     6.7350     7.5850     6.0350     2.5480
 3239.0000  1940.3660     2.9750     0.0780     0.2450  1383.0850    78.5210  1945.2010     9.5800   122.6740     6.1380     6.7970     7.6110     6.1140     2.5460
 3239.5000  1940.5990     2.9950     0.0840     0.2500  1383.0850    80.0700  1943.0081     9.6560   124.8720     6.4930     7.3130     7.6690     6.2600     2.5370
 3240.0000  1940.8330     3.0480     0.0900     0.2630  1383.0850    81.6200  1940.8140     9.7320   128.1160     5.5470     6.7640     7.7250     5.9300     2.5110
 3240.5000  1941.0660     3.1060     0.1110     0.2710  1383.0850    82.9420  1938.6210     9.8090   131.8640     5.1190     6.3170     7.6630     5.4080     2.5100
 3241.0000  1941.3000     3.2180     0.1500     0.2610  1383.0850    82.9830  1936.4449     9.8870   132.6600     5.3580     6.8590     7.6020     5.3750     2.5120
 3241.5000  1941.5330     3.3830     0.1640     0.2580  1383.0850    82.2700  1937.7900     9.9730   132.5420     5.0720     6.7110     7.5400     5.3420     2.5270
 3242.0000  1941.7670     3.5330     0.1770     0.2770  1383.0850    82.0250  1939.1230    10.0580   133.4990     5.1660     6.5610     7.4790     5.3100     2.5230
 3242.5000  1942.0000     3.5880     0.1890     0.2750  1383.0850    82.4230  1940.4570    10.1420   137.3860     4.8300     6.2990     7.4180     4.9680     2.5190
