~VERSION INFORMATION
 VERS.                2.0:   CWLS LOG ASCII STANDARD - VERSION 2.0
 WRAP.                 NO:   ONE LINE PER DEPTH STEP
~WELL INFORMATION
#MNEM.UNIT      DATA TYPE    INFORMATION
#----------   ------------   ------------------------------
 STRT.F          212.0000:   START DEPTH
 STOP.F         3042.0000:   STOP DEPTH
 STEP.F            0.5000:   STEP LENGTH
 NULL.          -999.2500:   NO VALUE
 COMP.    FENIX & SCISSON:   COMPANY
 WELL.   FENIX "A" #74-28:   WELL
 FLD .             NPR #3:   FIELD
 LOC .      S28 T39N R78W:   LOCATION
 CNTY.            NATRONA:   COUNTY
 STAT.            WYOMING:   STATE
 CTRY. UNITED STATES OF AMERICA:   COUNTRY
 SRVC.              WELEX:   SERVICE COMPANY
 DATE.        03-AUG-1977:   LOGDATE
 API .     49025104080000:   API NUMBER
~CURVE INFORMATION
#MNEM.UNIT       API CODE    CURVE DESCRIPTION
#----------   ------------   ------------------------------
 DEPT.F                  :   
 SPR .MV     07 010 01 00:   SPONTANEOUS POTENTIAL
 ILD .OHMM   07 120 46 00:   INDUCTION LOG DEEP RESISTIVITY
 ILM .OHMM   07 120 44 00:   INDUCTION LOG MEDIUM RESISTIVITY
 SFLU.OHMM   07 220 01 00:   SPHERICALLY FOCUSED LOG UNAVERAGED RESISTIVITY
 CALD.IN     45 280 60 00:   CALIPER FROM DENSITY LOG
 GRD .GAPI   45 310 01 00:   GAMMA RAY FROM DENSITY LOG
 CORR.G/C3   45 356 01 00:   DENSITY CORRECTION
 RHOB.G/C3   45 350 01 00:   BULK DENSITY
~PARAMETER INFORMATION
#MNEM.UNIT          VALUE    DESCRIPTION
#----------   ------------   ------------------------------
 EKB .F         5050.0000:   Kelly bushing
 EGL .F         5040.0000:   Ground level
 EDF .F            0.0000:   Drilling floor
 TD  .F         3044.0000:   Total depth
 DATE.        03-AUG-1977:   Date logged
 CLNT.            A2DTECH:   Client Code
 SL  . 2310' FNL & 930' FEL:   Surface Location
 PD  .                 GL:   Permanent Datum
 EPD .F              5040:   Elevation Permanent Datum
 LMF .                 KB:   Log Measured From
 DMF .                 KB:   Drilling Measured From
 DAPD.F                10:   Feet Above Permanent Datum
 DD  .F              3044:   Depth driller
 DL  .F              3044:   Depth logger
 BLI .F              3042:   Bottom log interval
 TLI .F               238:   Top log interval
 CS1 .IN            8.625:   Casing size
 CBD1.      8.625" @ 220':   Casing driller 1
 CBL1.F               238:   Casing logger 1
 BS1 .IN            7.875:   Bit size
 BSD1.F              3044:   Depth drilled with bit1
 DFT .            KCL MUD:   Type fluid in hole
 DFV .                 35:   Viscosity
 DFPH.               10.5:   pH
 DFL .                7.2:   Fluid loss
 MSS .           FLOWLINE:   Source of sample
 RMS .OHMM           1.13:   Rm
 MST .F                84:   Rm Meas. temp.
 RMF .OHMM           0.77:   Rmf
 MFST.F                70:   Rmf Meas. temp.
 MFSS.           FANN KIT:   Source Rmf.
 MCSS.           FANN KIT:   Source Rmc.
 RMB .OHMM            .82:   Rm. at BHT
 BHT .F               118:   BHT.
 TCS .HRS               7:   Time Circ. stopped
 MRT .F               116:   Maximum recorded temp.
 LUN .               8611:   Logging unit number
 LUL .             CASPER:   Logging unit location
 ENGI.            C. DOAK:   Recorded By
 WITN.      W. PETTINGILL:   Witnessed by
 ORIG.         2.5" PRINT:   Origin of data
 UWI .     49025104080000:   Unique Well ID
 DICO. A2D TECHNOLOGIES, INC.:   Digitizing Company
~OTHER INFORMATION
~A   DEPT      SPR        ILD        ILM       SFLU         CALD       GRD       CORR        RHOB 
# ...
 2804.0000   -70.9490     4.8760     6.1970     8.4840     8.2330   162.3970     0.0150     2.5100
 2804.5000   -70.9200     4.8940     6.1830     8.4040     8.2220   164.2890     0.0120     2.5020
 2805.0000   -70.8900     4.8730     6.1700     8.2840     8.2110   166.0770     0.0100     2.4990
 2805.5000   -70.8620     4.8280     6.1560     8.1480     8.2000   167.7800     0.0070     2.4950
 2806.0000   -70.8320     4.7830     6.1430     8.0120     8.1890   169.3260     0.0050     2.4930
 2806.5000   -70.8030     4.7380     6.1290     7.8010     8.1890   169.9420     0.0020     2.5010
 2807.0000   -70.7740     4.6930     6.0580     7.8650     8.1950   170.1290    -0.0010     2.4980
 2807.5000   -70.7450     4.6480     5.9120     8.0970     8.2000   170.4010    -0.0030     2.4950
 2808.0000   -70.7150     4.6040     5.7670     8.0230     8.2050   170.4660    -0.0060     2.5020
 2808.5000   -70.6870     4.5590     5.6210     7.8450     8.2100   171.6950    -0.0030     2.4940
 2809.0000   -70.6570     4.5140     5.4740     7.6670     8.2150   173.7580     0.0030     2.4930
 2809.5000   -70.6270     4.4690     5.4490     7.4890     8.2200   175.4590     0.0090     2.5000
 2810.0000   -70.6040     4.4590     5.4240     7.3760     8.2250   179.7960     0.0140     2.5070
 2810.5000   -70.5770     4.4230     5.3990     7.3230     8.2300   183.0900     0.0200     2.5130
 2811.0000   -70.5320     4.3850     5.3730     7.2670     8.2350   180.4330     0.0250     2.5200
 2811.5000   -70.4910     4.3480     5.3620     7.2120     8.2400   178.6830     0.0260     2.5170
 2812.0000   -70.4500     4.3100     5.3510     7.1560     8.2450   177.1330     0.0250     2.5120
 2812.5000   -70.4080     4.2730     5.3400     7.1060     8.2510   175.2220     0.0240     2.5100
 2813.0000   -70.3670     4.2160     5.3290     7.1060     8.2560   173.3720     0.0240     2.5160
 2813.5000   -70.3260     4.2340     5.3180     7.2180     8.2610   166.6650     0.0230     2.5080
 2814.0000   -70.2840     4.2700     5.3060     7.3440     8.2660   162.0450     0.0230     2.5120
 2814.5000   -70.2410     4.3070     5.2950     7.5150     8.2690   160.9860     0.0220     2.5170
 2815.0000   -70.2100     4.3440     5.2840     7.5070     8.2710   160.2360     0.0210     2.5190
 2815.5000   -70.1240     4.3800     5.2730     7.4720     8.2730   159.4730     0.0210     2.5110
 2816.0000   -69.9590     4.4170     5.4600     7.4380     8.2750   158.3980     0.0200     2.5020
 2816.5000   -69.8100     4.4540     5.6420     7.4040     8.2770   157.2520     0.0200     2.5060
 2817.0000   -69.6600     4.4900     5.7890     7.3760     8.2790   156.0890     0.0190     2.5170
 2817.5000   -69.4930     4.5270     5.7540     7.7440     8.2810   154.9430     0.0190     2.5260
 2818.0000   -69.3820     4.5830     5.7100     8.2490     8.2830   153.8700     0.0180     2.5340
 2818.5000   -69.3640     4.6530     5.6820     8.0860     8.2850   153.9800     0.0170     2.5300
 2819.0000   -69.3320     4.7230     5.7210     7.5150     8.2870   154.5860     0.0170     2.5250
 2819.5000   -69.3030     4.7920     5.7940     7.7320     8.2890   155.3310     0.0160     2.5230
 2820.0000   -69.2750     4.8620     5.8660     8.4270     8.2910   154.6630     0.0160     2.5390
 2820.5000   -69.2450     4.9320     5.9390     7.8010     8.2930   152.3850     0.0150     2.5560
 2821.0000   -69.2160     5.0020     6.0110     8.0530     8.2950   150.2780     0.0150     2.5510
 2821.5000   -69.1870     5.0800     6.0840     8.5560     8.2970   148.2480     0.0150     2.5440
 2822.0000   -69.1570     5.0160     6.1220     9.0590     8.2990   150.0890     0.0250     2.5320
 2822.5000   -69.1300     4.9440     6.1530     9.2260     8.3010   153.5770     0.0350     2.5280
 2823.0000   -69.0980     4.8710     6.2240     9.2260     8.3030   154.7830     0.0450     2.5330
 2823.5000   -69.0690     4.7990     6.1620     8.6540     8.3050   156.6040     0.0550     2.5390
 2824.0000   -69.0480     4.7270     5.8480     8.1090     8.3080   158.2350     0.0560     2.5350
 2824.5000   -68.9880     4.6540     5.4740     7.5640     8.3080   159.8330     0.0460     2.5150
 2825.0000   -69.2330     4.5820     5.4740     7.2400     8.3230   161.7190     0.0360     2.4900
 2825.5000   -69.6820     4.5090     5.5200     7.2400     8.3490   163.9550     0.0250     2.4950
 2826.0000   -70.1010     4.4370     5.5980     7.2400     8.3740   165.0890     0.0260     2.5190
 2826.5000   -70.1500     4.3760     5.6750     7.2880     8.3980   164.0180     0.0350     2.5440
 2827.0000   -70.0800     4.4980     5.7530     7.3730     8.4230   163.2060     0.0440     2.5490
 2827.5000   -70.0070     4.6010     5.8310     7.4580     8.4480   162.0600     0.0450     2.5400
 2828.0000   -69.9420     4.7050     5.9080     7.6580     8.4720   160.3390     0.0430     2.5350
 2828.5000   -69.8720     4.8090     5.9860     8.0890     8.4980   158.6350     0.0400     2.5380
 2829.0000   -69.8050     4.9130     6.0950     8.5630     8.5120   157.1200     0.0380     2.5360
 2829.5000   -69.7360     5.0170     6.2150     8.5120     8.5170   156.8290     0.0310     2.5200
 2830.0000   -69.6670     5.1210     6.3360     8.4560     8.5250   156.3880     0.0250     2.5080
 2830.5000   -69.6000     5.1760     6.4570     8.4040     8.5320   156.0620     0.0170     2.5260
 2831.0000   -69.5300     5.1870     6.5960     7.6560     8.5390   155.6530     0.0140     2.5270
 2831.5000   -69.4630     5.2040     6.6330     7.6560     8.5460   155.3240     0.0170     2.5290
 2832.0000   -69.4020     5.2220     6.6770     7.6560     8.5530   154.9390     0.0190     2.5210
 2832.5000   -69.3990     5.2390     6.7220     8.5630     8.5600   154.4270     0.0200     2.5220
 2833.0000   -69.3560     5.2560     6.7660     8.5630     8.5670   154.7130     0.0220     2.5300
 2833.5000   -69.3070     5.2730     6.8100     8.5630     8.5740   157.8900     0.0240     2.5160
 2834.0000   -69.2570     5.2730     6.8460     8.5630     8.5810   160.8900     0.0260     2.4980
 2834.5000   -69.2080     4.9560     6.5060     8.2390     8.5880   162.9740     0.0280     2.4940
 2835.0000   -69.1580     4.6890     6.0710     7.8250     8.5920   167.3570     0.0300     2.5040
 2835.5000   -69.1080     4.4220     5.7890     7.4120     8.5950   174.3670     0.0320     2.5130
 2836.0000   -69.0590     4.1550     5.4170     6.9980     8.5980   180.9570     0.0340     2.5180
 2836.5000   -69.0090     3.8880     5.0250     6.4680     8.6020   186.2440     0.0360     2.5160
 2837.0000   -68.9600     3.6200     4.6320     5.7890     8.6050   190.5220     0.0380     2.5080
 2837.5000   -68.9100     3.4340     4.2400     4.8640     8.6090   196.2200     0.0370     2.4950
 2838.0000   -68.8600     3.2730     3.6510     4.0330     8.6130   194.5840     0.0270     2.4820
 2838.5000   -68.8110     3.0710     3.6770     3.4340     8.6160   181.0420     0.0160     2.4750
 2839.0000   -68.7610     3.2600     4.0800     4.1260     8.6200   169.9900     0.0050     2.4960
 2839.5000   -68.7120     3.4770     4.5430     5.2170     8.6230   157.5760     0.0020     2.5160
 2840.0000   -68.6650     3.6940     4.6860     7.1060     8.6270   153.9750     0.0050     2.5350
 2840.5000   -68.6040     3.9100     5.0080     7.3760     8.6300   152.3450     0.0030     2.5390
 2841.0000   -68.7010     4.1270     5.3300     7.3760     8.6280   151.1690     0.0020     2.5370
 2841.5000   -69.0030     4.3440     5.6520     7.3760     8.6260   149.9340     0.0020     2.5350
 2842.0000   -69.2940     4.5600     5.9730     7.7160     8.6230   148.6100     0.0030     2.5290
 2842.5000   -69.6200     4.7770     6.2370     8.4040     8.6210   148.7160     0.0030     2.5220
 2843.0000   -69.7960     4.9930     6.2030     8.3570     8.6180   150.8960     0.0040     2.5150
 2843.5000   -69.7000     5.1760     6.1750     8.2490     8.6160   152.9770     0.0050     2.5150
 2844.0000   -69.6370     5.1410     6.1460     8.0130     8.6130   155.1220     0.0050     2.5200
