~VERSION INFORMATION
 VERS.                2.0:   CWLS LOG ASCII STANDARD - VERSION 2.0
 WRAP.                 NO:   ONE LINE PER DEPTH STEP
~WELL INFORMATION
#MNEM.UNIT      DATA TYPE    INFORMATION
#----------   ------------   ------------------------------
 STRT.F            1.5000:   START DEPTH
 STOP.F          985.0000:   STOP DEPTH
 STEP.F            0.5000:   STEP LENGTH
 NULL.          -999.2500:   NO VALUE
 COMP.       FLUOR DANIEL:   COMPANY
 WELL.  FLUOR 41 "X" #1-2:   WELL
 FLD .          N.P.R. #3:   FIELD
 LOC .       S2 T38N R78W:   LOCATION
 CNTY.            NATRONA:   COUNTY
 STAT.            WYOMING:   STATE
 CTRY. UNITED STATES OF AMERICA:   COUNTRY
 SRVC.     ATLAS WIRELINE:   SERVICE COMPANY
 DATE.        09-AUG-1994:   LOGDATE
 API .     49025226450000:   API NUMBER
~CURVE INFORMATION
#MNEM.UNIT       API CODE    CURVE DESCRIPTION
#----------   ------------   ------------------------------
 DEPT.F                  :   
 GRR .GAPI   07 310 01 00:   GAMMA RAY FROM RESISTIVITY
 TENR.LBS    07 635 01 00:   TENSION FROM RESISTIVITY
 RILD.OHMM   07 120 46 00:   INDUCTION LOG DEEP RESISTIVITY
 RILM.OHMM   07 120 44 00:   INDUCTION LOG MEDIUM RESISTIVITY
~PARAMETER INFORMATION
#MNEM.UNIT          VALUE    DESCRIPTION
#----------   ------------   ------------------------------
 EKB .F         5143.0000:   Kelly bushing
 EGL .F         5133.0000:   Ground level
 EDF .F         5142.0000:   Drilling floor
 TD  .F          970.0000:   Total depth
 CLNT.            A2DTECH:   Client Code
 PD  .                 GL:   Permanent Datum
 EPD .F              5133:   Elevation Permanent Datum
 LMF .                 KB:   Log Measured From
 DMF .                 KB:   Drilling Measured From
 DAPD.F                10:   Feet Above Permanent Datum
 DATE.        09-AUG-1994:   Date Logged [DD-MMM-YYYY]
 DD  .F               970:   Depth driller
 DL  .F               970:   Depth logger
 BLI .F               962:   Bottom log interval
 TLI .F                 0:   Top log interval
 CS1 .IN            9.625:   Casing size
 CBD1.       9.625" @ 56':   Casing driller 1
 CBL1.F                59:   Casing logger 1
 BS1 .IN             8.75:   Bit size
 BSD1.F               970:   Depth drilled with bit1
 DFT .                AIR:   Type fluid in hole
 MRT .F                94:   Maximum recorded temp.
 LUN .            HL 6530:   Logging unit number
 LUL .             CASPER:   Logging unit location
 ENGI.      PAT RASMUSSEN:   Recorded By
 WITN.        GARY STRONG:   Witnessed by
 ORIG.           5" PRINT:   Origin of data
 UWI .     49025226450000:   Unique Well ID
 DICO. A2D TECHNOLOGIES, INC.:   Digitizing Company
 SL  . 173' FNL & 2204' FWL:   Surface Location
~OTHER INFORMATION
~A    DEPT      GRR      TENR       RILD       RILM   
# ...
  877.5000    79.7874   128.0303    22.7431    22.0270
  878.0000    79.7815   128.3230    23.7123    23.4487
  878.5000    79.7754   121.0843    23.8769    23.7744
  879.0000    79.4647   113.8481    23.3810    23.6032
  879.5000    78.5484   114.2140    22.8959    23.1099
  880.0000    77.0250   114.5066    21.9570    22.4697
  880.5000    78.2331   114.7993    20.4780    20.5957
  881.0000    83.0830   122.6221    19.0880    18.6056
  881.5000    88.8434   130.4449    18.0269    17.9645
  882.0000    88.8375   130.7375    17.0814    16.9864
  882.5000    89.1657   131.0302    15.8201    15.7292
  883.0000    92.2974   131.3253    15.2775    14.8728
  883.5000    96.1021   131.6265    14.9605    14.4608
  884.0000    97.6136   131.9814    14.9595    14.5591
  884.5000   100.0357   124.6707    14.9584    14.8689
  885.0000    97.6018   117.4333    14.9574    15.1749
  885.5000    96.0785   125.3292    15.0610    15.1710
  886.0000    95.4656   135.8949    15.0599    15.1684
  886.5000    98.4946   148.5050    15.1642    15.2717
  887.0000    99.3992   156.3278    15.1629    15.2678
  887.5000    99.0895   156.6265    15.1619    15.2647
  888.0000   100.5999   156.9863    15.2669    15.3685
  888.5000   102.7184   149.6756    15.2658    15.4728
  889.0000   103.6244   150.0415    15.3716    15.5779
  889.5000   100.2787   150.3341    15.4780    15.4657
  890.0000    97.9106   143.0967    15.4698    15.3551
  890.5000    97.5349   143.3894    15.1555    15.1394
  891.0000    99.9570   143.6820    14.9448    14.9267
  891.5000   102.0755   146.5276    14.8400    14.6148
  892.0000   104.8010   151.8072    14.6337    14.3094
  892.5000   106.3227   152.1633    14.2305    13.9130
  893.0000   103.2231   152.4560    13.6470    13.7175
  893.5000    99.3190   160.2788    13.6461    13.6051
  894.0000    97.4921   160.5422    13.1780    12.8773
  894.5000    97.1828   160.8641    12.6376    12.6082
  895.0000    97.1768   157.9589    12.6366    12.5181
  895.5000    99.9024   153.8705    12.6357    12.4286
  896.0000   103.5383   154.2169    12.4600    12.2540
  896.5000   108.3883   162.0482    12.2015    12.1663
  897.0000   108.3824   162.4006    12.2007    12.2490
  897.5000   104.8559   170.2234    12.5446    12.4256
  898.0000    92.5876   170.5161    12.7198    13.0363
  898.5000    78.6212   170.8088    12.8078    13.6855
  899.0000    72.8489   178.6315    12.8069    13.4933
  899.5000    71.3256   186.4543    12.8059    13.0283
  900.0000    71.0177   201.8072    12.6907    12.6274
  900.5000    76.8915   181.8438    12.3744    12.3063
  901.0000    83.7377   172.1061    12.0582    11.9720
  901.5000    88.8853   164.7948    11.7420    11.7125
  902.0000    92.8189   165.0683    11.3549    11.4597
  902.5000    96.4490   165.2871    11.1933    11.2315
  903.0000    98.5938   165.5121    11.1111    11.1497
  903.5000    99.4603   173.3094    11.0295    11.0685
  904.0000    99.4456   181.0584    10.9485    10.9115
  904.5000    99.7373   181.2772    10.9440    10.9078
  905.0000   103.0639   189.0261    10.9396    10.9041
  905.5000   107.0004   189.2449    11.0116    10.9004
  906.0000   104.8612   189.4637    11.0830    10.8958
  906.5000    97.8692   189.6837    11.1560    10.9693
  907.0000    95.7288   189.9097    11.1514    10.9652
  907.5000    96.1456   190.1747    11.1469    11.0386
  908.0000   100.8658   190.3615    11.1424    11.0339
  908.5000   101.4639   198.1425    11.1379    11.0302
  909.0000   101.4492   205.8914    11.1334    11.1036
  909.5000   102.3479   206.1102    11.2067    11.0998
  910.0000   105.6745   213.8591    11.2010    11.1037
  910.5000   109.3046   206.5478    11.1972    11.1700
  911.0000   111.4254   206.8212    11.1920    11.1652
  911.5000   106.7392   207.0400    11.1874    11.1615
  912.0000   102.5895   207.2588    11.1053    11.1577
  912.5000   103.1847   207.4776    11.1008    11.1541
  913.0000   104.0834   207.6964    11.0962    11.1502
  913.5000   104.0716   207.9152    11.0907    11.1463
  914.0000   105.5772   208.1340    11.0092    11.0643
  914.5000   107.0859   208.3584    10.9283    10.9837
  915.0000   107.3748   208.6263    10.8481    10.9800
  915.5000   107.3628   216.3752    10.7684    10.9000
  916.0000   110.5960   224.1241    10.6151    10.7454
  916.5000   113.1026   224.3429    10.4640    10.6672
  917.0000   113.3973   209.4467    10.3808    10.4428
  917.5000   113.3825   202.1837    10.3098    10.4392
  918.0000   111.5498   209.9398    10.4502    10.4349
  918.5000   104.5578   213.0352    10.5201    10.5052
  919.0000   103.9390   217.9614    10.6623    10.6483
  919.5000   104.2307   218.1802    10.8075    10.6447
  920.0000   105.1294   218.3990    10.8032    10.7914
  920.5000   106.6321   226.1479    10.7988    10.7869
  921.0000   109.6552   226.3667    10.7848    10.7832
  921.5000   112.6783   241.6458    10.7140    10.7795
  922.0000   113.2765   241.8675    10.7097    10.7750
  922.5000   112.0478   242.1380    10.7054    10.6965
  923.0000   111.1255   242.3568    10.5530    10.6191
  923.5000   111.4172   234.9908    10.5487    10.6150
  924.0000   112.3159   227.6795    10.4712    10.5377
  924.5000   114.7291   220.3681    10.3943    10.4610
  925.0000   115.0238   235.7019    10.2462    10.3848
  925.5000   110.7602   243.4508    10.1700    10.1663
  926.0000   107.7135   251.2048    10.0253     9.9517
  926.5000   111.6470   259.0033     9.8139     9.8106
  927.0000   114.3667   266.7522     9.8099     9.7392
  927.5000   119.5142   266.9710     9.7379     9.6682
  928.0000   117.3455   259.6050     9.6664     9.5978
  928.5000   113.7238   259.8785     9.6624     9.5946
  929.0000   114.3166   260.0973     9.7261     9.5913
  929.5000   116.1257   260.3161     9.6537     9.5213
  930.0000   117.9378   253.0047     9.3846     9.3204
  930.5000   114.8882   253.2782     8.9342     8.9981
  931.0000   116.0904   253.4970     8.8686     8.9325
  931.5000   120.6310   253.7158     8.7424     8.7447
  932.0000   121.5296   261.4647     8.4987     8.5013
  932.5000   116.9651   261.6835     8.2483     8.2647
  933.0000   119.0752   261.8976     7.8645     8.0894
  933.5000   126.0437   262.1235     7.5922     7.7402
  934.0000   128.7663   262.3494     6.8838     7.1312
  934.5000   123.8957   262.5753     6.1552     6.2880
  935.0000   122.6699   262.8012     5.5809     5.7412
  935.5000   125.3896   263.0510     4.9902     5.0623
  936.0000   131.1441   270.7999     4.8841     4.3713
  936.5000   138.5570   271.0187     4.8830     4.4004
  937.0000   150.2374   271.2349     4.9152     4.7522
  937.5000   154.1710   271.4608     4.9817     5.0320
  938.0000   150.5173   271.7298     5.0500     5.6105
  938.5000   138.0625   271.9486     5.2264     6.1836
  939.0000   129.8564   272.1674     6.3496     6.7210
  939.5000   122.5609   272.3861     7.3470     7.1538
  940.0000   120.4247   280.1351     7.9919     7.6678
  940.5000   124.0708   280.3539     8.4378     8.0486
  941.0000   123.7390   280.5726     8.6125     8.5138
  941.5000   120.9934   295.8584     8.7298     8.8055
  942.0000   120.3746   296.1252     8.7263     8.8649
  942.5000   120.9698   288.7592     8.7838     8.8611
  943.0000   123.9929   289.0326     8.8416     8.8581
  943.5000   127.9265   289.2514     8.9620     8.9795
  944.0000   133.3775   289.4702     9.1543     9.1662
  944.5000   133.3657   289.6890     9.5333     9.5546
  945.0000   131.2899   290.1602     9.8672     9.7577
  945.5000  -999.2500   297.6656    10.0715     9.9560
  946.0000  -999.2500   297.9302    10.0675    10.0924
  946.5000  -999.2500   298.1490    10.0634    10.1596
  947.0000  -999.2500   298.3678    10.0593    10.1553
  947.5000  -999.2500   298.5866    10.2676    10.2237
  948.0000  -999.2500   298.8054    10.4908    10.4354
  948.5000  -999.2500   299.0242    10.8462    10.6524
  949.0000  -999.2500   299.2470    10.9940    10.8799
  949.5000  -999.2500   299.5165    11.1437    11.1776
  950.0000  -999.2500   307.2654    11.2182    11.2520
