~VERSION INFORMATION
 VERS.                2.0:   CWLS LOG ASCII STANDARD - VERSION 2.0
 WRAP.                 NO:   ONE LINE PER DEPTH STEP
~WELL INFORMATION
#MNEM.UNIT      DATA TYPE    INFORMATION
#----------   ------------   ------------------------------
 STRT.F           36.0000:   START DEPTH
 STOP.F         3488.0000:   STOP DEPTH
 STEP.F            0.5000:   STEP LENGTH
 NULL.          -999.2500:   NO VALUE
 COMP. LAWRENCE - ALLISON  & ASSOCIATE:   COMPANY
 WELL. LAWRENCE "STX" #76-23:   WELL
 FLD .              NPR 3:   FIELD
 LOC .      S23 T38N R78W:   LOCATION
 CNTY.            NATRONA:   COUNTY
 STAT.            WYOMING:   STATE
 CTRY. UNITED STATES OF AMERICA:   COUNTRY
 SRVC.       SCHLUMBERGER:   SERVICE COMPANY
 DATE.        07-MAY-1982:   LOGDATE
 API .     49025108920000:   API NUMBER
~CURVE INFORMATION
#MNEM.UNIT       API CODE    CURVE DESCRIPTION
#----------   ------------   ------------------------------
 DEPT.F                  :   
 CORR.G/C3   45 356 01 00:   DENSITY CORRECTION
 CALD.IN     45 280 60 00:   CALIPER FROM DENSITY LOG
 GRD .GAPI   45 310 01 00:   GAMMA RAY FROM DENSITY LOG
 RHOB.G/C3   45 350 01 00:   BULK DENSITY
 SFL .OHMM   07 220 01 00:   SHALLOW FOCUSED LOG RESISTIVITY
 ILD .OHMM   07 120 46 00:   DEEP INDUCTION RESISTIVITY
 ILM .OHMM   07 120 44 00:   INDUCTION LOG MEDIUM RESISTIVITY
 TENR.LBS    07 635 01 00:   TENSION
 SPR .MV     07 010 01 00:   SPONTANEOUS POTENTIAL
 NPHI.DEC    42 890 03 00:   NEUTRON POROSITY SANDSTONE
 TEND.LBS    45 635 01 00:   TENSION FROM DENSITY LOG
~PARAMETER INFORMATION
#MNEM.UNIT          VALUE    DESCRIPTION
#----------   ------------   ------------------------------
 EKB .F         5441.0000:   Kelly bushing
 EGL .F         5431.0000:   Ground level
 EDF .F            0.0000:   Drilling floor
 EPD .F            0.0000:   Permanent datum
 TD  .F         3788.0000:   Total depth
 DATE.        07-MAY-1982:   Date logged
 CLNT.            A2DTECH:   Client Code
 SL  . 1327' FSL & 1190' FEL:   Surface Location
 PD  .                 GL:   Permanent Datum
 DAPD.F                10:   Feet Above Permanent Datum
 DD  .F              3788:   Depth driller
 DL  .F              3478:   Depth logger
 BLI .F              3471:   Bottom log interval
 TLI .F              1615:   Top log interval
 CS1 .IN            9.625:   Casing size
 CBD1.     9.625" @ 1603':   Casing driller 1
 CBL1.F              1615:   Casing logger 1
 BS1 .IN            7.875:   Bit size
 BSD1.F              3788:   Depth drilled with bit1
 DFT .                AIR:   Type fluid in hole
 TCS .HRS            1230:   Time Circ. stopped
 TLAB.HRS            1500:   Time logger at bottom
 MRT .F               125:   Maximum recorded temp.
 LUN .               8035:   Logging unit number
 LUL .               CSPR:   Logging unit location
 ENGI.              PENNY:   Recorded By
 WITN.    JENNINGS/STRONG:   Witnessed by
 ORIG.       2.5"5" PRINT:   Origin of data
 UWI .     49025108920000:   Unique Well ID
 DICO. A2D TECHNOLOGIES, INC.:   Digitizing Company
~OTHER INFORMATION
~A   DEPT       CORR     CALD        GRD         RHOB      SFL        ILD        ILM       TENR        SPR        NPHI      TEND   
# ...
  493.5000     0.0190    13.0130    86.4970     2.3250     4.9330     5.8480     5.3580   561.6080    -5.5640     0.4090  1020.3050
  494.0000     0.0230    12.7080    90.3990     2.3780     5.5050     5.9760     5.5600   561.7900    -5.5820     0.3780  1020.5050
  494.5000     0.0300    12.5970    94.9500     2.4300     6.1510     6.1040     5.7620   561.9720    -5.6010     0.3500  1020.7050
  495.0000     0.0170    12.5880    98.1000     2.4150     6.2660     6.2310     5.9630   562.1540    -5.6190     0.3520  1020.9050
  495.5000     0.0040    12.5800    96.5880     2.3990     6.2660     6.3590     6.1650   562.3370    -5.6370     0.3500  1021.1040
  496.0000     0.0010    12.5730    94.1350     2.3990     6.2660     6.4870     6.2660   562.5190    -5.6560     0.3450  1021.3040
  496.5000     0.0140    12.5660    90.1440     2.4150     6.2660     6.6250     6.2420   562.7010    -5.6740     0.3470  1021.5040
  497.0000     0.0300    12.5590    89.2770     2.4270     6.2660     6.6250     6.2210   562.8830    -5.6920     0.3600  1021.7040
  497.5000     0.0440    12.5520    90.3920     2.4350     6.2660     6.6250     6.2000   563.0650    -5.7110     0.3740  1021.9040
  498.0000     0.0430    12.5450    92.0540     2.4360     6.2660     6.6250     6.1780   563.2470    -5.7290     0.3900  1022.1030
  498.5000     0.0420    12.5490    93.7930     2.4370     6.2660     6.6250     6.1570   563.4300    -5.7470     0.3810  1022.3030
  499.0000     0.0370    12.5870    94.0520     2.4390     6.2660     6.6250     6.1350   563.6120    -5.7670     0.3680  1022.5030
  499.5000     0.0320    12.6250    93.2370     2.4400     6.1180     6.5030     6.1140   563.7940    -5.7780     0.3480  1022.7030
  500.0000     0.0270    12.6620    92.1690     2.4410     6.0340     6.6570     6.0920   563.9760    -5.7760     0.3520  1022.9030
  500.5000     0.0260    12.7000    91.0840     2.4420     5.9490     6.8130     6.0710   564.1580    -5.7780     0.3600  1023.1020
  501.0000     0.0240    12.7370    91.5600     2.4410     5.8650     6.9690     6.0380   564.3400    -5.7750     0.3680  1023.3020
  501.5000     0.0130    12.7470    92.1540     2.4400     5.8180     7.1250     6.1430   564.5230    -5.7790     0.3680  1023.5020
  502.0000     0.0020    12.6940    92.7460     2.4390     6.6380     7.2810     6.3820   564.7050    -5.7840     0.3500  1023.7020
  502.5000     0.0070    12.6400    93.3340     2.4450     7.4210     7.4370     6.6220   564.8870    -5.9780     0.3300  1023.9020
  503.0000     0.0120    12.6210    93.9230     2.4520     8.2040     7.5930     6.8610   565.0690    -6.2110     0.3070  1024.1021
  503.5000     0.0180    12.6260    94.5080     2.4590     8.7530     7.7490     7.1000   565.2510    -6.4490     0.3090  1024.3010
  504.0000     0.0240    12.6310    95.0960     2.4620     8.6790     7.9050     7.3390   565.4330    -6.6760     0.3160  1024.5010
  504.5000     0.0280    12.6360    95.6680     2.4650     8.4510     7.9770     7.5450   565.6160    -6.9110     0.3210  1024.7010
  505.0000     0.0310    12.6410    95.1520     2.4640     8.2230     7.8060     7.4320   565.7980    -6.9390     0.3190  1024.9010
  505.5000     0.0280    12.6460    94.4640     2.4580     7.9950     7.6560     7.3340   565.9800    -6.8840     0.3170  1025.1010
  506.0000     0.0250    12.6510    93.7730     2.4510     7.7670     7.5070     7.2360   566.1620    -6.8320     0.3210  1025.3000
  506.5000     0.0230    12.6560    94.0960     2.4510     7.5390     7.3570     7.1370   566.3440    -6.7830     0.3250  1025.5000
  507.0000     0.0250    12.6610    95.7500     2.4510     7.4060     7.2420     7.0390   566.5260    -6.7320     0.3340  1025.7000
  507.5000     0.0260    12.6660    97.9010     2.4490     7.4060     7.1760     6.9400   566.7090    -6.6810     0.3430  1025.9000
  508.0000     0.0220    12.6710   100.0510     2.4380     7.4060     7.1100     6.8420   566.8910    -6.6320     0.3510  1026.1000
  508.5000     0.0170    12.6760   101.8190     2.4270     7.3810     7.0440     6.7430   567.0730    -6.5770     0.3590  1026.3000
  509.0000     0.0150    12.6810   100.7050     2.4260     7.2880     6.9780     6.6450   567.2550    -6.5650     0.3620  1026.4990
  509.5000     0.0170    12.6870    96.7520     2.4310     7.1960     6.9120     6.5470   567.4370    -6.5530     0.3640  1026.6990
  510.0000     0.0190    12.6920    92.9560     2.4340     7.1030     6.8460     6.4480   567.6200    -6.5430     0.3650  1026.8990
  510.5000     0.0210    12.6970    95.1010     2.4360     7.0050     6.7790     6.3500   567.8020    -6.5310     0.3670  1027.0990
  511.0000     0.0240    12.7020    98.6280     2.4380     6.7140     6.7490     6.2660   567.9840    -6.5210     0.3760  1027.2990
  511.5000     0.0180    12.7070    99.4860     2.4360     6.4050     6.6950     6.2540   568.1660    -6.5100     0.3890  1027.4980
  512.0000     0.0100    12.7120    96.7940     2.4280     6.1510     6.6470     6.2440   568.3480    -6.4990     0.3850  1027.6980
  512.5000     0.0050    12.7150    91.9060     2.4170     6.0380     6.5990     6.2330   568.5300    -6.4880     0.3780  1027.8979
  513.0000     0.0110    12.7100    89.5910     2.4210     6.2030     6.5520     6.2230   568.7130    -6.4770     0.3780  1028.0980
  513.5000     0.0180    12.7050    89.6930     2.4280     6.3690     6.5040     6.2120   568.8950    -6.4660     0.3790  1028.2980
  514.0000     0.0250    12.7000    91.5120     2.4300     6.5350     6.4570     6.2020   569.0770    -6.4550     0.3790  1028.4980
  514.5000     0.0270    12.6980    93.0550     2.4260     6.6250     6.4090     6.1910   569.2590    -6.4450     0.3740  1028.6970
  515.0000     0.0280    12.7160    92.8750     2.4240     6.5960     6.3620     6.1810   569.4410    -6.4340     0.3790  1028.8970
  515.5000     0.0360    12.7340    92.6700     2.4300     6.4890     6.3140     6.1700   569.6230    -6.4230     0.3880  1029.0970
  516.0000     0.0460    12.7520    92.4700     2.4360     6.3830     6.2660     6.1600   569.8060    -6.4120     0.3960  1029.2970
  516.5000     0.0550    12.7710    92.2730     2.4420     6.2760     6.2190     6.1510   569.9880    -6.4010     0.4030  1029.4969
  517.0000     0.0640    12.7550    92.0850     2.4480     6.1690     6.1710     6.0690   570.1700    -6.3900     0.3930  1029.6960
  517.5000     0.0750    12.7310    92.0000     2.4560     6.0630     6.1240     5.9570   570.3520    -6.3790     0.3810  1029.8960
  518.0000     0.0860    12.7060    92.5010     2.4680     6.0380     6.0760     5.8450   570.5340    -6.3680     0.3700  1030.0959
  518.5000     0.0940    12.6910    95.1770     2.4760     6.0380     6.0380     5.7330   570.7160    -6.3570     0.3610  1030.2960
  519.0000     0.1030    12.6820    96.6870     2.4790     6.0380     6.0710     5.6210   570.8990    -6.3470     0.3600  1030.4960
  519.5000     0.1320    12.6740    95.6670     2.4820     5.9870     6.1120     5.5090   571.0810    -6.3360     0.3630  1030.6949
  520.0000     0.1100    12.6650    94.1830     2.4630     5.7560     6.1540     5.4010   571.2630    -6.3250     0.3730  1030.8950
  520.5000     0.0750    12.6550    91.4890     2.4200     5.5250     6.1950     5.6090   571.4450    -6.3140     0.3840  1031.0950
  521.0000     0.0400    12.6170    91.6470     2.3950     5.3020     6.2360     5.8100   571.6270    -6.3030     0.3950  1031.2950
  521.5000     0.0190    12.5790    92.3690     2.4050     5.9120     6.2660     6.0100   571.8090    -6.2920     0.3880  1031.4950
  522.0000     0.0140    12.5410    90.7630     2.4240     6.4820     6.4880     6.2100   571.9920    -6.2810     0.3740  1031.6949
  522.5000     0.0130    12.5400    88.3430     2.4430     7.0510     6.7380     6.4100   572.1740    -6.2700     0.3590  1031.8940
  523.0000     0.0190    12.5400    87.4070     2.4580     7.5450     6.9880     6.6110   572.3560    -6.2600     0.3460  1032.0940
  523.5000     0.0280    12.5410    88.7060     2.4670     7.5450     7.2380     6.8110   572.5380    -6.2490     0.3470  1032.2939
