~VERSION INFORMATION
 VERS.                2.0:   CWLS LOG ASCII STANDARD - VERSION 2.0
 WRAP.                 NO:   ONE LINE PER DEPTH STEP
~WELL INFORMATION
#MNEM.UNIT      DATA TYPE    INFORMATION
#----------   ------------   ------------------------------
 STRT.F            0.0000:   START DEPTH
 STOP.F         3440.0000:   STOP DEPTH
 STEP.F            0.5000:   STEP LENGTH
 NULL.          -999.2500:   NO VALUE
 COMP. FLOOR DANIEL (NPSOR):   COMPANY
 WELL. FLOOR DANIEL "SHX" #48-34:   WELL
 FLD .                NPR:   FIELD
 LOC .      S34 T39N R78W:   LOCATION
 CNTY.            NATRONA:   COUNTY
 STAT.            WYOMING:   STATE
 CTRY. UNITED STATES OF AMERICA:   COUNTRY
 SRVC.      WESTERN ATLAS:   SERVICE COMPANY
 DATE.        06-APR-1995:   LOGDATE
 API .     49025109220000:   API NUMBER
~CURVE INFORMATION
#MNEM.UNIT       API CODE    CURVE DESCRIPTION
#----------   ------------   ------------------------------
 DEPT.F                  :   
 TEND.LBS    45 635 01 00:   TENSION FROM DENSITY LOG
 ZCOR.G/C3   45 356 01 00:   DENSITY CORRECTION
 ZDEN.G/C3   45 350 01 00:   BULK DENSITY
 CALD.IN     45 280 60 00:   CALIPER FROM DENSITY LOG
 CNC .DEC    42 890 03 00:   NEUTRON POROSITY SANDSTONE
 GRR .GAPI   07 310 01 00:   GAMMA RAY FROM RESISTIVITY
 TENR.LBS    07 635 01 00:   TENSION FROM RESISTIVITY
 RFOC.OHMM   07 220 04 00:   RESISTIVITY FOCUSED LOG RES.
 RILD.OHMM   07 120 46 00:   DEEP INDUCTION RESISTIVITY
 RILM.OHMM   07 120 44 00:   INDUCTION LOG MEDIUM RESISTIVITY
~PARAMETER INFORMATION
#MNEM.UNIT          VALUE    DESCRIPTION
#----------   ------------   ------------------------------
 EKB .F         5182.0000:   Kelly bushing
 EGL .F         5172.0000:   Ground level
 EDF .F            0.0000:   Drilling floor
 EPD .F            0.0000:   Permanent datum
 TD  .F         3442.0000:   Total depth
 DATE.        06-APR-1995:   Date logged
 CLNT.            A2DTECH:   Client Code
 SL  . 97' FSL & 2256 FWL:   Surface Location
 PD  .                 GL:   Permanent Datum
 DD  .F              3442:   Depth driller
 DL  .F              3422:   Depth logger
 BLI .F              3420:   Bottom log interval
 CS1 .IN            8.625:   Casing size
 CBD1.      8.625" @ 667':   Casing driller 1
 BS1 .IN            7.875:   Bit size
 BSD1.F               AIR:   Depth drilled with bit1
 ENGI.      PAT RASMUSSEN:   Recorded By
 WITN.        GARY STRONG:   Witnessed by
 ORIG.           5" PRINT:   Origin of data
 UWI .     49025109220000:   Unique Well ID
 DICO. A2D TECHNOLOGIES, INC.:   Digitizing Company
 MRT .F               142:   Maximum recorded temp.
~OTHER INFORMATION
~A    DEPT    TEND       ZCOR       ZDEN       CALD        CNC         GRR      TENR       RFOC       RILD       RILM   
# ...
 2378.5000   -49.7750     0.0130     2.4880     8.8090     0.2300   106.5230   -45.5120     8.1620     8.7040     7.9960
 2379.0000   -42.5050     0.0120     2.4780     8.8090     0.2240   106.7980   -45.0460     9.2810     8.4940     8.1550
 2379.5000   -35.2350     0.0110     2.4640     8.8090     0.2170   105.8900   -44.5790    10.3990     8.2830     8.3140
 2380.0000   -27.9660     0.0100     2.4650     8.8090     0.2090   104.8890   -44.1120    11.3880     8.0730     8.5160
 2380.5000   -23.6320     0.0090     2.4790     8.8090     0.2080    99.8870   -43.6450    10.2320     7.8630     8.3550
 2381.0000   -24.9710     0.0080     2.5040     8.8090     0.2090    94.9390   -43.1780     9.1970     7.6520     7.8840
 2381.5000   -26.3110     0.0070     2.5100     8.8090     0.2120    92.6390   -42.8990     7.7760     7.4420     7.4120
 2382.0000   -27.6500     0.0060     2.5070     8.8090     0.2140    94.4010   -42.8990     8.5430     7.2320     6.9410
 2382.5000   -28.9890     0.0050     2.4950     8.8090     0.2170    94.6730   -42.8990     9.6700     7.0210     6.1410
 2383.0000   -30.3280     0.0110     2.4910     8.8090     0.2200    95.6810   -42.8990     8.5900     6.8110     6.1980
 2383.5000   -31.6670     0.0170     2.4960     8.8090     0.2220    98.6120   -42.8990     7.0250     6.6000     6.3860
 2384.0000   -33.0060     0.0220     2.4960     8.8090     0.2220   108.1420   -42.8990     5.9210     6.3900     6.5740
 2384.5000   -34.3450     0.0280     2.4910     8.8090     0.2190   115.5180   -42.8990     6.6550     6.1410     6.7240
 2385.0000   -35.6850     0.0260     2.4890     8.8090     0.2160   118.7070   -42.8990     7.4050     6.0510     6.4900
 2385.5000   -37.0240     0.0220     2.4920     8.8090     0.2180   116.3590   -42.8990     8.1560     5.8420     6.2020
 2386.0000   -38.3630     0.0180     2.4950     8.8090     0.2220   113.7190   -42.8990     8.8310     5.6330     5.9140
 2386.5000   -39.7020     0.0150     2.4980     8.8090     0.2280   113.0330   -42.8990     7.9820     5.4240     5.6260
 2387.0000   -41.0410     0.0110     2.4940     8.8090     0.2340   116.4970   -42.8990     7.2110     5.2140     5.3380
 2387.5000   -42.3800     0.0090     2.4900     8.8090     0.2400   120.1260   -42.8990     6.4390     5.0050     5.0490
 2388.0000   -42.8990     0.0100     2.4790     8.8090     0.2410   124.7740   -42.8990     6.1060     4.7620     4.8490
 2388.5000   -42.8990     0.0120     2.4470     8.8080     0.2350   133.9820   -42.8990     6.0490     4.7620     4.7620
 2389.0000   -42.0410     0.0150     2.4300     8.8140     0.2270   142.8010   -42.8990     5.7400     4.8490     4.8490
 2389.5000   -39.0470     0.0180     2.4280     8.8230     0.2190   149.9520   -42.8990     5.3090     5.1270     5.2740
 2390.0000   -36.0540     0.0200     2.4360     8.8310     0.2150   146.8120   -42.8990     5.0280     5.4970     5.7470
 2390.5000   -33.0610     0.0150     2.4460     8.8390     0.2150   139.5600   -42.8990     7.2820     5.8670     6.2200
 2391.0000   -30.0670     0.0100     2.4430     8.8470     0.2140   132.1030   -42.8990     9.6260     6.2360     6.6930
 2391.5000   -27.0740     0.0030     2.4380     8.8550     0.2130   132.4570   -42.8990    11.8100     6.6060     7.2310
 2392.0000   -24.0810     0.0030     2.4320     8.8640     0.2140   133.8320   -42.8990    12.2470     6.9760     7.5300
 2392.5000   -23.8690     0.0080     2.4290     8.8720     0.2150   137.4450   -42.8990    10.0280     7.3390     7.7760
 2393.0000   -24.8630     0.0130     2.4300     8.8800     0.2160   140.9360   -42.8990     8.8310     7.9190     7.4660
 2393.5000   -25.8560     0.0170     2.4300     8.8880     0.2170   144.4310   -42.8990     8.8830     7.8160     7.1300
 2394.0000   -26.8500     0.0220     2.4310     8.8930     0.2180   152.5370   -42.8990     9.1580     7.5400     6.7940
 2394.5000   -27.8440     0.0270     2.4300     8.8980     0.2180   163.1110   -42.8990     8.2980     7.2630     6.6030
 2395.0000   -28.8380     0.0310     2.4260     8.9030     0.2180   174.9120   -42.8990     7.2520     6.9870     6.5420
 2395.5000   -29.8310     0.0340     2.4220     8.9080     0.2180   177.9220   -42.8990     6.7240     6.5950     6.3160
 2396.0000   -30.8250     0.0370     2.4200     8.9130     0.2200   179.9760   -42.8990     7.4910     6.0870     5.8550
 2396.5000   -31.8190     0.0400     2.4250     8.9180     0.2240   180.3100   -42.8990     8.0640     5.5780     5.3030
 2397.0000   -32.8130     0.0440     2.4470     8.9230     0.2340   179.7520   -42.8990     7.2350     5.0700     4.7510
 2397.5000   -33.8060     0.0380     2.4900     8.9280     0.2430   175.5410   -42.8990     6.3610     4.5610     4.1990
 2398.0000   -34.8000    -0.0080     2.4710     8.9300     0.2530   172.1550   -42.8990     5.4870     4.0520     3.8290
 2398.5000   -35.7940     0.0070     2.4000     8.9320     0.2510   161.1020   -42.8990     4.6130     3.4970     3.6340
 2399.0000   -36.7880     0.0730     2.3650     8.9340     0.2460   155.6640   -42.8990     3.8990     3.4450     3.5610
 2399.5000   -37.7810     0.1600     2.3640     8.9360     0.2440   146.1040   -42.8990     4.0120     3.3870     3.4270
 2400.0000   -38.7750     0.1400     2.3850     8.9380     0.2510   142.8630   -42.8990     4.3280     3.3300     3.3090
 2400.5000   -39.7690     0.0830     2.4840     8.9400     0.2590   139.0260   -42.8990     4.7620     3.2510     3.1930
 2401.0000   -40.7630     0.0260     2.5210     8.9420     0.2630   139.2020   -42.8990     4.6270     3.3300     3.2190
 2401.5000   -41.7560     0.0260     2.5330     8.9440     0.2640   142.0300   -42.8990     4.3480     3.4080     3.3300
 2402.0000   -42.8990     0.0300     2.5420     8.9460     0.2640   142.9250   -42.8990     4.2700     3.4970     3.4420
 2402.5000   -42.8990     0.0370     2.5450     8.9480     0.2640   142.8000   -42.8990     4.3470     3.5240     3.5530
 2403.0000   -42.8990     0.0310     2.5490     8.9500     0.2640   141.9060   -42.8990     4.5030     3.5550     3.6640
 2403.5000   -42.8990     0.0260     2.5540     8.9520     0.2620   139.3330   -42.8990     4.7620     3.5860     3.7600
 2404.0000   -42.8990     0.0290     2.5590     8.9540     0.2610   135.0740   -42.8990     4.7360     3.6180     3.7600
 2404.5000   -42.8990     0.0370     2.5600     8.9560     0.2600   130.3030   -42.8990     4.6760     3.6490     3.7600
 2405.0000   -42.8990     0.0450     2.5580     8.9580     0.2590   127.7570   -42.8990     4.6040     3.6800     3.7600
 2405.5000   -42.8990     0.0640     2.5560     8.9600     0.2590   127.0330   -42.8990     4.5090     3.6920     3.7600
 2406.0000   -42.8990     0.0850     2.5450     8.9620     0.2590   128.7360   -42.8990     4.5240     3.6920     3.7600
 2406.5000   -42.0430     0.0660     2.5340     8.9640     0.2590   131.2820   -42.8990     4.5590     3.6920     3.7600
 2407.0000   -40.4830     0.0420     2.5330     8.9660     0.2600   129.8700   -42.8990     4.5920     3.6920     3.7600
 2407.5000   -38.9240     0.0350     2.5320     8.9680     0.2600   127.7500   -42.8990     4.4800     3.6920     3.8290
 2408.0000   -37.3640     0.0430     2.5320     8.9680     0.2610   127.1030   -42.8990     4.3630     3.7180     3.8520
 2408.5000   -35.8050     0.0490     2.5290     8.9680     0.2630   126.5930   -42.8990     4.3970     3.7670     3.8780
 2409.0000   -34.2460     0.0530     2.5230     8.9680     0.2650   126.0520   -42.8990     4.6020     3.8170     3.8990
 2409.5000   -32.6860     0.0510     2.5170     8.9680     0.2670   124.0930   -42.8990     4.7330     3.8670     3.9780
 2410.0000   -31.1270     0.0450     2.5150     8.9680     0.2640   122.2770   -42.8990     4.8070     3.9170     4.0460
 2410.5000   -29.5670     0.0400     2.5200     8.9680     0.2610   128.3500   -42.8990     4.8810     3.9660     4.1140
 2411.0000   -28.0080     0.0340     2.5250     8.9680     0.2610   137.3450   -42.8990     4.9380     4.0160     4.1930
 2411.5000   -26.4480     0.0280     2.5260     8.9680     0.2650   140.1690   -42.8990     4.9380     4.0430     4.1680
