~VERSION INFORMATION
 VERS.                2.0:   CWLS LOG ASCII STANDARD - VERSION 2.0
 WRAP.                 NO:   ONE LINE PER DEPTH STEP
~WELL INFORMATION
#MNEM.UNIT      DATA TYPE    INFORMATION
#----------   ------------   ------------------------------
 STRT.F          211.5000:   START DEPTH
 STOP.F         3103.0000:   STOP DEPTH
 STEP.F            0.5000:   STEP LENGTH
 NULL.          -999.2500:   NO VALUE
 COMP.    FENIX & SCISSON:   COMPANY
 WELL. FENIX NPR 3 "AX" #38-10:   WELL
 FLD .  TEAPOT DOME - NPR:   FIELD
 LOC .      S10 T38N R78W:   LOCATION
 CNTY.            NATRONA:   COUNTY
 STAT.            WYOMING:   STATE
 CTRY. UNITED STATES OF AMERICA:   COUNTRY
 SRVC.           BIRDWELL:   SERVICE COMPANY
 DATE.        01-JUL-1978:   LOGDATE
 API .     49025106550000:   API NUMBER
~CURVE INFORMATION
#MNEM.UNIT       API CODE    CURVE DESCRIPTION
#----------   ------------   ------------------------------
 DEPT.F                  :   
 CALD.IN     45 280 60 00:   CALIPER FROM DENSITY LOG
 GRD .GAPI   45 310 01 00:   GAMMA RAY FROM DENSITY LOG
 RHOB.G/C3   45 350 01 00:   BULK DENSITY
 CORR.G/C3   45 356 01 00:   DENSITY CORRECTION
 NPOR.DEC    42 890 03 00:   ALPHA PROCESSED NEUTRON POROSITY
 SPR .MV     05 010 01 00:   SPONTANEOUS POTENTIAL
 SN  .OHMM   05 040 00 00:   SHORT NORMAL
 ILD .OHMM   05 120 46 00:   DEEP INDUCTION RESISTIVITY
~PARAMETER INFORMATION
#MNEM.UNIT          VALUE    DESCRIPTION
#----------   ------------   ------------------------------
 EKB .F         5240.0000:   Kelly bushing
 EGL .F         5230.0000:   Ground level
 TD  .F         3103.0000:   Total depth
 DATE.        01-JUL-1978:   Date logged
 CLNT.            A2DTECH:   Client Code
 SL  . 200' FSL & 2100' FWL:   Surface Location
 PD  .                 GL:   Permanent Datum
 EPD .F              5230:   Elevation Permanent Datum
 LMF .                 KB:   Log Measured From
 DMF .                 KB:   Drilling Measured From
 DAPD.F                10:   Feet Above Permanent Datum
 DD  .F              3100:   Depth driller
 DL  .F              3103:   Depth logger
 BLI .F              3096:   Bottom log interval
 TLI .F               228:   Top log interval
 CS1 .IN            8.625:   Casing size
 CBD1.      8.625" @ 224':   Casing driller 1
 CBL1.F               228:   Casing logger 1
 BS1 .IN            7.875:   Bit size
 BSD1.F              3100:   Depth drilled with bit1
 DFT .            MUD/GEL:   Type fluid in hole
 DFD .                8.7:   Density
 DFV .                 31:   Viscosity
 DFPH.               10.5:   pH
 DFL .                  7:   Fluid loss
 MSS .           FLOWLINE:   Source of sample
 BHT .F               109:   BHT.
 TCS .HRS             4.5:   Time Circ. stopped
 MRT .F               109:   Maximum recorded temp.
 LUN .               2958:   Logging unit number
 LUL .               CASP:   Logging unit location
 ENGI.             MILLER:   Recorded By
 ORIG.      2.5" 5" PRINT:   Origin of data
 UWI .     49025106550000:   Unique Well ID
 DICO. A2D TECHNOLOGIES, INC.:   Digitizing Company
~OTHER INFORMATION
~A   DEPT     CALD         GRD      RHOB       CORR       NPOR        SPR         SN        ILD   
# ...
 1183.5000    10.9667    79.3741     2.5010     0.0088  -999.2500   -16.7659     7.6928     7.9661
 1184.0000    10.9670    79.7717     2.5000     0.0088  -999.2500   -16.9657     7.6948     7.9690
 1184.5000    10.9474    79.3775     2.5028     0.0068  -999.2500   -16.9686     7.6968     7.9719
 1185.0000    10.9674    79.1812     2.4881     0.0070  -999.2500   -17.3654     7.6987     7.9748
 1185.5000    10.9676    77.9950     2.4710     0.0070  -999.2500   -17.5652     7.7007     7.9777
 1186.0000    10.9678    77.0066     2.4770     0.0070  -999.2500   -16.9773     7.7027     7.9806
 1186.5000    10.9680    76.2162     2.4830     0.0110  -999.2500   -17.5710     7.7047     7.9834
 1187.0000    10.9682    75.8217     2.4860     0.0188  -999.2500   -17.1801     7.7066     7.9863
 1187.5000    10.9685    76.4173     2.4820     0.0208  -999.2500   -16.9861     7.7086     7.9892
 1188.0000    10.9489    77.0130     2.4742     0.0228  -999.2500   -17.5798     7.7106     7.9921
 1188.5000    10.9689    77.4107     2.4593     0.0230  -999.2500   -17.5832     7.7126     7.9950
 1189.0000    10.9691    77.2146     2.4432     0.0250  -999.2500   -17.5862     7.7146     7.9979
 1189.5000    10.9694    78.4045     2.4492     0.0250  -999.2500   -17.5891     7.7167     8.0008
 1190.0000    10.9498    79.4146     2.4562     0.0270  -999.2500   -17.5920     7.7159     8.0040
 1190.5000    10.9500    77.6156     2.4572     0.0330  -999.2500   -17.5949     7.7149     7.9305
 1191.0000    10.9502    76.0325     2.4572     0.0350  -999.2500   -17.5978     7.7849     7.9296
 1191.5000    10.9504    74.4493     2.4186     0.0330  -999.2500   -17.0099     7.7838     7.9463
 1192.0000    10.9704    74.4508     2.4135     0.0428  -999.2500   -17.0128     7.7828     7.9631
 1192.5000    10.9508    76.0372     2.3707     0.0926  -999.2500   -16.6219     7.7817     7.9799
 1193.0000    10.9709    78.0391     2.3638     0.0866  -999.2500   -16.6248     7.7804     7.9967
 1193.5000    10.9711    78.0397     2.3598     0.0906  -999.2500   -16.6277     7.7794     8.0136
 1194.0000    10.9713    75.0512     2.4145     0.0828  -999.2500   -16.6306     7.8500     8.0305
 1194.5000    10.9517    71.1080     2.4304     0.1702  -999.2500   -16.2397     7.8485     8.0474
 1195.0000    10.9519    74.8561     2.3896     0.1524  -999.2500   -16.2426     7.8479     8.0666
 1195.5000    10.9522    77.8300     2.5119     0.1602  -999.2500   -16.6399     7.9191     8.0657
 1196.0000    10.9722    79.0398     2.5109     0.1902  -999.2500   -16.4459     7.9180     8.0655
 1196.5000    10.9526    76.6445     2.4254     0.0470  -999.2500   -16.6458     7.9172     8.1547
 1197.0000    10.9528    74.2678     2.4493     0.0252  -999.2500   -16.6487     7.9159     8.2448
 1197.5000    10.9530    71.4945     2.4543     0.0232  -999.2500   -16.8485     7.9150     8.3360
 1198.0000    10.9532    70.5233     2.4572     0.0352  -999.2500   -16.8514     7.9871     8.4282
 1198.5000    10.9534    68.7402     2.5795     0.0788  -999.2500   -16.8543     8.0591     8.5214
 1199.0000    10.9537    69.9310     2.4932     0.1464  -999.2500   -17.0542     8.2074     8.6156
 1199.5000    10.9340    72.1129     2.4932     0.0730  -999.2500   -16.8602     8.2819     8.7494
 1200.0000    10.9343    74.6914     2.4821     0.0372  -999.2500   -16.8631     8.4336     8.7490
 1200.5000    10.9345    73.3460     2.4958     0.0252  -999.2500   -17.2474     8.4324     8.8030
 1201.0000    10.9543    69.9183     2.4962     0.0252  -999.2500   -17.6534     8.4329     8.8561
 1201.5000    10.9544    68.3520     2.4992     0.0332  -999.2500   -17.6545     8.5102     8.9096
 1202.0000    10.9545    68.5516     2.4973     0.0492  -999.2500   -18.0498     8.6673     8.9634
 1202.5000    10.9546    69.1473     2.4943     0.0572  -999.2500   -17.4602     8.7467     9.0175
 1203.0000    10.9547    72.6985     2.4822     0.0650  -999.2500   -17.2644     8.7463     9.0720
 1203.5000    10.9547    75.2950     2.4832     0.0810  -999.2500   -17.0686     8.7459     9.1267
 1204.0000    10.9548    74.3049     2.4852     0.0968  -999.2500   -17.0698     8.8261     9.1560
 1204.5000    10.9549    73.3151     2.4782     0.1048  -999.2500   -17.0709     8.9070     9.2875
 1205.0000    10.9550    71.3161     2.4772     0.1048  -999.2500   -17.0721     9.0712     9.4209
 1205.5000    10.9551    70.3264     2.5120     0.1188  -999.2500   -16.8763     9.2390     9.5562
 1206.0000    10.9552    67.7515     2.5101     0.1366  -999.2500   -16.6805     9.4098     9.6935
 1206.5000    10.9553    66.1674     2.5667     0.1128  -999.2500   -16.6817     9.5833     9.8327
 1207.0000    10.9554    66.9615     2.5598     0.0970  -999.2500   -16.2889     9.6711     9.9739
 1207.5000    10.9554    68.3501     2.5310     0.0750  -999.2500   -16.4870     9.7599    10.1171
 1208.0000    10.9555    69.5405     2.5121     0.0354  -999.2500   -16.8821     9.8494    10.2173
 1208.5000    10.9556    69.9381     2.5101     0.0194  -999.2500   -16.6863     9.8489    10.2688
 1209.0000    10.9557    70.9303     2.5022     0.0116  -999.2500   -16.6874     9.9391    10.3205
 1209.5000    10.9558    72.1205     2.5143     0.0194  -999.2500   -16.8856     9.9387    10.3726
 1210.0000    10.9559    74.1215     2.5292     0.0454  -999.2500   -16.4928    10.0078    10.4248
 1210.5000    10.9560    72.5193     2.5332     0.0592  -999.2500   -17.0849    10.0774    10.4038
 1211.0000    10.9561    70.9354     2.5392     0.0672  -999.2500   -17.0860    10.2145    10.4036
 1211.5000    10.9562    70.3423     2.5551     0.0812  -999.2500   -17.0874    10.2140    10.4031
 1212.0000    10.9364    70.5417     2.5708     0.0950  -999.2500   -16.8916    10.3075    10.4485
 1212.5000    10.9563    70.5430     2.5233     0.0612  -999.2500   -17.4837    10.3074    10.4940
 1213.0000    10.9564    70.5445     2.5134     0.0374  -999.2500   -18.0758    10.3069    10.5398
 1213.5000    10.9565    70.3477     2.5094     0.0274  -999.2500   -18.0770    10.3062    10.5857
 1214.0000    10.9566    69.3584     2.5005     0.0236  -999.2500   -17.4872    10.3058    10.6319
 1214.5000    10.9567    69.3597     2.5025     0.0256  -999.2500   -17.2914    10.3052    10.6782
 1215.0000    10.9370    69.1629     2.5015     0.0256  -999.2500   -17.2926    10.3049    10.7248
 1215.5000    10.9371    69.1642     2.4884     0.0276  -999.2500   -17.2937    10.2103    10.7716
 1216.0000    10.9570    69.7599     2.4985     0.0296  -999.2500   -17.2949    10.3038    10.8185
 1216.5000    10.9373    69.9593     2.5035     0.0336  -999.2500   -17.2960    10.3034    10.8657
 1217.0000    10.9572    69.5644     2.5144     0.0374  -999.2500   -16.9032    10.3978    10.9131
 1217.5000    10.9374    69.3676     2.5194     0.0454  -999.2500   -16.9044    10.3974    10.9607
 1218.0000    10.9573    67.9826     2.5423     0.0634  -999.2500   -16.9055    10.5894    11.0085
 1218.5000    10.9376    65.6254     2.5552     0.0732  -999.2500   -17.1037    10.6865    11.1878
 1219.0000    10.9377    68.5976     2.5542     0.0752  -999.2500   -17.3019    10.6860    11.0852
 1219.5000    10.9378    71.3719     2.5473     0.0634  -999.2500   -17.1060    10.7840    11.1868
 1220.0000    10.9379    73.5517     2.5421     0.0436  -999.2500   -16.9102    10.9831    11.2893
 1220.5000    10.9578    74.5432     2.5334     0.0316  -999.2500   -17.3056    10.9825    11.2888
 1221.0000    10.9381    72.3660     2.5304     0.0236  -999.2500   -17.1097    10.9820    11.2884
 1221.5000    10.9382    70.7648     2.5314     0.0236  -999.2500   -17.3079    10.9816    11.2879
 1222.0000    10.9382    69.7758     2.5284     0.0198  -999.2500   -17.3091    10.9810    11.3913
 1222.5000    10.9581    69.7772     2.5324     0.0178  -999.2500   -17.3103    11.1837    11.4957
 1223.0000    10.9384    70.9667     2.5303     0.0118  -999.2500   -17.3114    11.1834    11.7079
 1223.5000    10.9385    72.3723     2.5253     0.0098  -999.2500   -17.5096    11.3769    11.9241
