~VERSION INFORMATION
 VERS.                2.0:   CWLS LOG ASCII STANDARD - VERSION 2.0
 WRAP.                 NO:   ONE LINE PER DEPTH STEP
~WELL INFORMATION
#MNEM.UNIT      DATA TYPE    INFORMATION
#----------   ------------   ------------------------------
 STRT.F          290.0000:   START DEPTH
 STOP.F         2884.0000:   STOP DEPTH
 STEP.F            0.5000:   STEP LENGTH
 NULL.          -999.2500:   NO VALUE
 COMP.   FENNIX & SCISSON:   COMPANY
 WELL. FENIX & SCISSON AX #22-28:   WELL
 FLD .             NPR #3:   FIELD
 LOC .      S28 T39N R78W:   LOCATION
 CNTY.            NATRONA:   COUNTY
 STAT.            WYOMING:   STATE
 CTRY. UNITED STATES OF AMERICA:   COUNTRY
 SRVC.              WELEX:   SERVICE COMPANY
 DATE.        29-DEC-1979:   LOGDATE
 API .     49025107930000:   API NUMBER
~CURVE INFORMATION
#MNEM.UNIT       API CODE    CURVE DESCRIPTION
#----------   ------------   ------------------------------
 DEPT.F                  :   
 GRD .GAPI   45 310 01 00:   GAMMA RAY FROM DENSITY LOG
 CALD.IN     45 280 60 00:   CALIPER FROM DENSITY LOG
 CORR.G/C3   45 356 01 00:   DENSITY CORRECTION
 RHOB.G/C3   45 350 01 00:   BULK DENSITY
 NPHI.DEC    42 890 03 00:   NEUTRON POROSITY SANDSTONE
 SPR .MV     07 010 01 00:   SPONTANEOUS POTENTIAL
 TENR.LBS    07 635 01 00:   TENSION FROM RESISTIVITY
 ILD .OHMM   07 120 46 00:   DEEP INDUCTION RESISTIVITY
 ILM .OHMM   07 120 44 00:   INDUCTION LOG MEDIUM RESISTIVITY
 SGRD.OHMM   07 220 08 00:   LATEROLOG-8 RES.
~PARAMETER INFORMATION
#MNEM.UNIT          VALUE    DESCRIPTION
#----------   ------------   ------------------------------
 EKB .F         4988.0000:   Kelly bushing
 EGL .F         4978.0000:   Ground level
 EPD .F         4978.0000:   Permanent datum
 TD  .F         2872.0000:   Total depth
 CLNT.            A2DTECH:   Client Code
 SL  . 803' FNL & 938' FWL:   Surface Location
 DATE.        29-DEC-1979:   Date Logged [DD-MMM-YYYY]
 DD  .F              2868:   Depth driller
 DL  .F              2872:   Depth logger
 BLI .F              2870:   Bottom log interval
 TLI .F               300:   Top log interval
 CS1 .              8.625:   Casing size
 CBD1.      8.625" @ 318':   Casing driller 1
 CBL1.IN              318:   Casing logger 1
 BS1 .IN            7.875:   Bit size
 BSD1.F              2868:   Depth drilled with bit1
 DFT .          GEL-BENEX:   Type fluid in hole
 DFD .                8.8:   Density
 TCS .HRS              10:   Time Circ. stopped
 MRT .F               109:   Maximum recorded temp.
 ENGI.               REIN:   Recorded By
 WITN.          MR. AMEND:   Witnessed by
 ORIG.      2.5" 5" PRINT:   Origin of data
 UWI .     49025107930000:   Unique Well ID
 DICO. A2D TECHNOLOGIES, INC.:   Digitizing Company
 PD  .                 GL:   Permanent Datum
 LMF .                 KB:   Log Measured From
 DMF .                 KB:   Drilling Measured From
~OTHER INFORMATION
~A   DEPT       GRD        CALD     CORR         RHOB       NPHI      SPR       TENR        ILD        ILM       SGRD   
# ...
 1462.5000   106.1967     8.8358     0.0116     2.5606     0.2592   -65.7817  1436.0118     9.5250     8.9660    10.0700
 1463.0000   105.4255     8.8212     0.0087     2.5531     0.2582   -65.7817  1435.1189     9.5270     9.0914    10.4406
 1463.5000   106.9616     8.7917     0.0056     2.5570     0.2619   -65.7817  1434.2261     9.6605     9.2186    11.4684
 1464.0000   106.3913     8.7770     0.0109     2.5670     0.2641   -65.7817  1433.3333     9.6624     9.3475    10.7095
 1464.5000   105.5212     8.7802     0.0354     2.5792     0.2656   -65.7817  1432.4404     9.6644     9.3495    10.0009
 1465.0000   104.6511     8.7844     0.0527     2.5866     0.2614   -65.7817  1431.5475     9.7998     9.4802     9.7323
 1465.5000   103.7737     8.7886     0.0574     2.5881     0.2581   -65.7817  1430.6547     9.9371     9.4822     9.6021
 1466.0000   102.6111     8.8068     0.0342     2.5510     0.2618   -65.7817  1429.7618     9.9392     9.4841     9.8724
 1466.5000   102.6405     8.8236     0.0078     2.5402     0.2658   -65.7817  1428.8690     9.9412     9.4861    11.4872
 1467.0000   104.1692     8.8250    -0.0015     2.5343     0.2688   -65.7817  1427.9761     9.9432     9.4880    12.4783
 1467.5000   106.5974     8.8109     0.0002     2.5283     0.2722   -65.7817  1427.0833     9.9453     9.4900    11.8139
 1468.0000   109.0257     8.7968     0.0003     2.5307     0.2741   -65.7817  1426.1904     9.9473     9.4919    10.1587
 1468.5000   111.1682     8.7677     0.0004     2.5420     0.2744   -65.7817  1425.2975     9.8139     9.6247     9.7510
 1469.0000   112.9835     8.7227     0.0098     2.5571     0.2724   -65.7817  1424.4047     9.5505     9.6267     9.7536
 1469.5000   113.6191     8.7083     0.0301     2.5662     0.2712   -65.7817  1423.5118     9.1677     9.7613    10.0283
 1470.0000   111.2498     8.7100     0.0396     2.5708     0.2724   -65.7817  1422.5148     8.9216     9.6306    10.5980
 1470.5000   110.0725     8.7423     0.0459     2.5671     0.2739   -65.7817  1423.0394     8.9235     9.5017    10.7477
 1471.0000   111.9084     8.7745     0.0475     2.5589     0.2732   -65.7817  1423.6334     8.9253     9.3770     9.8995
 1471.5000   113.4371     8.7759     0.0445     2.5552     0.2698   -65.7817  1424.2274     8.9272     9.2356     9.3724
 1472.0000   115.8653     8.7772     0.0446     2.5561     0.2660   -65.7817  1424.8214     8.9290     9.1249     9.2470
 1472.5000   115.2951     8.7940     0.0478     2.5607     0.2629   -65.7817  1425.4154     9.0541     9.0741     9.2219
 1473.0000   112.0261     8.8108     0.0495     2.5637     0.2601   -65.7817  1426.0094     9.0559     9.0046     9.3801
 1473.5000   108.7572     8.8276     0.0449     2.5601     0.2576   -65.7817  1426.6034     9.0578     9.0064     9.7777
 1474.0000   106.9876     8.8136     0.0310     2.5564     0.2554   -65.7817  1427.1974     9.0597     9.0083    10.4762
 1474.5000   107.0170     8.8149     0.0170     2.5489     0.2575   -65.7817  1427.7914     9.0615     9.0621    11.2247
 1475.0000   107.0465     8.8009     0.0093     2.5415     0.2615   -65.7817  1428.3854     9.0634     9.1361    11.5407
 1475.5000   106.1549     8.7868     0.0032     2.5461     0.2658   -65.7817  1428.9794     9.0653     9.1380    11.8657
 1476.0000   105.9060     8.7731     0.0033     2.5402     0.2692   -65.7817  1429.5734     9.0671     9.1399    12.0332
 1476.5000   108.9413     8.7744     0.0096     2.5515     0.2717   -65.7817  1430.1674     9.1938     9.1418    11.8720
 1477.0000   111.9692     8.7758     0.0253     2.5644     0.2741   -65.7817  1430.7614     9.0237     9.1437    11.0866
 1477.5000   113.4906     8.7614     0.0425     2.5682     0.2784   -65.7817  1431.3553     8.9398     9.1455    10.3530
 1478.0000   110.5289     8.7631     0.0520     2.5713     0.2818   -65.7817  1431.9493     8.7001     9.1474     9.8018
 1478.5000   109.6514     8.7645     0.0631     2.5789     0.2786   -65.7817  1432.5433     8.5837     9.1493     9.1532
 1479.0000   111.7871     8.7659     0.0629     2.5714     0.2765   -65.7817  1433.1373     8.3614     9.1512     8.6659
 1479.5000   112.7088     8.7827     0.0387     2.5384     0.2750   -65.7817  1433.7313     8.2492     9.0286     8.3180
 1480.0000   110.3468     8.7995     0.0193     2.5295     0.2736   -65.7817  1434.4047     8.3649     9.0305     8.2066
 1480.5000   107.6776     8.8163     0.0174     2.5356     0.2702   -65.7817  1433.5112     8.4897     9.0324     8.3226
 1481.0000   106.5076     8.8022    -0.0008     2.5220     0.2664   -65.7817  1432.6176     8.6084     9.0342     9.6838
 1481.5000   107.1368     8.8036    -0.0148     2.5170     0.2636   -65.7817  1431.7239     8.7214     8.9875    10.6649
 1482.0000   108.0660     8.8212    -0.0116     2.5276     0.2713   -65.7817  1430.8302     8.7160     8.9147    11.4269
 1482.5000   107.7954     8.8526     0.0041     2.5367     0.2787   -65.7817  1431.7521     8.6020     8.7953    10.6708
 1483.0000   108.5296     8.8204     0.0181     2.5458     0.2828   -65.7817  1432.8198     8.5961     8.6776     9.6944
 1483.5000   111.1600     8.7627     0.0307     2.5466     0.2843   -65.7817  1433.8877     8.5901     8.5614     9.3049
 1484.0000   113.5882     8.7336     0.0354     2.5399     0.2824   -65.7817  1434.9554     8.5841     8.5184     9.1808
 1484.5000   112.1184     8.7504     0.0386     2.5400     0.2802   -65.6377  1436.0233     8.5782     8.4046     9.3228
 1485.0000   109.7491     8.7672     0.0417     2.5393     0.2795   -65.4867  1437.0911     8.5722     8.2221     9.9756
 1485.5000   107.9794     8.8303     0.0434     2.5334     0.2801   -65.4896  1438.1589     8.5662     8.2240     9.8305
 1486.0000   109.2082     8.8779     0.0481     2.5357     0.2785   -65.5015  1439.2267     8.5603     8.1136     9.4402
 1486.5000   110.4371     8.9102     0.0559     2.5403     0.2735   -65.5134  1440.2946     8.5543     8.1156     9.3206
 1487.0000   111.3661     8.9270     0.0622     2.5449     0.2669   -65.5254  1441.3624     8.5483     8.1173     9.4619
 1487.5000   109.2966     8.9438     0.0673     2.5472     0.2625   -65.5373  1442.4302     8.5424     8.1189    10.0009
 1488.0000   106.9272     8.9296     0.0764     2.5383     0.2619   -65.5492  1443.4980     8.5364     8.1206     9.9668
 1488.5000   103.9582     8.9311     0.0998     2.5436     0.2601   -65.5611  1444.5658     8.5304     8.1223     9.4468
 1489.0000   101.2890     8.9170     0.1155     2.5588     0.2638   -65.5731  1445.6337     8.5244     8.0831     9.0664
 1489.5000   102.8565     8.9338     0.1311     2.5701     0.2733   -65.5850  1446.7014     8.5185     8.0149     8.9437
 1490.0000   104.9534     8.9671     0.1374     2.5822     0.2733   -65.5969  1447.3893     8.5152     8.0168     8.8388
 1490.5000   106.4821     9.0158     0.0954     2.5680     0.2742   -65.6089  1447.9012     8.5173     7.9787     9.6016
 1491.0000   108.3107     9.0617     0.0877     2.5651     0.2751   -65.6208  1448.4133     8.6366     7.9108     9.4145
 1491.5000   110.1392     9.0936     0.1033     2.5772     0.2700   -65.6327  1448.9254     8.6383     8.1325     9.3461
 1492.0000   111.0682     9.0641     0.1003     2.5785     0.2657   -65.6446  1449.4375     8.5225     8.1342    10.0141
 1492.5000   110.4979     9.0346     0.0863     2.5676     0.2710   -65.6566  1449.9495     8.4082     8.1359     9.8069
 1493.0000   111.7268     9.0363     0.0879     2.5722     0.2716   -65.6685  1450.4615     8.1823     8.1376     9.3050
 1493.5000   113.2555     9.0219     0.1005     2.5835     0.2709   -65.6804  1450.9736     7.9629     8.2514     9.0776
 1494.0000   112.6852     9.0236     0.1021     2.5768     0.2715   -65.6924  1451.4857     7.7489     8.0302     8.9808
 1494.5000   112.4138     9.0250     0.0943     2.5679     0.2740   -65.7043  1451.9977     7.8578     7.6040     8.8606
 1495.0000   113.3438     9.0109     0.0928     2.5702     0.2773   -65.7162  1452.5098     8.0778     7.5022     8.8920
 1495.5000   114.5745     9.0123     0.1054     2.5779     0.2798   -65.7281  1453.0219     8.1910     7.9260     9.0188
