~VERSION INFORMATION
 VERS.                2.0:   CWLS LOG ASCII STANDARD - VERSION 2.0
 WRAP.                 NO:   ONE LINE PER DEPTH STEP
~WELL INFORMATION
#MNEM.UNIT      DATA TYPE    INFORMATION
#----------   ------------   ------------------------------
 STRT.F          600.0000:   START DEPTH
 STOP.F         3201.0000:   STOP DEPTH
 STEP.F            0.5000:   STEP LENGTH
 NULL.          -999.2500:   NO VALUE
 COMP.    FENIX & SCISSON:   COMPANY
 WELL. FENIX & SCISSON 38 "AX" #3-34:   WELL
 FLD .              NPR 3:   FIELD
 LOC .      S34 T39N R78W:   LOCATION
 CNTY.            NATRONA:   COUNTY
 STAT.            WYOMING:   STATE
 CTRY. UNITED STATES OF AMERICA:   COUNTRY
 SRVC.              WELEX:   SERVICE COMPANY
 DATE.        16-SEP-1980:   LOGDATE
 API .     49025108560000:   API NUMBER
~CURVE INFORMATION
#MNEM.UNIT       API CODE    CURVE DESCRIPTION
#----------   ------------   ------------------------------
 DEPT.F                  :   
 CORR.G/C3   45 356 01 00:   DENSITY CORRECTION
 GRD .GAPI   45 310 01 00:   GAMMA RAY FROM DENSITY LOG
 RHOB.G/C3   45 350 01 00:   BULK DENSITY
 TEND.LBS    45 635 01 00:   TENSION FORM DENSITY LOG
 CALD.IN     45 280 60 00:   CALIPER FROM DENSITY LOG
 SPR .MV     07 010 01 00:   SPONTANEOUS POTENTIAL FROM RES.
 ILD .OHMM   07 120 46 00:   DEEP INDUCTION RESISTIVITY
 ILM .OHMM   07 120 44 00:   INDUCTION LOG MEDIUM RESISTIVITY
 GURD.OHMM   07 220 05 00:   GUARD LOG RESISTIVITY
~PARAMETER INFORMATION
#MNEM.UNIT          VALUE    DESCRIPTION
#----------   ------------   ------------------------------
 EKB .F         5205.0000:   Kelly bushing
 EGL .F         5195.0000:   Ground level
 TD  .F         3202.0000:   Total depth
 CLNT.            A2DTECH:   Client Code
 SL  . 582' FSL & 1600' FWL:   Surface Location
 PD  .                 GL:   Permanent Datum
 EPD .F              5195:   Elevation Permanent Datum
 LMF .                 KB:   Log Measured From
 DMF .                 KB:   Drilling Measured From
 DAPD.F                10:   Feet Above Permanent Datum
 DATE.        16-SEP-1980:   Date Logged [DD-MMM-YYYY]
 DD  .F              3200:   Depth driller
 DL  .F              3203:   Depth logger
 BLI .F              3201:   Bottom log interval
 TLI .F               600:   Top log interval
 CS1 .IN            8.625:   Casing size
 CBD1.      8.625" @ 580':   Casing driller 1
 CBL1.F               600:   Casing logger 1
 BS1 .IN            7.875:   Bit size
 BSD1.F              3200:   Depth drilled with bit1
 DFT .          DISPERSED:   Type fluid in hole
 DFD .                8.8:   Density
 DFV .                 40:   Viscosity
 DFPH.                 11:   pH
 DFL .                  8:   Fluid loss
 MSS .           FLOWLINE:   Source of sample
 RMS .OHMM           1.33:   Rm
 MST .F                65:   Rm Meas. temp.
 RMF .OHMM           1.15:   Rmf
 MFST.F                65:   Rmf Meas. temp.
 MFSS.               MEAS:   Source Rmf.
 RMC .OHMM           1.50:   Rmc
 MCST.F                65:   Rmc Meas. temp.
 MCSS.               MEAS:   Source Rmc.
 RMB .OHMM            .75:   Rm. at BHT
 BHT .F               115:   BHT.
 TCS .HRS               8:   Time Circ. stopped
 MRT .F               115:   Maximum recorded temp.
 LUN .               1892:   Logging unit number
 LUL .             CASPER:   Logging unit location
 ENGI.    PERIMMER / REIN:   Recorded By
 WITN.              FIVAS:   Witnessed by
 ORIG.         2.5" PRINT:   Origin of data
 UWI .     49025108560000:   Unique Well ID
 DICO. A2D TECHNOLOGIES, INC.:   Digitizing Company
~OTHER INFORMATION
~A   DEPT       CORR       GRD        RHOB      TEND       CALD       SPR          ILD        ILM       GURD 
  600.0000     0.1757    30.0866     2.3744   542.1687    10.1916   -64.6968     1.3955     1.4901     0.4859
  600.5000     0.1834    30.9656     2.3519   572.5904    10.6070   -57.2015     1.7822     3.5904     2.4558
  601.0000     0.1957    30.0482     2.3098   572.8916    11.1443   -54.2129     2.0450     4.9386     5.8173
  601.5000     0.1867    29.5696     2.2210   573.2408    12.1054   -49.7557     1.9969     5.3221     8.1121
  602.0000     0.1595    30.9791     2.1373   573.5264    12.7634   -41.6403     0.9976     5.1742     6.7349
  602.5000     0.1324    32.2360     2.0601   573.8118    12.8226   -39.5489     0.3427     4.9563     1.3031
  603.0000     0.1108    30.4177     1.9458   574.0974    12.8218   -38.9438     0.3240     4.6919     0.5568
  603.5000     0.0657    29.5980     1.9530   574.3976    12.9149   -37.6868     0.3492     4.4991     0.4647
  604.0000     0.0344    28.5868     2.0659   568.2744    13.2635   -36.7309     0.4212     4.3745     0.4776
  604.5000     0.0299    26.7603     2.2270   544.8334    13.5083   -36.0028     0.7305     4.5583     0.6301
  605.0000     0.0553    25.8429     2.3638   545.1808    13.5375   -36.0241     1.9382     4.6898     1.4383
  605.5000     0.0750    25.3746     2.3443   545.4820    13.4678   -36.0454     4.4256     4.7479     4.2946
  606.0000     0.0478    25.8045     2.3052   515.6627    13.1387   -36.3637     4.1471     4.2376     4.0792
  606.5000     0.0418    27.5951     2.3082   546.1182    12.7267   -36.3808     3.8674     3.8217     3.6272
  607.0000     0.0417    29.0615     2.3355   546.4036    12.3667   -36.3979     3.5569     3.4951     3.5115
  607.5000     0.0346    32.8705     2.3993   516.5663    12.2462   -36.4157     3.3634     3.3524     3.7100
  608.0000     0.0004    36.9552     2.4194   516.8675    12.1856   -36.4337     3.3156     3.3050     3.8661
  608.5000    -0.0195    35.5157     2.3795   517.1687    12.0951   -36.3564     3.7796     3.6400     3.9187
  609.0000    -0.0313    36.6752     2.3608   497.6883    12.1702   -36.1687     4.3685     4.1791     5.0279
  609.5000    -0.0671    34.6424     2.3547   487.6506    12.4209   -35.7199     4.9228     5.0796     5.3260
  610.0000    -0.0819    32.3777     2.3547   464.8601    12.5720   -35.6024     5.1916     5.2118     5.5515
  610.5000    -0.0759    29.3630     2.3743   458.1325    12.3825   -35.3211     5.0140     5.0671     5.6114
  611.0000    -0.0609    24.7045     2.4254   458.4689    12.2530   -35.0361     5.2246     5.2191     5.6749
  611.5000    -0.0459    22.4398     2.4073   428.6144    12.0904   -33.2468     5.8351     5.9034     6.2771
  612.0000    -0.0643    30.8986     2.4043   459.0399    11.9999   -34.6707     6.0803     6.7511     6.4378
  612.5000    -0.0670    34.8616     2.4116   459.3373    12.7178   -37.4248     6.1623     6.0563     5.8394
  613.0000    -0.0451    35.8552     2.4271   459.6385    12.6572   -38.9438     5.7741     5.5712     5.5221
  613.5000    -0.0200    34.9334     2.4389   459.9397    12.6964   -40.2369     4.3321     5.3423     5.4439
  614.0000     0.0192    34.9132     2.4141   460.2410    13.0450  -999.2500     4.1732  -999.2500  -999.2500
  614.5000     0.0082    35.3388     2.4178   460.5422    13.0442  -999.2500     4.4409  -999.2500  -999.2500
  615.0000     0.0081    35.7710     2.4178   460.8957    13.0035  -999.2500     4.3455  -999.2500  -999.2500
  615.5000     0.0111    35.7495     2.4148   461.1812    12.9828  -999.2500  -999.2500  -999.2500  -999.2500
  616.0000     0.0172    35.2812     2.4088   461.4667    12.9820  -999.2500  -999.2500  -999.2500  -999.2500
  616.5000     0.0265    32.0488     2.4104   461.7522    13.0111  -999.2500  -999.2500  -999.2500  -999.2500
  617.0000     0.0298    29.7710     2.4183   462.0482    13.1601  -999.2500  -999.2500  -999.2500  -999.2500
  617.5000     0.0351    28.8062     2.4293   462.3494    13.0995  -999.2500  -999.2500  -999.2500  -999.2500
  618.0000     0.0336    27.6677     2.4313   462.6506    13.0688  -999.2500  -999.2500  -999.2500  -999.2500
  618.5000     0.0230    25.5380     2.4219   462.9518    13.1609  -999.2500  -999.2500  -999.2500  -999.2500
  619.0000     0.0139    22.5814     2.4132   463.2530    13.2471  -999.2500  -999.2500  -999.2500  -999.2500
  619.5000     0.0109    29.2987     2.4117   463.6080    13.2393   -39.3946  -999.2500     6.8208  -999.2500
  620.0000     0.0048    29.8204     2.4147   494.0140    13.1756   -38.9759     7.0278     6.9132     6.7726
  620.5000     0.0048    28.3621     2.4192   494.2995    13.1420   -38.6928     7.1227     6.9207     7.0445
  621.0000     0.0053    28.7979     2.4252   494.5850    13.1243   -38.4096     7.1189     7.0041     7.0414
  621.5000     0.0108    30.1201     2.4314   494.8795    13.3928   -38.1264     6.9791     6.8096     7.0384
  622.0000     0.0149    29.1048     2.4373   495.1807    13.4002   -37.8422     6.7745     6.7131     6.9864
  622.5000     0.0213    27.6909     2.4369   525.6025    13.3315   -37.8614     6.6317     6.6180     6.8396
  623.0000     0.0257    26.4696     2.4292   525.9036    13.1811   -37.8795     6.5373     6.6148     6.7428
  623.5000     0.0227    27.8137     2.4172   526.2048    13.1804   -37.8976     6.6645     6.8928     6.9297
  624.0000     0.0166    26.8707     2.4132   526.5613    13.2814   -37.9191     6.7151     6.9863     7.1219
  624.5000     0.0106    26.4023     2.4162   526.8467    13.3586   -37.9362     6.9971     7.0808     7.2185
  625.0000     0.0105    26.8338     2.4222   527.1085    13.2580   -37.9532     6.9937     6.9725     7.1160
  625.5000     0.0141    27.2627     2.4327   527.4097    13.1944   -37.9703     6.9636     6.6760     7.0859
  626.0000     0.0165    28.1587     2.4342   527.7109    13.2565   -37.9879     6.8906     6.5988     6.8787
  626.5000     0.0122    29.0201     2.4158   528.0121    13.4454   -38.0060     6.7924     6.4688     6.7235
  627.0000     0.0011    25.7440     2.4086   528.3132    13.3547   -38.0241     6.7885     6.4132     6.6276
  627.5000    -0.0167    25.2283     2.4071   528.6145    13.3240   -38.4689     6.6919     6.4101     6.5337
  628.0000    -0.0258    27.6884     2.4051   528.9157    13.2934   -38.6627     6.5967     6.4972     6.4412
  628.5000    -0.0318    33.3828     2.4012   529.2735    13.2917   -38.6837     6.5028     6.4943     6.4387
  629.0000    -0.0469    34.7560     2.3925   499.3976    13.2620   -38.7008     6.4061     6.5824     6.4361
  629.5000    -0.0601    34.7335     2.3755   499.7240    13.2913   -38.4167     6.3189     6.5797     6.4334
  630.0000    -0.0785    36.5107     2.3635   500.0095    13.3004   -38.1325     6.2059     6.5618     6.4547
  630.5000    -0.0801    40.5334     2.3650   500.3012    13.3196   -38.1857     6.0554     6.3704     6.5183
  631.0000    -0.0565    36.7888     2.3980   500.6024    13.1791   -38.5402     5.9691     6.2173     6.4284
  631.5000     0.0282    31.8017     2.4492   500.9036    12.7872   -38.8946     5.9657     6.0040     6.1604
  632.0000     0.0493    31.0446     2.4388   501.2048    13.2274   -39.1084     5.9629     5.8769     5.9895
  632.5000     0.0462    32.9903     2.4292   501.5060    13.5261   -39.1301     5.9602     5.8746     5.9047
  633.0000     0.0432    35.0194     2.4281   501.8653    13.4057   -39.1471     5.9574     5.8722     5.9023
  633.5000     0.0370    32.7738     2.4355   502.1508    13.2243   -38.8630     5.9546     5.7892     5.9824
  634.0000     0.0276    32.7545     2.4476   502.4363    13.1647   -38.8801     5.9397     5.7021     5.9678
  634.5000     0.0204    33.6335     2.4281   502.7218    13.3645   -38.2802     5.8462     5.4516     5.8951
  635.0000     0.0118    34.9616     2.4175   503.0120    13.4328   -37.9618     5.7833     5.1403     5.8926
  635.5000     0.0009    36.2897     2.4130   503.3132    13.2393   -37.4253     5.7009     5.0321     5.8090
  636.0000    -0.0112    32.9819     2.4040   503.6144    13.1916   -37.4458     5.6191     5.0300     5.6473
