~VERSION INFORMATION
 VERS.                2.0:   CWLS LOG ASCII STANDARD - VERSION 2.0
 WRAP.                 NO:   ONE LINE PER DEPTH STEP
~WELL INFORMATION
#MNEM.UNIT      DATA TYPE    INFORMATION
#----------   ------------   ------------------------------
 STRT.F         2496.0000:   START DEPTH
 STOP.F         4120.0000:   STOP DEPTH
 STEP.F            0.5000:   STEP LENGTH
 NULL.          -999.2500:   NO VALUE
 COMP. LAWRENCE ALLISON AND ASSOCIATES:   COMPANY
 WELL. LAWRENCE "X" #85-10:   WELL
 FLD .              N P R:   FIELD
 LOC .      S10 T38N R78W:   LOCATION
 CNTY.            NATRONA:   COUNTY
 STAT.            WYOMING:   STATE
 CTRY. UNITED STATES OF AMERICA:   COUNTRY
 SRVC.      DRESSER ATLAS:   SERVICE COMPANY
 DATE.        20-JAN-1984:   LOGDATE
 API .     49025109580000:   API NUMBER
~CURVE INFORMATION
#MNEM.UNIT       API CODE    CURVE DESCRIPTION
#----------   ------------   ------------------------------
 DEPT.F                  :   
 SPR .MV     07 010 01 00:   SPONTANEOUS POTENTIAL
 TENR.LBS    07 635 01 00:   TENSION FROM RESISTIVITY
 ILD .OHMM   07 120 46 00:   DEEP INDUCTION RESISTIVITY
 ILM .OHMM   07 120 44 00:   INDUCTION LOG MEDIUM RESISTIVITY
 RFOC.OHMM   07 220 04 00:   RESISTIVITY FOCUSED LOG RES.
 GRD .GAPI   45 310 01 00:   GAMMA RAY FROM DENSITY LOG
 CALD.IN     45 280 60 00:   CALIPER FROM DENSITY LOG
 TEND.LBS    45 635 01 00:   TENSION FROM DENSITY LOG
 RHOB.G/C3   45 350 01 00:   BULK DENSITY
 CORR.G/C3   45 356 01 00:   DENSITY CORRECTION
 CN  .DEC    42 890 03 00:   NEUTRON POROSITY SANDSTONE
~PARAMETER INFORMATION
#MNEM.UNIT          VALUE    DESCRIPTION
#----------   ------------   ------------------------------
 EKB .F         5231.0000:   Kelly bushing
 EGL .F         5221.0000:   Ground level
 EDF .F            0.0000:   Drilling floor
 TD  .F         4115.0000:   Total depth
 DATE.        20-JAN-1984:   Date logged
 CLNT.            A2DTECH:   Client Code
 SL  . 2159' FSL & 292' FEL:   Surface Location
 PD  .                 GL:   Permanent Datum
 EPD .F              5221:   Elevation Permanent Datum
 LMF .                 KB:   Log Measured From
 DMF .                 KB:   Drilling Measured From
 DD  .F              4115:   Depth driller
 DL  .F              4111:   Depth logger
 BLI .F              4109:   Bottom log interval
 TLI .F              2496:   Top log interval
 CS1 .IN            8.625:   Casing size
 CBD1.       8.625 @ 537':   Casing driller 1
 BS1 .IN            7.875:   Bit size
 DFT .            GEL KCL:   Type fluid in hole
 DFD .                8.8:   Density
 DFV .                 40:   Viscosity
 DFPH.                  9:   pH
 DFL .                9.8:   Fluid loss
 MSS .           FLOWLINE:   Source of sample
 RMS .OHMM           0.61:   Rm
 MST .F                77:   Rm Meas. temp.
 RMF .OHMM           0.51:   Rmf
 MFST.F                69:   Rmf Meas. temp.
 RMC .OHMM           0.76:   Rmc
 MCST.F                77:   Rmc Meas. temp.
 MFSS.               MEAS:   Source Rmf.
 RMB .OHMM           0.38:   Rm. at BHT
 BHT .F               122:   BHT.
 TCS .HRS               4:   Time Circ. stopped
 MRT .F               122:   Maximum recorded temp.
 LUN .               6307:   Logging unit number
 LUL .               GLTE:   Logging unit location
 ENGI.            DEYOUNG:   Recorded By
 WITN.           R. SCOTT:   Witnessed by
 ORIG.           5" PRINT:   Origin of data
 UWI .     49025109580000:   Unique Well ID
 DICO. A2D TECHNOLOGIES, INC.:   Digitizing Company
 DAPD.                 10:   Feet Above Permanent Datum
 MCSS.               CALC:   Source Rmc.
~OTHER INFORMATION
~A  DEPT       SPR       TENR        ILD        ILM       RFOC        GRD       CALD       TEND       RHOB       CORR         CN   
# ...
 3350.0000   -57.2300   -21.7840     4.8860     5.1430     6.0180   141.7610     8.2790   -26.0550     2.5730     0.0850     0.2350
 3350.5000   -57.4610   -21.8630     4.9050     5.1660     5.9520   142.8550     8.2790   -26.1780     2.5690     0.0950     0.2370
 3351.0000   -57.6910   -22.0490     4.9230     5.1890     5.8570   144.8860     8.2790   -26.3000     2.5640     0.0960     0.2390
 3351.5000   -57.9220   -22.2360     4.9410     5.2120     5.7620   147.3640     8.2790   -26.4230     2.5600     0.0900     0.2410
 3352.0000   -58.1520   -22.4220     4.9600     5.2350     5.6410   150.7540     8.2790   -26.5460     2.5620     0.0720     0.2420
 3352.5000   -58.3830   -22.6080     4.9780     5.2580     5.7180   147.6160     8.2790   -26.6690     2.5840     0.0550     0.2410
 3353.0000   -58.6130   -22.7940     4.9960     5.2810     5.8230   143.5260     8.2790   -26.7910     2.6040     0.0380     0.2400
 3353.5000   -58.8440   -22.9810     5.0150     5.3040     5.9280   139.4150     8.2790   -26.9140     2.6150     0.0200     0.2380
 3354.0000   -59.0740   -23.1670     5.0330     5.3370     6.0070   137.2860     8.2790   -27.0370     2.5930     0.0030     0.2370
 3354.5000   -59.3040   -23.3530     5.0520     5.3160     5.8540   138.0780     8.2790   -27.1590     2.5710     0.0440     0.2360
 3355.0000   -59.5350   -23.5400     5.0700     5.2770     5.9640   139.5750     8.2790   -27.2820     2.5630     0.0650     0.2360
 3355.5000   -59.7660   -23.7260     5.0960     5.2370     6.1300   141.0930     8.2790   -27.4050     2.5660     0.0860     0.2350
 3356.0000   -59.9970   -23.9120     5.0740     5.1980     6.0950   142.6160     8.2790   -27.5270     2.5680     0.0940     0.2360
 3356.5000   -60.2240   -24.0990     5.0350     5.1590     6.0650   144.1550     8.2780   -27.6500     2.5680     0.0900     0.2420
 3357.0000   -60.4030   -24.2850     4.9970     5.1200     6.0350   144.1820     8.2780   -27.7730     2.5670     0.0820     0.2480
 3357.5000   -60.2400   -24.4710     4.9580     5.0710     6.0040   143.8770     8.2770   -27.8960     2.5720     0.0740     0.2430
 3358.0000   -60.0820   -24.6570     4.9190     5.0050     5.9740   143.4770     8.2770   -28.0180     2.5780     0.0740     0.2350
 3358.5000   -59.9250   -24.8440     4.8430     4.9390     5.9440   146.3260     8.2760   -28.1410     2.5850     0.0750     0.2260
 3359.0000   -59.7680   -25.0300     4.7580     4.8730     5.9140   149.6620     8.2760   -28.2640     2.5910     0.0790     0.2300
 3359.5000   -59.6100   -25.2160     4.6730     4.8070     5.8830   149.2300     8.2750   -28.3860     2.5940     0.0860     0.2360
 3360.0000   -59.4510   -25.4030     4.5880     4.7410     5.8540   148.2110     8.2750   -28.5090     2.5900     0.1270     0.2410
 3360.5000   -59.4190   -25.5890     4.5020     4.6750     5.6850   149.5680     8.2750   -28.6320     2.5860     0.1180     0.2460
 3361.0000   -59.4110   -25.7750     4.4370     4.6090     5.5190   152.7870     8.2740   -28.7540     2.5830     0.1060     0.2440
 3361.5000   -59.4110   -25.9620     4.4450     4.5270     5.3530   155.2450     8.2740   -28.8770     2.5790     0.0960     0.2430
 3362.0000   -58.5490   -26.1480     4.4590     4.5530     5.1880   153.7760     8.2730   -29.0000     2.5750     0.0820     0.2460
 3362.5000   -57.1500   -26.3340     4.4720     4.6060     5.0960   150.8590     8.2730   -29.1220     2.5680     0.0550     0.2490
 3363.0000   -55.9740   -26.5200     4.4850     4.6590     5.2800   149.6160     8.2720   -29.2450     2.5600     0.0290     0.2460
 3363.5000   -55.9910   -26.7070     4.4990     4.7120     5.4280   148.3580     8.2720   -29.3680     2.5540     0.0380     0.2410
 3364.0000   -55.9770   -26.8930     4.5120     4.7650     5.5750   147.1040     8.2710   -29.4910     2.5530     0.0490     0.2360
 3364.5000   -55.9590   -27.0790     4.5250     4.8180     5.8000   145.8480     8.2710   -29.6130     2.5520     0.0590     0.2310
 3365.0000   -55.9420   -27.2660     4.5390     4.8660     5.7910   144.5870     8.2700   -29.7330     2.5510     0.0690     0.2300
 3365.5000   -55.9250   -27.4520     4.5520     4.7730     5.7720   143.3130     8.2700   -29.8360     2.5540     0.0880     0.2360
 3366.0000   -55.9080   -27.6380     4.5610     4.6870     5.7520   142.1020     8.2690   -29.9390     2.5620     0.1040     0.2410
 3366.5000   -55.8910   -27.8250     4.4450     4.6010     5.6540   143.9530     8.2690   -30.0410     2.5720     0.0780     0.2460
 3367.0000   -55.8740   -28.0110     4.3550     4.5150     5.4680   146.8640     8.2680   -30.1440     2.5800     0.0510     0.2520
 3367.5000   -55.8580   -28.1970     4.2650     4.4290     5.2820   153.5310     8.2680   -30.2470     2.5550     0.0370     0.2480
 3368.0000   -55.8410   -28.3830     4.1750     4.3430     5.0960   156.3700     8.2670   -30.3500     2.5290     0.0540     0.2430
 3368.5000   -55.8250   -28.5700     4.0850     4.2570     4.8210   157.1090     8.2670   -30.4520     2.5200     0.0560     0.2390
 3369.0000   -55.8260   -28.7560     3.9950     4.1710     4.8550   156.6010     8.2660   -30.5550     2.5290     0.0550     0.2470
 3369.5000   -55.8890   -28.9420     3.9310     4.0850     4.9170   153.3630     8.2660   -30.6580     2.5420     0.0500     0.2550
 3370.0000   -55.9500   -29.1290     3.9190     4.0410     4.9590   147.6340     8.2650   -30.7610     2.5550     0.0550     0.2490
 3370.5000   -56.0120   -29.3150     3.9080     4.0270     5.0030   144.3190     8.2650   -30.8630     2.5490     0.0630     0.2440
 3371.0000   -56.0730   -29.5010     3.8960     4.0140     4.6900   147.1520     8.2640   -30.9660     2.5430     0.0570     0.2400
 3371.5000   -56.1350   -29.6880     3.8850     4.0000     4.7930   146.4150     8.2640   -31.0690     2.5370     0.0500     0.2390
 3372.0000   -56.1970   -29.8600     3.8730     3.9860     4.9020   144.8360     8.2630   -31.1720     2.5330     0.0430     0.2390
 3372.5000   -56.2580   -29.8600     3.8620     3.9730     5.0110   143.2490     8.2630   -31.2740     2.5430     0.0390     0.2430
 3373.0000   -56.3200   -29.8600     3.8500     3.9590     5.1190   141.6890     8.2620   -31.3770     2.5530     0.0760     0.2480
 3373.5000   -56.3820   -29.8600     3.8390     3.9460     5.1440   140.9790     8.2620   -31.4800     2.5630     0.0930     0.2520
 3374.0000   -56.4570   -29.8600     3.8270     3.9110     4.9610   143.0420     8.2610   -31.5830     2.5610     0.0700     0.2540
 3374.5000   -56.5470   -29.8600     3.7000     3.7840     4.8070   145.0320     8.2610   -31.6850     2.5580     0.0680     0.2580
 3375.0000   -56.6360   -29.8600     3.5720     3.6570     4.6520   147.0080     8.2600   -31.7880     2.5550     0.0680     0.2630
 3375.5000   -56.7260   -29.8600     3.4430     3.5300     4.4980   148.9850     8.2600   -31.8910     2.5500     0.0680     0.2690
 3376.0000   -56.8160   -29.8600     3.3150     3.4030     4.3430   151.3440     8.2590   -31.9940     2.5430     0.0700     0.2750
 3376.5000   -56.9060   -29.8600     3.1860     3.2760     4.1890   154.2640     8.2570   -32.0960     2.5370     0.0750     0.2800
 3377.0000   -56.9960   -29.8600     3.0120     3.1520     4.0340   155.2900     8.2550   -32.1990     2.5320     0.0800     0.2850
 3377.5000   -57.0860   -29.8600     3.0210     3.2160     3.7920   156.1550     8.2520   -32.3020     2.5280     0.0850     0.2910
 3378.0000   -57.1750   -29.8600     3.0390     3.2930     3.8580   156.0340     8.2490   -32.4050     2.5290     0.0850     0.2860
 3378.5000   -57.2650   -29.8600     3.0570     3.3700     4.0110   155.9040     8.2460   -32.5070     2.5340     0.0840     0.2750
 3379.0000   -57.3540   -29.8600     3.0740     3.4470     4.1640   155.7740     8.2430   -32.6100     2.5390     0.0830     0.2640
 3379.5000   -57.3790   -29.8600     3.0920     3.5240     4.3160   155.6360     8.2400   -32.7130     2.5380     0.0800     0.2610
 3380.0000   -57.1090   -29.8600     3.1560     3.6010     4.4690   154.8350     8.2370   -32.8160     2.5340     0.0660     0.2590
