~VERSION INFORMATION
 VERS.                2.0:   CWLS LOG ASCII STANDARD - VERSION 2.0
 WRAP.                 NO:   ONE LINE PER DEPTH STEP
~WELL INFORMATION
#MNEM.UNIT      DATA TYPE    INFORMATION
#----------   ------------   ------------------------------
 STRT.F          208.0000:   START DEPTH
 STOP.F         2950.0000:   STOP DEPTH
 STEP.F            0.5000:   STEP LENGTH
 NULL.          -999.2500:   NO VALUE
 COMP.    FENIX & SCISSON:   COMPANY
 WELL.     FENIX A #56-28:   WELL
 FLD .                NPR:   FIELD
 LOC .      S28 T39N R78W:   LOCATION
 CNTY.            NATRONA:   COUNTY
 STAT.            WYOMING:   STATE
 CTRY. UNITED STATES OF AMERICA:   COUNTRY
 SRVC.              WELEX:   SERVICE COMPANY
 DATE.        20-AUG-1977:   LOGDATE
 API .     49025104140000:   API NUMBER
~CURVE INFORMATION
#MNEM.UNIT       API CODE    CURVE DESCRIPTION
#----------   ------------   ------------------------------
 DEPT.F                  :   
 SPR .MV     07 010 01 00:   SPONTANEOUS POTENTIAL
 RILM.OHMM   07 120 44 00:   INDUCTION LOG MEDIUM RESISTIVITY
 RILD.OHMM   07 120 46 00:   INDUCTION LOG DEEP RESISTIVITY
 SGRD.OHMM   07 220 05 00:   SHALLOW GUARD LOG RESISTIVITY
 CALD.IN     45 280 60 00:   CALIPER FROM DENSITY LOG
 DCOR.G/C3   45 356 01 00:   DENSITY CORRECTION
 GRD .GAPI   45 310 01 00:   GAMMA RAY FROM DENSITY LOG
 RHOB.G/C3   45 350 01 00:   BULK DENSITY
~PARAMETER INFORMATION
#MNEM.UNIT          VALUE    DESCRIPTION
#----------   ------------   ------------------------------
 EKB .F         5088.0000:   Kelly bushing
 EGL .F         5078.0000:   Ground level
 EDF .F            0.0000:   Drilling floor
 EPD .F         5078.0000:   Permanent datum
 TD  .F         2960.0000:   Total depth
 DATE.        20-AUG-1977:   Date logged
 CLNT.            A2DTECH:   Client Code
 SL  . 1650' FSL & 2310' FEL:   Surface Location
 PD  .                 GL:   Permanent Datum
 LMF .                 KB:   Log Measured From
 DMF .                 KB:   Drilling Measured From
 DAPD.F                10:   Feet Above Permanent Datum
 DD  .F              2960:   Depth driller
 DL  .F              2952:   Depth logger
 BLI .F              2950:   Bottom log interval
 TLI .F               210:   Top log interval
 CS1 .IN            8.625:   Casing size
 CBD1.      8.625" @ 215':   Casing driller 1
 CBL1.F               218:   Casing logger 1
 BS1 .IN            7.875:   Bit size
 BSD1.F              2960:   Depth drilled with bit1
 DFT .            KCL MUD:   Type fluid in hole
 DFD .                8.9:   Density
 DFV .                 60:   Viscosity
 DFPH.                 11:   pH
 DFL .                7.2:   Fluid loss
 MSS .           FLOWLINE:   Source of sample
 RMS .OHMM            .78:   Rm
 MST .F                81:   Rm Meas. temp.
 RMF .OHMM            .46:   Rmf
 MFST.F                81:   Rmf Meas. temp.
 RMC .OHMM           1.66:   Rmc
 MCST.F                81:   Rmc Meas. temp.
 MFSS.               CALC:   Source Rmf.
 MCSS.               CALC:   Source Rmc.
 RMB .OHMM            .56:   Rm. at BHT
 BHT .F               112:   BHT.
 TCS .HRS             2.5:   Time Circ. stopped
 MRT .F               112:   Maximum recorded temp.
 LUN .               8611:   Logging unit number
 LUL .             CASPER:   Logging unit location
 ENGI.             C DOAK:   Recorded By
 WITN.       B HARRINGTON:   Witnessed by
 ORIG.           5" PRINT:   Origin of data
 UWI .     49025104140000:   Unique Well ID
 DICO. A2D TECHNOLOGIES, INC.:   Digitizing Company
~OTHER INFORMATION
~A   DEPT      SPR       RILM       RILD       SGRD         CALD     DCOR        GRD       RHOB   
# ...
 2030.5000   -77.3530     8.7890     7.1270     9.3120     8.4780     0.0210   111.9650     2.4730
 2031.0000   -77.3530     8.2670     7.1000     9.6590     8.4530     0.0250   113.1600     2.4910
 2031.5000   -77.3800     8.1170     7.0730    10.3540     8.4280     0.0290   114.3610     2.5040
 2032.0000   -77.4400     8.1670     7.0460    11.0490     8.4110     0.0330   115.4270     2.4930
 2032.5000   -77.4990     8.2680     7.0190    11.8140     8.4110     0.0370   116.2210     2.4820
 2033.0000   -77.5590     8.4190     6.9920    11.6780     8.4110     0.0340   115.2870     2.4650
 2033.5000   -77.6190     8.3390     6.9660    11.5260     8.4110     0.0310   114.3820     2.4480
 2034.0000   -77.6790     8.1780     6.9220    11.3890     8.4110     0.0290   113.4840     2.4340
 2034.5000   -77.7390     8.0180     6.8410    10.5850     8.4110     0.0320   112.5890     2.4270
 2035.0000   -77.7980     7.9690     6.7590    10.5200     8.4110     0.0290   112.0510     2.4210
 2035.5000   -77.8580     7.9690     6.6770     9.9280     8.4110     0.0220   112.2150     2.4140
 2036.0000   -77.9180     7.9690     6.5950    10.3890     8.4110     0.0150   112.3970     2.4130
 2036.5000   -77.9670     7.4070     6.5130    10.6820     8.4110     0.0080   111.3660     2.4120
 2037.0000   -78.0100     8.2670     6.4330     8.4970     8.4110     0.0030   110.0160     2.4070
 2037.5000   -78.0520     7.6830     6.3540     9.5410     8.4110     0.0010   108.6550     2.4000
 2038.0000   -78.0940     8.2670     6.2750    10.8800     8.4110    -0.0020   107.2940     2.3920
 2038.5000   -78.1370     7.7540     6.1970    10.1110     8.4110    -0.0060   105.9300     2.3910
 2039.0000   -78.1790     7.6230     6.1180    11.3890     8.4110    -0.0090   104.8860     2.3950
 2039.5000   -78.2220     7.3620     6.0400    10.7970     8.4110    -0.0070   104.0980     2.3990
 2040.0000   -78.2640     7.0750     5.9130     9.2270     8.4110    -0.0050   103.4050     2.4060
 2040.5000   -78.3060     6.7030     5.7380     9.9280     8.4110    -0.0030   102.7920     2.4120
 2041.0000   -78.3190     6.2900     5.5630     8.3430     8.4080    -0.0020   102.1930     2.4150
 2041.5000   -78.2800     5.9280     5.4310     9.0590     8.4060     0.0000   102.0770     2.4180
 2042.0000   -78.2410     5.6880     5.3410     8.6380     8.4030     0.0010   103.1740     2.4210
 2042.5000   -78.2020     5.3760     5.2780     7.7960     8.4010     0.0020   104.2100     2.4260
 2043.0000   -78.1630     5.4190     5.3680     7.2060     8.3990     0.0030   104.7820     2.4310
 2043.5000   -78.1740     5.4750     5.4370     7.5430     8.3960     0.0040   104.2320     2.4350
 2044.0000   -78.2840     5.8980     5.5070     7.2720     8.3940     0.0050   103.7260     2.4400
 2044.5000   -78.3930     6.2820     5.5760     9.5860     8.3900     0.0040   103.2140     2.4440
 2045.0000   -78.5010     6.5470     5.6800    11.3650     8.3740     0.0020   104.2750     2.4400
 2045.5000   -78.6110     6.6970     5.6470    12.7120     8.3590     0.0010   106.7620     2.4340
 2046.0000   -78.7200     6.4950     5.5210    11.7230     8.3430    -0.0010   108.8260     2.4290
 2046.5000   -78.6460     5.9080     5.3680    10.6250     8.3350     0.0000   109.7130     2.4240
 2047.0000   -78.5590     5.3560     5.2300     9.5260     8.3420     0.0010   109.9170     2.4270
 2047.5000   -78.4730     5.1180     4.9640     8.4700     8.3500     0.0020   110.5900     2.4310
 2048.0000   -78.3870     4.9510     4.6010     7.4560     8.3570     0.0030   112.6410     2.4270
 2048.5000   -78.3000     4.9720     4.6200     6.4420     8.3640     0.0000   114.5950     2.4230
 2049.0000   -78.2140     4.9880     4.6570     5.7320     8.3720    -0.0030   113.4520     2.4200
 2049.5000   -78.1550     5.0750     4.6940     7.1400     8.3700    -0.0050   112.1490     2.4260
 2050.0000   -78.3030     5.2340     4.7320     7.7380     8.3680    -0.0020   113.7620     2.4310
 2050.5000   -78.4550     5.3640     4.7730     9.2910     8.3660     0.0010   116.2190     2.4300
 2051.0000   -78.6060     5.2430     4.8030    10.6080     8.3630     0.0030   117.4460     2.4220
 2051.5000   -78.7590     5.1430     4.8370     9.5410     8.3610     0.0040   117.3290     2.4140
 2052.0000   -78.9140     5.2110     4.8890     6.7590     8.3590     0.0020   117.2220     2.4050
 2052.5000   -78.8490     5.2790     4.9820     7.4970     8.3570    -0.0010   117.2600     2.4000
 2053.0000   -78.7660     5.3470     5.0740     8.4970     8.3550    -0.0040   117.8590     2.4050
 2053.5000   -78.6830     5.4150     5.1670     7.8460     8.3530    -0.0040   118.4000     2.4120
 2054.0000   -78.6020     5.5210     5.2770     7.4730     8.3500    -0.0020   118.6570     2.4180
 2054.5000   -78.5200     5.9150     5.4270     7.8720     8.3480     0.0010   117.3790     2.4260
 2055.0000   -78.4380     6.3090     5.5760     8.4460     8.3460     0.0030   114.7750     2.4330
 2055.5000   -78.3560     6.7030     5.7250     9.2750     8.3440     0.0050   112.4510     2.4410
 2056.0000   -78.2740     7.2060     5.8750    11.3820     8.3420     0.0070   110.1440     2.4480
 2056.5000   -78.1920     7.1550     5.9760    14.0590     8.3390     0.0060   107.8360     2.4440
 2057.0000   -78.1100     7.0850     6.0680    12.4570     8.3370     0.0060   105.5240     2.4480
 2057.5000   -78.0290     7.0150     6.1670    10.2530     8.3350     0.0050   103.1950     2.4530
 2058.0000   -77.9470     6.9450     6.1410     9.0760     8.3330     0.0040   101.4420     2.4580
 2058.5000   -77.8650     6.8750     6.1130     9.2020     8.3330     0.0040   102.1520     2.4630
 2059.0000   -77.7830     6.8050     6.0860     9.2970     8.3330     0.0030   102.9950     2.4670
 2059.5000   -77.7290     6.7590     6.0580     8.9970     8.3330     0.0030   103.7340     2.4690
 2060.0000   -77.6980     6.9650     6.0300     8.8140     8.3330     0.0020   103.7400     2.4670
 2060.5000   -77.6670     7.1200     6.0000     9.2910     8.3330     0.0010   103.7510     2.4640
 2061.0000   -77.6370     7.2750     6.0900    10.4520     8.3330     0.0020   104.1760     2.4620
 2061.5000   -77.6060     7.4120     6.1860    11.2280     8.3330     0.0050   105.9640     2.4670
 2062.0000   -77.5750     7.4460     6.2820    11.7060     8.3330     0.0080   108.0200     2.4830
 2062.5000   -77.5440     7.4940     6.3770     9.5710     8.3330     0.0110   110.3110     2.5030
 2063.0000   -77.5140     7.6830     6.4730     9.8990     8.3330     0.0130   112.6000     2.5190
 2063.5000   -77.4830     7.6440     6.5240    10.4950     8.3330     0.0130   114.9000     2.5010
 2064.0000   -77.4520     7.5430     6.5400    10.8800     8.3330     0.0080   117.0470     2.4840
 2064.5000   -77.4220     7.7440     6.5560     8.8950     8.3330     0.0040   116.3450     2.4660
 2065.0000   -77.3910     8.1910     6.5750     9.7240     8.3330     0.0050   115.5360     2.4580
 2065.5000   -77.3570     8.1600     6.5110    11.8850     8.3330     0.0070   114.8430     2.4620
 2066.0000   -77.4500     8.1170     6.3920    13.0660     8.3330     0.0090   116.9620     2.4660
 2066.5000   -77.5760     8.4190     6.2150    12.4210     8.3330     0.0110   118.4180     2.4640
 2067.0000   -77.7030     8.1500     6.0380    11.2790     8.3330     0.0090   119.3060     2.4690
 2067.5000   -77.8300     7.7990     5.8620    10.1380     8.3330     0.0060   120.7720     2.4700
 2068.0000   -77.9560     7.4480     5.6850     8.9960     8.3330     0.0050   123.0350     2.4680
 2068.5000   -78.0840     7.0960     5.5080     7.8250     8.3330     0.0080   125.1680     2.4730
 2069.0000   -78.1080     6.7450     5.3270     7.8250     8.3330     0.0100   126.4710     2.4700
 2069.5000   -78.0610     6.4560     5.2800     7.4080     8.3330     0.0100   127.7690     2.4630
 2070.0000   -78.0130     6.9180     5.2300     7.1070     8.3330     0.0080   129.0780     2.4570
 2070.5000   -77.9650     7.4750     5.2450     7.8970     8.3330     0.0060   130.3430     2.4510
