~VERSION INFORMATION
 VERS.                2.0:   CWLS LOG ASCII STANDARD - VERSION 2.0
 WRAP.                 NO:   ONE LINE PER DEPTH STEP
~WELL INFORMATION
#MNEM.UNIT      DATA TYPE    INFORMATION
#----------   ------------   ------------------------------
 STRT.F           41.0000:   START DEPTH
 STOP.F          925.0000:   STOP DEPTH
 STEP.F            0.5000:   STEP LENGTH
 NULL.          -999.2500:   NO VALUE
 COMP. LAWRENCE ALLISON & ASSOCIATION:   COMPANY
 WELL. LAWRENCE ALLISON #48-2:   WELL
 FLD .       N.P.R. NO. 3:   FIELD
 LOC .       S2 T38N R78W:   LOCATION
 CNTY.            NATRONA:   COUNTY
 STAT.            WYOMING:   STATE
 CTRY. UNITED STATES OF AMERICA:   COUNTRY
 SRVC.       SCHLUMBERGER:   SERVICE COMPANY
 DATE.        06-SEP-1982:   LOGDATE
 API .     49025109110000:   API NUMBER
~CURVE INFORMATION
#MNEM.UNIT       API CODE    CURVE DESCRIPTION
#----------   ------------   ------------------------------
 DEPT.F                  :   
 ILM .OHMM   07 120 44 00:   INDUCTION LOG MEDIUM RESISTIVITY
 ILD .OHMM   07 120 46 00:   DEEP INDUCTION RESISTIVITY
 CALD.IN     45 280 60 00:   CALIPER FROM DENSITY LOG
 GRD .GAPI   45 310 01 00:   GAMMA RAY FROM DENSITY LOG
 TEND.LBS    45 635 01 00:   TENSION FROM DENSITY LOG
 CORR.G/C3   45 356 01 00:   DENSITY CORRECTION
 RHOB.G/C3   45 350 01 00:   BULK DENSITY
 NPHI.DEC    42 890 03 00:   NEUTRON POROSITY SANDSTONE
~PARAMETER INFORMATION
#MNEM.UNIT          VALUE    DESCRIPTION
#----------   ------------   ------------------------------
 EKB .F         5192.0000:   Kelly bushing
 EGL .F         5182.0000:   Ground level
 TD  .F          920.0000:   Total depth
 CLNT.            A2DTECH:   Client Code
 DATE.         6-SEP-1982:   Date Logged [DD-MMM-YYYY]
 DD  .F               920:   Depth driller
 DL  .F               918:   Depth logger
 BLI .F               908:   Bottom log interval
 TLI .F                49:   Top log interval
 CBL1.IN               49:   Casing logger 1
 BSD1.F               920:   Depth drilled with bit1
 DFT .                AIR:   Type fluid in hole
 TCS .HRS            0730:   Time Circ. stopped
 TLAB.HRS            0900:   Time logger at bottom
 LUN .               8035:   Logging unit number
 LUL .               CSPR:   Logging unit location
 ENGI.              PENNY:   Recorded By
 WITN.           JENNINGS:   Witnessed by
 ORIG.           5" PRINT:   Origin of data
 UWI .     49025109110000:   Unique Well ID
 DICO. A2D TECHNOLOGIES, INC.:   Digitizing Company
 PD  .                 GL:   Permanent Datum
 EPD .               5180:   Elevation Permanent Datum
 LMF .                 KB:   Log Measured From
 DMF .                 KB:   Drilling Measured From
 DAPD.                 10:   Feet Above Permanent Datum
~OTHER INFORMATION
~A   DEPT      ILM        ILD       CALD         GRD      TEND       CORR       RHOB       NPHI   
# ...
  365.0000     6.3601     6.2402    12.8096   143.5342   630.6078     0.0791     2.4098  -999.2500
  365.5000     6.2704     6.1971    12.7825   144.9238   629.9845     0.0681     2.4027  -999.2500
  366.0000     6.2268     6.1548    12.7691   151.1311   629.2474     0.0532     2.3996  -999.2500
  366.5000     6.2285     6.1576    12.7558   153.4381   628.6428     0.0493     2.3989  -999.2500
  367.0000     6.2298     6.2042    12.7425   152.5341   628.0381     0.0485     2.4023  -999.2500
  367.5000     6.2311     6.2511    12.7147   146.1256   611.9775     0.0493     2.4098  -999.2500
  368.0000     6.2773     6.2533    12.7010   141.0932   611.3729     0.0446     2.4145  -999.2500
  368.5000     6.3271     6.3008    12.6876   138.1250   610.7682     0.0360     2.4215  -999.2500
  369.0000     6.4170     6.3489    12.6895   136.0742   610.1636     0.0352     2.4285  -999.2500
  369.5000     6.4646     6.3970    12.6909   133.7941   609.5590     0.0415     2.4324  -999.2500
  370.0000     6.5125     6.4454    12.6775   129.9085   624.4203     0.0447     2.4168  -999.2500
  370.5000     6.6081     6.5410    12.6790   129.6926   623.8021     0.0400     2.3849  -999.2500
  371.0000     6.7050     6.6381    12.6805   131.1347   623.1838     0.0313     2.3779  -999.2500
  371.5000     6.8034     6.7366    12.6819   135.2274   622.4453     0.0258     2.3928  -999.2500
  372.0000     6.8539     6.8366    12.6837   142.1216   637.4478     0.0368     2.4117  -999.2500
  372.5000     6.9544     6.9381    12.6704   143.9700   621.2360     0.0431     2.4145  -999.2500
  373.0000     7.0565     6.9906    12.6567   143.7541   636.2385     0.0358     2.4021  -999.2500
  373.5000     7.1601     7.0462    12.6289   141.2446   620.0267     0.0290     2.3966  -999.2500
  374.0000     7.2655     7.1481    12.6304   137.1296   619.4221     0.0282     2.3982  -999.2500
  374.5000     7.3194     7.2028    12.6318   134.1614   618.8174     0.0322     2.3982  -999.2500
  375.0000     7.3736     7.2573    12.6333   133.9067   618.2128     0.0353     2.4013  -999.2500
  375.5000     7.4283     7.2598    12.6347   136.9406   617.6082     0.0377     2.4123  -999.2500
  376.0000     7.4834     7.3676    12.6362   135.3397   617.0015     0.0400     2.4263  -999.2500
  376.5000     7.4850     7.4769    12.6376   132.3334   616.3833     0.0463     2.4294  -999.2500
  377.0000     7.4330     7.4253    12.6539   130.5623   615.6431     0.0518     2.4238  -999.2500
  377.5000     7.3788     7.2700    12.6553   130.8052   615.0385     0.0526     2.4086  -999.2500
  378.0000     7.2694     7.2204    12.6420   130.3599   614.4338     0.0383     2.3827  -999.2500
  378.5000     7.0229     7.1199    12.6438   128.5385   598.3733     0.0241     2.3741  -999.2500
  379.0000     6.9738     7.0714    12.6600   129.0107   597.7687     0.0260     2.3858  -999.2500
  379.5000     6.9756     7.0740    12.6615   131.5471   597.1640     0.0393     2.4030  -999.2500
  380.0000     6.9771     7.0257    12.6777   136.6064   596.5594     0.0472     2.4100  -999.2500
  380.5000     6.9286     6.9278    12.6640   139.1428   580.4988     0.0456     2.3999  -999.2500
  381.0000     6.8801     6.8313    12.6806   139.1758   579.8942     0.0338     2.3944  -999.2500
  381.5000     6.8327     6.7361    12.6821   135.9535   579.2891     0.0299     2.4045  -999.2500
  382.0000     6.7853     6.6902    12.6835   131.5719   578.6708     0.0409     2.4186  -999.2500
  382.5000     6.7867     6.6931    12.6850   133.2367   577.9291     0.0558     2.4280  -999.2500
  383.0000     6.7885     6.6955    12.6864   141.7364   592.7804     0.0551     2.4188  -999.2500
  383.5000     6.7899     6.6979    12.6879   145.8783   612.9392     0.0448     2.3991  -999.2500
  384.0000     6.7424     6.7486    12.6745   145.2037   596.5393     0.0346     2.3999  -999.2500
  384.5000     6.7441     6.7510    12.6763   137.6483   595.7841     0.0339     2.4046  -999.2500
  385.0000     6.7456     6.8517    12.6778   133.5333   595.0289     0.0378     2.4085  -999.2500
  385.5000     6.7470     6.8541    12.6792   135.6110   594.2737     0.0402     2.4101  -999.2500
  386.0000     6.7484     6.9060    12.6807   139.5236   593.5085     0.0426     2.4132  -999.2500
  386.5000     6.7984     6.9084    12.6821   140.2251   592.7357     0.0410     2.4140  -999.2500
  387.0000     6.7512     6.9109    12.6836   140.0092   607.2754     0.0379     2.4031  -999.2500
  387.5000     6.7530     6.9133    12.6702   139.5451   606.5202     0.0363     2.3968  -999.2500
  388.0000     6.7544     6.9157    12.6717   138.3517   605.7650     0.0371     2.4034  -999.2500
  388.5000     6.7558     6.9181    12.6731   137.5266   620.6546     0.0434     2.4171  -999.2500
  389.0000     6.7572     6.9206    12.6746   137.7728   619.7106     0.0489     2.4218  -999.2500
  389.5000     6.7587     6.9230    12.6760   137.7863   618.9554     0.0489     2.4187  -999.2500
  390.0000     6.9180     6.8035    12.6775   135.7355   618.2002     0.0434     2.4031  -999.2500
  390.5000     7.1175     7.0488    12.6790   132.5380   617.4450     0.0207     2.3906  -999.2500
  391.0000     7.2720     7.2011    12.6808   131.1753   616.6899     0.0089     2.3875  -999.2500
  391.5000     7.3784     7.3057    12.6822   133.0236   615.9196     0.0034     2.4024  -999.2500
  392.0000     7.3827     7.3604    12.6837   139.6884   615.1469     0.0183     2.4078  -999.2500
  392.5000     7.1354     7.3673    12.6851   148.4175   614.2355     0.0254     2.4117  -999.2500
  393.0000     6.9921     6.9662    12.6866   146.6568   613.4804     0.0325     2.4125  -999.2500
  393.5000     6.8516     6.6884    12.6728   138.3951   612.7252     0.0395     2.4109  -999.2500
  394.0000     6.7599     6.5535    12.6747   136.3019   627.6148     0.0466     2.4071  -999.2500
  394.5000     6.6251     6.4663    12.6909   140.4472   626.6708     0.0450     2.4001  -999.2500
  395.0000     6.5829     6.4239    12.6924   141.1453   625.9156     0.0419     2.3915  -999.2500
  395.5000     6.5412     6.3391    12.6938   139.0979   625.1605     0.0466     2.3868  -999.2500
  396.0000     6.4944     6.3424    12.6953   138.4200   624.4053     0.0490     2.3900  -999.2500
  396.5000     6.4136     6.3016    12.6967   140.5010   623.6476     0.0498     2.3931  -999.2500
  397.0000     6.3728     6.2611    12.6985   149.4594   622.8749     0.0490     2.3900  -999.2500
  397.5000     6.2884     6.2580    12.7000   150.6219   637.5957     0.0349     2.3845  -999.2500
  398.0000     6.2485     6.2240    12.6863   150.8647   621.1958     0.0357     2.3869  -999.2500
  398.5000     6.2531     6.2279    12.6881   144.4550   636.0854     0.0459     2.4042  -999.2500
  399.0000     6.2134     6.1871    12.6895   137.8171   635.1414     0.0475     2.4087  -999.2500
  399.5000     6.2171     6.1910    12.6910   136.9128   634.3862     0.0530     2.4009  -999.2500
  400.0000     6.2209     6.1941    12.6773   139.2202   633.6310     0.0514     2.3955  -999.2500
  400.5000     6.2254     6.2405    12.6636   140.6098   617.4199     0.0498     2.3931  -999.2500
  401.0000     6.2726     6.3754    12.6500   139.2782   632.1484     0.0510     2.4002  -999.2500
  401.5000     6.3201     6.5183    12.6511   138.0764   631.3655     0.0585     2.4127  -999.2500
  402.0000     6.4573     6.7479    12.6521   139.8760   630.6028     0.0656     2.4306  -999.2500
  402.5000     6.6436     6.8459    12.6531   141.2270   629.8300     0.0804     2.4392  -999.2500
  403.0000     6.8830     6.9453    12.6542   141.6903   628.9112     0.0867     2.4327  -999.2500
  403.5000     7.0324     6.9489    12.6554   139.2690   612.7001     0.0788     2.4116  -999.2500
  404.0000     7.1378     7.0009    12.6564   137.7354   611.9449     0.0600     2.4025  -999.2500
  404.5000     7.1895     7.1026    12.6574   137.9768   611.1897     0.0553     2.4088  -999.2500
  405.0000     7.1946     7.1062    12.6584   138.6620   610.4346     0.0553     2.4213  -999.2500
