~VERSION INFORMATION
 VERS.                2.0:   CWLS LOG ASCII STANDARD - VERSION 2.0
 WRAP.                 NO:   ONE LINE PER DEPTH STEP
~WELL INFORMATION
#MNEM.UNIT      DATA TYPE    INFORMATION
#----------   ------------   ------------------------------
 STRT.F            7.5000:   START DEPTH
 STOP.F         5700.0000:   STOP DEPTH
 STEP.F            0.5000:   STEP LENGTH
 NULL.          -999.2500:   NO VALUE
 COMP. FLUOR DANIEL (NPOSR):   COMPANY
 WELL.   FLOUR "X" #52-10:   WELL
 FLD .             NPR #3:   FIELD
 LOC .      S10 T38N R78W:   LOCATION
 CNTY.            NATRONA:   COUNTY
 STAT.            WYOMING:   STATE
 CTRY. UNITED STATES OF AMERICA:   COUNTRY
 SRVC.      WESTERN ATLAS:   SERVICE COMPANY
 DATE.        12-JAN-1996:   LOGDATE
 API .     49025227600000:   API NUMBER
~CURVE INFORMATION
#MNEM.UNIT       API CODE    CURVE DESCRIPTION
#----------   ------------   ------------------------------
 DEPT.F                  :   
 TENR.LBS    11 635 01 00:   TENSION
 GRR .GAPI   11 310 01 00:   GAMMA RAY FROM RESISTIVITY
 LLD .OHMM   11 220 10 00:   LATEROLOG DEEP
 LLS .OHMM   11 220 09 00:   LATEROLOG SHALLOW
 SPR .MV     11 010 01 00:   SPONTANEOUS POTENTIAL
 CALD.IN     45 280 60 00:   CALIPER FROM DENSITY LOG
 TEND.LBS    45 635 01 00:   TENSION FROM DENSITY LOG
 ZCOR.G/C3   45 356 01 00:   DENSITY CORRECTION
 ZDEN.G/C3   45 350 01 00:   BULK DENSITY
 CNC .DEC    42 890 03 00:   NEUTRON POROSITY SANDSTONE
~PARAMETER INFORMATION
#MNEM.UNIT          VALUE    DESCRIPTION
#----------   ------------   ------------------------------
 EKB .F         5196.0000:   Kelly bushing
 EGL .F         5186.0000:   Ground level
 EDF .F         5195.0000:   Drilling floor
 TD  .F         5699.0000:   Total depth
 DATE.        12-JAN-1996:   Date logged
 CLNT.            A2DTECH:   Client Code
 SL  . 1032' FNL & 2536' FEL:   Surface Location
 PD  .                 GL:   Permanent Datum
 EPD .F              5186:   Elevation Permanent Datum
 LMF .                 KB:   Log Measured From
 DMF .                 KB:   Drilling Measured From
 DAPD.F                11:   Feet Above Permanent Datum
 DD  .F              5699:   Depth driller
 DL  .F              5699:   Depth logger
 BLI .F              5687:   Bottom log interval
 CS1 .IN            9.625:   Casing size
 CBD1.      9.625" @ 520':   Casing driller 1
 CBL1.F               522:   Casing logger 1
 BS1 .IN             8.75:   Bit size
 BSD1.F              5699:   Depth drilled with bit1
 DFT .               CHEM:   Type fluid in hole
 DFD .                9.8:   Density
 DFV .                 50:   Viscosity
 DFPH.                9.5:   pH
 DFL .                8.4:   Fluid loss
 MSS .           FLOWLINE:   Source of sample
 RMS .OHMM          0.515:   Rm
 MST .F                66:   Rm Meas. temp.
 RMF .OHMM          0.499:   Rmf
 MFST.F                66:   Rmf Meas. temp.
 RMC .OHMM          0.761:   Rmc
 MCST.F                66:   Rmc Meas. temp.
 MFSS.               MEAS:   Source Rmf.
 MCSS.               MEAS:   Source Rmc.
 RMB .OHMM          0.233:   Rm. at BHT
 BHT .F               174:   BHT.
 TCS .HRS               6:   Time Circ. stopped
 MRT .F               174:   Maximum recorded temp.
 LUN .            HL 6530:   Logging unit number
 LUL .             CASPER:   Logging unit location
 ENGI.        VERN RAUTIO:   Recorded By
 WITN. LAFRENIERE/OPSAL/HARDY:   Witnessed by
 ORIG.     2.5", 5" PRINT:   Origin of data
 UWI .     49025227600000:   Unique Well ID
 DICO. A2D TECHNOLOGIES, INC.:   Digitizing Company
~OTHER INFORMATION
~A    DEPT    TENR         GRR       LLD        LLS        SPR       CALD       TEND       ZCOR       ZDEN        CNC   
# ...
 1548.5000   -54.2170    93.5250     9.0450     7.2520   -89.8190  -999.2500  -999.2500  -999.2500  -999.2500  -999.2500
 1549.0000   -46.3350    95.9260     9.1370     7.3460   -89.8040  -999.2500  -999.2500  -999.2500  -999.2500  -999.2500
 1549.5000   -33.3330    98.6300     9.2400     7.4700   -89.7800  -999.2500  -999.2500  -999.2500  -999.2500  -999.2500
 1550.0000   -25.7640    98.4250     9.1620     7.4360   -89.7560  -999.2500  -999.2500  -999.2500  -999.2500  -999.2500
 1550.5000   -31.5220    95.9290     9.0470     7.3890   -89.7310  -999.2500  -999.2500  -999.2500  -999.2500  -999.2500
 1551.0000   -37.2800    94.9630     8.9310     7.3500   -89.7070  -999.2500  -999.2500  -999.2500  -999.2500  -999.2500
 1551.5000   -43.0380    95.5160     8.7560     7.2670   -89.6830  -999.2500  -999.2500  -999.2500  -999.2500  -999.2500
 1552.0000   -35.8630    96.2470     8.5630     7.1530   -89.6590  -999.2500  -999.2500  -999.2500  -999.2500  -999.2500
 1552.5000   -25.5020    96.9780     8.3700     7.0390   -89.6350  -999.2500  -999.2500  -999.2500  -999.2500  -999.2500
 1553.0000   -27.7530    97.3290     8.1770     6.8190   -89.6170  -999.2500  -999.2500  -999.2500  -999.2500  -999.2500
 1553.5000   -33.2070    97.0930     7.9700     6.6150   -89.6170  -999.2500  -999.2500  -999.2500  -999.2500  -999.2500
 1554.0000   -38.6600    97.1920     7.9400     6.4430   -89.6170  -999.2500  -999.2500  -999.2500  -999.2500  -999.2500
 1554.5000   -44.1770    97.7870     7.8960     6.5620   -89.6160  -999.2500  -999.2500  -999.2500  -999.2500  -999.2500
 1555.0000   -44.1770    97.1270     8.1300     6.7400   -89.6880  -999.2500  -999.2500  -999.2500  -999.2500  -999.2500
 1555.5000   -39.9600    96.4440     8.4890     6.9970   -89.8110  -999.2500  -999.2500  -999.2500  -999.2500  -999.2500
 1556.0000   -22.6910    94.8750     8.7530     7.2540   -89.9360  -999.2500  -999.2500  -999.2500  -999.2500  -999.2500
 1556.5000    -4.0160    92.8000     8.9910     7.4080   -90.0600  -999.2500  -999.2500  -999.2500  -999.2500  -999.2500
 1557.0000    -4.0160    92.5380     9.0210     7.4670   -90.1900  -999.2500  -999.2500  -999.2500  -999.2500  -999.2500
 1557.5000    -4.0160    93.3700     9.0510     7.5390   -90.2530  -999.2500  -999.2500  -999.2500  -999.2500  -999.2500
 1558.0000   -13.7860    92.3770     9.0800     7.4830   -90.2990  -999.2500  -999.2500  -999.2500  -999.2500  -999.2500
 1558.5000   -23.7490    89.8040     9.1100     7.4010   -90.3440  -999.2500  -999.2500  -999.2500  -999.2500  -999.2500
 1559.0000   -33.7120    89.6390     9.1400     7.4880   -90.3880  -999.2500  -999.2500  -999.2500  -999.2500  -999.2500
 1559.5000   -43.6750    91.4630     9.1550     7.5900   -90.4120  -999.2500  -999.2500  -999.2500  -999.2500  -999.2500
 1560.0000   -54.2170    93.2750     9.1290     7.6800   -90.3510  -999.2500  -999.2500  -999.2500  -999.2500  -999.2500
 1560.5000   -45.3450    95.0830     9.1110     7.5950   -90.2920  -999.2500  -999.2500  -999.2500  -999.2500  -999.2500
 1561.0000   -35.9260    96.9610     9.0940     7.5210   -90.2320  -999.2500  -999.2500  -999.2500  -999.2500  -999.2500
 1561.5000   -34.1370    97.7260     9.0760     7.4460   -90.1730  -999.2500  -999.2500  -999.2500  -999.2500  -999.2500
 1562.0000   -34.1370    95.6660     9.0580     7.3720   -90.1140  -999.2500  -999.2500  -999.2500  -999.2500  -999.2500
 1562.5000   -34.1370    93.2390     9.0410     7.3330   -90.0540  -999.2500  -999.2500  -999.2500  -999.2500  -999.2500
 1563.0000   -34.1370    91.0160     9.0230     7.3330   -89.9870  -999.2500  -999.2500  -999.2500  -999.2500  -999.2500
 1563.5000   -31.7390    91.9220     9.0050     7.3330   -89.9070  -999.2500  -999.2500  -999.2500  -999.2500  -999.2500
 1564.0000   -28.5020    94.1840     8.9890     7.3330   -89.8270  -999.2500  -999.2500  -999.2500  -999.2500  -999.2500
 1564.5000   -25.2640    95.2940     8.9950     7.3320   -89.7470  -999.2500  -999.2500  -999.2500  -999.2500  -999.2500
 1565.0000   -26.3050    91.5250     9.0030     7.3890   -89.6710  -999.2500  -999.2500  -999.2500  -999.2500  -999.2500
 1565.5000   -29.7590    90.5750     9.0100     7.4700   -89.7250  -999.2500  -999.2500  -999.2500  -999.2500  -999.2500
 1566.0000   -33.2130    94.8960     9.0180     7.4150   -90.0370  -999.2500  -999.2500  -999.2500  -999.2500  -999.2500
 1566.5000   -35.3610   100.8890     9.0250     7.3370   -90.1770  -999.2500  -999.2500  -999.2500  -999.2500  -999.2500
 1567.0000   -37.0320   101.6660     9.0330     7.2660   -90.0590  -999.2500  -999.2500  -999.2500  -999.2500  -999.2500
 1567.5000   -38.7030   101.5090     9.0400     7.3970   -89.9440  -999.2500  -999.2500  -999.2500  -999.2500  -999.2500
 1568.0000   -40.3740    99.2070     9.0480     7.5080   -89.8290  -999.2500  -999.2500  -999.2500  -999.2500  -999.2500
 1568.5000   -42.0460    98.4480     9.0560     7.6090   -89.7140  -999.2500  -999.2500  -999.2500  -999.2500  -999.2500
 1569.0000   -43.7170    99.4160     9.0630     7.5130   -89.5970  -999.2500  -999.2500  -999.2500  -999.2500  -999.2500
 1569.5000   -42.2000   101.3160     9.0710     7.4240   -89.4830  -999.2500  -999.2500  -999.2500  -999.2500  -999.2500
 1570.0000   -39.4740   100.4160     9.0880     7.3330   -89.3680  -999.2500  -999.2500  -999.2500  -999.2500  -999.2500
 1570.5000   -36.7470    97.4340     9.1050     7.4280   -89.2520  -999.2500  -999.2500  -999.2500  -999.2500  -999.2500
 1571.0000   -34.1370    95.0790     9.1220     7.5250   -89.1880  -999.2500  -999.2500  -999.2500  -999.2500  -999.2500
 1571.5000   -34.1370    97.8440     9.1400     7.5390   -89.1480  -999.2500  -999.2500  -999.2500  -999.2500  -999.2500
 1572.0000   -34.1370   103.1130     9.1550     7.5390   -89.1080  -999.2500  -999.2500  -999.2500  -999.2500  -999.2500
 1572.5000   -34.1370   102.6550     9.1380     7.5090   -89.0680  -999.2500  -999.2500  -999.2500  -999.2500  -999.2500
 1573.0000   -31.2580    99.8640     9.1220     7.4670   -89.0270  -999.2500  -999.2500  -999.2500  -999.2500  -999.2500
 1573.5000   -21.9310    98.1630     9.1060     7.4250   -89.1170  -999.2500  -999.2500  -999.2500  -999.2500  -999.2500
 1574.0000   -18.2300    96.0790     9.0910     7.4010   -89.2880  -999.2500  -999.2500  -999.2500  -999.2500  -999.2500
 1574.5000   -14.5300    94.0250     9.0750     7.4200   -89.4610  -999.2500  -999.2500  -999.2500  -999.2500  -999.2500
 1575.0000   -20.7000    93.5300     9.0590     7.4340   -89.6350  -999.2500  -999.2500  -999.2500  -999.2500  -999.2500
 1575.5000   -28.3190    93.9900     9.0430     7.4480   -89.8110  -999.2500  -999.2500  -999.2500  -999.2500  -999.2500
 1576.0000   -35.9380    95.8850     9.0280     7.4620   -89.7390  -999.2500  -999.2500  -999.2500  -999.2500  -999.2500
 1576.5000   -43.5570    97.8170     9.0120     7.4790   -89.5900  -999.2500  -999.2500  -999.2500  -999.2500  -999.2500
 1577.0000   -51.1750    97.7960     8.9960     7.5030   -89.4420  -999.2500  -999.2500  -999.2500  -999.2500  -999.2500
 1577.5000   -58.7940    95.2260     8.9880     7.5280   -89.2970  -999.2500  -999.2500  -999.2500  -999.2500  -999.2500
 1578.0000   -60.5920    93.3140     8.9880     7.5380   -89.3230  -999.2500  -999.2500  -999.2500  -999.2500  -999.2500
 1578.5000   -47.6410    95.3270     8.9870     7.3310   -89.5700  -999.2500  -999.2500  -999.2500  -999.2500  -999.2500
 1579.0000   -34.6890    97.8050     8.9880     7.2660   -89.8130  -999.2500  -999.2500  -999.2500  -999.2500  -999.2500
 1579.5000   -24.4740    96.8800     8.9880     7.2660   -90.0290  -999.2500  -999.2500  -999.2500  -999.2500  -999.2500
 1580.0000   -26.5460    93.3450     9.0430     7.4910   -90.0470  -999.2500  -999.2500  -999.2500  -999.2500  -999.2500
 1580.5000   -28.6180    90.1650     9.1350     7.7190   -90.0690  -999.2500  -999.2500  -999.2500  -999.2500  -999.2500
 1581.0000   -30.6910    88.8000     9.2270     7.7830   -90.0910  -999.2500  -999.2500  -999.2500  -999.2500  -999.2500
 1581.5000   -32.7630    87.2750     9.3260     7.8230   -90.1140  -999.2500  -999.2500  -999.2500  -999.2500  -999.2500
