~VERSION INFORMATION
 VERS.                2.0:   CWLS LOG ASCII STANDARD - VERSION 2.0
 WRAP.                 NO:   ONE LINE PER DEPTH STEP
~WELL INFORMATION
#MNEM.UNIT      DATA TYPE    INFORMATION
#----------   ------------   ------------------------------
 STRT.F          197.0000:   START DEPTH
 STOP.F         3074.5000:   STOP DEPTH
 STEP.F            0.5000:   STEP LENGTH
 NULL.          -999.2500:   NO VALUE
 COMP.    FENIX & SCISSON:   COMPANY
 WELL.   FENIX "A" #36-21:   WELL
 FLD .             NPR #3:   FIELD
 LOC .      S21 T39N R78W:   LOCATION
 CNTY.            NATRONA:   COUNTY
 STAT.            WYOMING:   STATE
 CTRY. UNITED STATES OF AMERICA:   COUNTRY
 SRVC.              WELEX:   SERVICE COMPANY
 DATE.        06-JUL-1977:   LOGDATE
 API .     49025103920000:   API NUMBER
~CURVE INFORMATION
#MNEM.UNIT       API CODE    CURVE DESCRIPTION
#----------   ------------   ------------------------------
 DEPT.F                  :   
 CALD.IN     45 280 60 00:   CALIPER FROM DENSITY LOG
 GRD .GAPI   45 310 01 00:   GAMMA RAY FROM DENSITY LOG
 CORR.G/C3   45 356 01 00:   DENSITY CORRECTION
 RHOB.G/C3   45 350 01 00:   BULK DENSITY
 SPR .MV     11 010 01 00:   SPONTANEOUS POTENTIAL FROM RES.
 FORX.OHMM   11 000 00 00:   FORMATION FACTOR
 GURD.OHMM   11 220 05 00:   GUARD LOG RESISTIVITY
 NPHI.DEC    42 890 03 00:   NEUTRON POROSITY SANDSTONE
~PARAMETER INFORMATION
#MNEM.UNIT          VALUE    DESCRIPTION
#----------   ------------   ------------------------------
 EKB .F         4960.0000:   Kelly bushing
 EGL .F         4950.0000:   Ground level
 EDF .F            0.0000:   Drilling floor
 EPD .F         4950.0000:   Permanent datum
 TD  .F         3078.0000:   Total depth
 CLNT.            A2DTECH:   Client Code
 SL  . 1650' FSL & 1650' FWL:   Surface Location
 PD  .                 GL:   Permanent Datum
 DAPD.F                10:   Feet Above Permanent Datum
 DATE.        06-JUL-1977:   Date Logged [DD-MMM-YYYY]
 DD  .F              3066:   Depth driller
 DL  .F              3078:   Depth logger
 BLI .F              3076:   Bottom log interval
 TLI .F               200:   Top log interval
 CS1 .IN            8.625:   Casing size
 BS1 .IN            7.875:   Bit size
 BSD1.F              3066:   Depth drilled with bit1
 DFT .            KCL MUD:   Type fluid in hole
 DFD .                9.2:   Density
 DFV .                 35:   Viscosity
 DFPH.                7.5:   pH
 DFL .                 18:   Fluid loss
 MSS .           FLOWLINE:   Source of sample
 RMS .OHMM            0.9:   Rm
 MST .F                80:   Rm Meas. temp.
 RMF .OHMM           0.81:   Rmf
 MFST.F                80:   Rmf Meas. temp.
 MFSS.               FANN:   Source Rmf.
 RMC .OHMM           1.06:   Rmc
 MCST.F                80:   Rmc Meas. temp.
 MCSS.                KIT:   Source Rmc.
 RMB .OHMM           0.60:   Rm. at BHT
 BHT .F               119:   BHT.
 TCS .HRS               3:   Time Circ. stopped
 MRT .F               119:   Maximum recorded temp.
 LUN .               8611:   Logging unit number
 LUL .             CASPER:   Logging unit location
 ENGI.             C DOAK:   Recorded By
 WITN.         HARRINGTON:   Witnessed by
 ORIG.           5" PRINT:   Origin of data
 UWI .     49025103920000:   Unique Well ID
 DICO. A2D TECHNOLOGIES,INC.:   Digitizing Company
~OTHER INFORMATION
~A   DEPT     CALD         GRD      CORR       RHOB        SPR       FORX       GURD       NPHI   
# ...
 1331.0000     7.9036    87.1636     0.0663     2.4501   -70.5734     8.3328     5.9234     0.2951
 1331.5000     7.9056    87.5051     0.0665     2.4532   -70.5568     8.6250     7.2355     0.2948
 1332.0000     7.9077    88.7398     0.0652     2.4414   -70.5436     9.4990     7.1847     0.2915
 1332.5000     7.8954    89.6695     0.0654     2.4452   -70.5314     8.8662     6.8409     0.2857
 1333.0000     7.8974    88.5373     0.0671     2.4594   -70.3674     8.7448     7.0843     0.2809
 1333.5000     7.8841    85.9324     0.0672     2.4736   -70.5071     8.8053     6.9862     0.2767
 1334.0000     7.8867    83.6220     0.0674     2.4864   -70.4906     8.6799     6.8389     0.2751
 1334.5000     7.8586    83.0674     0.0676     2.4738   -70.4773     8.5069     6.7940     0.2751
 1335.0000     7.8611    84.0086     0.0678     2.4717   -70.4641     8.5069     6.7930     0.2724
 1335.5000     7.8479    86.1164     0.0694     2.4740   -70.4506     8.6250     7.0792     0.2675
 1336.0000     7.8351    87.9298     0.0696     2.4793   -70.4371     8.8662     6.8380     0.2639
 1336.5000     7.8376    90.0548     0.0698     2.4854   -70.4210     8.8662     6.7901     0.2621
 1337.0000     7.8544    91.0144     0.0700     2.4931   -70.4078     8.7448     6.7891     0.2620
 1337.5000     7.8713    92.2030     0.0686     2.4989   -70.3945     8.3904     6.4234     0.2617
 1338.0000     7.8734    93.1327     0.0673     2.4819   -70.3812     8.3328     6.4226     0.2599
 1338.5000     7.9054    94.3569     0.0660     2.4589   -70.3680     8.5069     6.6015     0.2589
 1339.0000     7.9074    95.2866     0.0647     2.4456   -70.3547     8.9893     7.6834     0.2601
 1339.5000     7.9095    95.6271     0.0664     2.4375   -70.4945     9.3689     7.7894     0.2634
 1340.0000     7.9263    94.4988     0.0681     2.4421   -70.4779     8.2755     6.6445     0.2664
 1340.5000     7.9283    90.1266     0.0697     2.4622   -70.4647     8.1622     6.7827     0.2699
 1341.0000     7.9303    87.8162     0.0699     2.4662   -70.4514     8.4485     6.8287     0.2756
 1341.5000     7.9323    86.0949     0.0701     2.4482   -70.4382     8.7448     7.2155     0.2795
 1342.0000     7.9344    84.9627     0.0703     2.4377   -70.4249     9.9085     7.8921     0.2828
 1342.5000     7.9364    87.0706     0.0674     2.4292   -70.4117     9.3434     7.7828     0.2809
 1343.0000     7.9385    90.3566     0.0677     2.4263   -70.3982     8.8662     7.6222     0.2767
 1343.5000     7.9405    92.4881     0.0663     2.4464   -70.3847     8.9893     6.9624     0.2742
 1344.0000     7.9430    92.1670     0.0660     2.4673   -70.3713     7.8857     6.2317     0.2698
 1344.5000     7.9450    90.8007     0.0652     2.4860   -70.3554     7.7243     6.3334     0.2664
 1345.0000     7.9470    88.7849     0.0654     2.4668   -70.4951     8.1061     6.4994     0.2676
 1345.5000     7.9343    85.5909     0.0656     2.4535   -70.4786     8.5069     7.3076     0.2711
 1346.0000     7.9363    82.3968     0.0657     2.4432   -70.4653     9.6309     7.2564     0.2765
 1346.5000     7.9383    83.6210     0.0644     2.4373   -70.6051     9.3689     6.2329     0.2801
 1347.0000     7.9102    86.9071     0.0631     2.4359   -70.4388     8.2187     6.6776     0.2804
 1347.5000     7.9128    89.8986     0.0633     2.4189   -70.4255     8.2755     7.2536     0.2779
 1348.0000     7.9148    90.8283     0.0635     2.4130   -70.4123    10.1070     6.6758     0.2746
 1348.5000     7.9317    91.4639     0.0621     2.4310   -70.5487     8.8662     6.5833     0.2755
 1349.0000     7.9360    91.5110     0.0623     2.4430   -70.5355     8.1622     6.9562     0.2782
 1349.5000     7.9510    91.2609     0.0625     2.4601   -70.5222     8.3904     6.8599     0.2817
 1350.0000     7.9530    91.0239     0.0627     2.4736   -70.5090     9.4339     6.7648     0.2862
 1350.5000     7.9550    91.3398     0.0629     2.4648   -70.4955     8.5083     7.1997     0.2892
 1351.0000     7.9571    89.6120     0.0630     2.4567   -70.4875     8.6872     7.2067     0.2909
 1351.5000     7.9591    88.7600     0.0647     2.4508   -70.4845     9.7687     7.0540     0.2912
 1352.0000     7.9611    89.3807     0.0649     2.4456   -70.4814     8.2802     6.3091     0.2869
 1352.5000     7.9778    90.5906     0.0651     2.4397   -70.4784     7.7296     6.0616     0.2827
 1353.0000     7.9799    90.9167     0.0653     2.4481   -70.4731     7.6775     6.4069     0.2805
 1353.5000     7.9672    91.2459     0.0655     2.4631   -70.4659     7.8396     6.5416     0.2811
 1354.0000     7.9692    92.8107     0.0656     2.4758   -70.4601     8.1151     6.1912     0.2840
 1354.5000     7.9712    95.1433     0.0643     2.4848   -70.6054     8.0053     6.1071     0.2874
 1355.0000     7.9437    95.7561     0.0645     2.4715   -70.7492     7.8965     6.1079     0.2891
 1355.5000     7.9462    92.2610     0.0662     2.4597   -70.7418     8.0628     6.5907     0.2887
 1356.0000     7.9482    90.2308     0.0648     2.4516   -70.7360     8.1194     6.4121     0.2875
 1356.5000     7.9503    89.6654     0.0665     2.4458   -70.5804     7.8997     6.2792     0.2826
 1357.0000     7.9523    90.2941     0.0667     2.4451   -70.5745     8.0107     6.2391     0.2775
 1357.5000     7.9543    91.2094     0.0669     2.4620   -70.5687     8.0118     6.3269     0.2732
 1358.0000     7.9563    91.5356     0.0671     2.4773   -70.5628     8.0128     6.4157     0.2735
 1358.5000     7.9584    91.2725     0.0672     2.4818   -70.5569     8.2950     6.6880     0.2757
 1359.0000     7.9604    90.1051     0.0674     2.4782   -70.5509     8.4113     7.1670     0.2794
 1359.5000     7.9624    88.6362     0.0676     2.4723   -70.5437     8.4223     6.9727     0.2806
 1360.0000     7.9645    86.9572     0.0663     2.4657   -70.3881     8.6491     6.6905     0.2778
 1360.5000     7.9517    85.5161     0.0650     2.4576   -70.5334     8.4732     6.7379     0.2700
 1361.0000     7.9389    85.2453     0.0651     2.4562   -70.5261     8.5920     7.1748     0.2651
 1361.5000     7.9414    85.8739     0.0668     2.4682   -70.6714     9.4638     8.5821     0.2648
 1362.0000     7.9435    87.3783     0.0655     2.4817   -70.6641    10.9395     7.6329     0.2675
 1362.5000     7.9453    88.8827     0.0657     2.4877   -70.6587    11.4816     6.9786     0.2659
 1363.0000     7.9475    90.3871     0.0659     2.4748   -70.6523     8.8369     6.6963     0.2626
 1363.5000     7.9494    90.1242     0.0660     2.4701   -70.4967     8.3639     6.6051     0.2610
 1364.0000     7.9515    88.3652     0.0677     2.4836   -70.4909     8.4835     7.2266     0.2574
 1364.5000     7.9536    86.6135     0.0694     2.4955   -70.4850     8.6001     6.9824     0.2519
 1365.0000     7.9556    84.6305     0.0725     2.5038   -70.4790     8.5421     6.5626     0.2534
 1365.5000     7.9577    84.3597     0.0697     2.4923   -70.4731     8.3687     6.2527     0.2612
 1366.0000     7.9602    85.8720     0.0699     2.4812   -70.4659     7.4954     6.5680     0.2695
 1366.5000     7.9622    87.0818     0.0686     2.4671   -70.4601     8.5459     6.7028     0.2729
 1367.0000     7.9642    88.2917     0.0673     2.4536   -70.4542     8.7857     6.9873     0.2775
 1367.5000     7.9662    89.2070     0.0645     2.4435   -70.4483     7.9239     6.7979     0.2811
 1368.0000     7.9382    88.9440     0.0647     2.4570   -70.4425     8.4906     6.4334     0.2859
 1368.5000     7.9407    87.2084     0.0649     2.4734   -70.4366     7.9260     6.3459     0.2885
 1369.0000     7.9274    85.7652     0.0680     2.4839   -70.4307     7.7648     6.3469     0.2900
 1369.5000     7.9151    85.2098     0.0682     2.4899   -70.2751     8.0614     6.7547     0.2913
 1370.0000     7.9172    86.4275     0.0684     2.4803   -70.2693     8.9155     7.1887     0.2938
 1370.5000     7.9192    87.3428     0.0670     2.4707   -70.2634     8.4966     7.0404     0.2956
 1371.0000     7.9213    88.3112     0.0672     2.4619   -70.4072     8.2663     6.8445     0.2904
