~VERSION INFORMATION
 VERS.                2.0:   CWLS LOG ASCII STANDARD - VERSION 2.0
 WRAP.                 NO:   ONE LINE PER DEPTH STEP
~WELL INFORMATION
#MNEM.UNIT      DATA TYPE    INFORMATION
#----------   ------------   ------------------------------
 STRT.F          198.0000:   START DEPTH
 STOP.F         3252.0000:   STOP DEPTH
 STEP.F            0.5000:   STEP LENGTH
 NULL.          -999.2500:   NO VALUE
 COMP. FENIX & SCISSON - U.S. NAVY:   COMPANY
 WELL.   FENIX A X #21-33:   WELL
 FLD .              NPR-3:   FIELD
 LOC .      S33 T39N R78W:   LOCATION
 CNTY.            NATRONA:   COUNTY
 STAT.            WYOMING:   STATE
 CTRY. UNITED STATES OF AMERICA:   COUNTRY
 SRVC.              WELEX:   SERVICE COMPANY
 DATE.        06-JUN-1977:   LOGDATE
 API .     49025103750000:   API NUMBER
~CURVE INFORMATION
#MNEM.UNIT       API CODE    CURVE DESCRIPTION
#----------   ------------   ------------------------------
 DEPT.F                  :   
 CALD.IN     45 280 60 00:   CALIPER FROM DENSITY LOG
 GRD .GAPI   45 310 01 00:   GAMMA RAY FROM DENSITY LOG
 RHOB.G/C3   45 350 01 00:   BULK DENSITY
 CORR.G/C3   45 356 01 00:   DENSITY CORRECTION
 NPHI.DEC    42 890 01 00:   NEUTRON POROSITY LIMESTONE
 SPR .MV     07 010 01 00:   SPONTANEOUS POTENTIAL
 GURD.OHMM   07 220 05 00:   GUARD LOG RESISTIVITY
 FORX.OHMM   07 220 00 00:   FORMATION FACTOR
~PARAMETER INFORMATION
#MNEM.UNIT          VALUE    DESCRIPTION
#----------   ------------   ------------------------------
 EKB .F         5147.0000:   Kelly bushing
 EGL .F         5137.0000:   Ground level
 EDF .F            0.0000:   Drilling floor
 EPD .F            0.0000:   Permanent datum
 TD  .F         3254.0000:   Total depth
 CLNT.            A2DTECH:   Client Code
 SL  . 660' FNL & 1320' FWL:   Surface Location
 PD  .                 GL:   Permanent Datum
 DAPD.F                10:   Feet Above Permanent Datum
 DATE.        06-JUN-1977:   Date Logged [DD-MMM-YYYY]
 DD  .F              3249:   Depth driller
 DL  .F              3254:   Depth logger
 BLI .F              3252:   Bottom log interval
 TLI .F               200:   Top log interval
 CS1 .IN            8.625:   Casing size
 CBD1.      8.625" @ 204':   Casing driller 1
 CBL1.F               221:   Casing logger 1
 BS1 .IN            7.875:   Bit size
 BSD1.F              3249:   Depth drilled with bit1
 DFT .            KCL MUD:   Type fluid in hole
 DFD .                  9:   Density
 DFV .                134:   Viscosity
 DFPH.                7.5:   pH
 DFL .                7.8:   Fluid loss
 MSS .           FLOWLINE:   Source of sample
 RMS .OHMM           0.64:   Rm
 MST .F                85:   Rm Meas. temp.
 RMF .OHMM           0.61:   Rmf
 MFST.F                85:   Rmf Meas. temp.
 MFSS.           FANN KIT:   Source Rmf.
 RMC .OHMM              1:   Rmc
 MCST.F                85:   Rmc Meas. temp.
 MCSS.           FANN KIT:   Source Rmc.
 RMB .OHMM           0.46:   Rm. at BHT
 BHT .F               116:   BHT.
 TCS .HRS             2.5:   Time Circ. stopped
 MRT .F               116:   Maximum recorded temp.
 LUN .               8611:   Logging unit number
 LUL .             CASPER:   Logging unit location
 ENGI.            C. DOAK:   Recorded By
 WITN.      B. HARRINGTON:   Witnessed by
 ORIG.           5" PRINT:   Origin of data
 UWI .     49025103750000:   Unique Well ID
 DICO. A2D TECHNOLOGIES, INC.:   Digitizing Company
~OTHER INFORMATION
~A   DEPT     CALD         GRD      RHOB       CORR       NPHI        SPR       GURD       FORX   
# ...
 1008.0000     9.2705    93.2650     2.4691     0.0230     0.3132   -45.6011     9.9653     5.5213
 1008.5000     9.2721    88.7478     2.4595     0.0217     0.3131   -45.6082    11.8856     5.5644
 1009.0000     9.2737    84.3836     2.4544     0.0219     0.3122   -45.6153     9.5023     5.4505
 1009.5000     9.2753    81.4481     2.4592     0.0235     0.3097   -45.6224     9.7109     5.4931
 1010.0000     9.2769    79.4054     2.4680     0.0282     0.3060   -45.6295    14.7931     5.5360
 1010.5000     9.2785    78.8509     2.4752     0.0313     0.3027   -45.6366     9.7876     5.6224
 1011.0000     9.2652    80.3810     2.4806     0.0344     0.3003   -45.6437     9.4571     5.7441
 1011.5000     9.2668    81.0258     2.4859     0.0346     0.3009   -45.6508     9.6630     5.7897
 1012.0000     9.2685    79.5783     2.4905     0.0362     0.3026   -45.6579     9.2720     5.8349
 1012.5000     9.2552    78.1309     2.4966     0.0363     0.3041   -45.6650     9.5399     5.8388
 1013.0000     9.2866    79.0645     2.4990     0.0364     0.3056   -45.6721     9.8142     5.7601
 1013.5000     9.2885    81.1885     2.4894     0.0350     0.3077   -45.6792    11.1284     5.6023
 1014.0000     9.3050    89.5625     2.4843     0.0367     0.3097   -45.6863    10.1019     5.6060
 1014.5000     9.3066    91.3889     2.4852     0.0383     0.3118   -45.6934    10.0917     5.7716
 1015.0000     9.3082    92.0248     2.4860     0.0400     0.3139   -45.7005    10.8409     5.9000
 1015.5000     9.3098    92.6607     2.4876     0.0416     0.3159   -45.7076     9.6405     5.9460
 1016.0000     9.2962    94.5437     2.4907     0.0417     0.3153   -45.7147     9.9855     5.9078
 1016.5000     9.2982    96.9190     2.4886     0.0389     0.3135   -45.7218    10.4150     5.8664
 1017.0000     9.2998    97.5447     2.4857     0.0375     0.3117   -45.7289     9.7209     5.7431
 1017.5000     9.3014    94.6194     2.4881     0.0392     0.3098   -45.7360     9.5920     5.6320
 1018.0000     9.3179    93.7570     2.4920     0.0438     0.3092   -45.7432     9.7329     5.5562
 1018.5000     9.3195    94.1055     2.4861     0.0424     0.3119   -45.7503     9.7381     5.6004
 1019.0000     9.3211    95.3367     2.4780     0.0381     0.3142   -45.7573     9.7434     5.6442
 1019.5000     9.3231    96.5678     2.4729     0.0367     0.3169   -45.7645    10.0236     5.6479
 1020.0000     9.3247    97.7990     2.4805     0.0383     0.3189   -45.7601     9.7540     5.6106
 1020.5000     9.3110    99.3278     2.4926     0.0385     0.3205   -45.7464    10.0346     5.4967
 1021.0000     9.3130   102.3988     2.5002     0.0401     0.3192   -45.7326    10.1968     5.4613
 1021.5000     9.2993   105.5033     2.5078     0.0417     0.3186   -45.7188    10.7686     5.5040
 1022.0000     9.3013   108.9838     2.5065     0.0434     0.3210   -45.7050     9.6416     5.5470
 1022.5000     9.3029   111.7030     2.4946     0.0420     0.3209   -45.6912     9.5124     5.6319
 1023.0000     9.3045   114.1247     2.4924     0.0406     0.3200   -45.6774     9.5853     5.6743
 1023.5000     9.3061   116.5463     2.4903     0.0348     0.3200   -45.6636     9.6574     5.6788
 1024.0000     9.2929   118.3727     2.4792     0.0319     0.3209   -45.6498     9.3326     5.5223
 1024.5000     9.2945   117.5205     2.4651     0.0261     0.3230   -45.6360     9.2087     5.4479
 1025.0000     9.3135   116.0731     2.4518     0.0157     0.3254   -45.6222     9.3427     5.9806
 1025.5000     9.3278   114.9233     2.4422     0.0099     0.3281   -45.6084     9.5448     5.6939
 1026.0000     9.3142   114.9798     2.4370     0.0055     0.3297   -45.5945     9.5500     5.4596
 1026.5000     9.3009   117.4967     2.4484     0.0056     0.3297   -45.5807     9.4167     5.5415
 1027.0000     9.3029   120.7103     2.4672     0.0088     0.3284   -45.5669     9.2982     5.6648
 1027.5000     9.2896   124.3224     2.4813     0.0119     0.3270   -45.5531     9.3694     5.7497
 1028.0000     9.2912   126.4464     2.4884     0.0151     0.3294   -45.5393     9.3096     5.7946
 1028.5000     9.2775   127.3800     2.4863     0.0167     0.3299   -45.5255     9.1861     5.7984
 1029.0000     9.2795   125.0397     2.4827     0.0168     0.3290   -45.5117     8.9390     5.5931
 1029.5000     9.2663   121.2114     2.4790     0.0185     0.3280   -45.4979     8.5785     5.4850
 1030.0000     9.2679   115.5973     2.4754     0.0186     0.3274   -45.4841     8.1178     5.4497
 1030.5000     9.2695   114.1488     2.4770     0.0187     0.3293   -45.4703     8.3524     5.4147
 1031.0000     9.2562   112.7024     2.4816     0.0189     0.3313   -45.4565     8.8348     5.2663
 1031.5000     9.2582   108.8214     2.4862     0.0235     0.3328   -45.4427     9.3451     5.1585
 1032.0000     9.2598   106.8314     2.4893     0.0251     0.3342   -45.4289     9.0192     5.0538
 1032.5000     9.2614   113.1323     2.4932     0.0267     0.3345   -45.4151     8.5481     4.9496
 1033.0000     9.2630   118.8277     2.4956     0.0284     0.3344   -45.4012     8.4335     4.8836
 1033.5000     9.2646   126.3089     2.4980     0.0315     0.3341   -45.3873     8.4393     4.9569
 1034.0000     9.2509   130.2186     2.4973     0.0316     0.3335   -45.3746     8.4439     5.0313
 1034.5000     9.2529   130.8545     2.4944     0.0303     0.3325   -45.3827     8.4485     5.0347
 1035.0000     9.2545   128.5143     2.4863     0.0274     0.3310   -45.3914     8.4531     5.0379
 1035.5000     9.2561   118.7335     2.4924     0.0290     0.3295   -45.4001     8.4577     4.8999
 1036.0000     9.2577   106.5718     2.5000     0.0309     0.3286   -45.4087     8.4025     4.8347
 1036.5000     9.2594    97.3360     2.5076     0.0338     0.3276   -45.4173     8.2921     4.8028
 1037.0000     9.2610    98.2071     2.5137     0.0354     0.3264   -45.4259     8.2392     4.8068
 1037.5000     9.2629   104.3231     2.5146     0.0341     0.3255   -45.4345     8.3012     4.8443
 1038.0000     9.2497   108.8281     2.5125     0.0327     0.3249   -45.4431     8.3159     4.8821
 1038.5000     9.2513   106.4878     2.5088     0.0313     0.3240   -45.4517     8.4277     4.8853
 1039.0000     9.2231   100.2785     2.5028     0.0300     0.3227   -45.4603     8.3727     4.8886
 1039.5000     9.2094    96.7477     2.4966     0.0301     0.3212   -45.4688     8.3192     4.8918
 1040.0000     9.2114    97.3837     2.4883     0.0317     0.3197   -45.4774     8.4414     4.8603
 1040.5000     9.2130   100.9958     2.4914     0.0334     0.3179   -45.4860     8.5049     4.8636
 1041.0000     9.2295   104.0126     2.5095     0.0365     0.3163   -45.4946     8.5096     4.8669
 1041.5000     9.2311   109.1274     2.5171     0.0381     0.3148   -45.5032     8.4552     4.9056
 1042.0000     9.2327   109.4512     2.5179     0.0398     0.3136   -45.5118     8.4598     4.9088
 1042.5000     9.2493   108.0139     2.5158     0.0399     0.3148   -45.5204     8.4644     4.8765
 1043.0000     9.2509   108.9475     2.5099     0.0385     0.3172   -45.5290     8.7079     4.9153
 1043.5000     9.2375   111.6667     2.5003     0.0340     0.3192   -45.5376     8.8347     4.8829
 1044.0000     9.2247   114.0883     2.4892     0.0269     0.3213   -45.5462     8.0756     4.9218
 1044.5000     9.2560   113.2362     2.4916     0.0255     0.3222   -45.5549     8.9070     4.9251
 1045.0000     9.2576   111.7888     2.4987     0.0241     0.3221   -45.5635     9.3550     5.0346
 1045.5000     9.2592   111.5217     2.5075     0.0243     0.3227   -45.5709     8.9777     5.1102
 1046.0000     9.2307   113.9535     2.5122     0.0229     0.3239   -45.5534     8.5571     5.2611
 1046.5000     9.2327   115.4822     2.5138     0.0230     0.3259   -45.4983     8.5013     5.2646
 1047.0000     9.2193   117.6589     2.5086     0.0247     0.3277   -45.4438     8.9301     5.1509
 1047.5000     9.2210   125.6928     2.5043     0.0248     0.3292   -45.3893     8.6308     5.0874
 1048.0000     9.2226   133.7692     2.4992     0.0249     0.3301   -45.3349     8.6958     5.0916
