~VERSION INFORMATION
 VERS.                2.0:   CWLS LOG ASCII STANDARD - VERSION 2.0
 WRAP.                 NO:   ONE LINE PER DEPTH STEP
~WELL INFORMATION
#MNEM.UNIT      DATA TYPE    INFORMATION
#----------   ------------   ------------------------------
 STRT.F          482.0000:   START DEPTH
 STOP.F         4000.0000:   STOP DEPTH
 STEP.F            0.5000:   STEP LENGTH
 NULL.          -999.2500:   NO VALUE
 COMP.    FENIX & SCISSON:   COMPANY
 WELL. FENIX  NPR 3 "LX" #56-10:   WELL
 FLD .              N P R:   FIELD
 LOC .      S10 T38N R78W:   LOCATION
 CNTY.            NATRONA:   COUNTY
 STAT.            WYOMING:   STATE
 CTRY. UNITED STATES OF AMERICA:   COUNTRY
 SRVC.       SCHLUMBERGER:   SERVICE COMPANY
 DATE.        11-JUL-1978:   LOGDATE
 API .     49025107100000:   API NUMBER
~CURVE INFORMATION
#MNEM.UNIT       API CODE    CURVE DESCRIPTION
#----------   ------------   ------------------------------
 DEPT.F                  :   
 GRD .GAPI   45 310 01 00:   GAMMA RAY FROM DENSITY LOG
 CALD.IN     45 280 60 00:   CALIPER FROM DENSITY LOG
 RHOB.G/C3   45 350 01 00:   BULK DENSITY
 NPHI.DEC    42 890 03 00:   NEUTRON POROSITY SANDSTONE
 DRHO.G/C3   45 356 01 00:   DENSITY CORRECTION
 TEND.LBS    45 635 01 00:   TENSION FROM DENSITY LOG
 SPR .MV     07 010 01 00:   SPONTANEOUS POTENTIAL
 TENR.LBS    07 635 01 00:   TENSION FROM RESISTIVITY
 ILD .OHMM   07 120 46 00:   DEEP INDUCTION RESISTIVITY
 ILM .OHMM   07 120 44 00:   INDUCTION LOG MEDIUM RESISTIVITY
 SFLU.OHMM   07 220 01 00:   SPHERICALLY FOCUSED LOG UNAVERAGED RESISTIVITY
~PARAMETER INFORMATION
#MNEM.UNIT          VALUE    DESCRIPTION
#----------   ------------   ------------------------------
 EKB .F         5212.0000:   Kelly bushing
 EGL .F         5202.0000:   Ground level
 EDF .F            0.0000:   Drilling floor
 TD  .F         4000.0000:   Total depth
 DATE.        11-JUL-1978:   Date logged
 CLNT.            A2DTECH:   Client Code
 SL  . 1144' FSL & 2183' FEL:   Surface Location
 PD  .                 GL:   Permanent Datum
 EPD .F              5202:   Elevation Permanent Datum
 LMF .                 KB:   Log Measured From
 DMF .                 KB:   Drilling Measured From
 DD  .F              4000:   Depth driller
 DL  .F              3990:   Depth logger
 BLI .F              3985:   Bottom log interval
 TLI .F               501:   Top log interval
 CS1 .IN            9.625:   Casing size
 CBD1.      9.625" @ 500':   Casing driller 1
 CBL1.F               501:   Casing logger 1
 BS1 .IN            7.875:   Bit size
 DFT .                FGM:   Type fluid in hole
 DFD .                9.1:   Density
 DFV .                 50:   Viscosity
 DFPH.                 12:   pH
 DFL .                4.4:   Fluid loss
 MSS .           MUD/TANK:   Source of sample
 RMS .OHMM           .714:   Rm
 MST .F                83:   Rm Meas. temp.
 RMF .OHMM           .585:   Rmf
 MFST.F                83:   Rmf Meas. temp.
 MFSS.               MEAS:   Source Rmf.
 RMB .OHMM            .42:   Rm. at BHT
 BHT .F               140:   BHT.
 TCS .HRS            1000:   Time Circ. stopped
 MRT .F               140:   Maximum recorded temp.
 LUN .               8035:   Logging unit number
 LUL .       ROCK SPRINGS:   Logging unit location
 ENGI.             MARTIN:   Recorded By
 WITN.           MCCINLEY:   Witnessed by
 ORIG.           5" PRINT:   Origin of data
 UWI .     49025107100000:   Unique Well ID
 DICO. A2D TECHNOLOGIES, INC.:   Digitizing Company
 DAPD.F                10:   Feet Above Permanent Datum
 BSD1.F              4000:   Depth drilled with bit1
 TLAB.HRS            1300:   Time logger at bottom
~OTHER INFORMATION
~A   DEPT       GRD      CALD       RHOB         NPHI     DRHO       TEND        SPR       TENR        ILD        ILM       SFLU   
# ...
 1183.5000    89.3820    10.0260     2.4920     0.3590     0.0280   770.7420   -49.5320   618.7620     7.4990     6.6250     7.7990
 1184.0000    91.6370    10.0260     2.4900     0.3560     0.0290   770.9600   -49.6110   618.7620     7.4460     6.6100     7.7160
 1184.5000    94.2420    10.0660     2.4910     0.3580     0.0280   771.1780   -49.6880   618.7620     7.3920     6.5960     7.6330
 1185.0000    93.9560    10.1030     2.4920     0.3590     0.0240   771.3950   -49.7540   618.7620     7.3390     6.5810     7.5500
 1185.5000    93.4180    10.1290     2.4900     0.3510     0.0200   771.6130   -50.0280   618.7620     7.2860     6.5670     7.4670
 1186.0000    92.7710    10.1140     2.4870     0.3520     0.0200   771.8310   -50.5650   618.7620     7.2320     6.5530     7.3840
 1186.5000    92.2140    10.0950     2.4830     0.3530     0.0190   772.0490   -50.4690   618.7620     7.1790     6.5380     7.3010
 1187.0000    91.6190    10.0750     2.4800     0.3530     0.0170   772.2670   -50.3410   618.7620     7.1260     6.5240     7.2760
 1187.5000    91.0210    10.0550     2.4790     0.3480     0.0080   772.4850   -50.1930   618.7620     7.0720     6.5100     7.2760
 1188.0000    90.4490    10.0360     2.4860     0.3440     0.0050   772.7030   -50.0580   618.7620     7.0140     6.4970     7.6890
 1188.5000    89.8580    10.0160     2.4890     0.3430     0.0090   772.9210   -49.9180   618.7620     7.0140     6.4840     7.6440
 1189.0000    89.8520    10.0110     2.4910     0.3340     0.0060   773.1390   -49.7790   618.7620     7.0140     6.4710     7.5540
 1189.5000    90.0410    10.0070     2.4930     0.3240     0.0030   773.3570   -49.6400   618.7620     7.0140     6.4580     7.4630
 1190.0000    90.2110    10.0020     2.4970     0.3150     0.0040   773.5750   -49.5000   618.7620     6.9930     6.4450     7.3730
 1190.5000    90.4130     9.9960     2.5070     0.3220     0.0110   773.8100   -49.3610   618.7620     6.9740     6.4320     7.2820
 1191.0000    90.5680     9.9910     2.5160     0.3370     0.0190   774.0420   -49.2220   618.7620     6.9550     6.4190     7.1920
 1191.5000    91.3300     9.9860     2.5240     0.3410     0.0260   774.2930   -49.0840   618.7620     6.9360     6.4060     7.0140
 1192.0000    92.1930     9.9800     2.5230     0.3390     0.0330   774.5440   -48.9410   618.7620     6.9160     6.3930     7.0380
 1192.5000    93.1450     9.9750     2.5150     0.3320     0.0280   774.7950   -48.8100   618.7620     6.8970     6.3800     7.0610
 1193.0000    93.7260     9.9700     2.5050     0.3280     0.0230   775.0460   -48.6610   618.7620     6.8780     6.3670     7.0850
 1193.5000    93.6710     9.9650     2.4950     0.3300     0.0170   775.2970   -48.5200   618.7620     6.8590     6.3540     7.1080
 1194.0000    93.6280     9.9590     2.4920     0.3340     0.0140   775.5480   -48.4230   618.7620     6.8400     6.3400     7.1440
 1194.5000    94.2330     9.9540     2.4990     0.3340     0.0160   775.8000   -48.1640   618.7620     6.8210     6.3270     7.1300
 1195.0000    95.5190     9.9490     2.5070     0.3310     0.0160   776.0510   -48.8450   618.7620     6.8020     6.3150     7.1000
 1195.5000    96.7270     9.9440     2.5090     0.3290     0.0120   776.3020   -48.9980   618.7620     6.7830     6.3020     7.0690
 1196.0000    97.9570     9.9380     2.5110     0.3300     0.0120   776.5530   -49.0200   618.7620     6.7610     6.2860     7.0380
 1196.5000    99.1990     9.9330     2.5210     0.3350     0.0230   776.8040   -48.9860   618.7620     6.7330     6.2770     7.0080
 1197.0000   100.3490     9.9280     2.5270     0.3390     0.0340   777.0550   -49.0030   618.7620     6.6980     6.2090     6.9770
 1197.5000   101.6810     9.9230     2.5300     0.3430     0.0360   777.3060   -49.0010   618.7620     6.6650     6.1390     6.9470
 1198.0000   100.1000     9.9170     2.5210     0.3420     0.0270   777.5580   -49.0150   618.7620     6.6310     6.0690     6.9160
 1198.5000    97.3880     9.9120     2.5090     0.3320     0.0180   777.8090   -49.3090   618.7620     6.5970     5.9990     6.7600
 1199.0000    94.9300     9.9070     2.4980     0.3230     0.0120   778.0600   -49.7610   618.7620     6.5640     5.9440     6.8860
 1199.5000    92.0850     9.9020     2.4870     0.3170     0.0140   778.3110   -49.6840   618.7620     6.5160     5.9440     6.8860
 1200.0000    93.0210     9.8960     2.4950     0.3180     0.0250   778.5620   -49.5480   618.7620     6.6460     6.1230     7.0500
 1200.5000    96.6190     9.8970     2.5040     0.3190     0.0330   778.8130   -49.3970   618.7620     6.8610     6.4200     7.3230
 1201.0000    99.0790     9.9100     2.5130     0.3200     0.0390   779.0640   -49.2570   618.7620     7.0760     6.7170     7.5950
 1201.5000    98.0400     9.9210     2.5150     0.3190     0.0280   779.3160   -49.1130   618.7620     7.2910     7.0140     7.8680
 1202.0000    97.2710     9.9320     2.5120     0.3140     0.0190   779.5670   -49.0040   618.7620     7.5490     6.9950     7.9770
 1202.5000    96.2610     9.9440     2.5160     0.3130     0.0100   779.8180   -49.0270   618.7620     7.4720     6.9630     7.7840
 1203.0000    95.4120     9.9560     2.5200     0.3130     0.0150   780.0690   -49.0440   618.7620     7.3770     6.9310     7.5430
 1203.5000    94.4370     9.9660     2.5200     0.3160     0.0190   780.3200   -49.0670   618.7620     7.2810     6.9000     7.3030
 1204.0000    93.5140     9.9730     2.5150     0.3180     0.0230   780.5710   -49.0870   618.7620     7.1860     6.8680     7.0140
 1204.5000    90.8210     9.9800     2.5100     0.3200     0.0200   780.8220   -49.1080   618.7620     7.0900     6.8360     7.0140
 1205.0000    88.4750    10.0160     2.5050     0.3220     0.0190   781.0730   -49.1290   618.7620     7.0140     6.8040     7.0140
 1205.5000    85.9780    10.0100     2.5030     0.3230     0.0170   781.3250   -49.1500   618.7620     7.0850     6.7730     7.1260
 1206.0000    85.9520    10.0120     2.5030     0.3220     0.0160   781.5760   -49.1710   618.7620     7.1740     6.7600     7.4070
 1206.5000    88.9000    10.0120     2.5020     0.3210     0.0140   781.8270   -49.1920   618.7620     7.2620     6.7600     7.6890
 1207.0000    91.2610    10.0120     2.5040     0.3190     0.0130   782.0780   -49.2120   618.7620     7.3510     6.7600     7.6890
 1207.5000    92.9040    10.0120     2.5090     0.3280     0.0120   782.3290   -49.2330   618.7620     7.4400     6.7610     7.6890
 1208.0000    92.8450    10.0120     2.5180     0.3380     0.0110   782.5800   -49.2540   618.7620     7.5290     6.7610     7.7600
 1208.5000    92.9420    10.0120     2.5230     0.3500     0.0120   782.8310   -49.2750   618.7620     7.6180     6.7610     7.9040
 1209.0000    92.2890    10.0120     2.5250     0.3460     0.0150   783.0830   -49.2960   618.7620     7.6890     6.7600     8.1260
 1209.5000    90.8470    10.0100     2.5190     0.3390     0.0180   783.3340   -49.3170   618.7620     7.9530     6.7610     8.4150
 1210.0000    89.3590    10.0160     2.5170     0.3430     0.0210   783.5850   -49.3370   618.7620     8.1730     6.7610     8.7630
 1210.5000    89.9740     9.9800     2.5140     0.3500     0.0240   783.8360   -49.3610   618.7620     8.3930     6.7580     9.1110
 1211.0000    91.9410     9.9710     2.5110     0.3530     0.0220   784.0870   -49.3780   618.7620     8.6130     6.7930     9.4590
 1211.5000    90.7720     9.9530     2.5020     0.3420     0.0140   784.3380   -49.3910   618.7620     8.9070     6.8540     9.8070
 1212.0000    89.3340     9.9370     2.5060     0.3320     0.0180   784.5890   -49.2480   618.7620     9.0720     6.9140     9.9460
 1212.5000    90.0910     9.9180     2.5140     0.3250     0.0210   784.8410   -49.1020   618.7620     9.2410     6.9720     9.8050
 1213.0000    92.4670     9.9000     2.5180     0.3260     0.0250   785.0920   -48.9490   618.7620     9.2410     7.0300     9.6870
 1213.5000    94.8090     9.8930     2.5110     0.3310     0.0160   785.3430   -48.8000   618.7620     9.1500     7.0890     9.5700
