~VERSION INFORMATION
 VERS.                2.0:   CWLS LOG ASCII STANDARD - VERSION 2.0
 WRAP.                 NO:   ONE LINE PER DEPTH STEP
~WELL INFORMATION
#MNEM.UNIT      DATA TYPE    INFORMATION
#----------   ------------   ------------------------------
 STRT.F          388.0000:   START DEPTH
 STOP.F         3166.0000:   STOP DEPTH
 STEP.F            0.5000:   STEP LENGTH
 NULL.          -999.2500:   NO VALUE
 COMP.    PENIX & SCISSON:   COMPANY
 WELL. PENIX NPR 3 "AX" #34-28:   WELL
 FLD .                NPR:   FIELD
 LOC .      S28 T39N R78W:   LOCATION
 CNTY.            NATRONA:   COUNTY
 STAT.            WYOMING:   STATE
 CTRY. UNITED STATES OF AMERICA:   COUNTRY
 SRVC.              WELEX:   SERVICE COMPANY
 DATE.        15-DEC-1978:   LOGDATE
 API .     49025107950000:   API NUMBER
~CURVE INFORMATION
#MNEM.UNIT       API CODE    CURVE DESCRIPTION
#----------   ------------   ------------------------------
 DEPT.F                  :   
 CALD.IN     45 280 60 00:   CALIPER FROM DENSITY LOG
 GRD .GAPI   45 310 01 00:   GAMMA RAY FROM DENSITY LOG
 RHOB.G/C3   45 350 01 00:   BULK DENSITY
 CORR.G/C3   45 356 01 00:   DENSITY CORRECTION
 NPHI.DEC    42 890 03 00:   NEUTRON POROSITY SANDSTONE
 SPR .MV     07 010 01 00:   SPONTANEOUS POTENTIAL
 SGRD.OHMM   07 220 05 00:   SHALLOW GUARD
 ILD .OHMM   07 120 46 00:   DEEP INDUCTION RESISTIVITY
 ILM .OHMM   07 120 44 00:   INDUCTION LOG MEDIUM RESISTIVITY
 TENR.LBS    07 635 01 00:   TENSION FROM RESISTIVITY
~PARAMETER INFORMATION
#MNEM.UNIT          VALUE    DESCRIPTION
#----------   ------------   ------------------------------
 EKB .F         5039.0000:   Kelly bushing
 EGL .F         5029.0000:   Ground level
 EDF .F            0.0000:   Drilling floor
 TD  .F         3159.0000:   Total depth
 DATE.        15-DEC-1978:   Date logged
 CLNT.            A2DTECH:   Client Code
 SL  . 2434' FNL & 1651' FWL:   Surface Location
 PD  .                 GL:   Permanent Datum
 EPD .F              5029:   Elevation Permanent Datum
 LMF .                 KB:   Log Measured From
 DMF .                 KB:   Drilling Measured From
 DAPD.F                10:   Feet Above Permanent Datum
 DD  .F              3155:   Depth driller
 DL  .F              3159:   Depth logger
 BLI .F              3157:   Bottom log interval
 TLI .F               350:   Top log interval
 CS1 .IN            8.625:   Casing size
 CBD1.      8.625" @ 383':   Casing driller 1
 CBL1.F               398:   Casing logger 1
 BS1 .IN            7.875:   Bit size
 BSD1.F              3155:   Depth drilled with bit1
 DFT .           CHEM/GEL:   Type fluid in hole
 DFD .                8.5:   Density
 DFV .                 55:   Viscosity
 DFPH.                 10:   pH
 DFL .               10.8:   Fluid loss
 MSS .           FLOWLINE:   Source of sample
 RMS .OHMM           1.65:   Rm
 MST .F                65:   Rm Meas. temp.
 RMF .OHMM           1.32:   Rmf
 MFST.F                65:   Rmf Meas. temp.
 RMC .OHMM           1.98:   Rmc
 MCST.F                65:   Rmc Meas. temp.
 MFSS.               CALC:   Source Rmf.
 RMB .OHMM              1:   Rm. at BHT
 BHT .F               107:   BHT.
 TCS .HRS               8:   Time Circ. stopped
 MRT .F               107:   Maximum recorded temp.
 LUN .               1892:   Logging unit number
 LUL .             CASPER:   Logging unit location
 ENGI.               REIN:   Recorded By
 WITN.              AMEND:   Witnessed by
 ORIG.           5" PRINT:   Origin of data
 UWI .     49025107950000:   Unique Well ID
 DICO. A2D TECHNOLOGIES, INC.:   Digitizing Company
~OTHER INFORMATION
~A   DEPT     CALD         GRD      RHOB       CORR       NPHI        SPR       SGRD        ILD        ILM       TENR   
# ...
  756.5000     9.5494   106.1435     2.5048     0.0430     0.2544    -2.9827    10.1874     9.0922     9.4367  1047.7288
  757.0000     9.5726   103.3136     2.4967     0.0329     0.2483    -3.1809    10.0941     9.0940     9.4381  1047.4045
  757.5000     9.5721   101.6922     2.5047     0.0430     0.2459    -3.1778    10.0981     9.0954     9.4414  1047.0804
  758.0000     9.5716   104.5063     2.4916     0.0348     0.2463    -3.1747    10.1006     9.0981     9.4428  1026.5417
  758.5000     9.5511   105.7085     2.4805     0.0165     0.2539    -3.1716    10.1021     9.1003     9.4455  1026.2180
  759.0000     9.5307   104.0855     2.4744    -0.0038     0.2559    -3.1685    10.0121     9.1026     9.4474  1046.1079
  759.5000     9.4314   105.6927     2.4704    -0.0099     0.2539    -3.1654    10.0141     9.0196     9.4507  1045.7837
  760.0000     9.4085   104.0712     2.4693    -0.0100     0.2503    -2.7610     9.9229     9.0218     9.4525  1045.4596
  760.5000     9.3880   104.8701     2.4764    -0.0120     0.2535    -2.4607     9.9264     9.0249     9.3664  1045.1355
  761.0000     9.3673   108.4931     2.4844    -0.0202     0.2595    -2.1604     9.9283     9.0267     9.3691  1044.8114
  761.5000     9.3873   111.7080     2.4784    -0.0243     0.2656    -1.7454     9.9307     9.0294     9.3710  1044.4873
  762.0000     9.3866   102.4257     2.4612    -0.0345     0.2684    -1.8608     9.9337     9.0321     9.2878  1044.1632
  762.5000     9.3862   100.8040     2.4662    -0.0325     0.2696    -1.9762     9.9361     9.0339     9.2892  1043.8391
  763.0000     9.3857   101.6029     2.4803    -0.0102     0.2712    -2.0917     9.9390     9.0361     9.2924  1043.5150
  763.5000     9.3856   101.5949     2.4934     0.0039     0.2712    -2.2071    10.0342     9.0397     9.2938  1043.1910
  764.0000     9.4253   102.7974     2.4944     0.0161     0.2716    -2.3225    10.0362     8.7917     9.2965  1063.0765
  764.5000     9.4247   104.8068     2.5004     0.0323     0.2700    -2.4379    10.0381     8.7943     9.2979  1062.6873
  765.0000     9.4445   103.1849     2.5034     0.0444     0.2695    -2.5533    10.0416     8.7956     9.1306  1062.3628
  765.5000     9.4846   102.7735     2.5054     0.0484     0.2647    -2.7239    10.0436     8.7974     9.1324  1062.0367
  766.0000     9.5446   102.7671     2.5104     0.0423     0.2663    -3.1250    10.0461     8.8009     9.1342  1041.5045
  766.5000     9.5814   106.3892     2.4953     0.0260     0.2679    -3.1219    10.0480     8.8030     9.1371  1061.3879
  767.0000     9.6043   109.2076     2.4953     0.0239     0.2643    -2.9183     9.9576     8.8048     9.1373  1040.8566
  767.5000     9.6239   101.1243     2.4973     0.0219     0.2635    -2.9170     9.8690     8.8065     9.1410  1060.7393
  768.0000     9.6238   104.7514     2.5013     0.0239     0.2647    -2.9350     9.8704     8.8096     9.1440  1060.4150
  768.5000     9.6234   105.1470     2.5154     0.0319     0.2650    -2.9529     9.8719     8.8118     9.1441  1060.0906
  769.0000     9.4925   102.3142     2.5234     0.0359     0.2650    -2.9709     9.6945     8.8135     9.1311  1039.5609
  769.5000     9.3801   101.9027     2.5274     0.0400     0.2650    -2.9888     9.6960     9.0492     9.1182  1059.4420
  770.0000     9.3595   104.3146     2.5324     0.0460     0.2630    -3.0068     9.6979     9.0510     9.1052  1038.9132
  770.5000     9.3591   110.7640     2.5314     0.0419     0.2630    -3.0247     9.5232     8.8859     9.0923  1038.5894
  771.0000     9.3586   112.3705     2.5233     0.0338     0.2646    -3.0427     9.5246     8.8872     9.0794  1078.6730
  771.5000     9.3786   110.7484     2.5183     0.0276     0.2682    -3.0607     9.4389     8.8062     9.0665  1058.1450
  772.0000     9.3577   110.7406     2.5102     0.0235     0.2698    -3.0786     9.4422     8.8093     9.0536  1057.8208
  772.5000     9.3573   109.9256     2.5122     0.0174     0.2706    -3.0966     9.3563     8.7282     9.0408  1057.4966
  773.0000     9.3569   112.7431     2.5051     0.0133     0.2694    -3.1145     9.3591     8.7308     9.0279  1057.1724
  773.5000     9.3769   109.9099     2.5162     0.0254     0.2682    -3.1325     9.3618     8.7334     9.0151  1056.8481
  774.0000     9.3762   109.9021     2.5151     0.0303     0.2638    -3.1504     9.3646     8.7360     9.0022  1056.5240
  774.5000     9.3757   109.4907     2.4829    -0.0010     0.2633    -3.1684     9.3664     8.6755     9.0031  1076.4008
  775.0000     9.3752   107.0609     2.4768    -0.0071     0.2690    -3.1863     9.2822     8.1315     8.9228  1055.8757
  775.5000     9.3750   106.2457     2.4758    -0.0173     0.2730    -3.2043     9.2850     8.1319     8.8425  1035.2203
  776.0000     9.3744   104.6231     2.4566    -0.0255     0.2758    -3.2222     9.2868     8.1335     8.7630  1075.4255
  776.5000     9.3739   109.8630     2.4727    -0.0093     0.2758    -3.2402     9.0981     8.1356     8.6841  1054.9017
  777.0000     9.3738   109.0447     2.4828    -0.0073     0.2750    -3.4584     9.0165     8.1376     8.6059  1054.5776
  777.5000     9.3731   107.4252     2.4989    -0.0013     0.2746    -3.4552     9.1012     8.1396     8.5285  1034.0551
  778.0000     9.3726   106.6100     2.5029     0.0028     0.2738    -3.4521     9.5598     8.1420     8.6902  1053.9294
  778.5000     9.3724   105.7947     2.4978     0.0027     0.2725    -3.2480     9.5608     8.1448     8.6920  1053.6053
  779.0000     9.3718   106.1905     2.5049     0.0027     0.2721    -2.6411     9.6523     8.1449     8.6950  1073.4786
  779.5000     9.3713   108.1997     2.5069     0.0067     0.2725    -2.6617     9.6542     8.1485     8.6972  1073.1542
  780.0000     9.3709   108.5955     2.4937    -0.0075     0.2725    -2.6822     9.6575     8.1498     8.6976  1093.0262
  780.5000     9.3705   111.4139     2.4776    -0.0096     0.2729    -2.7027     9.4818     8.3061     8.7014  1092.7014
  781.0000     9.3296   112.2136     2.4776    -0.0117     0.2713    -2.7233     9.3102     8.2312     8.7032  1051.9854
  781.5000     9.3291   113.8209     2.4775    -0.0117     0.2697    -2.7438     9.2255     8.2337     8.7058  1051.6613
  782.0000     9.3492   113.8169     2.4745    -0.0219     0.2672    -2.7643     9.0595     8.2341     8.6475  1071.5322
  782.5000     9.3286   105.3261     2.4664    -0.0280     0.2640    -2.7849     9.0604     8.2374     8.7157  1051.0134
  783.0000     9.3280   104.1068     2.4644    -0.0301     0.2652    -2.8054     9.3189     8.2395     8.7941  1070.8835
  783.5000     9.3274   102.4837     2.4734    -0.0200     0.2696    -2.8259     9.4085     8.2415     8.7958  1070.5592
  784.0000     9.3272   103.2802     2.4774    -0.0119     0.2733    -2.8465     9.5871     8.2432     8.7971  1070.2349
  784.5000     9.2992   103.2770     2.4774    -0.0079     0.2757    -2.8670     9.5886     8.2456     8.7758  1049.7177
  785.0000     9.2711   103.2691     2.4824    -0.0039     0.2745    -2.8875     9.5919     8.2468     8.7546  1049.3938
  785.5000     9.2855   104.0672     2.4885    -0.0019     0.2728    -2.9081     9.5938     8.2498     8.7334  1069.2603
  786.0000     9.2849   104.0592     2.4955     0.0062     0.2724    -2.9286     9.5966     8.2518     8.7122  1048.7444
  786.5000     9.3016   103.6475     2.5025     0.0122     0.2720    -2.9491     9.4225     8.2535     8.6911  1088.8030
  787.0000     9.3044   106.0626     2.5045     0.0122     0.2728    -2.9697     9.4248     8.2551     8.6700  1068.2875
  787.5000     9.2836   103.6316     2.5136     0.0202     0.2728    -2.9906     9.2538     8.2580     8.6509  1067.9633
  788.0000     9.2629   102.4120     2.5287     0.0243     0.2752    -3.1890     9.1706     8.2596     8.6527  1087.8291
  788.5000     9.2628   102.8079     2.5297     0.0283     0.2740    -3.3869     9.0877     8.2621     8.6552  1067.3149
  789.0000     9.2419   104.0116     2.5297     0.0140     0.2704    -3.5847     9.0900     8.3409     8.5773  1066.9907
  789.5000     9.2212   104.0037     2.5236     0.0120     0.2691    -3.5803     9.0927     8.1905     8.5013  1086.8553
