~VERSION INFORMATION
 VERS.                2.0:   CWLS LOG ASCII STANDARD - VERSION 2.0
 WRAP.                 NO:   ONE LINE PER DEPTH STEP
~WELL INFORMATION
#MNEM.UNIT      DATA TYPE    INFORMATION
#----------   ------------   ------------------------------
 STRT.F          164.0000:   START DEPTH
 STOP.F         3223.5000:   STOP DEPTH
 STEP.F            0.5000:   STEP LENGTH
 NULL.          -999.2500:   NO VALUE
 COMP.    FENIX & SCISSON:   COMPANY
 WELL. FENIX & SCISSON "AX" #64-34:   WELL
 FLD . NAVAL PETROLEUM RESERVE #3:   FIELD
 LOC .      S34 T39N R78W:   LOCATION
 CNTY.            NATRONA:   COUNTY
 STAT.            WYOMING:   STATE
 CTRY. UNITED STATES OF AMERICA:   COUNTRY
 SRVC.       SCHLUMBERGER:   SERVICE COMPANY
 DATE.        30-DEC-1980:   LOGDATE
 API .     49025108660000:   API NUMBER
~CURVE INFORMATION
#MNEM.UNIT       API CODE    CURVE DESCRIPTION
#----------   ------------   ------------------------------
 DEPT.F                  :   
 GRD .GAPI   45 310 01 00:   GAMMA RAY FROM DENSITY LOG
 RHOB.G/C3   45 350 01 00:   BULK DENSITY
 CALD.IN     45 280 60 00:   CALIPER FROM DENSITY LOG
 CORR.G/C3   45 356 01 00:   DENSITY CORRECTION
 SPR .MV     07 010 01 00:   SPONTANEOUS POTENTIAL
 TENR.LBS    06 635 01 00:   TENSION FROM RESISTIVITY
 ILD .OHMM   07 120 46 00:   DEEP INDUCTION RESISTIVITY
 ILM .OHMM   07 120 44 00:   INDUCTION LOG MEDIUM RESISTIVITY
 SFL .OHMM   07 220 01 00:   SHALLOW FOCUSED LOG RESISTIVITY
~PARAMETER INFORMATION
#MNEM.UNIT          VALUE    DESCRIPTION
#----------   ------------   ------------------------------
 EKB .F         5088.0000:   Kelly bushing
 EGL .F         5078.0000:   Ground level
 TD  .F         3225.0000:   Total depth
 CLNT.            A2DTECH:   Client Code
 SL  . 3107' FSL & 3680' FWL:   Surface Location
 PD  .                 GL:   Permanent Datum
 EPD .F              5078:   Elevation Permanent Datum
 LMF .                 KB:   Log Measured From
 DMF .                 KB:   Drilling Measured From
 DAPD.F                10:   Feet Above Permanent Datum
 DATE.        30-DEC-1980:   Date Logged [DD-MMM-YYYY]
 DD  .F              3225:   Depth driller
 DL  .F              3225:   Depth logger
 BLI .F              3219:   Bottom log interval
 TLI .F               190:   Top log interval
 CS1 .IN            8.625:   Casing size
 CBD1.      8.625" @ 205':   Casing driller 1
 CBL1.F               190:   Casing logger 1
 BS1 .IN            7.875:   Bit size
 BSD1.F              3225:   Depth drilled with bit1
 DFT .              FRESH:   Type fluid in hole
 DFD .                  9:   Density
 DFV .                 46:   Viscosity
 MSS .           MUD TANK:   Source of sample
 RMS .OHMM           2.47:   Rm
 MST .F                57:   Rm Meas. temp.
 RMF .OHMM           1.45:   Rmf
 MFST.F                57:   Rmf Meas. temp.
 MFSS.               MEAS:   Source Rmf.
 RMB .OHMM            1.2:   Rm. at BHT
 BHT .F               124:   BHT.
 TCS .HRS            0400:   Time Circ. stopped
 MRT .F               124:   Maximum recorded temp.
 LUN .               8034:   Logging unit number
 LUL .               CSPR:   Logging unit location
 ENGI.             LARSON:   Recorded By
 WITN.              FIVAS:   Witnessed by
 ORIG.        2" 5" PRINT:   Origin of data
 UWI .     49025108660000:   Unique Well ID
 DICO. A2D TECHNOLOGIES, INC:   Digitizing Company
 TLAB.HRS            2030:   Time logger at bottom
~OTHER INFORMATION
~A   DEPT       GRD      RHOB       CALD       CORR        SPR       TENR        ILD        ILM        SFL   
# ...
 1368.5000    86.8814     2.5284     8.8076     0.0397   -58.9761  1103.4755    12.5728    12.6545    14.5681
 1369.0000    87.6202     2.5524     8.8213     0.0471   -58.8297  1104.2894    12.3759    12.3737    14.1463
 1369.5000    90.3000     2.5704     8.8502     0.0595   -58.6919  1105.0552    12.0261    11.9301    13.6380
 1370.0000    95.0238     2.5912     8.9090     0.0754   -58.6338  1105.9968    11.7625    11.6682    12.7743
 1370.5000    93.1830     2.5788     8.9530     0.0955   -58.8558  1106.6350    11.5879    11.4947    12.2269
 1371.0000    91.0426     2.5563     8.9430     0.2114   -59.0688  1091.5273    11.4984    11.2424    12.2200
 1371.5000    89.2057     2.5291     8.9043     0.2026   -59.2815  1076.4883    11.3276    11.1554    12.2116
 1372.0000    88.5828     2.5268     8.8881     0.1938   -59.4942  1061.6113    11.2401    10.9895    12.2048
 1372.5000    89.4734     2.5725     8.9620     0.1962   -59.7073  1062.4012    11.0730    10.8978    12.1104
 1373.0000    90.2161     2.6027     9.0212     0.2001   -59.9192  1063.3467    10.9861    10.7408    12.0167
 1373.5000    91.4142     2.5989     9.0803     0.1993   -60.1346  1065.7899    10.9012    10.6439    11.9238
 1374.0000    93.9779     2.5826     9.0940     0.1975   -60.0274  1080.6624    10.8952    10.4993    11.7091
 1374.5000    97.6039     2.5213     9.0771     0.1967   -59.6851  1081.4211    10.7334    10.4934    11.4864
 1375.0000   100.1636     2.5074     9.0756     0.1953   -59.3392  1097.9780    10.5740    10.3374    11.2233
 1375.5000   100.6069     2.5182     9.0526     0.1985   -58.9932  1098.7368    10.4171    10.2574    11.1485
 1376.0000    98.6143     2.5616     9.0424     0.2397   -58.6473  1099.5260    10.1798    10.1681    11.0623
 1376.5000    96.1704     2.5585     9.0558  -999.2500   -58.3016  1100.4445    10.0361     9.9532    11.0561
 1377.0000    95.9807     2.5461     9.1301  -999.2500   -57.9575  1101.1058     9.9585     9.8762    10.9706
 1377.5000    96.1385     2.5360     9.3105  -999.2500   -57.8009  1101.9622     9.8816     9.8707    10.8076
 1378.0000    94.7529     2.5399     9.6121  -999.2500   -57.8689  1102.7211     9.8052     9.7947    10.6470
 1378.5000    93.3713     2.5321     9.8542  -999.2500   -57.9354  1103.4800     9.7998     9.7185    10.4040
 1379.0000    92.5966     2.5135    10.0179  -999.2500   -58.0028  1120.0631     9.7240     9.7131    10.1105
 1379.5000    92.5807     2.4972    10.1225  -999.2500   -58.0700  1120.9851     9.6487     9.6366    10.0323
 1380.0000    92.4025     2.4460    10.0150  -999.2500   -58.1351  1121.7441     9.5730     9.6313     9.9547
 1380.5000    90.4204     2.4329     9.6045  -999.2500   -58.1137  1122.5029     9.4998     9.5567    10.0225
 1381.0000    89.1905     2.4468     9.2545  -999.2500   -57.9133  1123.2620     9.4256     9.4828    10.0880
 1381.5000    89.3263     2.4499     9.4042  -999.2500   -57.7147  1124.0208     9.4204     9.4775    10.1168
 1382.0000    90.8278     2.4383     9.6604  -999.2500   -57.5178  1124.8025     9.3476     9.4722    10.2288
 1382.5000    92.7870     2.3910     9.9468  -999.2500   -57.4258  1109.9307     9.3424     9.4669    10.2912
 1383.0000    93.0721     2.4324    10.1423  -999.2500   -57.8049  1110.6895     9.3119     9.3924    10.2841
 1383.5000    91.0795     2.4708    10.3833  -999.2500   -58.1738  1127.2462     9.1973     9.3197    10.2783
 1384.0000    86.6630     2.4778    10.5984  -999.2500   -58.5419  1128.0050     9.1922     9.2476    10.2726
 1384.5000    86.0441     2.5041    10.5770  -999.2500   -58.9109  1128.7520     9.1871     9.2425    10.1931
 1385.0000    88.1486     2.5157    10.3635  -999.2500   -59.2818  1129.5419     9.1161     9.2373    10.1143
 1385.5000    89.3935     2.5274    10.1347  -999.2500   -59.5950  1130.4714     9.1110     9.2322    10.0360
 1386.0000    91.7546     2.5289     9.7848  -999.2500   -59.2986  1131.1216     9.1718     9.2269     9.9571
 1386.5000    93.4079     2.5235     9.8608  -999.2500   -59.0043  1131.9893     9.1665     9.2874     9.7387
 1387.0000    94.1507     2.4746     9.9785  -999.2500   -58.7136  1116.7607     9.1603     9.3494     9.6634
 1387.5000    94.1347     2.4234    10.1286  -999.2500   -58.4233  1110.4529     9.2226     9.4119     9.7292
 1388.0000    93.3270     2.4250    10.3999  -999.2500   -58.1330  1086.8878     9.2841     9.4747     9.7224
 1388.5000    91.9744     2.4289    10.5500  -999.2500   -57.8427  1087.6777     9.2781     9.4694     9.7875
 1389.0000    90.5928     2.4234    10.4236  -999.2500   -57.5523  1088.5801     9.2725     9.4641     9.7116
 1389.5000    87.2385     2.3893    10.3346  -999.2500   -57.2612  1073.3516     9.2674     9.3896     9.7060
 1390.0000    84.0359     2.3885    10.3638  -999.2500   -56.9716  1074.3000     9.1956     9.3844     9.6994
 1390.5000    84.4921     2.4094    10.3927  -999.2500   -56.7511  1090.8373     9.2571     9.3792     9.6940
 1391.0000    86.4280     2.4414    10.1787  -999.2500   -56.7970  1091.6272     9.2506     9.3740     9.6886
 1391.5000    87.7777     2.4808     9.9486  -999.2500   -56.8373  1076.5769     9.2455     9.3014     9.6832
 1392.0000    89.1275     2.5102     9.7815     0.2292   -56.8773  1077.4092     9.1740     9.2295     9.8197
 1392.5000    90.4773     2.5032     9.6589     0.1838   -56.9172  1078.2843     9.0378     9.1579     9.9553
 1393.0000    91.8289     2.4978     9.5059     0.1710   -56.9571  1078.9889     8.9680     9.0859    10.0217
 1393.5000    92.4181     2.4993     9.2469     0.1584   -56.9969  1079.8021     8.8985     9.0156    10.0147
 1394.0000    92.2504     2.5275     8.9574     0.1494   -57.0368  1080.5687     8.9580     8.9458     9.8659
 1394.5000    93.8997     2.5512     8.9558     0.1467   -57.0763  1081.5098     8.9518     8.9409     9.3080
 1395.0000    94.4947     2.5435     8.9543     0.1196   -57.1145  1082.1486     9.0766     8.9359     9.2360
 1395.5000    94.3230     2.5210     8.9226     0.0767   -57.1644  1082.9384     8.8736     8.9956     9.2308
 1396.0000    93.8513     2.5055     8.8605     0.0589   -57.5296  1083.7864     8.7459     9.1298     9.3596
 1396.5000    94.1394     2.5047     8.8136     0.0524   -57.9152  1084.5454     8.8042     9.2486     9.5589
 1397.0000    94.7305     2.5124     8.7361     0.0509   -58.3001  1085.3080     8.9269     9.1757     9.6226
 1397.5000    95.6210     2.5357     8.7043     0.0555   -58.6833  1086.0979     8.9852     9.1047     9.6159
 1398.0000    96.8191     2.5520     8.6726     0.0745   -59.0745  1086.8878     9.0464     9.0997     9.5416
 1398.5000    95.1831     2.5589     8.6866     0.0938   -58.9952  1087.7706     9.0401     9.0292     9.3998
 1399.0000    91.3204     2.5504     8.7000     0.0993   -58.6877  1088.5295     9.0351     9.0242     9.3271
 1399.5000    88.5730     2.5181     8.7461     0.1016   -58.3738  1089.2885     9.0300     8.9531     9.2549
 1400.0000    90.3780     2.4705     8.7728     0.0745   -58.0603  1090.0474     8.9398     8.9598     9.2498
 1400.5000    90.9697     2.4915     8.7866     0.0274   -57.7473  1090.0474     8.8501     8.9881     9.6516
 1401.0000    90.0139     2.5147     8.7999     0.0445   -57.4341  1090.0474     8.7604     9.0031     9.6457
 1401.5000    87.1396     2.5349     8.8136     0.0476   -57.1204  1090.0474     8.6908     9.0614     9.6398
 1402.0000    84.2405     2.5512     8.7955     0.0487   -56.8009  1090.0474     8.6849     9.0544     9.8429
 1402.5000    82.5594     2.5542     8.7938     0.0554   -56.8025  1090.0474     8.6801     9.1157     9.9797
 1403.0000    86.0296     2.5325     8.7920     0.0585   -56.8699  1090.0474     8.7393     9.1761    10.1916
 1403.5000    88.8968     2.5208     8.8055     0.0651   -56.9385  1090.0474     8.7966     9.1690    10.1854
 1404.0000    89.8198     2.5309     8.8033     0.0849   -57.0063  1090.0474     8.8552     9.0974    10.1045
 1404.5000    87.1769     2.5479     8.8241     0.1116   -57.0740  1090.0474     8.8492     9.0252    10.0258
