~VERSION INFORMATION
 VERS.                2.0:   CWLS LOG ASCII STANDARD - VERSION 2.0
 WRAP.                 NO:   ONE LINE PER DEPTH STEP
~WELL INFORMATION
#MNEM.UNIT      DATA TYPE    INFORMATION
#----------   ------------   ------------------------------
 STRT.F           85.5000:   START DEPTH
 STOP.F         3267.0000:   STOP DEPTH
 STEP.F            0.5000:   STEP LENGTH
 NULL.          -999.2500:   NO VALUE
 COMP. LAWRENCE ALLISON & ASSOCIATES:   COMPANY
 WELL. LAWRENCE "X" #78-33:   WELL
 FLD .           N P R #3:   FIELD
 LOC .      S33 T39N R78W:   LOCATION
 CNTY.            NATRONA:   COUNTY
 STAT.            WYOMING:   STATE
 CTRY. UNITED STATES OF AMERICA:   COUNTRY
 SRVC.      DRESSER ATLAS:   SERVICE COMPANY
 DATE.        04-FEB-1986:   LOGDATE
 API .     49025110630000:   API NUMBER
~CURVE INFORMATION
#MNEM.UNIT       API CODE    CURVE DESCRIPTION
#----------   ------------   ------------------------------
 DEPT.F                  :   
 CNC .DEC    42 890 03 00:   NEUTRON PORISITY SANDSTONE
 DEN .G/C3   45 350 01 00:   BULK DENSITY
 DCOR.G/C3   45 356 01 00:   DENSITY CORRECTION
 TEND.LBS    45 635 01 00:   TENSION FROM DENSITY LOG
 GRR .GAPI   07 310 01 00:   GAMMA RAY FROM RESISTIVITY
 CALR.IN     07 280 01 00:   CALIPER FROM RESISTIVITY
 RILM.OHMM   07 120 44 00:   INDUCTION LOG MEDIUM RESISTIVITY
 RILD.OHMM   07 120 46 00:   DEEP INDUCTION RESISTIVITY
 RFOC.OHMM   07 220 04 00:   RESISTIVITY FOCUSED LOG RES.
 TENR.LBS    07 635 01 00:   TENSION FROM RESISTIVITY
 DT  .US/F   60 520 00 00:   DELTA TIME
 TENS.LBS    60 635 01 00:   TENSION FROM SONIC
 SPR .MV     07 010 01 00:   SPONTANEOUS POTENTIAL
~PARAMETER INFORMATION
#MNEM.UNIT          VALUE    DESCRIPTION
#----------   ------------   ------------------------------
 EKB .F            0.0000:   Kelly bushing
 EGL .F         5150.0000:   Ground level
 EDF .F         5161.0000:   Drilling floor
 TD  .F         3260.0000:   Total depth
 DATE.        04-FEB-1986:   Date logged
 CLNT.            A2DTECH:   Client Code
 SL  . 1200' FEL & 650' FEL:   Surface Location
 PD  .                 GL:   Permanent Datum
 DD  .F              3260:   Depth driller
 DL  .F              3260:   Depth logger
 BLI .F              3258:   Bottom log interval
 CS1 .IN            8.625:   Casing size
 CBD1.      8.625" @ 566':   Casing driller 1
 CBL1.F               566:   Casing logger 1
 BS1 .IN            7.875:   Bit size
 DFT .        POLYMER-KCL:   Type fluid in hole
 DFD .                9.0:   Density
 DFV .                 36:   Viscosity
 DFPH.                8.5:   pH
 DFL .                 14:   Fluid loss
 MSS .           FLOWLINE:   Source of sample
 RMS .OHMM          0.367:   Rm
 MST .F                65:   Rm Meas. temp.
 RMF .OHMM          0.275:   Rmf
 MFST.F                65:   Rmf Meas. temp.
 RMC .OHMM          0.459:   Rmc
 MCST.F                65:   Rmc Meas. temp.
 MFSS.               CALC:   Source Rmf.
 RMB .OHMM          0.227:   Rm. at BHT
 BHT .F               105:   BHT.
 TCS .HRS               6:   Time Circ. stopped
 MRT .F               105:   Maximum recorded temp.
 LUN .               6274:   Logging unit number
 LUL .           GILLETTE:   Logging unit location
 ENGI.             MILLER:   Recorded By
 WITN.             STRONG:   Witnessed by
 ORIG.           5" PRINT:   Origin of data
 UWI .     49025110630000:   Unique Well ID
 DICO. A2D TECHNOLOGIES, INC.:   Digitizing Company
 DAPD.                 11:   Feet Above Permanent Datum
 BSD1.               3260:   Depth drilled with bit1
 MCSS.               CALC:   Source Rmc.
 EPD .F              5150:   Elevation Permanent Datum
 LMF .                 KB:   Log Measured From
 DMF .                 KB:   Drilling Measured From
 TLI .                566:   Top log interval
~OTHER INFORMATION
~A   DEPT      CNC        DEN       DCOR       TEND         GRR      CALR       RILM       RILD       RFOC       TENR         DT       TENS        SPR   
# ...
 1099.5000  -999.2500  -999.2500  -999.2500  -999.2500    83.3720     9.8920    10.0250    11.2800    10.3260   -38.1100  -999.2500  -999.2500   -76.5830
 1100.0000  -999.2500  -999.2500  -999.2500  -999.2500    79.8870     9.8870    10.0700    11.3030    10.5020   -33.6220  -999.2500  -999.2500   -76.5150
 1100.5000  -999.2500  -999.2500  -999.2500  -999.2500    78.0400     9.8910    10.0980    11.3250    10.6780   -29.1350  -999.2500  -999.2500   -76.6490
 1101.0000  -999.2500  -999.2500  -999.2500  -999.2500    80.0280     9.8960    10.1240    11.3510    10.8400   -24.6470  -999.2500  -999.2500   -76.8020
 1101.5000  -999.2500  -999.2500  -999.2500  -999.2500    82.7910     9.9010    10.1490    11.3510    10.6240   -20.1600  -999.2500  -999.2500   -76.9220
 1102.0000  -999.2500  -999.2500  -999.2500  -999.2500    84.1960     9.9060    10.1180    11.2760    10.4230   -15.0000  -999.2500  -999.2500   -77.0520
 1102.5000  -999.2500  -999.2500  -999.2500  -999.2500    84.7480     9.9070    10.0210    11.2060    10.3440   -17.4000  -999.2500  -999.2500   -77.2370
 1103.0000  -999.2500  -999.2500  -999.2500  -999.2500    85.7190     9.9060     9.9230    11.1360    10.3250   -20.2230  -999.2500  -999.2500   -77.4340
 1103.5000  -999.2500  -999.2500  -999.2500  -999.2500    87.8560     9.9080     9.8630    11.0660    10.3060   -23.0460  -999.2500  -999.2500   -77.5810
 1104.0000  -999.2500  -999.2500  -999.2500  -999.2500    91.6490     9.9050     9.8260    10.9960    10.2880   -25.8690  -999.2500  -999.2500   -77.7680
 1104.5000  -999.2500  -999.2500  -999.2500  -999.2500    95.3860     9.8920     9.7960    10.9260    10.2690   -28.6910  -999.2500  -999.2500   -78.0590
 1105.0000  -999.2500  -999.2500  -999.2500  -999.2500    93.8620     9.8600     9.7960    10.8400    10.2200   -31.5140  -999.2500  -999.2500   -78.2300
 1105.5000  -999.2500  -999.2500  -999.2500  -999.2500    89.4190     9.8290     9.7960    10.8930    10.1240   -35.0000  -999.2500  -999.2500   -78.2330
 1106.0000  -999.2500  -999.2500  -999.2500  -999.2500    87.2570     9.8360     9.7960    10.9610    10.0270   -35.9270  -999.2500  -999.2500   -78.2270
 1106.5000  -999.2500  -999.2500  -999.2500  -999.2500    85.4620     9.8540     9.7960    11.0290     9.9310   -37.5730  -999.2500  -999.2500   -78.1620
 1107.0000  -999.2500  -999.2500  -999.2500  -999.2500    84.0620     9.8660     9.8810    11.0980     9.9800   -39.2200  -999.2500  -999.2500   -78.0820
 1107.5000  -999.2500  -999.2500  -999.2500  -999.2500    84.7580     9.8830     9.9780    11.1660    10.1530   -40.8670  -999.2500  -999.2500   -78.0110
 1108.0000  -999.2500  -999.2500  -999.2500  -999.2500    85.8320     9.8970     9.9780    11.2340    10.3260   -42.5130  -999.2500  -999.2500   -77.9290
 1108.5000  -999.2500  -999.2500  -999.2500  -999.2500    84.6550     9.9130     9.9780    11.3020    10.4480   -44.1600  -999.2500  -999.2500   -77.8650
 1109.0000  -999.2500  -999.2500  -999.2500  -999.2500    81.1380     9.9290     9.9780    11.3510    10.4010   -45.8640  -999.2500  -999.2500   -77.6650
 1109.5000  -999.2500  -999.2500  -999.2500  -999.2500    78.7980     9.9430     9.9780    11.2800    10.3520   -47.6290  -999.2500  -999.2500   -77.4300
 1110.0000  -999.2500  -999.2500  -999.2500  -999.2500    79.0790     9.9600     9.9780    11.1760    10.5990   -49.3930  -999.2500  -999.2500   -77.1890
 1110.5000  -999.2500  -999.2500  -999.2500  -999.2500    81.3970     9.9740     9.8710    11.0720    10.8830   -51.1570  -999.2500  -999.2500   -77.1270
 1111.0000  -999.2500  -999.2500  -999.2500  -999.2500    84.2330     9.9910     9.7090    10.9680    11.0420   -52.9210  -999.2500  -999.2500   -77.4560
 1111.5000  -999.2500  -999.2500  -999.2500  -999.2500    84.4880    10.0050     9.5480    10.8640    10.5530   -55.0000  -999.2500  -999.2500   -77.5760
 1112.0000  -999.2500  -999.2500  -999.2500  -999.2500    84.2570    10.0070     9.3550    10.7410    10.1630   -52.2930  -999.2500  -999.2500   -78.1060
 1112.5000  -999.2500  -999.2500  -999.2500  -999.2500    85.9530    10.0050     9.2240    10.7040    10.2220   -49.0000  -999.2500  -999.2500   -79.1430
 1113.0000  -999.2500  -999.2500  -999.2500  -999.2500    86.2120    10.0070     9.3300    10.6430    10.2290   -45.7070  -999.2500  -999.2500   -79.1710
 1113.5000  -999.2500  -999.2500  -999.2500  -999.2500    84.7630    10.0050     9.2980    10.5830    10.1560   -42.4130  -999.2500  -999.2500   -78.7390
 1114.0000  -999.2500  -999.2500  -999.2500  -999.2500    84.1770    10.0060     9.2660    10.5220    10.0830   -39.1200  -999.2500  -999.2500   -78.4690
 1114.5000  -999.2500  -999.2500  -999.2500  -999.2500    84.9990    10.0060     9.2350    10.4610    10.0110   -35.0000  -999.2500  -999.2500   -77.9570
 1115.0000  -999.2500  -999.2500  -999.2500  -999.2500    86.4830     9.9860     9.2030    10.4010     9.9660   -37.3870  -999.2500  -999.2500   -77.6730
 1115.5000  -999.2500  -999.2500  -999.2500  -999.2500    87.1400     9.9560     9.1720    10.3400     9.9330   -40.5740  -999.2500  -999.2500   -77.7430
 1116.0000  -999.2500  -999.2500  -999.2500  -999.2500    87.6820     9.9270     9.1400    10.2790     9.9000   -43.7610  -999.2500  -999.2500   -77.9330
 1116.5000  -999.2500  -999.2500  -999.2500  -999.2500    88.0970     9.9070     9.1090    10.2190     9.8660   -46.9480  -999.2500  -999.2500   -78.0090
 1117.0000  -999.2500  -999.2500  -999.2500  -999.2500    88.4360     9.9060     9.0770    10.1580     9.8330   -50.1350  -999.2500  -999.2500   -77.9020
 1117.5000  -999.2500  -999.2500  -999.2500  -999.2500    91.1610     9.9070     9.0460    10.0980     9.7960   -53.3230  -999.2500  -999.2500   -77.9950
 1118.0000  -999.2500  -999.2500  -999.2500  -999.2500    92.7340     9.9060     9.0160    10.0370     9.8940   -53.3860  -999.2500  -999.2500   -78.2680
 1118.5000  -999.2500  -999.2500  -999.2500  -999.2500    90.9620     9.9070     9.0330     9.9760     9.9780   -49.9790  -999.2500  -999.2500   -78.5600
 1119.0000  -999.2500  -999.2500  -999.2500  -999.2500    90.3330     9.9060     9.0490     9.9160     9.7570   -46.5720  -999.2500  -999.2500   -78.8020
 1119.5000  -999.2500  -999.2500  -999.2500  -999.2500    90.5670     9.9070     9.0640     9.8550     9.5820   -43.1660  -999.2500  -999.2500   -78.9470
 1120.0000  -999.2500  -999.2500  -999.2500  -999.2500    91.1320     9.9060     9.0800     9.7960     9.4070   -39.7590  -999.2500  -999.2500   -78.9970
 1120.5000  -999.2500  -999.2500  -999.2500  -999.2500    92.9410     9.9070     9.0960     9.7960     9.2690   -36.3520  -999.2500  -999.2500   -78.7220
 1121.0000  -999.2500  -999.2500  -999.2500  -999.2500    93.5080     9.9060     9.1110     9.7710     9.4460   -36.0640  -999.2500  -999.2500   -78.3270
 1121.5000  -999.2500  -999.2500  -999.2500  -999.2500    91.9910     9.9070     9.1270     9.7460     9.5930   -37.8290  -999.2500  -999.2500   -78.0510
 1122.0000  -999.2500  -999.2500  -999.2500  -999.2500    88.3440     9.9060     9.1420     9.7220     9.7390   -39.5930  -999.2500  -999.2500   -77.8000
 1122.5000  -999.2500  -999.2500  -999.2500  -999.2500    84.2990     9.8800     9.1580     9.6970     9.8860   -41.3570  -999.2500  -999.2500   -77.6390
 1123.0000  -999.2500  -999.2500  -999.2500  -999.2500    82.9890     9.8570     9.1740     9.6730    10.0700   -43.1210  -999.2500  -999.2500   -77.4050
 1123.5000  -999.2500  -999.2500  -999.2500  -999.2500    83.4990     9.8250     9.0160     9.6480    10.0020   -45.0000  -999.2500  -999.2500   -77.2590
 1124.0000  -999.2500  -999.2500  -999.2500  -999.2500    83.7070     9.7610     9.0260     9.6170     9.8860   -43.4070  -999.2500  -999.2500   -77.4580
 1124.5000  -999.2500  -999.2500  -999.2500  -999.2500    82.7860     9.7020     9.0340     9.6450     9.9520   -41.7030  -999.2500  -999.2500   -77.7240
 1125.0000  -999.2500  -999.2500  -999.2500  -999.2500    80.4930     9.6710     9.0420     9.6990    10.0430   -40.0000  -999.2500  -999.2500   -77.9290
