~VERSION INFORMATION
 VERS.                2.0:   CWLS LOG ASCII STANDARD - VERSION 2.0
 WRAP.                 NO:   ONE LINE PER DEPTH STEP
~WELL INFORMATION
#MNEM.UNIT      DATA TYPE    INFORMATION
#----------   ------------   ------------------------------
 STRT.F           44.0000:   START DEPTH
 STOP.F         6166.0000:   STOP DEPTH
 STEP.F            0.5000:   STEP LENGTH
 NULL.          -999.2500:   NO VALUE
 COMP.   TESORO PETROLEUM:   COMPANY
 WELL. TESORO 11X NPR #3-23:   WELL
 FLD .             TEAPOT:   FIELD
 LOC .      S23 T38N R78W:   LOCATION
 CNTY.            NATRONA:   COUNTY
 STAT.            WYOMING:   STATE
 CTRY. UNITED STATES OF AMERICA:   COUNTRY
 SRVC.       SCHLUMBERGER:   SERVICE COMPANY
 DATE.        29-OCT-1968:   LOGDATE
 API .     49025100170000:   API NUMBER
~CURVE INFORMATION
#MNEM.UNIT       API CODE    CURVE DESCRIPTION
#----------   ------------   ------------------------------
 DEPT.F                  :   
 SN  .OHMM   05 040 18 00:   SHORT NORMAL 18"
 RES .OHMM   05 000 00 00:   RESISTIVITY
 ILD .OHMM   05 120 46 00:   INDUCTION LOG DEEP RESISTIVITY
 SPR .MV     05 010 01 00:   SPONTANEOUS POTENTIAL FROM RES.
~PARAMETER INFORMATION
#MNEM.UNIT          VALUE    DESCRIPTION
#----------   ------------   ------------------------------
 EKB .F         5283.0000:   Kelly bushing
 EGL .F         5272.0000:   Ground level
 EDF .F            0.0000:   Drilling floor
 TD  .F         6171.0000:   Total depth
 CLNT.            A2DTECH:   Client Code
 SL  . 380' FNL & 380' FWL:   Surface Location
 PD  .                 GL:   Permanent Datum
 EPD .F              5272:   Elevation Permanent Datum
 LMF .                 KB:   Log Measured From
 DMF .                 KB:   Drilling Measured From
 DAPD.F                11:   Feet Above Permanent Datum
 DATE.        29-OCT-1968:   Date Logged [DD-MMM-YYYY]
 DD  .F              6171:   Depth driller
 DL  .F              6167:   Depth logger
 BLI .F              6166:   Bottom log interval
 TLI .F               975:   Top log interval
 CS1 .IN            10.75:   Casing size
 CBD1.      10.75" @ 975':   Casing driller 1
 CBL1.F               975:   Casing logger 1
 BS1 .IN            9.125:   Bit size
 BSD1.F              6171:   Depth drilled with bit1
 DFT .           GEL-CHEM:   Type fluid in hole
 DFD .                9.6:   Density
 DFV .                 61:   Viscosity
 DFPH.                 10:   pH
 DFL .                6.8:   Fluid loss
 MSS .           FLOWLINE:   Source of sample
 RMS .OHMM           0.89:   Rm
 MST .F                80:   Rm Meas. temp.
 RMF .OHMM           0.60:   Rmf
 MFST.F                80:   Rmf Meas. temp.
 MFSS.               MEAS:   Source Rmf.
 RMB .OHMM           0.45:   Rm. at BHT
 BHT .F               160:   BHT.
 TCS .HRS               4:   Time Circ. stopped
 MRT .F               160:   Maximum recorded temp.
 LUN .               7041:   Logging unit number
 LUL .               CSPR:   Logging unit location
 ENGI.            MANGOLD:   Recorded By
 WITN.                MAY:   Witnessed by
 ORIG.         2.5" PRINT:   Origin of data
 UWI .     49025100170000:   Unique Well ID
 DICO. A2D TECHNIOLOGIES,INC.:   Digitizing Company
~OTHER INFORMATION
~A  DEPTH       SN        RES        ILD        SPR
# ...
 5300.0000    17.5753  -999.2500    16.5147   -36.5358
 5300.5000    17.5725  -999.2500    16.1869   -36.3624
 5301.0000    17.7212  -999.2500    16.0988   -35.7972
 5301.5000    18.1729  -999.2500    16.3967   -35.6262
 5302.0000    18.5635  -999.2500    17.3035   -35.8152
 5302.5000    18.9115  -999.2500    18.5143   -35.9760
 5303.0000    19.3752  -999.2500    19.6120   -36.1340
 5303.5000    19.9785  -999.2500    20.7435   -36.3093
 5304.0000    20.2787  -999.2500    21.9351   -36.3706
 5304.5000    20.5925  -999.2500    22.8787   -36.3223
 5305.0000    20.8791  -999.2500    23.2828   -36.2844
 5305.5000    20.7242  -999.2500    23.3457   -36.2468
 5306.0000    20.5697  -999.2500    23.3399   -36.2062
 5306.5000    20.5663  -999.2500    22.4230   -36.1671
 5307.0000    20.5001  -999.2500    21.6639   -36.1278
 5307.5000    20.4243  -999.2500    21.0448   -36.0885
 5308.0000    20.3486  -999.2500    20.6546   -36.0489
 5308.5000    20.2728  -999.2500    20.4263   -36.0101
 5309.0000    20.1970  -999.2500    20.1170   -35.9765
 5309.5000    20.1212  -999.2500    20.0256   -35.9758
 5310.0000    20.0455  -999.2500    19.8016   -35.9751
 5310.5000    20.0200  -999.2500    19.7965   -35.9755
 5311.0000    19.8833  -999.2500    20.0954   -35.9755
 5311.5000    19.9386  -999.2500    20.0903   -35.9755
 5312.0000    20.0242  -999.2500    20.4090   -35.9756
 5312.5000    20.3211  -999.2500    20.9155   -35.9756
 5313.0000    20.3162  -999.2500    21.6754   -35.9756
 5313.5000    20.4627  -999.2500    22.3085   -35.9756
 5314.0000    20.6293  -999.2500    23.2348   -35.9756
 5314.5000    20.9073  -999.2500    24.6576   -35.9756
 5315.0000    21.2551  -999.2500    25.9794   -35.9757
 5315.5000    21.5023  -999.2500    26.7342   -35.9758
 5316.0000    21.9505  -999.2500    27.3370   -35.9761
 5316.5000    22.2486  -999.2500    27.6360   -35.9759
 5317.0000    22.5466  -999.2500    27.7828   -35.9760
 5317.5000    22.6932  -999.2500    27.4482   -35.9774
 5318.0000    22.3444  -999.2500    26.7387   -35.9748
 5318.5000    21.9957  -999.2500    25.4566   -35.9726
 5319.0000    21.3439  -999.2500    23.3940   -35.8543
 5319.5000    20.6922  -999.2500    21.3114   -35.7174
 5320.0000    19.9386  -999.2500    19.0873   -35.5779
 5320.5000    19.1760  -999.2500    17.8664   -35.4401
 5321.0000    18.5650  -999.2500    16.9495   -35.3024
 5321.5000    18.1053  -999.2500    16.3365   -35.1644
 5322.0000    17.9182  -999.2500    16.3313   -35.0246
 5322.5000    17.7917  -999.2500    16.5032   -34.8893
 5323.0000    17.7864  -999.2500    16.8983   -34.7610
 5323.5000    18.3861  -999.2500    17.7533   -34.7572
 5324.0000    18.9872  -999.2500    19.0250   -34.7547
 5324.5000    19.5883  -999.2500    20.7729   -34.7481
 5325.0000    20.1894  -999.2500    22.6815   -34.7241
 5325.5000    20.4875  -999.2500    23.7403   -34.7006
 5326.0000    20.4010  -999.2500    24.4951   -34.6775
 5326.5000    20.0523  -999.2500    24.9460   -34.6540
 5327.0000    19.7035  -999.2500    25.1027   -34.6306
 5327.5000    19.2530  -999.2500    24.5307   -34.6071
 5328.0000    18.7934  -999.2500    20.6449   -34.5836
 5328.5000    18.3339  -999.2500    18.1668   -34.5601
 5329.0000    17.8641  -999.2500    16.8847   -34.5366
 5329.5000    17.3538  -999.2500    15.7754   -34.5131
 5330.0000    16.7020  -999.2500    15.0296   -34.4896
 5330.5000    16.0503  -999.2500    14.5686   -34.4661
 5331.0000    15.5793  -999.2500    14.1076   -34.4426
 5331.5000    15.4228  -999.2500    13.7985   -34.4191
 5332.0000    15.2663  -999.2500    13.7933   -34.3957
 5332.5000    15.2614  -999.2500    13.7880   -34.3721
 5333.0000    15.2359  -999.2500    13.8232   -34.3494
 5333.5000    15.0588  -999.2500    14.0822   -34.3271
 5334.0000    14.9424  -999.2500    14.0760   -34.3056
 5334.5000    14.9371  -999.2500    14.3088   -34.2840
 5335.0000    14.9310  -999.2500    14.3693   -34.2624
 5335.5000    14.9260  -999.2500    14.3634   -34.2409
 5336.0000    14.9210  -999.2500    14.3583   -34.2193
 5336.5000    14.9159  -999.2500    14.2013   -34.1977
 5337.0000    14.7288  -999.2500    14.0341   -34.1761
 5337.5000    14.6023  -999.2500    13.7348   -34.1546
 5338.0000    14.5970  -999.2500    13.6483   -34.1330
 5338.5000    14.2876  -999.2500    13.3644   -34.1114
 5339.0000    14.2827  -999.2500    13.1109   -34.0898
 5339.5000    13.9747  -999.2500    13.1056   -34.0683
 5340.0000    13.3636  -999.2500    12.9475   -34.0467
 5340.5000    13.0351  -999.2500    12.9424   -34.0251
 5341.0000    12.8985  -999.2500    12.9374   -34.0035
 5341.5000    13.0457  -999.2500    13.0843   -33.9819
 5342.0000    13.1202  -999.2500    13.0790   -33.9604
 5342.5000    13.3371  -999.2500    13.2509   -33.9388
 5343.0000    13.9374  -999.2500    13.3730   -33.9172
 5343.5000    14.0839  -999.2500    13.6719   -33.8956
 5344.0000    14.5535  -999.2500    13.8077   -33.8741
 5344.5000    15.0129  -999.2500    14.2025   -33.8525
 5345.0000    15.5328  -999.2500    14.8700   -33.8309
 5345.5000    15.9417  -999.2500    15.7768   -33.8093
 5346.0000    16.6323  -999.2500    16.6836   -33.7877
 5346.5000    17.2334  -999.2500    17.5903   -33.7662
 5347.0000    17.5318  -999.2500    18.5175   -33.7446
 5347.5000    17.6780  -999.2500    18.9731   -33.7230
 5348.0000    17.5212  -999.2500    19.1754   -33.7014
 5348.5000    17.1321  -999.2500    18.9778   -33.6799
 5349.0000    16.6318  -999.2500    18.1112   -33.6584
 5349.5000    16.1316  -999.2500    17.2140   -33.6369
 5350.0000    15.6810  -999.2500    16.3365   -33.6155
 5350.5000    15.5245  -999.2500    15.5891   -33.5937
 5351.0000    15.3680  -999.2500    15.7834   -33.5723
 5351.5000    15.3630  -999.2500    16.1583   -33.5515
 5352.0000    15.6909  -999.2500    16.4590   -33.5065
 5352.5000    16.0593  -999.2500    16.7597   -33.4210
 5353.0000    16.3975  -999.2500    17.0603   -33.3366
 5353.5000    17.0073  -999.2500    17.5120   -33.2515
 5354.0000    17.7599  -999.2500    17.9718   -33.1661
 5354.5000    18.3610  -999.2500    18.4326   -33.0815
 5355.0000    18.8106  -999.2500    18.5651   -32.9961
 5355.5000    18.9770  -999.2500    18.4771   -32.9104
 5356.0000    18.7394  -999.2500    18.0525   -32.8277
 5356.5000    18.2189  -999.2500    17.6661   -32.7428
 5357.0000    17.5672  -999.2500    17.1856   -32.7783
 5357.5000    17.1166  -999.2500    16.7444   -32.8525
 5358.0000    16.8086  -999.2500    16.5919   -32.9270
 5358.5000    16.6521  -999.2500    16.5905   -32.9995
 5359.0000    16.4956  -999.2500    16.7401   -33.0733
 5359.5000    16.7937  -999.2500    16.7387   -33.1468
 5360.0000    16.7879  -999.2500    16.7372   -33.2198
 5360.5000    16.7826  -999.2500    16.7357   -33.2945
 5361.0000    16.6248  -999.2500    16.6620   -33.3666
 5361.5000    16.4683  -999.2500    16.2302   -33.4385
 5362.0000    16.1603  -999.2500    15.7623   -33.5201
 5362.5000    15.8523  -999.2500    15.1435   -33.4775
 5363.0000    15.5035  -999.2500    14.0088   -33.3657
 5363.5000    14.8922  -999.2500    13.1010   -33.2619
 5364.0000    14.3515  -999.2500    12.0421   -33.1613
 5364.5000    13.7806  -999.2500    10.8322   -33.0573
 5365.0000    13.4007  -999.2500    10.3776   -32.9544
 5365.5000    13.0927  -999.2500    10.0709   -32.8514
 5366.0000    13.0877  -999.2500     9.9215   -32.7487
 5366.5000    13.0826  -999.2500    10.1000   -32.6456
 5367.0000    13.1076  -999.2500    10.2627   -32.5420
 5367.5000    13.3758  -999.2500    10.7276   -32.4418
 5368.0000    13.7434  -999.2500    11.1097   -32.3393
 5368.5000    14.5755  -999.2500    11.7386   -32.3673
 5369.0000    15.4796  -999.2500    12.7822   -32.4344
 5369.5000    16.8383  -999.2500    14.5934   -32.5021
 5370.0000    17.8939  -999.2500    16.7068   -32.5678
 5370.5000    19.8078  -999.2500    19.7265   -32.6344
 5371.0000    21.3783  -999.2500    23.0483   -32.7012
 5371.5000    22.6053  -999.2500    27.2860   -32.7676
 5372.0000    23.8828  -999.2500    31.4864   -32.8340
 5372.5000    25.1393  -999.2500    33.2240   -32.9011
