~VERSION INFORMATION
 VERS.                2.0:   CWLS LOG ASCII STANDARD - VERSION 2.0
 WRAP.                 NO:   ONE LINE PER DEPTH STEP
~WELL INFORMATION
#MNEM.UNIT      DATA TYPE    INFORMATION
#----------   ------------   ------------------------------
 STRT.F          492.0000:   START DEPTH
 STOP.F         3008.0000:   STOP DEPTH
 STEP.F            0.5000:   STEP LENGTH
 NULL.          -999.2500:   NO VALUE
 COMP.    FENIX & SCISSON:   COMPANY
 WELL. FENIX & SCISSON AX #24-28:   WELL
 FLD .             TEAPOT:   FIELD
 LOC .      S28 T39N R78W:   LOCATION
 CNTY.            NATRONA:   COUNTY
 STAT.            WYOMING:   STATE
 CTRY. UNITED STATES OF AMERICA:   COUNTRY
 SRVC.              WELEX:   SERVICE COMPANY
 DATE.        03-AUG-1980:   LOGDATE
 API .     49025108490000:   API NUMBER
~CURVE INFORMATION
#MNEM.UNIT       API CODE    CURVE DESCRIPTION
#----------   ------------   ------------------------------
 DEPT.F                  :   
 SPR .MV     07 010 01 00:   SPONTANEOUS POTENTIAL
 ILD .OHMM   07 120 46 00:   DEEP INDUCTION RESISTIVITY
 ILM .OHMM   07 120 44 00:   INDUCTION LOG MEDIUM RESISTIVITY
 SGRD.OHMM   07 220 05 00:   SHALLOW SHORT GUARD RESISTIVITY
 GRD .GAPI   45 310 01 00:   GAMMA RAY FROM DENSITY LOG
 CALD.IN     45 280 60 00:   CALIPER FROM DENSITY LOG
 CORR.G/C3   45 356 01 00:   DENSITY CORRECTION
 RHOB.G/C3   45 350 01 00:   BULK DENSITY
~PARAMETER INFORMATION
#MNEM.UNIT          VALUE    DESCRIPTION
#----------   ------------   ------------------------------
 EKB .F         5061.0000:   Kelly bushing
 EGL .F         5051.0000:   Ground level
 TD  .F         3000.0000:   Total depth
 CLNT.            A2DTECH:   Client Code
 SL  . 2350' FNL & 1000' FWL:   Surface Location
 DATE.         3-AUG-1980:   Date Logged [DD-MMM-YYYY]
 DD  .F              3000:   Depth driller
 DL  .F              3010:   Depth logger
 BLI .F              3008:   Bottom log interval
 TLI .F               308:   Top log interval
 CS1 .              8.625:   Casing size
 CBD1.      8.625" @ 393':   Casing driller 1
 BS1 .IN            7.875:   Bit size
 BSD1.F              3000:   Depth drilled with bit1
 DFT .     WATER BASE MUD:   Type fluid in hole
 DFD .                8.9:   Density
 TCS .HRS               8:   Time Circ. stopped
 MRT .F               115:   Maximum recorded temp.
 ENGI.           WACHTELL:   Recorded By
 WITN.           DINSMORE:   Witnessed by
 ORIG.      2.5" 5" PRINT:   Origin of data
 UWI .     49025108490000:   Unique Well ID
 DICO. A2D TECHNOLOGIES, INC.:   Digitizing Company
 PD  .                 GL:   Permanent Datum
 EPD .F              3051:   Elevation Permanent Datum
 LMF .                 KB:   Log Measured From
 DMF .                 KB:   Drilling Measured From
 DAPD.F                10:   Feet Above Permanent Datum
 DFV .                 43:   Viscosity
 DFPH.                9.5:   pH
 DFL .                7.2:   Fluid loss
 MSS .           FLOWLINE:   Source of sample
 RMS .OHMM             .9:   Rm
 MST .F                80:   Rm Meas. temp.
 RMF .OHMM            .72:   Rmf
 MFST.F                80:   Rmf Meas. temp.
 MFSS.               MEAS:   Source Rmf.
 RMC .OHMM           1.08:   Rmc
 MCST.F                80:   Rmc Meas. temp.
 MCSS.               MEAS:   Source Rmc.
 RMB .OHMM            .06:   Rm. at BHT
 BHT .F               115:   BHT.
 LUN .               1892:   Logging unit number
 LUL .             CASPER:   Logging unit location
~OTHER INFORMATION
~A   DEPT      SPR        ILD        ILM       SGRD        GRD       CALD       CORR       RHOB   
# ...
 1828.5000   -15.9003     6.1743     7.8865     9.2128   122.1188     8.4054     0.1067     2.5202
 1829.0000   -15.9077     6.1701     7.8823     9.2091   121.2003     8.4040     0.0929     2.5021
 1829.5000   -15.9152     6.1658     7.8780     9.2053   118.9362     8.4328     0.0747     2.5156
 1830.0000   -15.9239     6.1615     7.8737     9.2016   117.3164     8.5066     0.1048     2.5223
 1830.5000   -15.9312     6.1572     7.8695     9.1979   117.1068     8.3855     0.0548     2.5109
 1831.0000   -15.9384     6.1529     7.7563     9.3230   118.4371     8.3094     0.0595     2.4929
 1831.5000   -15.9457     6.1486     7.7520     9.3190   119.7712     8.3232     0.0833     2.4756
 1832.0000   -15.9529     6.1435     7.7476     9.3151   120.6556     8.3521     0.0953     2.4732
 1832.5000   -15.9871     6.1394     7.7433     9.3112   121.3151     8.3806     0.1013     2.4812
 1833.0000   -15.9673     6.1352     7.7390     9.3073   121.9746     8.3947     0.1072     2.5136
 1833.5000   -15.9746     6.1311     7.7347     9.3034   122.4092     8.3933     0.1117     2.5533
 1834.0000   -15.6843     6.1269     7.7752     9.2996   121.7155     8.4074     0.1085     2.5480
 1834.5000   -15.6920     6.1228     7.8345     9.2957   120.3510     8.4509     0.0615     2.5067
 1835.0000   -15.6994     6.1186     7.8301     9.2918   118.9865     8.5252     0.0295     2.4437
 1835.5000   -15.7068     6.1144     7.9356     9.2871   117.3971     8.5986     0.0129     2.4220
 1836.0000   -15.7143     6.1102     8.0417     9.4141   115.8077     8.6421     0.0249     2.4427
 1836.5000   -15.7217     6.0917     8.0373     9.4096   114.2004     8.4760     0.1050     2.4698
 1837.0000   -15.7292     6.1021     8.0330     9.4058   113.2998     8.3699     0.0822     2.5192
 1837.5000   -15.7366     6.0974     8.0286     9.4020   114.1841     8.3538     0.1320     2.5740
 1838.0000   -15.7440     6.0932     8.1369     9.5301   116.8676     8.3526     0.1107     2.5872
 1838.5000   -15.7515     6.0889     8.1325     9.5260   119.1013     8.3970     0.1015     2.5707
 1839.0000   -15.7603     6.1254     8.2421     9.5221   121.1101     8.4549     0.1106     2.5684
 1839.5000   -15.7675     6.1658     8.2375     9.5182   122.4442     8.4691     0.1244     2.5646
 1840.0000   -15.7748     6.1606     8.2329     9.5142   123.3286     8.4676     0.1284     2.5525
 1840.5000   -15.7820     6.2436     8.3442     9.5102   122.8598     8.4665     0.1071     2.5015
 1841.0000   -15.7893     6.3268     8.3688     9.6399   121.7202     8.4053     0.0843     2.4910
 1841.5000   -15.7965     6.5005     8.4886     9.6354   120.3557     8.3892     0.0691     2.5104
 1842.0000   -15.8037     6.5873     8.6101     9.7671   118.3165     8.3880     0.0614     2.4833
 1842.5000   -15.8110     6.5829     8.6806     9.8990   117.4018     8.4318     0.0719     2.4945
 1843.0000   -15.7996     6.5784     8.6757    10.0335   118.0613     8.4904     0.0764     2.5087
 1843.5000   -15.5278     6.6662     8.6709    10.1071   119.8658     8.5342     0.0838     2.5041
 1844.0000   -15.5357     6.6615     8.6652    10.3072   120.7295     8.6230     0.0701     2.4719
 1844.5000   -15.5432     6.6569     8.4225    10.3030   120.2608     8.6521     0.0670     2.4718
 1845.0000   -15.2519     6.6522     8.1866    10.2989   118.8963     8.4408     0.0684     2.4763
 1845.5000   -14.9616     6.6220     8.0689    10.2947   118.4313     8.3796     0.0713     2.4635
 1846.0000   -14.6712     6.5510     8.0645    10.2905   118.4161     8.3932     0.0954     2.4612
 1846.5000   -14.6801     6.5465     8.0602    10.1442   119.0757     8.4220     0.1059     2.4881
 1847.0000   -14.6875     6.5419     8.1689    10.1401   120.4364     8.4361     0.1103     2.5105
 1847.5000   -14.6949     6.5374     8.2867     9.9959   121.0692     8.4347     0.1086     2.5134
 1848.0000   -15.0014     6.5328     8.7601     9.9917   120.3756     8.4185     0.0768     2.5058
 1848.5000   -15.0086     6.5275     8.9912     9.9876   119.2360     8.4473     0.0343     2.4946
 1849.0000   -15.3135     6.5231     8.8095     9.9540   118.5461     8.5513    -0.0021     2.4788
 1849.5000   -15.6184     6.5187     8.4618     9.8413   118.7558     8.6393    -0.0113     2.4495
 1850.0000   -15.6256     6.5143     8.1041     9.8372   120.0900     8.5186    -0.0159     2.4165
 1850.5000   -15.6328     6.5099     7.8704     9.6973   121.2317     8.3678    -0.0115     2.3939
 1851.0000   -15.9377     6.5055     7.6917     9.7548   121.4089     8.3664    -0.0010     2.3737
 1851.5000   -15.9449     6.5010     7.6328     9.8249   121.3899     8.3650    -0.0026     2.3623
 1852.0000   -15.9524     6.4066     7.9815     9.8997   121.3747     8.3487     0.0001     2.4020
 1852.5000   -15.9276     6.4021     8.4647     9.9543   121.5050     8.3473     0.0486     2.4547
 1853.0000   -15.6691     6.4879     8.8213    10.2302   122.1499     8.3608     0.0576     2.4663
 1853.5000   -15.6771     6.5070     8.8477    10.3693   121.6627     8.3743     0.0333     2.4358
 1854.0000   -15.6845     6.5994     8.5696    10.5104   118.7094     8.3878    -0.0077     2.4544
 1854.5000   -15.5943     6.7871     8.4464    10.5061   115.7560     8.4158     0.1072     2.5048
 1855.0000   -15.1028     6.8402     8.4419    10.6490   116.4008     8.4886     0.0874     2.5093
 1855.5000   -14.8140     6.9314     8.4373    10.7938   117.7586     8.6362     0.0662     2.4952
 1856.0000   -14.6746     6.9265     8.4326    10.7893   119.4821     8.4708     0.0521     2.4710
 1856.5000   -14.5312     6.9209     8.4279    10.7848   120.3518     8.2608     0.0402     2.4554
 1857.0000   -14.5401     6.9162     8.4232    10.7803   120.3220     8.2888     0.0341     2.4638
 1857.5000   -14.8450     6.9115     8.4461    10.7758   120.5172     8.3470     0.0445     2.4543
 1858.0000   -14.8522     6.9068     8.5326    10.7713   120.7120     8.3907     0.0641     2.4666
 1858.5000   -14.8595     6.9022     8.6897    10.7668   121.1245     8.4039     0.0988     2.4984
 1859.0000   -14.8667     6.8975     8.8140    10.7623   121.7768     8.4024     0.1002     2.5395
 1859.5000   -15.1716     6.8928     8.9402    10.6092   122.6390     8.4006     0.1077     2.5425
 1860.0000   -15.1788     6.8880     9.0008    10.3812   123.7479     8.3843     0.1166     2.5423
 1860.5000   -15.1861     6.8832     9.2490     9.8872   124.8208     8.4872     0.0590     2.5376
 1861.0000   -15.1935     6.8784     9.2440     9.6120   122.5420     8.6051     0.0620     2.5203
 1861.5000   -15.2009     6.8736     9.2390     9.8792   120.7131     8.6633     0.0634     2.4876
 1862.0000   -15.2083     6.8689     9.2340    10.2961   120.9081     8.4380     0.0512     2.4725
 1862.5000   -15.2158     6.8641     9.2290    10.4364   123.7944     8.3769     0.1176     2.4687
 1863.0000   -15.2232     6.9555     8.9705    10.8765   124.6641     8.3755     0.0785     2.4966
 1863.5000   -15.2307     6.9507     8.9657    11.0245   125.0915     8.3741     0.1071     2.5237
 1864.0000   -15.2381     6.9459     8.8352    10.8677   126.1786     8.4022     0.0328     2.5148
 1864.5000   -15.2455     6.9401     8.8410    10.6915   127.5082     8.5051     0.0236     2.4675
 1865.0000   -15.1091     6.9354     9.2041    10.3955   126.3364     8.6080     0.0281     2.4510
 1865.5000   -14.9628     7.0280     9.1740     9.9581   124.2825     8.6513     0.0399     2.4463
 1866.0000   -14.6726     7.0233     8.8482     9.8432   122.6785     8.4111     0.0549     2.4656
 1866.5000   -14.6813     7.0185     8.4514    10.4936   121.5242     8.3951     0.0790     2.5059
 1867.0000   -14.3910     7.1124     8.4467    10.8971   120.3359     8.4679     0.0697     2.4747
 1867.5000   -14.1006     7.1074     8.4933    10.9878   118.9833     8.5112     0.0439     2.4644
 1868.0000   -14.1078     7.2022     8.6149    10.9832   117.8290     8.3753     0.0316     2.4900
 1868.5000   -14.1151     7.1971     8.6709    10.9786   117.3494     8.2844     0.0935     2.5370
