~VERSION INFORMATION
 VERS.                2.0:   CWLS LOG ASCII STANDARD - VERSION 2.0
 WRAP.                 NO:   ONE LINE PER DEPTH STEP
~WELL INFORMATION
#MNEM.UNIT      DATA TYPE    INFORMATION
#----------   ------------   ------------------------------
 STRT.F           32.0000:   START DEPTH
 STOP.F         5116.0000:   STOP DEPTH
 STEP.F            0.5000:   STEP LENGTH
 NULL.          -999.2500:   NO VALUE
 COMP. LAWRENCE ALLISON AND ASSOCIATES:   COMPANY
 WELL. LAWRENCE "X" #11-26:   WELL
 FLD .       N.P.R. NO. 3:   FIELD
 LOC .      S26 T38N R78W:   LOCATION
 CNTY.            NATRONA:   COUNTY
 STAT.            WYOMING:   STATE
 CTRY. UNITED STATES OF AMERICA:   COUNTRY
 SRVC.      DRESSER ATLAS:   SERVICE COMPANY
 DATE.        03-DEC-1984:   LOGDATE
 API .     49025110120000:   API NUMBER
~CURVE INFORMATION
#MNEM.UNIT       API CODE    CURVE DESCRIPTION
#----------   ------------   ------------------------------
 DEPT.F                  :   
 CALD.IN     45 280 60 00:   CALIPER FROM DENSITY LOG
 TEND.LBS    45 635 01 00:   TENSION FORM DENSITY LOG
 CORR.G/C3   45 356 01 00:   DENSITY CORRECTION
 DEN .G/C3   45 350 01 00:   BULK DENSITY
 NPHI.DEC    42 890 03 00:   NEUTRON POROSITY SANDSTONE
 GRR .GAPI   07 310 01 00:   GAMMA RAY FROM RESISTIVITY
 SPR .MV     07 010 01 00:   SPONTANEOUS POTENTIAL
 CALR.IN     07 280 01 00:   CALIPER FROM RESISTIVITY
 TENR.LBS    07 635 01 00:   TENSION FROM RESISTIVITY
 RILD.OHMM   07 120 46 00:   INDUCTION LOG DEEP RESISTIVITY
 RILM.OHMM   07 120 44 00:   INDUCTION LOG MEDIUM RESISTIVITY
 RFOC.OHMM   07 220 04 00:   RESISTIVITY FOCUSED LOG RES.
 TENS.LBS    60 635 01 00:   TENSION FROM SONIC
 DT  .US/F   60 520 00 00:   DELTA TIME
~PARAMETER INFORMATION
#MNEM.UNIT          VALUE    DESCRIPTION
#----------   ------------   ------------------------------
 EKB .F         5321.0000:   Kelly bushing
 EGL .F         5309.0000:   Ground level
 EDF .F         5320.0000:   Drilling floor
 TD  .F         5104.0000:   Total depth
 CLNT.            A2DTECH:   Client Code
 SL  . 509' FWL & 22' FNL:   Surface Location
 PD  .                 GL:   Permanent Datum
 EPD .F              5309:   Elevation Permanent Datum
 LMF .                 KB:   Log Measured From
 DMF .                 KB:   Drilling Measured From
 DAPD.F                12:   Feet Above Permanent Datum
 DATE.        03-DEC-1984:   Date Logged [DD-MMM-YYYY]
 DD  .F              5100:   Depth driller
 DL  .F              5104:   Depth logger
 BLI .F              5102:   Bottom log interval
 TLI .F              1400:   Top log interval
 CS1 .IN            9.625:   Casing size
 CBD1.     9.625' @ 1657':   Casing driller 1
 CBL1.F              1652:   Casing logger 1
 BS1 .IN            7.875:   Bit size
 DFT .            KCL GEL:   Type fluid in hole
 DFD .                90.:   Density
 DFV .                 41:   Viscosity
 DFPH.                8.9:   pH
 DFL .               12.6:   Fluid loss
 MSS .           FLOWLINE:   Source of sample
 RMS .OHMM           .327:   Rm
 MST .F                84:   Rm Meas. temp.
 RMF .OHMM            .29:   Rmf
 MFST.F                84:   Rmf Meas. temp.
 MFSS.               CALC:   Source Rmf.
 RMC .OHMM            .42:   Rmc
 MCST.F                84:   Rmc Meas. temp.
 MCSS.               CALC:   Source Rmc.
 RMB .OHMM            .23:   Rm. at BHT
 BHT .F               142:   BHT.
 TCS .HRS               4:   Time Circ. stopped
 MRT .F               142:   Maximum recorded temp.
 LUN .               6307:   Logging unit number
 LUL .               CLTE:   Logging unit location
 WITN.             STRONG:   Witnessed by
 ORIG.           5" PRINT:   Origin of data
 UWI .     49025110120000:   Unique Well ID
 DICO. A2D TECHNOLOGIES, INC.:   Digitizing Company
~OTHER INFORMATION
~A  DEPTH     CALD       TEND       CORR        DEN       NPHI        GRR        SPR       CALR       TENR       RILD       RILM       RFOC       TENS         DT
   32.0000    12.6457    -9.4119     0.1706  -999.2500     0.0141  -999.2500  -999.2500  -999.2500  -999.2500  -999.2500  -999.2500  -999.2500    61.4749  -999.2500
   32.5000    12.6335   -11.0743     0.1543  -999.2500     0.0153  -999.2500  -999.2500  -999.2500  -999.2500  -999.2500  -999.2500  -999.2500    60.5263  -999.2500
   33.0000    12.6364   -12.7436     0.0975  -999.2500     0.0151  -999.2500  -999.2500  -999.2500  -999.2500  -999.2500  -999.2500  -999.2500    59.5665  -999.2500
   33.5000    12.6231   -14.4303     0.0992  -999.2500     0.0151  -999.2500  -999.2500  -999.2500  -999.2500  -999.2500  -999.2500  -999.2500    58.5949  -999.2500
   34.0000    12.6260    -8.5653     0.1294  -999.2500     0.0151    79.1402   -63.5542  -999.2500    19.8293  -999.2500  -999.2500  -999.2500    49.9692  -999.2500
   34.5000    12.6128   -10.6433     0.1681  -999.2500     0.0147    77.9939   -62.6506  -999.2500    19.8293  -999.2500  -999.2500  -999.2500    49.0206  -999.2500
   35.0000    12.6157   -12.3057     0.2863  -999.2500     0.0144    77.8436   -63.5542  -999.2500    19.8293  -999.2500  -999.2500  -999.2500    48.0719  -999.2500
   35.5000    12.6024   -13.9681     0.3268  -999.2500     0.0125    78.1104   -66.8675  -999.2500    19.8293  -999.2500  -999.2500  -999.2500    47.1232  -999.2500
   36.0000    12.6053   -15.6305     0.2985  -999.2500     0.0107    78.9754   -69.4277  -999.2500    19.8293  -999.2500  -999.2500  -999.2500    46.1745  -999.2500
   36.5000    12.6226   -17.2929     0.2852  -999.2500     0.0104    79.3011   -70.1807  -999.2500    19.8293  -999.2500  -999.2500  -999.2500    45.2259  -999.2500
   37.0000    12.6249   -18.9554     0.2900  -999.2500     0.0106    77.4996   -70.0301  -999.2500    19.8293  -999.2500  -999.2500  -999.2500    51.7937  -999.2500
   37.5000    12.6421   -12.7059     0.2527  -999.2500     0.0109    76.8172   -69.8795  -999.2500    19.8293  -999.2500  -999.2500  -999.2500    50.8024  -999.2500
   38.0000    12.6278    -6.8721    -0.0129  -999.2500     0.0121    76.3052   -69.7289  -999.2500     4.4885  -999.2500  -999.2500  -999.2500    49.8505  -999.2500
   38.5000    12.5277    -1.4538    -1.1929  -999.2500     0.0123    77.3189   -69.8795  -999.2500     4.9315  -999.2500  -999.2500  -999.2500    48.8789  -999.2500
   39.0000    12.4552     4.3800    -1.1974  -999.2500     0.0129    79.8171   -69.8795  -999.2500     5.2858  -999.2500  -999.2500  -999.2500    62.6669  -999.2500
   39.5000    12.3977    10.6294    -1.1714  -999.2500     0.0164    83.1367   -70.1807  -999.2500     5.6476  -999.2500  -999.2500  -999.2500    69.4292  -999.2500
   40.0000    12.3104    16.1169    -1.1456  -999.2500     0.0179    86.4005   -69.8795  -999.2500     6.0832  -999.2500  -999.2500  -999.2500    60.7695   231.3622
   40.5000    12.2822    21.9265    -0.9322  -999.2500     0.0197    94.1260   -69.2771  -999.2500     6.4375  -999.2500  -999.2500  -999.2500    52.3470   211.8034
   41.0000    12.2695    35.2324    -0.7075  -999.2500     0.0256   103.1829   -68.0723  -999.2500     6.7919  -999.2500  -999.2500  -999.2500    43.9245   197.4884
   41.5000    12.4817    41.0454    -0.2666  -999.2500     0.0283   116.2293   -65.9639  -999.2500     7.1536  -999.2500  -999.2500  -999.2500    42.9758   186.4336
   42.0000    12.6334    39.3553     0.0760     2.1103     0.0322   120.3917   -63.5542  -999.2500     7.5892     2.2988     4.1425  -999.2500    42.0271   181.4832
   42.5000    12.6955    45.2169     0.0777     2.3013     0.0360   117.3840   -61.7470  -999.2500     7.9435     1.9218     4.4576  -999.2500    56.0538   170.5109
   43.0000    12.7128    43.4783     0.0689     2.3037     0.0345   115.2795   -61.7470  -999.2500     8.2979     2.5722     7.2691  -999.2500    47.6036   147.5407
   43.5000    12.7151    41.4764     0.0436     2.2993     0.0338   114.0799   -61.7470  -999.2500     8.6596     4.9391     9.4140  -999.2500    38.5899   131.7509
   44.0000    12.7329    39.8140     0.0363     2.2957     0.0338   117.4072   -62.0482  -999.2500     9.0952    16.2970    11.5850  -999.2500    30.7175   127.1748
   44.5000    12.7501    38.4183     0.0411     2.2929     0.0329   123.7492   -62.1988  -999.2500     9.4496    17.9727    18.2966  -999.2500    29.5728   126.4161
   45.0000    12.7674    36.4892     0.0503     2.2923     0.0340   122.8513   -61.7470  -999.2500     9.8039    10.7460    20.1530  -999.2500    28.6241   126.1090
   45.5000    12.7697    34.8268     0.0460     2.2954     0.0346   120.1435   -60.8434  -999.2500    10.1657     8.2548    15.0346  -999.2500    20.2016   126.9944
   46.0000    12.7720    33.1644     0.0357     2.2993     0.0342   119.8490   -60.8434  -999.2500    10.6012     7.5426    16.5835  -999.2500    19.2529   128.0320
   46.5000    12.7743    31.6717     0.0516     2.2627     0.0321   120.7629   -63.2530  -999.2500    10.9556     7.2853    17.8901  -999.2500    18.3042   128.7702
   47.0000    12.7766    29.8395     0.0647     2.2500     0.0312   121.3733   -64.1566  -999.2500    11.3099     7.1316    17.5151  -999.2500    17.3555   128.4606
   47.5000    12.7938    28.1771     0.0590     2.2494     0.0321   120.1738   -63.8554  -999.2500    11.6717     7.1849    15.1368  -999.2500    23.9163   128.6000
   48.0000    12.7961    19.0185     0.0532     2.2624     0.0344   116.2326   -59.6386  -999.2500    12.1073     8.4871    11.8707  -999.2500    22.9320   128.9641
   48.5000    12.8134    17.3560     0.0519     2.2595     0.0361   111.1401   -43.9759  -999.2500    12.4616     9.8873    10.1880  -999.2500    29.4572   128.7984
   49.0000    12.8157    15.6936     0.0521     2.2243     0.0373   112.6555   -39.9096  -999.2500    12.8160    11.4387    10.7646  -999.2500    28.4753   128.4820
   49.5000    12.7737    14.0312     0.0508     2.2005     0.0379   113.5676   -39.4578  -999.2500    13.1777    11.6794    11.3749  -999.2500    27.3227   127.0594
   50.0000    12.7012    12.3688     0.0511     2.2156     0.0375   113.5914   -48.4940  -999.2500    13.7889    10.1656    10.3180  -999.2500    18.9002   125.4773
   50.5000    12.6731    10.6822     0.0423     2.2706     0.0366   110.5653   -49.3976  -999.2500    14.9136     9.5500     9.8246  -999.2500    10.4777   125.2425
   51.0000    12.6604     9.0440     0.0080     2.2797     0.0360   111.4792   -48.9458  -999.2500    16.0383     9.4184     9.7528  -999.2500    17.2400   125.2323
   51.5000    12.6633    14.8778     0.0127     2.2768     0.0365   116.3129   -48.4940  -999.2500    17.1630     9.4840     9.8851  -999.2500     8.5803   125.1472
   52.0000    12.5908    20.7117     0.0670     2.2679     0.0380   122.3532   -50.9036  -999.2500    18.2877     9.4840    10.0201  -999.2500     7.6316   124.8375
   52.5000    12.5035    26.1299     0.0687     2.2650     0.0412   127.7903   -56.9277  -999.2500    19.4124     9.6166    10.0151  -999.2500     6.6830   123.7045
   53.0000    12.4758    24.4675     0.0594     2.2741     0.0493   127.4974   -55.1205  -999.2500    20.5371     9.6835    10.0102  -999.2500     5.7343   121.1493
   53.5000    12.4782    22.8051     0.0482     2.3097     0.0622   128.1079   -49.2470  -999.2500    21.6618     9.6166    10.0062  -999.2500   -10.2392   121.1347
   54.0000    12.4955    28.6389     0.0439     2.3435     0.0853   128.7183   -47.8916  -999.2500    22.7865     9.4840     9.9342  -999.2500   -18.6099   121.2844
   54.5000    12.5127    16.4665     0.0321     2.3495     0.0975   126.2888   -48.7952  -999.2500    23.9112     9.3532     9.9984  -999.2500   -19.7704   121.8752
   55.0000    12.5305    23.0873     0.0023     2.3369     0.1062   122.3995   -49.6988  -999.2500    25.0359     9.2243     9.7210  -999.2500   -20.7191   121.9316
   55.5000    12.5328    29.1604    -0.0036     2.3325     0.1482   119.3901   -41.8675  -999.2500    26.1606     8.9717     9.4507  -999.2500   -21.6678   121.8440
   56.0000    12.5201    27.9571     0.0087     2.3386     0.1839   118.4922   -23.4940  -999.2500    27.2853     8.8481     9.1252  -999.2500   -22.6164   121.1601
