~VERSION INFORMATION
 VERS.                2.0:   CWLS LOG ASCII STANDARD - VERSION 2.0
 WRAP.                 NO:   ONE LINE PER DEPTH STEP
~WELL INFORMATION
#MNEM.UNIT      DATA TYPE    INFORMATION
#----------   ------------   ------------------------------
 STRT.F          200.0000:   START DEPTH
 STOP.F         3000.0000:   STOP DEPTH
 STEP.F            0.5000:   STEP LENGTH
 NULL.          -999.2500:   NO VALUE
 COMP.    FENIX & SCISSON:   COMPANY
 WELL.   FENIX "A" #65-28:   WELL
 FLD .              NPR 3:   FIELD
 LOC .      S28 T39N R78W:   LOCATION
 CNTY.            NATRONA:   COUNTY
 STAT.            WYOMING:   STATE
 CTRY. UNITED STATES OF AMERICA:   COUNTRY
 SRVC.              WELEX:   SERVICE COMPANY
 DATE.        25-JUL-1977:   LOGDATE
 API .     49025104010000:   API NUMBER
~CURVE INFORMATION
#MNEM.UNIT       API CODE    CURVE DESCRIPTION
#----------   ------------   ------------------------------
 DEPT.F                  :   
 GRD .GAPI   45 310 01 00:   GAMMA RAY FROM DENSITY LOG
 CALD.IN     45 280 60 00:   CALIPER FROM DENSITY LOG
 RHOB.G/C3   45 350 01 00:   BULK DENSITY
 DCOR.G/C3   45 356 01 00:   DENSITY CORRECTION
 SPR .MV     07 010 01 00:   SPONTANEOUS POTENTIAL
 RILM.OHMM   07 120 44 00:   INDUCTION LOG MEDIUM RESISTIVITY
 RILD.OHMM   07 120 46 00:   DEEP INDUCTION RESISTIVITY
 SGRD.OHMM   07 220 05 00:   SHALLOW GUARD
~PARAMETER INFORMATION
#MNEM.UNIT          VALUE    DESCRIPTION
#----------   ------------   ------------------------------
 EKB .F         5069.0000:   Kelly bushing
 EGL .F         5059.0000:   Ground level
 EDF .F            0.0000:   Drilling floor
 TD  .F         3006.0000:   Total depth
 DATE.        25-JUL-1977:   Date logged
 CLNT.            A2DTECH:   Client Code
 SL  . 2310' FSL & 1650' FEL:   Surface Location
 PD  .                 GL:   Permanent Datum
 EPD .F              5059:   Elevation Permanent Datum
 LMF .                 KB:   Log Measured From
 DMF .                 KB:   Drilling Measured From
 DAPD.F                10:   Feet Above Permanent Datum
 DD  .F              3006:   Depth driller
 DL  .F              3006:   Depth logger
 BLI .F              3004:   Bottom log interval
 TLI .F               200:   Top log interval
 CS1 .IN            8.625:   Casing size
 CBD1.      8.625" @ 205':   Casing driller 1
 CBL1.F               220:   Casing logger 1
 BS1 .IN            7.875:   Bit size
 BSD1.F              3006:   Depth drilled with bit1
 DFT .            KCL MUD:   Type fluid in hole
 DFD .                8.9:   Density
 DFV .                 39:   Viscosity
 DFPH.                7.5:   pH
 DFL .                7.2:   Fluid loss
 MSS .           FLOWLINE:   Source of sample
 RMS .OHMM           0.29:   Rm
 MST .F                78:   Rm Meas. temp.
 RMF .OHMM           0.19:   Rmf
 MFST.F                78:   Rmf Meas. temp.
 RMC .OHMM           0.80:   Rmc
 MCST.F                78:   Rmc Meas. temp.
 MFSS.               FANN:   Source Rmf.
 MCSS.                KIT:   Source Rmc.
 RMB .OHMM           0.20:   Rm. at BHT
 BHT .F               113:   BHT.
 TCS .HRS               3:   Time Circ. stopped
 MRT .F               113:   Maximum recorded temp.
 LUN .               8766:   Logging unit number
 LUL .             CASPER:   Logging unit location
 ENGI.         G. BENTSEN:   Recorded By
 WITN.      B. HARRINGTON:   Witnessed by
 ORIG.           5" PRINT:   Origin of data
 UWI .     49025104010000:   Unique Well ID
 DICO. A2D TECHNOLOGIES, INC.:   Digitizing Company
~OTHER INFORMATION
~A   DEPT       GRD        CALD       RHOB      DCOR       SPR       RILM         RILD       SGRD 
  200.0000    74.0480     9.0960     1.5470    -0.4330  -999.2500  -999.2500     7.5430     0.2080
  200.5000    74.0480     9.0660     1.5470    -0.4330  -999.2500  -999.2500     7.5430     0.2080
  201.0000    76.3280     9.0790     1.5220    -0.4370  -999.2500  -999.2500     7.5430     0.2080
  201.5000    77.4060     9.1080     1.5030    -0.4420  -999.2500  -999.2500     7.5900     0.2080
  202.0000    76.4620     9.1170     1.4520    -0.4490  -999.2500  -999.2500     7.5430     0.2080
  202.5000    75.3190     9.0780     1.4210    -0.4530  -999.2500  -999.2500     7.5440     0.2080
  203.0000    75.0650     9.1020     1.3990    -0.4530  -999.2500  -999.2500     7.5430     0.2080
  203.5000    74.6510     9.1020     1.3760    -0.4530  -999.2500  -999.2500     7.5430     0.2080
  204.0000    73.5480     9.0720     1.3490    -0.4590  -999.2500  -999.2500     7.6830     0.2100
  204.5000    72.2210     9.1320     1.3260    -0.4660  -999.2500  -999.2500     7.8970     0.2100
  205.0000    70.7480     9.0860     1.3120    -0.4750  -999.2500  -999.2500     7.9580     0.2080
  205.5000    69.4460     9.1730     1.3020    -0.4920  -999.2500  -999.2500     8.0240     0.2070
  206.0000    68.6130     9.1260     1.2920    -0.5080  -999.2500  -999.2500     8.0900     0.2050
  206.5000    69.0050     9.0780     1.2790    -0.5400  -999.2500  -999.2500     8.1560     0.2050
  207.0000    68.0930     9.1410     1.2670    -0.5660  -999.2500  -999.2500     8.2220     0.2050
  207.5000    68.6000     9.1370     1.2600    -0.5850  -999.2500  -999.2500     8.2670     0.2050
  208.0000    70.0580     9.1100     1.2740    -0.5950  -999.2500  -999.2500     8.0560     0.2050
  208.5000    71.4400     9.1040     1.2890    -0.5780  -999.2500  -999.2500     7.8970     0.2050
  209.0000    72.4650     9.1170     1.2960    -0.5740  -999.2500  -999.2500     7.7380     0.2050
  209.5000    71.8470     9.1350     1.3000    -0.5700  -999.2500  -999.2500     7.5800     0.2050
  210.0000    72.5760     9.0080     1.3080    -0.5580  -999.2500  -999.2500     7.4750     0.2050
  210.5000    74.0620     8.8250     1.3180    -0.5510  -999.2500  -999.2500     7.6640     0.2050
  211.0000    75.5360     8.8520     1.3270    -0.5420  -999.2500  -999.2500     7.8050     0.2060
  211.5000    77.0770     8.8440     1.3410    -0.5290  -999.2500  -999.2500     7.8970     0.2060
  212.0000    77.4540     8.8020     1.3550    -0.5200  -999.2500  -999.2500     8.0430     0.2060
  212.5000    77.2410     8.8270     1.3790    -0.5070  -999.2500  -999.2500     8.1970     0.2060
  213.0000    77.2250     8.8660     1.4040    -0.4890  -999.2500  -999.2500     8.3510     0.2070
  213.5000    78.2480     8.8660     1.4290    -0.4710  -999.2500  -999.2500     8.7490     0.2070
  214.0000    79.3570     8.8590     1.4580    -0.4440  -999.2500  -999.2500   165.8780     0.2060
  214.5000    80.4720     8.9150     1.4940    -0.4050  -999.2500  -999.2500   373.9440     0.2090
  215.0000    81.6930     8.8790     1.5300    -0.3670  -999.2500  -999.2500   582.0090     0.2090
  215.5000    81.8660     9.0540     1.5790    -0.3280  -999.2500  -999.2500   790.0750     0.2090
  216.0000    81.8640     9.4770     1.6400    -0.2890  -999.2500  -999.2500   998.1400     0.2090
  216.5000    81.8710     9.2560     1.7080    -0.2380  -999.2500  -999.2500  1206.2050     0.2090
  217.0000    82.2810     9.3230     1.7740    -0.1510  -999.2500  -999.2500  1414.2710     0.2100
  217.5000    82.8550     9.2620     1.8910    -0.0460  -999.2500  -999.2500  1622.3361     0.2100
  218.0000    84.3580     9.5840     2.0020     0.0590  -999.2500  -999.2500  1830.4010     0.2100
  218.5000    83.9620    10.4590     2.1140     0.1030  -999.2500  -999.2500  1936.9280     0.2160
  219.0000    83.9670    11.2810     2.1750     0.0840  -999.2500  -999.2500  1791.4200     0.2620
  219.5000    84.9650    12.1600     2.2540     0.0620  -999.2500  -999.2500  1538.2970     0.5510
  220.0000    84.9530    12.6930     2.3290     0.0580  -999.2500  -999.2500  1285.1740     0.9100
  220.5000    83.9130    13.1090     2.3660     0.0570  -999.2500  -999.2500   493.6440     1.6430
  221.0000    83.4670    13.1750     2.3810     0.0580  -999.2500  -999.2500     1.4920     2.4020
  221.5000    82.8330    13.2480     2.3970     0.0550  -999.2500     2.1920     1.0520     2.5550
  222.0000    82.4450    13.3200     2.4210     0.0480  -999.2500     3.0500     0.6060     2.6810
  222.5000    82.0790    13.3640     2.4370     0.0480    -0.4940     4.2760     0.4660     2.0750
  223.0000    82.4040    13.4070     2.4440     0.0490    -2.8040     4.2720     0.4090     2.5660
  223.5000    81.6750    13.4500     2.4450     0.0450    -4.9040     4.5590     0.3740     3.6240
  224.0000    81.1610    13.4930     2.4410     0.0420    -6.6540     4.5180     0.5820     4.6860
  224.5000    80.5800    13.5360     2.4370     0.0440    -8.2720     4.6490     0.8370     4.8170
  225.0000    79.8100    13.5800     2.4330     0.0390    -9.4050     4.8150     1.0930     4.7290
  225.5000    79.1790    13.6230     2.4250     0.0380   -10.2660     4.9800     2.9150     4.9060
  226.0000    78.9310    13.6660     2.4170     0.0350   -11.1420     5.1460     5.1830     5.1830
  226.5000    79.0950    13.7090     2.4080     0.0300   -11.7130     5.3110     5.5830     5.3760
  227.0000    79.7030    13.7540     2.4020     0.0290   -12.2060     5.4750     5.9820     5.2780
  227.5000    80.3800    13.7900     2.3990     0.0280   -12.6960     5.8720     6.3810     5.0890
  228.0000    82.0630    13.8250     2.3980     0.0300   -13.1790     6.2650     7.1720     5.2010
  228.5000    80.7910    13.8600     2.3980     0.0340   -13.6280     6.5160     8.1170     5.2890
  229.0000    79.2760    13.8970     2.3990     0.0360   -13.6340     6.1180     7.8280     5.3760
  229.5000    80.7400    13.9130     2.4050     0.0350   -13.4700     5.7260     7.3580     4.9930
  230.0000    79.7730    13.9230     2.4120     0.0340   -13.1950     5.3760     6.7950     4.6500
  230.5000    77.9030    13.9320     2.4230     0.0380   -12.9370     4.9760     6.2240     4.3080
  231.0000    78.4770    13.9420     2.4400     0.0420   -12.7300     4.6860     6.1220     3.9740
  231.5000    79.8470    13.9520     2.4510     0.0440   -13.2540     4.6010     6.0220     3.9380
  232.0000    80.9010    13.9620     2.4510     0.0460   -15.4140     4.9880     5.9220     4.2980
  232.5000    79.9600    13.9710     2.4510     0.0450   -17.5840     5.3040     5.7840     4.5910
  233.0000    79.1300    13.9810     2.4580     0.0480   -18.3130     5.6200     5.8270     4.8750
  233.5000    79.8970    13.9860     2.4650     0.0540   -18.8260     5.9360     5.8910     5.1280
  234.0000    80.5490    13.9860     2.4700     0.0550   -19.5190     6.2520     6.1000     5.3800
  234.5000    78.2170    13.9860     2.4660     0.0550   -20.0880     6.5680     6.3010     5.6330
  235.0000    77.4080    13.9860     2.4590     0.0510   -20.6590     6.8830     6.5030     5.8850
  235.5000    76.6980    13.9860     2.4580     0.0480   -21.2280     7.1990     6.7040     6.1380
  236.0000    75.8580    13.9860     2.4620     0.0540   -21.7960     7.5150     6.9060     6.3900
  236.5000    76.9890    13.9860     2.4660     0.0540   -22.3640     7.7680     7.1070     6.6430
  237.0000    78.3410    13.9860     2.4690     0.0590   -22.9310     7.8250     7.3390     6.8840
  237.5000    77.9350    13.9640     2.4660     0.0630   -23.4910     7.7180     7.2260     6.6710
  238.0000    76.9020    13.9340     2.4680     0.0580   -24.1060     7.5270     7.0310     6.4680
  238.5000    76.7650    13.9040     2.4670     0.0580   -25.5980     7.2870     6.8250     6.2650
  239.0000    78.5600    13.8730     2.4640     0.0560   -27.0590     7.0470     6.6190     6.0620
  239.5000    78.4990    13.8430     2.4630     0.0570   -28.5810     6.8210     6.4130     5.8590
  240.0000    76.9880    13.8120     2.4670     0.0590   -29.3500     6.7400     6.2070     5.6280
