~VERSION INFORMATION
 VERS.                2.0:   CWLS LOG ASCII STANDARD - VERSION 2.0
 WRAP.                 NO:   ONE LINE PER DEPTH STEP
~WELL INFORMATION
#MNEM.UNIT      DATA TYPE    INFORMATION
#----------   ------------   ------------------------------
 STRT.F          206.0000:   START DEPTH
 STOP.F         3080.5000:   STOP DEPTH
 STEP.F            0.5000:   STEP LENGTH
 NULL.          -999.2500:   NO VALUE
 COMP.    FENIX & SCISSON:   COMPANY
 WELL.   FENIX "A" #61-28:   WELL
 FLD .           N P R #3:   FIELD
 LOC .      S28 T39N R78W:   LOCATION
 CNTY.            NATRONA:   COUNTY
 STAT.            WYOMING:   STATE
 CTRY. UNITED STATES OF AMERICA:   COUNTRY
 SRVC.        SCHLUMBEGER:   SERVICE COMPANY
 DATE.        16-MAY-1977:   LOGDATE
 API .     49025103680000:   API NUMBER
~CURVE INFORMATION
#MNEM.UNIT       API CODE    CURVE DESCRIPTION
#----------   ------------   ------------------------------
 DEPT.F                  :   
 SPR .MV     07 010 01 00:   SPONTANEOUS POTENTIAL
 LL8 .OHMM   07 220 08 00:   LATEROLOG-8 RES.
 ILM .OHMM   07 120 44 00:   INDUCTION LOG MEDIUM RESISTIVITY
 ILD .OHMM   07 120 46 00:   DEEP INDUCTION RESISTIVITY
 CALD.IN     45 280 60 00:   CALIPER FROM DENSITY LOG
 GRD .GAPI   45 310 01 00:   GAMMA RAY FROM DENSITY LOG
 RHOB.G/C3   45 350 01 00:   BULK DENSITY
 CORR.G/C3   45 356 01 00:   DENSITY CORRECTION
~PARAMETER INFORMATION
#MNEM.UNIT          VALUE    DESCRIPTION
#----------   ------------   ------------------------------
 EKB .F         5019.0000:   Kelly bushing
 EGL .F         5009.0000:   Ground level
 EDF .F            0.0000:   Drilling floor
 TD  .F         3050.0000:   Total depth
 DATE.        16-MAY-1977:   Date logged
 CLNT.            A2DTECH:   Client Code
 SL  . 330' FNL & 1650' FEL:   Surface Location
 PD  .                 GL:   Permanent Datum
 DD  .F              3050:   Depth driller
 DL  .F              3079:   Depth logger
 BLI .F              3072:   Bottom log interval
 CS1 .IN            8.625:   Casing size
 CBD1.      8.625" @ 213':   Casing driller 1
 CBL1.F               213:   Casing logger 1
 BS1 .IN            7.875:   Bit size
 DFT .            KCL-MUD:   Type fluid in hole
 DFD .                9.2:   Density
 DFV .                 32:   Viscosity
 DFPH.                  8:   pH
 DFL .                7.6:   Fluid loss
 MSS .              CIRC.:   Source of sample
 RMS .OHMM          0.128:   Rm
 MST .F                62:   Rm Meas. temp.
 RMF .OHMM          0.126:   Rmf
 MFST.F                62:   Rmf Meas. temp.
 RMC .OHMM          0.192:   Rmc
 MCST.F                62:   Rmc Meas. temp.
 MFSS.               MEAS:   Source Rmf.
 RMB .OHMM           0.07:   Rm. at BHT
 BHT .F               112:   BHT.
 TCS .HRS            0900:   Time Circ. stopped
 MRT .F               112:   Maximum recorded temp.
 LUN .               7711:   Logging unit number
 LUL .               CSPR:   Logging unit location
 ENGI.             SAYLER:   Recorded By
 WITN.         PETTINGILL:   Witnessed by
 ORIG.           5" PRINT:   Origin of data
 UWI .     49025103680000:   Unique Well ID
 DICO. A2D TECHNOLOGIES, INC.:   Digitizing Company
 DAPD.                 10:   Feet Above Permanent Datum
 BSD1.               3050:   Depth drilled with bit1
 MCSS.               CALC:   Source Rmc.
 EPD .F              5009:   Elevation Permanent Datum
 LMF .                 KB:   Log Measured From
 DMF .                 KB:   Drilling Measured From
 TLI .F               213:   Top log interval
 TLAB.               1100:   Time logger at bottom
~OTHER INFORMATION
~A   DEPT      SPR        LL8        ILM        ILD       CALD         GRD      RHOB       CORR   
# ...
 2474.0000   -46.9980     7.1410     6.1180     5.9280     9.2400   143.9770     2.5160     0.0020
 2474.5000   -46.9730     7.1270     6.2000     5.9850     9.2390   140.8410     2.5260     0.0020
 2475.0000   -46.9470     7.1130     6.2820     6.0540     9.2370   141.0080     2.5300     0.0040
 2475.5000   -46.9200     7.0990     6.3980     6.1670     9.2370   141.3600     2.5340     0.0050
 2476.0000   -46.8940     7.0850     6.3710     6.1670     9.2370   137.8710     2.5380     0.0020
 2476.5000   -46.8680     7.0710     6.3260     6.1260     9.2370   132.3190     2.5380    -0.0030
 2477.0000   -46.8410     7.0560     6.2810     6.0750     9.2370   126.7560     2.5300    -0.0080
 2477.5000   -46.8150     7.0420     6.2360     6.0230     9.2360   121.7500     2.5230    -0.0140
 2478.0000   -46.7890     7.0280     6.1910     5.9710     9.2350   124.8720     2.5160    -0.0060
 2478.5000   -46.7620     7.0140     6.1460     5.9200     9.2340   129.7130     2.5160     0.0000
 2479.0000   -46.7360     6.8370     6.1010     5.8680     9.2330   134.6070     2.5250     0.0000
 2479.5000   -46.7100     6.6370     6.0560     5.8170     9.2310   138.0860     2.5340     0.0100
 2480.0000   -46.6830     6.6910     6.0110     5.7290     9.2300   139.1130     2.5430     0.0120
 2480.5000   -46.6570     6.7600     5.9440     5.8360     9.2290   140.6120     2.5490     0.0120
 2481.0000   -46.6310     6.7600     6.0730     5.8360     9.2280   142.5010     2.5510     0.0110
 2481.5000   -46.6040     6.7600     6.3260     6.0910     9.2270   142.2270     2.5410     0.0100
 2482.0000   -46.5780     6.8860     6.5790     6.3220     9.2260   141.0800     2.5300     0.0080
 2482.5000   -46.5510     7.4160     6.8310     6.5520     9.2250   140.1710     2.5200     0.0030
 2483.0000   -46.5250     7.9020     7.0840     6.7830     9.2240   140.1170     2.5130    -0.0010
 2483.5000   -46.4990     8.3890     7.3370     7.0140     9.2230   139.6700     2.5220     0.0020
 2484.0000   -46.4720     8.8760     7.5900     7.2450     9.2220   137.7250     2.5250     0.0020
 2484.5000   -46.4460     9.2760     7.8430     7.4760     9.2210   135.4710     2.5260     0.0000
 2485.0000   -46.4200     9.4120     8.0960     7.7060     9.2200   135.6970     2.5370     0.0090
 2485.5000   -46.3930     9.3450     8.3490     7.9370     9.2190   135.6460     2.5470     0.0160
 2486.0000   -46.3670     9.2400     8.6020     8.1680     9.2180   132.2110     2.5530     0.0130
 2486.5000   -46.3410     9.1340     8.8550     8.3990     9.2190   128.4080     2.5520     0.0090
 2487.0000   -46.3150     9.0720     9.1080     8.6300     9.2210   124.5740     2.5500     0.0060
 2487.5000   -46.2880     9.7660     9.4120     8.9070     9.2230   121.4050     2.5480     0.0020
 2488.0000   -46.2610    12.5370     9.2550     8.9070     9.2250   119.0950     2.5460     0.0100
 2488.5000   -46.2370    15.1800     9.0590     8.9070     9.2270   116.7790     2.5450     0.0090
 2489.0000   -46.2040    14.4240     8.8630     8.6790     9.2300   114.4910     2.5370     0.0040
 2489.5000   -46.2500    12.4290     8.6670     8.5060     9.2320   113.4390     2.5330     0.0050
 2490.0000   -46.3440    10.4340     8.4710     8.3320     9.2340   115.5270     2.5400     0.0110
 2490.5000   -46.4290     8.5850     8.2750     8.1590     9.2360   121.9330     2.5390     0.0120
 2491.0000   -46.5140     8.6240     8.0780     7.9850     9.2390   127.2970     2.5400     0.0130
 2491.5000   -46.6010     8.7330     7.8820     7.8120     9.2410   129.0660     2.5460     0.0110
 2492.0000   -46.6860     8.8430     7.6860     7.6380     9.2430   131.5370     2.5520     0.0140
 2492.5000   -46.7720     8.9530     7.4900     7.4650     9.2450   136.1620     2.5580     0.0180
 2493.0000   -46.8580     9.0720     7.2760     7.2760     9.2480   137.8920     2.5530     0.0140
 2493.5000   -46.9440     8.7560     7.2860     7.2760     9.2500   137.6090     2.5460     0.0050
 2494.0000   -47.0300     8.4600     7.3050     7.2360     9.2520   138.1340     2.5430     0.0040
 2494.5000   -47.1160     8.1640     7.3230     7.1990     9.2540   138.5040     2.5470     0.0060
 2495.0000   -47.2020     7.8310     7.3420     7.1630     9.2570   137.1070     2.5430     0.0070
 2495.5000   -47.2880     7.8310     7.3610     7.1440     9.2570   135.5510     2.5370     0.0030
 2496.0000   -47.3730     7.8310     7.3800     7.1460     9.2570   133.6400     2.5230    -0.0010
 2496.5000   -47.4600     7.9770     7.3980     7.1540     9.2570   134.9660     2.5240    -0.0030
 2497.0000   -47.5440     8.0570     7.4170     7.1630     9.2570   138.3330     2.5350     0.0010
 2497.5000   -47.6330     8.1810     7.4360     7.1710     9.2570   142.0350     2.5400     0.0060
 2498.0000   -47.7160     8.2760     7.4550     7.1800     9.2570   143.3700     2.5380     0.0100
 2498.5000   -47.7910     8.2360     7.4740     7.1880     9.2570   140.5800     2.5430     0.0140
 2499.0000   -47.7220     8.1430     7.4920     7.1960     9.2570   137.9220     2.5470     0.0100
 2499.5000   -47.6520     8.0510     7.5260     7.2050     9.2570   136.3470     2.5420     0.0040
 2500.0000   -47.5760     7.9770     7.5210     7.2130     9.2570   135.6580     2.5370    -0.0020
 2500.5000   -47.5040     8.2780     7.5490     7.2220     9.2690   134.9950     2.5320    -0.0010
 2501.0000   -47.4300     8.5850     7.4090     7.2300     9.2800   133.9360     2.5350     0.0020
 2501.5000   -47.3570     8.5390     7.4350     7.2380     9.2910   131.6140     2.5380     0.0050
 2502.0000   -47.2830     8.4120     7.4510     7.2470     9.3020   129.3490     2.5260     0.0090
 2502.5000   -47.2110     8.2860     7.4630     7.2550     9.3140   127.2950     2.5250     0.0120
 2503.0000   -47.1350     8.1600     7.4750     7.2640     9.3250   125.6660     2.5280     0.0080
 2503.5000   -47.0640     8.2620     7.4900     7.2780     9.3360   124.8600     2.5250     0.0030
 2504.0000   -47.0100     8.5850     7.5050     7.2740     9.3450   126.3000     2.5290     0.0040
 2504.5000   -47.1090     8.5370     7.5190     7.2350     9.3550   129.6000     2.5380     0.0070
 2505.0000   -47.1970     8.3750     7.5320     7.2000     9.3640   130.9740     2.5360     0.0100
 2505.5000   -47.2930     8.2120     7.5490     7.1620     9.3740   127.8930     2.5330     0.0110
 2506.0000   -47.3850     8.1250     7.4610     7.1440     9.3780   126.1720     2.5280     0.0070
 2506.5000   -47.4780     8.3230     7.3590     7.1440     9.3790   125.9920     2.5250     0.0050
 2507.0000   -47.5710     8.4290     7.2580     7.0510     9.3810   127.4030     2.5390     0.0090
 2507.5000   -47.6640     8.3240     7.1560     6.9420     9.3830   129.1160     2.5520     0.0140
 2508.0000   -47.7570     7.8510     7.0550     6.8320     9.3840   130.9730     2.5520     0.0170
 2508.5000   -47.8500     7.3790     6.9530     6.7220     9.3860   133.1700     2.5470     0.0120
 2509.0000   -47.9420     6.9070     6.8520     6.6130     9.3880   136.5610     2.5420     0.0070
 2509.5000   -48.0360     6.5160     6.7500     6.5030     9.3890   138.9390     2.5370     0.0120
 2510.0000   -48.1290     7.8310     6.6480     6.3930     9.3910   138.3220     2.5320     0.0160
 2510.5000   -48.1970     7.6060     6.5470     6.2830     9.3930   137.6470     2.5260     0.0100
 2511.0000   -48.1440     7.2000     6.4450     6.1670     9.3940   137.3880     2.5190     0.0020
 2511.5000   -48.0800     6.7940     6.3360     6.1080     9.3960   138.5750     2.5130    -0.0040
 2512.0000   -48.0120     6.5160     6.2210     6.0450     9.4060   141.3840     2.5150     0.0000
 2512.5000   -47.9470     7.0140     6.1050     5.9820     9.4180   143.7380     2.5220     0.0050
 2513.0000   -47.8800     6.6980     5.9890     5.9190     9.4310   144.2770     2.5250     0.0090
 2513.5000   -47.8140     6.2450     5.8360     5.8360     9.4430   143.3350     2.5230     0.0070
 2514.0000   -47.7480     5.7290     5.9500     5.8810     9.4560   142.1550     2.5220     0.0040
