~VERSION INFORMATION
 VERS.                2.0:   CWLS LOG ASCII STANDARD - VERSION 2.0
 WRAP.                 NO:   ONE LINE PER DEPTH STEP
~WELL INFORMATION
#MNEM.UNIT      DATA TYPE    INFORMATION
#----------   ------------   ------------------------------
 STRT.F           10.0000:   START DEPTH
 STOP.F         3234.0000:   STOP DEPTH
 STEP.F            0.5000:   STEP LENGTH
 NULL.          -999.2500:   NO VALUE
 COMP. LAWRENCE ALLISON & ASSOSCIATES:   COMPANY
 WELL. 		  38-X-10:   WELL
 FLD .             NPR #3:   FIELD
 LOC .      S10 T38N R78W:   LOCATION
 CNTY.            NATRONA:   COUNTY
 STAT.            WYOMING:   STATE
 CTRY. UNITED STATES OF AMERICA:   COUNTRY
 SRVC.      DRESSER ATLAS:   SERVICE COMPANY
 DATE.        02-AUG-1986:   LOGDATE
 API .       490251120600:   API NUMBER
~CURVE INFORMATION
#MNEM.UNIT       API CODE    CURVE DESCRIPTION
#----------   ------------   ------------------------------
 DEPT.F                  :   
 GRR .GAPI   07 310 01 00:   GAMMA RAY FROM RESISTIVITY
 SPR .MV     07 010 01 00:   SPONTANEOUS POTENTIAL
 TENR.LBS    07 635 01 00:   TENSION FROM RESISTIVITY
 RILM.OHMM   07 120 44 00:   RESISTIVITY INDUCTION LOG MEDIUM
 CNC .DEC    42 890 03 00:   NEUTRON POROSITY SANDSTONE
 CALD.IN     45 280 60 00:   CALIPER FROM DENSITY LOG
 GRD .GAPI   45 310 01 00:   GAMMA RAY FROM DENSITY LOG
 RHOB.G/C3   45 350 01 00:   BULK DENSITY
 TEND.LBS    45 635 01 00:   TENSION FORM DENSITY LOG
 CORR.G/C3   45 356 01 00:   DENSITY CORRECTION
 RILD.OHMM   07 120 46 00:   RESISTIVITY INDUCTION LOG DEEP
 RFOC.OHMM   07 220 04 00:   RESISTIVITY FOCUSED
~PARAMETER INFORMATION
#MNEM.UNIT          VALUE    DESCRIPTION
#----------   ------------   ------------------------------
 EKB .F         5224.0000:   Kelly bushing
 EGL .F         5212.0000:   Ground level
 EDF .F            0.0000:   Drilling floor
 TD  .F         3231.0000:   Total depth
 CLNT.            A2DTECH:   Client Code
 SL  . 296' FSL & 1435' FWL:   Surface Location
 PD  .                 GL:   Permanent Datum
 EPD .F              5212:   Elevation Permanent Datum
 LMF .                 KB:   Log Measured From
 DMF .                 KB:   Drilling Measured From
 DAPD.F                12:   Feet Above Permanent Datum
 DATE.        02-AUG-1986:   Date Logged [DD-MMM-YYYY]
 DD  .F              3230:   Depth driller
 DL  .F              3231:   Depth logger
 BLI .F              3229:   Bottom log interval
 TLI .F                11:   Top log interval
 CS1 .IN            8.625:   Casing size
 CBD1.      8.625" @ 626':   Casing driller 1
 CBL1.F               626:   Casing logger 1
 BS1 .IN            7.875:   Bit size
 BSD1.F              3230:   Depth drilled with bit1
 DFT .            KCL-GEL:   Type fluid in hole
 DFD .                  9:   Density
 DFV .                 36:   Viscosity
 DFPH.               10.5:   pH
 DFL .                 12:   Fluid loss
 MSS .           FLOWLINE:   Source of sample
 RMS .OHMM          0.263:   Rm
 MST .F               100:   Rm Meas. temp.
 RMF .OHMM          0.197:   Rmf
 MFST.F               100:   Rmf Meas. temp.
 MFSS.               MEAS:   Source Rmf.
 RMC .OHMM          0.329:   Rmc
 MCST.F               100:   Rmc Meas. temp.
 MCSS.               CALC:   Source Rmc.
 RMB .OHMM          0.193:   Rm. at BHT
 BHT .F               136:   BHT.
 TCS .HRS               5:   Time Circ. stopped
 MRT .F               136:   Maximum recorded temp.
 LUN .            HL-6274:   Logging unit number
 LUL .           GILLETTE:   Logging unit location
 ENGI.            PANASUK:   Recorded By
 WITN.             STRONG:   Witnessed by
 ORIG.        2" 5" PRINT:   Origin of data
 UWI .       490251120600:   Unique Well ID
 DICO. A2D TECHNOLOGIES, INC.:   Digitizing Company
~OTHER INFORMATION
~A   DEPT       GRR       SPR       TENR       RILM        CNC       CALD        GRD       RHOB       TEND       CORR       RILD       RFOC   
# ...
 2670.0000   120.1819   -38.0915   -25.4254     6.5429     0.2444    10.0908   121.9365     2.5198   -22.5903    -0.0092     6.6791     7.7000
 2670.5000   121.9965   -38.1002   -20.3142     6.4975     0.2576    10.0909   122.2390     2.5327   -22.7410     0.0150     6.6318     7.5929
 2671.0000   121.3875   -37.9574   -20.2417     6.4975     0.2593    10.0911   120.7262     2.5365   -22.8916     0.0059     6.6309     7.5924
 2671.5000   119.2633   -37.9683   -20.1662     6.4975     0.2550    10.0761   117.0953     2.5327   -23.0422    -0.0001     6.6300     7.5919
 2672.0000   116.2301   -37.9770   -20.0786     6.4975     0.2456    10.0611   115.8850     2.5305   -23.2048     0.0045     6.6289     7.6980
 2672.5000   115.4546   -37.9857   -27.5770     6.5429     0.2402    10.0613   116.7927     2.5358   -30.8795     0.0302     6.6746     7.8056
 2673.0000   116.2243   -37.9944   -42.5922     6.6346     0.2371    10.0614   118.3056     2.5434   -31.0241     0.0514     6.6735     7.9699
 2673.5000   117.7358   -38.0031   -65.1782     6.6810     0.2385    10.0767   119.5159     2.5510   -23.6386     0.0514     6.7195     8.1379
 2674.0000   119.2480   -37.8603   -65.1058     6.6810     0.2489    10.0769   120.1210     2.5548   -23.8193     0.0499     6.7654     8.3674
 2674.5000   120.4572   -38.0227   -41.1128     6.6342     0.2553    10.0770   119.8185     2.5578   -16.3976     0.0514     6.8118     8.2508
 2675.0000   120.7581   -38.1829   -19.6254     6.5353     0.2514    10.0772   120.7262     2.5654   -16.5783     0.0560     6.6622     8.0795
 2675.5000   120.4514   -38.3431   -12.0000     6.3632     0.2504    10.0622   120.4236     2.5760   -16.7229     0.0590     6.5308     7.9671
 2676.0000   120.1454   -38.5033    -4.3746     6.2317     0.2559    10.0321   119.2133     2.5814   -24.3976     0.0560     6.4395     7.9112
 2676.5000   119.4983   -38.5121    10.8036     6.1455     0.2638     9.9566   118.6082     2.5784   -15.7630     0.0424     6.3053     7.8557
 2677.0000   119.3151   -38.3693    18.4290     6.1029     0.2671     9.8508   121.0287     2.5708    20.4940     0.0288     6.2607     7.7464
 2677.5000   121.3481   -38.2264    18.5196     6.0605     0.2686     9.8510   124.0545     2.5547    27.8795     0.0243     6.1732     7.5241
 2678.0000   124.6785   -38.2373    11.0212     6.0185     0.2659     9.9117   125.5673     2.5489     5.1084     0.0258     6.0868     7.2741
 2678.5000   126.4945   -38.0923    -4.0121     6.0185     0.2592     9.9723   124.9622     2.5482   -17.6265     0.0183     6.0435     7.1231
 2679.0000   124.6727   -38.1032   -19.0453     5.9767     0.2498     9.9573   121.9241     2.5459   -25.3012     0.0062     6.0007     7.2732
 2679.5000   122.2172   -37.9470   -26.5106     5.9767     0.2441     9.9272   119.5159     2.5346   -17.9157    -0.0029     5.9583     7.4264
 2680.0000   119.5146   -37.6661   -18.8822     5.9767     0.2428     9.9123   118.6082     2.5262   -10.5302    -0.0044     5.9575     7.5829
 2680.5000   118.6026   -37.3739   -18.7916     5.8941     0.2419     9.9275   118.9107     2.5279     4.3494     0.0183     5.9153     7.6888
 2681.0000   118.9034   -37.0774   -11.1662     5.8532     0.2407     9.9428   120.4236     2.5339    11.7349     0.0531     5.9125     7.7421
 2681.5000   120.1119   -36.7831   -11.0937     5.7322     0.2416     9.9581   120.4329     2.5332    11.5904     0.0577     5.8316     7.7415
 2682.0000   121.6241   -36.4909    -3.4683     5.6138     0.2519     9.9583   119.3711     2.5302    26.5061     0.0305     5.7101     7.7410
 2682.5000   119.5000   -36.1966    -3.3958     5.4217     0.2606     9.9584   117.7005     2.5287    35.1406    -0.0073     5.6303     7.6867
 2683.0000   117.3032   -35.7530     4.2296     5.3467     0.2622     9.9132   117.7005     2.5280    41.2771    -0.0164     5.7485     7.4747
 2683.5000   116.7669   -35.0041    11.8580     5.6530     0.2598     9.8671   118.6082     2.5303    18.5060     0.0003     5.9517     6.8030
 2684.0000   123.4299   -33.8007    11.9456     6.0605     0.2592     9.8378   125.8699     2.5333    10.8314     0.0124     6.3362     6.3222
 2684.5000   128.5785   -32.2943    -3.0876     6.6158     0.2592     9.7926   127.9879     2.5364     3.1566     0.0154     6.8202     6.8733
 2685.0000   128.2725   -30.7730   -18.1208     7.6791     0.2580     9.7474   123.4493     2.5379   -19.5783     0.0109     7.8628     7.7377
 2685.5000   122.5120   -28.0714   -33.1571     9.0125     0.2534     9.7324   111.9516     2.5279   -34.7892     0.0155     9.0390     9.0199
 2686.0000   110.4946   -25.5044   -33.0816    11.7419     0.2077     9.7174    98.9410     2.4926   -27.4337     0.0261    11.9434    11.3526
 2686.5000    83.1115   -23.6949   -33.0060    13.8771     0.1798     9.7327    75.0378     2.4525   -20.0482     0.0336    14.4154    19.2838
 2687.0000    66.1389   -21.4309   -32.9184    15.5122     0.1752     9.7329    63.4861     2.4253   -27.7229     0.0367    16.2278    24.7840
 2687.5000    61.5905   -19.9244   -32.8459    16.6403     0.1798     9.7481    61.4221     2.4041   -35.3976     0.0291    20.5454    24.9557
 2688.0000    62.1937   -18.8309   -32.7734    17.4612     0.1846     9.7785    65.0529     2.4004   -35.5422     0.0276    26.9875    21.1090
 2688.5000    66.4332   -17.3683   -32.7009    17.9542     0.1919     9.7787    73.5250     2.4125   -35.6927     0.0324    31.4572    22.3705
 2689.0000    70.0666   -16.4679   -32.6284    18.2060     0.2010     9.7788    76.8533     2.4261   -35.8675     0.0428    31.6742    23.4330
 2689.5000    74.0719   -16.0199   -32.5529    17.9542     0.2046     9.7941    75.0329     2.4239   -35.9940     0.0549    31.6688    23.5954
 2690.0000    74.9093   -15.8770   -32.4653    17.8297     0.1976     9.7943    72.3147     2.4156   -43.6868     0.0625    31.4446    22.4696
 2690.5000    72.7844   -16.0394   -32.3927    17.7060     0.1837     9.7944    74.4327     2.4133   -40.6846     0.0368    31.0050    20.6648
 2691.0000    74.2967   -16.5265   -32.3203    17.9542     0.1794     9.7946    76.8533     2.4224   -36.4458     0.0109    30.7844    20.3772
 2691.5000    76.7180   -17.2712   -32.2477    18.2060     0.1811     9.7947    76.8533     2.4376   -36.6265     0.0187    30.5664    21.5443
 2692.0000    77.3576   -18.1890   -32.1752    18.2060     0.1840     9.7949    76.2481     2.4595   -29.2410     0.0459    30.1391    22.6204
 2692.5000    76.3987   -18.9552   -32.0846    17.9542     0.1849     9.7950    76.8990     2.4732   -29.3675     0.0505    29.7177    23.4217
 2693.0000    76.7085   -19.5700   -24.4592    17.4612     0.1861     9.7800    78.0635     2.4740   -29.5301     0.0338    29.0987    22.3041
 2693.5000    77.9177   -20.1904   -24.3867    16.7468     0.1891     9.7348    78.6709     2.4604   -29.6747     0.0202    28.0980    21.2403
 2694.0000    79.7330   -20.8017   -24.3142    16.0484     0.1937     9.6896    80.4981     2.4422   -39.2329     0.0254    27.5126    20.2272
 2694.5000    80.9429   -20.9619   -31.7976    15.9503     0.1981     9.6435    81.1131     2.4324   -45.0301     0.0460    27.3169    19.2400
 2695.0000    81.5460   -20.9706   -31.7220    15.9503     0.2003     9.5840    80.5138     2.4264   -52.7108     0.0536    27.3133    18.7310
 2695.5000    80.9363   -20.8278   -31.6314    15.9503     0.2012     9.5690    79.9190     2.4242   -52.8795     0.0475    26.9314    18.9928
 2696.0000    79.0831   -20.6848   -31.5589    15.9503     0.2034     9.5692    78.1098     2.4170   -53.0241     0.0313    26.0053    19.3929
 2696.5000    76.6873   -20.3761   -31.4864    15.8396     0.2055     9.5541    75.6946     2.4030   -45.6024     0.0208    25.8211    19.8016
 2697.0000    75.1693   -19.6440   -31.4139    15.8332     0.2040     9.5543    74.1862     2.3993   -38.2530     0.0072    25.8067    19.5260
 2697.5000    75.4694   -19.3497   -38.8973    15.4046     0.2002     9.5787    75.1065     2.4068   -38.4036     0.0012    25.6340    18.9877
