~VERSION INFORMATION
 VERS.                2.0:   CWLS LOG ASCII STANDARD - VERSION 2.0
 WRAP.                 NO:   ONE LINE PER DEPTH STEP
~WELL INFORMATION
#MNEM.UNIT      DATA TYPE    INFORMATION
#----------   ------------   ------------------------------
 STRT.F          200.0000:   START DEPTH
 STOP.F         3160.0000:   STOP DEPTH
 STEP.F            0.5000:   STEP LENGTH
 NULL.          -999.2500:   NO VALUE
 COMP.    FENIX & SCISSON:   COMPANY
 WELL. FENIX NPR 3 "AX" #72-3:   WELL
 FLD .             TEAPOT:   FIELD
 LOC .       S3 T38N R78W:   LOCATION
 CNTY.            NATRONA:   COUNTY
 STAT.            WYOMING:   STATE
 CTRY. UNITED STATES OF AMERICA:   COUNTRY
 SRVC.           BIRDWELL:   SERVICE COMPANY
 DATE.        10-JAN-1978:   LOGDATE
 API .     49025105530000:   API NUMBER
~CURVE INFORMATION
#MNEM.UNIT       API CODE    CURVE DESCRIPTION
#----------   ------------   ------------------------------
 DEPT.F                  :   
 CALD.IN     45 280 60 00:   CALIPER FROM DENSITY LOG
 GRD .GAPI   45 310 01 00:   GAMMA RAY FROM DENSITY LOG
 DEN .LBS    45 635 01 00:   BUCK DENSITY
 CORR.G/C3   45 356 01 00:   DENSITY CORRECTION
 SPR .MV     07 010 01 00:   SPONTANEOUS POTENTIAL
 ILD .OHMM   07 120 46 00:   DEEP INDUCTION RESISTIVITY
 ILM .OHMM   07 120 44 00:   INDUCTION LOG MEDIUM RESISTIVITY
~PARAMETER INFORMATION
#MNEM.UNIT          VALUE    DESCRIPTION
#----------   ------------   ------------------------------
 EKB .F         5164.0000:   Kelly bushing
 EGL .F         5153.0000:   Ground level
 TD  .F         3157.0000:   Total depth
 DATE.        10-JAN-1978:   Date logged
 CLNT.            A2DTECH:   Client Code
 SL  . 900' FNL & 900' FEL:   Surface Location
 PD  .                 GL:   Permanent Datum
 EPD .F              5153:   Elevation Permanent Datum
 LMF .                 KB:   Log Measured From
 DMF .                 KB:   Drilling Measured From
 DAPD.F                11:   Feet Above Permanent Datum
 DD  .F              3156:   Depth driller
 DL  .F              3157:   Depth logger
 BLI .F              3157:   Bottom log interval
 TLI .F               200:   Top log interval
 CS1 .IN            8.625:   Casing size
 CBD1.      8.625" @ 222':   Casing driller 1
 CBL1.F               220:   Casing logger 1
 BS1 .IN            7.875:   Bit size
 BSD1.F              3156:   Depth drilled with bit1
 DFT .                KCL:   Type fluid in hole
 DFD .                8.5:   Density
 DFV .                 36:   Viscosity
 DFPH.                 10:   pH
 DFL .                8.8:   Fluid loss
 MSS .           FLOWLINE:   Source of sample
 RMS .OHMM            1.4:   Rm
 MST .F                66:   Rm Meas. temp.
 RMF .OHMM            .85:   Rmf
 MFST.F                74:   Rmf Meas. temp.
 RMC .OHMM            1.4:   Rmc
 MCST.F                72:   Rmc Meas. temp.
 MFSS.               MEAS:   Source Rmf.
 MCSS.               MEAS:   Source Rmc.
 RMB .OHMM            .83:   Rm. at BHT
 BHT .F               112:   BHT.
 TCS .HRS               4:   Time Circ. stopped
 MRT .F               112:   Maximum recorded temp.
 LUN .               2958:   Logging unit number
 LUL .             CASPER:   Logging unit location
 ENGI.            POINTER:   Recorded By
 WITN.         HARRINGTON:   Witnessed by
 ORIG.           5" PRINT:   Origin of data
 UWI .     49025105530000:   Unique Well ID
 DICO. A2D TECHNOLOGIES, INC.:   Digitizing Company
~OTHER INFORMATION
~A   DEPT     CALD        GRD          DEN     CORR        SPR        ILD        ILM   
# ...
 1565.0000     9.9726    86.9183     2.5406     0.0406   -48.8787    12.1895    11.6192
 1565.5000     9.9731    86.9200     2.5396     0.0366   -48.8762    12.1893    11.6188
 1566.0000     9.9735    86.9216     2.5346     0.0386   -48.8737    12.1890    11.6187
 1566.5000     9.9740    86.9232     2.5366     0.0326   -48.6721    12.1888    11.6185
 1567.0000     9.9744    86.9248     2.5426     0.0326   -48.4704    12.1885    11.6183
 1567.5000     9.9748    86.9265     2.5396     0.0306   -48.2687    12.1883    11.5113
 1568.0000     9.9753    85.9374     2.5406     0.0326   -48.2663    12.1880    11.5110
 1568.5000     9.9757    85.1464     2.5406     0.0306   -48.2638    12.1879    11.5108
 1569.0000     9.9762    84.9499     2.5366     0.0307   -48.2614    12.1876    11.5106
 1569.5000     9.9766    85.5467     2.5337     0.0227   -48.0598    12.0756    11.5103
 1570.0000     9.9770    86.5383     2.5347     0.0187   -47.8582    12.0753    11.6168
 1570.5000     9.9775    88.9176     2.5416     0.0107   -48.0549    12.0750    11.5099
 1571.0000     9.9779    91.2965     2.5427     0.0087   -48.0524    12.0747    11.5096
 1571.5000     9.9784    92.8832     2.5367     0.0087   -49.0458    12.0745    11.6161
 1572.0000     9.9788    92.0922     2.5297     0.0107   -49.6407    12.0743    11.7236
 1572.5000     9.9792    91.3013     2.5167     0.0207   -49.4391    12.0741    11.7234
 1573.0000     9.9797    92.4917     2.5127     0.0287   -49.4366    12.1855    11.8319
 1573.5000     9.9801    94.4745     2.5167     0.0287   -49.4341    12.4119    11.9414
 1574.0000     9.9806    97.6460     2.5207     0.0287   -49.4316    12.5265    12.0518
 1574.5000     9.9810    97.6475     2.5267     0.0287   -49.4297    12.6421    12.0516
 1575.0000     9.9814    97.4509     2.5327     0.0367   -49.4272    12.6419    12.0514
 1575.5000     9.9819    96.6600     2.5327     0.0427   -49.4247    12.6416    12.0511
 1576.0000     9.9823    96.0672     2.5327     0.0447   -49.2231    12.6413    12.0509
 1576.5000     9.9828    95.4744     2.5337     0.0447   -49.4197    12.6411    12.1624
 1577.0000     9.9832    95.0797     2.5437     0.0507   -49.4172    12.6408    12.2749
 1577.5000     9.9836    93.2982     2.5397     0.0547   -49.4147    12.6405    12.2746
 1578.0000     9.9841    90.9225     2.5377     0.0607   -49.2132    12.6403    12.2744
 1578.5000     9.9845    90.1317     2.5377     0.0687   -49.4098    12.6400    12.2741
 1579.0000     9.9850    90.1333     2.5397     0.0687   -49.2082    12.6397    12.1611
 1579.5000     9.9854    90.5311     2.5427     0.0687   -48.8077    12.6395    12.1609
 1580.0000     9.9858    90.3346     2.5477     0.0647   -49.2033    12.6393    12.0489
 1580.5000     9.9863    89.7419     2.5527     0.0727   -49.3999    12.6389    12.0486
 1581.0000     9.9867    89.1492     2.5537     0.0767   -49.7955    12.4907    12.0484
 1581.5000     9.9872    87.9622     2.5537     0.0887   -49.1959    12.3443    12.0481
 1582.0000     9.9876    88.7562     2.5507     0.0947   -49.1934    12.2938    12.0479
 1582.5000     9.9880    88.5597     2.5457     0.1047   -49.1909    12.1808    11.9369
 1583.0000     9.9885    88.5613     2.5438     0.1047   -49.1885    12.1805    11.9367
 1583.5000     9.9889    89.1572     2.5418     0.1107   -49.1860    12.1803    11.9365
 1584.0000     9.9756    89.1588     2.5388     0.1286   -49.3825    12.1800    11.9362
 1584.5000     9.9757    89.1604     2.5388     0.1406   -49.3800    12.1798    11.9360
 1585.0000     9.9757    87.9735     2.5318     0.1546   -49.3776    12.1795    11.9357
 1585.5000     9.9758    86.9847     2.5188     0.1666   -49.3751    12.1793    11.9355
 1586.0000     9.9760    85.5998     2.5118     0.1606   -49.3726    12.1790    11.9352
 1586.5000     9.9761    84.2150     2.5138     0.1346   -49.3701    12.1788    11.9350
 1587.0000     9.9763    83.4243     2.5158     0.0747   -49.3676    12.1785    11.9347
 1587.5000     9.9765    83.6241     2.5378     0.0408   -49.3651    12.1783    11.8248
 1588.0000     9.9766    84.6161     2.5528     0.0248   -49.3627    12.1781    11.5016
 1588.5000     9.9768    87.1923     2.5658     0.0169   -48.5644    12.1778    11.5014
 1589.0000     9.9769    89.7687     2.5568     0.0169   -48.5619    12.1776    11.3955
 1589.5000     9.9771    90.1664     2.5428     0.0109   -48.3605    12.1773    11.3953
 1590.0000     9.9772    90.1680     2.5298     0.0089   -48.1592    12.1771    11.3951
 1590.5000     9.9774    90.7638     2.5289     0.0049   -48.1567    12.1768    11.3949
 1591.0000     9.9775    91.3596     2.5319     0.0049   -48.1543    12.1766    11.3946
 1591.5000     9.9777    90.7670     2.5358     0.0049   -48.3508    12.1763    11.3944
 1592.0000     9.9778    90.5705     2.5289     0.0049   -48.3483    12.1761    11.3942
 1592.5000     9.9780    90.3741     2.5159     0.0069   -47.9481    12.1759    11.3940
 1593.0000     9.9782    90.9698     2.5139     0.0069   -47.9456    12.1755    11.3937
 1593.5000     9.9783    92.1597     2.5229     0.0069   -47.9432    12.0637    11.4991
 1594.0000     9.9785    92.5573     2.5189     0.0069   -47.7419    12.0635    11.6055
 1594.5000     9.9786    93.3511     2.5169     0.0069   -47.9383    12.0632    11.4986
 1595.0000     9.9788    93.3527     2.5239     0.0069   -47.7370    12.0630    11.6050
 1595.5000     9.9789    92.5621     2.5339     0.0089   -47.7346    12.0627    11.6048
 1596.0000     9.9791    90.7813     2.5359     0.0109   -47.7322    11.8423    11.7122
 1596.5000     9.9792    89.9908     2.5369     0.0249   -47.9286    11.9517    11.8205
 1597.0000     9.9794    90.7845     2.5419     0.0269   -47.7273    11.8419    11.7117
 1597.5000     9.9795    90.7861     2.5479     0.0289   -47.9237    11.8415    11.6444
 1598.0000     9.9797    91.9758     2.5499     0.0329   -47.9213    11.8413    11.6037
 1598.5000     9.9799    92.3735     2.5509     0.0449   -47.7200    11.8411    11.6034
 1599.0000     9.9799    92.7711     2.5509     0.0529   -47.5188    11.8409    11.4966
 1599.5000     9.9810    93.1687     2.5529     0.0649   -47.5164    11.8407    11.4963
 1600.0000     9.9821    91.1901     2.5549     0.0669   -47.5139    11.8405    11.3905
 1600.5000     9.9832    96.1626     2.5583     0.0723   -47.5114    11.8401    11.3903
 1601.0000     9.9832    98.9164     2.5559     0.0609   -47.5266    11.8417    11.3919
 1601.5000     9.9833    98.9184     2.5549     0.0549   -47.5333    11.8427    11.3927
 1602.0000     9.9833    95.9501     2.5719     0.0509   -47.3413    11.8433    11.3934
 1602.5000     9.9834    93.7739     2.5659     0.0509   -47.1492    11.8443    11.3942
 1603.0000     9.9834    92.7858     2.5569     0.0470   -47.1546    11.8449    11.3950
 1603.5000     9.9835    92.5897     2.5589     0.0470   -47.1613    11.8459    11.3958
 1604.0000     9.9835    92.9878     2.5639     0.0470   -47.1680    11.8466    11.5022
 1604.5000     9.9836    94.1779     2.5649     0.0450   -47.1747    11.8475    11.6097
 1605.0000     9.9836    95.9621     2.5629     0.0450   -47.1814    11.7181    11.6105
 1605.5000     9.9837    97.3502     2.5619     0.0450   -47.3869    11.7183    11.7193
 1606.0000     9.9837    97.3522     2.5519     0.0430   -47.1949    11.7066    11.5054
 1606.5000     9.9838    97.1562     2.5509     0.0450   -47.4004    11.6949    11.5062
 1607.0000     9.9838    95.7720     2.5459     0.0470   -48.0035    11.6832    11.5070
 1607.5000     9.9839    94.7839     2.5400     0.0470   -48.2090    11.6715    11.5076
 1608.0000     9.9840    94.3899     2.5400     0.0490   -48.4145    11.6599    11.5084
 1608.5000     9.9840    94.3918     2.5470     0.0450   -49.2164    11.6482    11.0924
 1609.0000     9.9841    94.5919     2.5549     0.0451   -49.2231    11.6366    10.9907
 1609.5000     9.9841    94.3958     2.5559     0.0431   -49.2298    11.6250    10.7904
 1610.0000     9.9644    94.1998     2.5549     0.0371   -49.2365    11.6133    10.6920
