~VERSION INFORMATION
 VERS.                2.0:   CWLS LOG ASCII STANDARD - VERSION 2.0
 WRAP.                 NO:   ONE LINE PER DEPTH STEP
~WELL INFORMATION
#MNEM.UNIT      DATA TYPE    INFORMATION
#----------   ------------   ------------------------------
 STRT.F            0.0000:   START DEPTH
 STOP.F         1071.5000:   STOP DEPTH
 STEP.F            0.5000:   STEP LENGTH
 NULL.          -999.2500:   NO VALUE
 COMP.       FLUOR DANIEL:   COMPANY
 WELL.     FLUOR X #82-22:   WELL
 FLD .                NPR:   FIELD
 LOC .      S22 T38N R78W:   LOCATION
 CNTY.            NATRONA:   COUNTY
 STAT.            WYOMING:   STATE
 CTRY. UNITED STATES OF AMERICA:   COUNTRY
 SRVC.      WESTERN ATLAS:   SERVICE COMPANY
 DATE.        19-SEP-1994:   LOGDATE
 API .     49025226520000:   API NUMBER
~CURVE INFORMATION
#MNEM.UNIT       API CODE    CURVE DESCRIPTION
#----------   ------------   ------------------------------
 DEPT.F                  :   
 GRR .GAPI   07 310 01 00:   GAMMA RAY FROM RESISTIVITY
 TENR.LBS    07 635 01 00:   TENSION
 ILD .OHMM   07 120 46 00:   INDUCTION LOG DEEP RESISTIVITY
 ILM .OHMM   07 120 44 00:   INDUCTION LOG MEDIUM RESISTIVITY
~PARAMETER INFORMATION
#MNEM.UNIT          VALUE    DESCRIPTION
#----------   ------------   ------------------------------
 EKB .F         5288.0000:   Kelly bushing
 EGL .F         5278.0000:   Ground level
 EDF .F         5287.0000:   Drilling floor
 EPD .F         5278.0000:   Permanent datum
 TD  .F         1062.0000:   Total depth
 DATE.        19-SEP-1994:   Date logged
 CLNT.            A2DTECH:   Client Code
 SL  . 937' FNL & 347' FEL:   Surface Location
 PD  .                 GL:   Permanent Datum
 LMF .                 KB:   Log Measured From
 DMF .                 KB:   Drilling Measured From
 DAPD.F                10:   Feet Above Permanent Datum
 DD  .F              1060:   Depth driller
 DL  .F              1062:   Depth logger
 BLI .F              1054:   Bottom log interval
 CS1 .IN            9.625:   Casing size
 CBD1.       9.625" @ 77':   Casing driller 1
 CBL1.F                78:   Casing logger 1
 BS1 .IN             8.75:   Bit size
 BSD1.F              1060:   Depth drilled with bit1
 DFT .                AIR:   Type fluid in hole
 LUN .            HL 6530:   Logging unit number
 LUL .             CASPER:   Logging unit location
 ENGI.      PAT RASMUSSEN:   Recorded By
 WITN.        GARY STRONG:   Witnessed by
 ORIG.           5" PRINT:   Origin of data
 UWI .     49025226520000:   Unique Well ID
 DICO. A2D TECHNOLOGIES, INC.:   Digitizing Company
~OTHER INFORMATION
~A    DEPT      GRR      TENR        ILD        ILM   
# ...
  657.0000   130.7590   -12.0980     6.9090     6.9720
  657.5000   132.8520    -5.6590     6.8900     6.9630
  658.0000   137.7570    -4.8970     6.8710     6.9550
  658.5000   141.3120    -6.9580     6.8520     6.9460
  659.0000   143.2530    -9.0180     6.8340     6.9380
  659.5000   145.1440   -11.0780     6.8150     6.9300
  660.0000   145.2400   -13.1390     6.7960     6.9180
  660.5000   141.2320   -14.7710     6.8060     6.8910
  661.0000   138.6360   -16.2860     6.8180     6.8640
  661.5000   136.3970   -17.8010     6.8290     6.8360
  662.0000   135.6620   -19.3160     6.8400     6.8090
  662.5000   135.0900   -20.8310     6.8510     6.7950
  663.0000   134.8510   -22.3460     6.8820     6.8950
  663.5000   134.0490   -23.4830     6.9560     6.9610
  664.0000   132.5950   -22.3880     7.0290     7.0280
  664.5000   132.0980   -21.2920     7.1030     7.0940
  665.0000   133.3250   -20.1960     7.1660     7.1610
  665.5000   134.3560   -19.1000     7.2250     7.2280
  666.0000   133.5280   -18.0040     7.2850     7.2710
  666.5000   131.4330   -16.9080     7.3450     7.3030
  667.0000   131.8880   -15.8120     7.3860     7.3350
  667.5000   135.6820   -14.7160     7.3510     7.3660
  668.0000   138.0670   -13.6200     7.3250     7.3860
  668.5000   136.2720   -12.5240     7.2980     7.3270
  669.0000   134.3260   -11.4280     7.2710     7.2830
  669.5000   132.3770   -10.3320     7.2380     7.2390
  670.0000   131.6480    -9.2360     7.1810     7.1950
  670.5000   131.4000    -8.1400     7.1240     7.1510
  671.0000   133.1680    -7.0440     7.0670     7.1070
  671.5000   134.8910    -5.9480     7.0100     7.0630
  672.0000   136.6440    -4.8530     6.9530     7.0190
  672.5000   136.5380    -3.7570     6.8970     6.9750
  673.0000   135.6380    -6.0490     6.8400     6.9310
  673.5000   134.7160    -9.2680     6.7610     6.7950
  674.0000   133.9160   -12.4870     6.6050     6.6380
  674.5000   133.9310   -15.7070     6.4500     6.4800
  675.0000   133.9390   -18.9260     6.3100     6.3690
  675.5000   134.3500   -22.1450     6.3240     6.4320
  676.0000   136.4450   -21.7620     6.3360     6.4890
  676.5000   137.3400   -18.2500     6.3490     6.5460
  677.0000   134.2120   -14.7380     6.3610     6.6040
  677.5000   132.7440   -11.2260     6.3990     6.6610
  678.0000   135.2970    -7.7140     6.4740     6.7180
  678.5000   137.2270    -4.2020     6.5490     6.7760
  679.0000   138.9460    -0.6910     6.6240     6.8330
  679.5000   139.7890     2.8210     6.6990     6.8900
  680.0000   138.6260     6.5390     6.7730     6.9480
  680.5000   133.0720     3.6000     6.8480     7.0050
  681.0000   129.7630     0.4790     6.9230     7.0620
  681.5000   127.6990    -2.6430     6.9980     7.1170
  682.0000   127.2950    -5.7650     7.0730     7.1730
  682.5000   131.0860    -8.8870     7.1470     7.2280
  683.0000   135.6330   -12.0080     7.2220     7.2830
  683.5000   137.4690   -12.5170     7.3180     7.3380
  684.0000   134.4090   -10.3710     7.2990     7.3860
  684.5000   131.1430    -8.2240     7.2730     7.3310
  685.0000   130.4580    -6.0780     7.2380     7.2820
  685.5000   132.7140    -3.9320     7.1650     7.2330
  686.0000   133.8330   -11.0940     7.0920     7.1840
  686.5000   131.4140   -20.4590     7.0190     7.1360
  687.0000   129.7360   -18.7840     6.9460     7.0870
  687.5000   128.5970   -11.4260     6.9230     7.0520
  688.0000   128.0530    -4.0670     6.9230     7.0520
  688.5000   131.6180     3.2910     6.9230     7.0520
  689.0000   136.3490     5.0640     6.9230     7.0520
  689.5000   136.9250     2.4220     6.9230     7.0520
  690.0000   135.3540    -0.2190     6.9230     7.0520
  690.5000   134.0260    -2.8610     6.9810     7.1000
  691.0000   135.3890    -5.5020     7.1150     7.3020
  691.5000   136.0030    -8.1440     7.2490     7.5050
  692.0000   134.5720   -10.7850     7.3830     7.7070
  692.5000   132.8600   -13.5810     7.5250     7.8970
  693.0000   131.0670   -10.7290     7.6870     8.0070
  693.5000   127.6480    -7.6990     7.8590     8.1180
  694.0000   124.1830    -4.6690     8.0310     8.2290
  694.5000   123.4950    -1.6390     8.2030     8.3400
  695.0000   126.4310     1.3910     8.3320     8.4510
  695.5000   128.9080     4.4210     8.4060     8.5640
  696.0000   131.0560     5.6280     8.4920     8.6790
  696.5000   131.8440     2.5980     8.5980     8.7930
  697.0000   128.6010    -0.4320     8.8400     8.9190
  697.5000   125.1430    -3.5210     9.0810     9.1070
  698.0000   124.3080   -17.2950     9.3230     9.2950
  698.5000   125.4150   -31.3430     9.5650     9.4820
  699.0000   124.0330   -19.4160     9.8070     9.6700
  699.5000   118.8550    -3.5210     9.9470     9.8440
  700.0000   112.2630    -6.9750     9.9710     9.8780
  700.5000   109.9750   -10.1900     9.9940     9.9090
  701.0000   112.3700   -13.5810    10.0180     9.9410
  701.5000   116.6780   -16.5260    10.0400     9.9720
  702.0000   120.4320   -19.6420    10.0620    10.0030
  702.5000   119.0460   -22.7580    10.0840    10.0280
  703.0000   116.5290   -25.8730    10.1060    10.0030
  703.5000   116.9280   -28.9890    10.1200     9.9810
  704.0000   120.4370   -32.1050    10.0720     9.9600
  704.5000   123.8550   -29.6940    10.0320     9.9380
  705.0000   125.1830   -21.4690     9.8840     9.8060
  705.5000   122.6530   -13.2430     9.7230     9.6610
  706.0000   120.5760    -5.0180     9.5620     9.5170
  706.5000   122.5070     3.2070     9.3990     9.3990
  707.0000   125.3880     3.3750     9.3990     9.4190
  707.5000   124.9890    -1.9430     9.3990     9.4370
  708.0000   122.7130    -7.2610     9.3990     9.4550
  708.5000   120.5040   -12.5790     9.3990     9.4720
  709.0000   118.2510   -17.8970     9.3990     9.4900
  709.5000   117.0310   -23.6420     9.3990     9.5070
  710.0000   116.0670   -19.7020     9.3990     9.5250
  710.5000   113.7900   -15.4180     9.3990     9.5430
  711.0000   113.5940   -11.1330     9.3980     9.5600
  711.5000   114.5140    -6.8490     9.3990     9.5740
  712.0000   114.0790    -3.5210     9.2530     9.4330
  712.5000   112.8120    -3.5210     9.1090     9.2920
  713.0000   111.6700    -3.5210     8.9650     9.1510
  713.5000   112.5620   -10.9760     8.8540     9.0100
  714.0000   114.6960   -26.3980     8.7780     8.8690
  714.5000   120.7280   -29.1920     8.6800     8.7280
  715.0000   123.3720   -20.6240     8.5370     8.5870
  715.5000   122.7160   -12.0560     8.3940     8.4460
  716.0000   121.0130    -3.5210     8.2520     8.3050
  716.5000   119.3760    -6.3880     8.1090     8.1640
  717.0000   117.7410    -9.2440     7.9690     8.0230
  717.5000   116.7590   -12.1000     7.8340     7.8820
  718.0000   117.7200   -15.9380     7.7370     7.8090
  718.5000   119.7720   -20.8350     7.7370     7.8090
  719.0000   119.3760   -25.7310     7.7370     7.8090
  719.5000   116.2240   -30.6270     7.7370     7.8090
  720.0000   113.4540   -30.3290     7.7100     7.8090
  720.5000   115.2030   -21.2570     7.6760     7.8000
  721.0000   117.0250   -12.1850     7.6410     7.7540
  721.5000   118.7490    -3.5210     7.6070     7.7090
  722.0000   119.6340    -4.8640     7.5890     7.6630
  722.5000   119.0250    -6.1490     7.5810     7.6170
  723.0000   116.4340    -7.4350     7.5730     7.5950
  723.5000   112.8250    -8.7200     7.5650     7.5950
  724.0000   109.9600   -10.0050     7.5570     7.5950
  724.5000   112.8790   -11.2900     7.5490     7.5950
  725.0000   116.1680   -12.5750     7.5410     7.5950
  725.5000   117.7530   -13.1960     7.5320     7.5950
  726.0000   117.7690   -11.4240     7.5250     7.5340
  726.5000   117.0680    -9.6510     7.4150     7.3940
  727.0000   116.2850    -7.8780     7.3180     7.2540
  727.5000   116.4680    -6.1060     7.0750     7.0820
  728.0000   117.5550    -4.3330     6.8510     6.8790
  728.5000   119.5650    -4.2740     6.6270     6.6760
  729.0000   122.6030    -5.6640     6.4030     6.4730
  729.5000   125.6430    -7.0530     6.3030     6.4280
