~VERSION INFORMATION
 VERS.                2.0:   CWLS LOG ASCII STANDARD - VERSION 2.0
 WRAP.                 NO:   ONE LINE PER DEPTH STEP
~WELL INFORMATION
#MNEM.UNIT      DATA TYPE    INFORMATION
#----------   ------------   ------------------------------
 STRT.F           10.0000:   START DEPTH
 STOP.F         4008.0000:   STOP DEPTH
 STEP.F            0.5000:   STEP LENGTH
 NULL.          -999.2500:   NO VALUE
 COMP. LAWRENCE ALLISON & ASSOC.:   COMPANY
 WELL. LAWRENCE NPR 3 "AX" #75-28:   WELL
 FLD .                NPR:   FIELD
 LOC .      S28 T39N R78W:   LOCATION
 CNTY.            NATRONA:   COUNTY
 STAT.            WYOMING:   STATE
 CTRY. UNITED STATES OF AMERICA:   COUNTRY
 SRVC.      DRESSER ATLAS:   SERVICE COMPANY
 DATE.        28-APR-1983:   LOGDATE
 API .     49025109060000:   API NUMBER
~CURVE INFORMATION
#MNEM.UNIT       API CODE    CURVE DESCRIPTION
#----------   ------------   ------------------------------
 DEPT.F                  :   
 RHOB.G/C3   45 350 01 00:   BULK DENSITY
 CORR.G/C3   45 356 01 00:   DENSITY CORRECTION
 TEND.LBS    45 635 01 00:   TENSION FROM DENSITY LOG
 NPHI.DEC    42 890 03 00:   NEUTRON POROSITY SANDSTONE
 GRR .GAPI   07 310 01 00:   GAMMA RAY FROM RESISTIVITY
 CALR.IN     07 280 01 00:   CALIPER FROM RESISTIVITY
 RFOC.OHMM   07 220 01 00:   RESISTIVITY FOCUSED LOG RES.
 RILD.OHMM   07 120 46 00:   DEEP INDUCTION RESISTIVITY
 TENR.LBS    01 635 01 00:   TENSION FROM RES.
 RILM.OHMM   07 120 44 00:   INDUCTION LOG MEDIUM RESISTIVITY
 TENS.LBS    60 635 01 00:   TENSION FROM SONIC LOG
 DT  .US/F   60 520 00 00:   DELTA TIME
 SPR .MV     07 010 01 00:   SPONTANEOUS POTENTIAL
~PARAMETER INFORMATION
#MNEM.UNIT          VALUE    DESCRIPTION
#----------   ------------   ------------------------------
 EKB .F         5068.0000:   Kelly bushing
 EGL .F         5058.0000:   Ground level
 EDF .F            0.0000:   Drilling floor
 TD  .F         4003.0000:   Total depth
 DATE.        28-APR-1983:   Date logged
 CLNT.            A2DTECH:   Client Code
 SL  . 2100' FSL & 1050' FEL:   Surface Location
 PD  .                 GL:   Permanent Datum
 EPD .F              5058:   Elevation Permanent Datum
 LMF .                 KB:   Log Measured From
 DMF .                 KB:   Drilling Measured From
 DAPD.F                10:   Feet Above Permanent Datum
 DD  .F              4000:   Depth driller
 DL  .F              4003:   Depth logger
 BLI .F              4000:   Bottom log interval
 CS1 .IN            8.625:   Casing size
 CBD1.      8.625" @ 498':   Casing driller 1
 CBL1.F               497:   Casing logger 1
 BS1 .IN            7.875:   Bit size
 BSD1.F              4000:   Depth drilled with bit1
 DFT .            KCL/GEL:   Type fluid in hole
 DFD .                  9:   Density
 DFV .                 43:   Viscosity
 DFPH.                8.5:   pH
 DFL .               12.4:   Fluid loss
 MSS .           MUD/TANK:   Source of sample
 RMS .OHMM            .45:   Rm
 MST .F                43:   Rm Meas. temp.
 RMF .OHMM            .27:   Rmf
 MFST.F                51:   Rmf Meas. temp.
 RMC .OHMM            .56:   Rmc
 MCST.F                43:   Rmc Meas. temp.
 MFSS.               MEAS:   Source Rmf.
 MCSS.               CALC:   Source Rmc.
 RMB .OHMM            .16:   Rm. at BHT
 BHT .F               121:   BHT.
 TCS .HRS               7:   Time Circ. stopped
 MRT .F               121:   Maximum recorded temp.
 LUN .               6274:   Logging unit number
 LUL .               GLTE:   Logging unit location
 ENGI.            WACDELL:   Recorded By
 WITN.             STRONG:   Witnessed by
 ORIG.           5" PRINT:   Origin of data
 UWI .     49025109060000:   Unique Well ID
 DICO. A2D TECHNOLOGIES, INC.:   Digitizing Company
~OTHER INFORMATION
~A   DEPT     RHOB       CORR       TEND       NPHI         GRR      CALR       RFOC       RILD       TENR       RILM       TENS         DT        SPR   
# ...
 3286.0000     2.5160    -0.0340   -24.8870     0.2460   125.5560     8.5640     5.0310     4.1660   -59.6190     4.5680   -38.0380    86.8410   -65.0180
 3286.5000     2.5140    -0.0490   -27.5190     0.2380   123.9540     8.5590     4.9180     4.1660   -60.4710     4.5680   -38.0380    87.1170   -64.8870
 3287.0000     2.5200    -0.0550   -30.1510     0.2300   124.3560     8.5530     5.0210     4.2310   -60.9850     4.6210   -38.0380    86.8880   -64.7760
 3287.5000     2.5240    -0.0410   -32.7830     0.2260   126.8060     8.5470     5.1160     4.2760   -61.4990     4.6700   -38.0380    86.3490   -64.6770
 3288.0000     2.5280    -0.0280   -34.6660     0.2270   129.8470     8.5410     5.2110     4.3210   -62.0130     4.7200   -38.0380    85.8100   -64.5710
 3288.5000     2.5310    -0.0300   -34.1680     0.2290   131.6620     8.5360     5.3070     4.3660   -62.5270     4.7690   -38.0380    85.3210   -64.4560
 3289.0000     2.5350    -0.0350   -33.6700     0.2310   131.2840     8.5300     5.4020     4.4110   -63.0410     4.8180   -38.0380    84.9620   -64.3420
 3289.5000     2.5440    -0.0110   -33.1730     0.2350   128.9340     8.5240     5.4970     4.4850   -63.5550     4.8670   -38.0380    84.6030   -64.2380
 3290.0000     2.5530     0.0310   -32.6750     0.2380   125.6020     8.5170     5.5970     4.4850   -64.0690     4.9180   -38.0380    84.2430   -64.1370
 3290.5000     2.5620     0.0610   -32.1770     0.2300   122.6530     8.5120     5.7010     4.3600   -64.5840     4.8210   -38.0380    83.8840   -64.0210
 3291.0000     2.5710     0.0610   -31.6800     0.2230   121.5570     8.5090     5.6600     4.2670   -65.0980     4.7200   -38.0380    84.0150   -63.8890
 3291.5000     2.5630     0.0390   -31.1820     0.2230   123.2450     8.5090     5.5970     4.1750   -65.6120     4.6190   -38.0380    84.5220   -63.7700
 3292.0000     2.5440     0.0080   -30.6840     0.2360   127.2050     8.5100     5.5970     4.0830   -66.1260     4.5170   -38.0380    85.2840   -63.7080
 3292.5000     2.5300    -0.0160   -30.1870     0.2440   131.3450     8.5130     4.9880     3.9900   -66.6400     4.4160   -38.0380    86.2140   -63.7270
 3293.0000     2.5250    -0.0100   -29.6890     0.2470   133.4410     8.5160     4.5680     3.8980   -67.1540     4.3150   -38.0380    87.0990   -63.8160
 3293.5000     2.5220    -0.0010   -29.1910     0.2480   133.0640     8.5200     4.5540     3.8060   -67.6680     4.2140   -38.0380    87.8420   -63.9400
 3294.0000     2.5190    -0.0160   -28.6940     0.2460   131.9230     8.5240     4.5400     3.7140   -68.1820     4.1130   -38.0380    88.5850   -64.0710
 3294.5000     2.5120    -0.0290   -28.1960     0.2440   131.9900     8.5280     4.5260     3.6210   -68.6960     4.0110   -38.0380    89.3280   -64.1980
 3295.0000     2.5100    -0.0240   -27.6980     0.2460   133.2800     8.5310     4.5110     3.5290   -69.2110     3.9100   -38.0380    90.0710   -64.3160
 3295.5000     2.5090    -0.0100   -27.2010     0.2490   133.6830     8.5350     4.4970     3.4630   -69.7250     3.7980   -38.0380    90.8140   -64.4090
 3296.0000     2.5110     0.0070   -26.7030     0.2510   131.1340     8.5390     4.4850     3.5230   -70.2390     3.7980   -38.0380    90.9510   -64.4620
 3296.5000     2.5130     0.0250   -26.2050     0.2400   125.8890     8.5430     4.6570     3.5910   -70.7530     3.9090   -38.0380    90.7020   -64.4740
 3297.0000     2.5120     0.0230   -25.7080     0.2290   120.6800     8.5470     4.8140     3.6580   -71.2670     3.9820   -38.0380    90.1480   -64.4630
 3297.5000     2.5110     0.0190   -25.2100     0.2300   118.6260     8.5490     4.9700     3.7290   -71.7810     4.0890   -38.0380    89.7190   -64.4530
 3298.0000     2.5100     0.0280   -24.7120     0.2420   120.9020     8.5510     5.1030     3.7290   -72.2950     4.0890   -38.0380    89.7700   -64.4530
 3298.5000     2.5060     0.0380   -24.2140     0.2540   126.0390     8.5510     4.9260     3.7290   -72.8090     4.0890   -38.0380    89.9310   -64.4590
 3299.0000     2.5010     0.0360   -23.7170     0.2590   131.1600     8.5500     4.7710     3.6610   -73.3230     3.8420   -38.0380    90.4070   -64.4620
 3299.5000     2.4960     0.0180   -23.2190     0.2600   133.9050     8.5500     4.6170     3.4400   -73.8380     3.5850   -38.0380    91.3200   -64.4600
 3300.0000     2.4890     0.0000   -22.7210     0.2620   133.6630     8.5500     4.4630     3.3000   -74.3520     3.2770   -38.0380    92.1800   -64.4580
 3300.5000     2.4800    -0.0140   -22.2240     0.2640   131.5190     8.5500     4.3080     3.1590   -74.8660     3.1580   -38.0380    93.0400   -64.4580
 3301.0000     2.4790    -0.0050   -21.7260     0.2610   129.2810     8.5510     4.1540     3.0440   -75.3800     3.1580   -38.0380    93.6460   -64.4580
 3301.5000     2.4790     0.0070   -21.2280     0.2560   128.3790     8.5510     4.0000     3.0440   -75.8940     3.3380   -38.0380    94.1450   -64.4590
 3302.0000     2.4780     0.0170   -20.7310     0.2510   129.2520     8.5480     3.8690     3.0440   -76.4080     3.3380   -38.0380    94.3940   -64.4590
 3302.5000     2.4770     0.0080   -20.2330     0.2460   131.3070     8.5410     4.0020     3.0840   -76.9220     3.3700   -38.0380    94.1540   -64.4590
 3303.0000     2.4760    -0.0080   -19.7350     0.2450   133.3380     8.5320     4.1170     3.1090   -77.4360     3.3990   -38.0380    93.6740   -64.4580
 3303.5000     2.4760    -0.0240   -19.2380     0.2510   134.2090     8.5230     4.2320     3.1350   -77.9500     3.4270   -38.0380    93.1940   -64.4570
 3304.0000     2.4810    -0.0170   -18.7400     0.2560   133.5680     8.5140     4.3470     3.1580   -78.4650     3.4630   -38.0380    92.7140   -64.4570
 3304.5000     2.4870    -0.0030   -18.2420     0.2580   132.1310     8.5060     4.4620     3.2090   -78.9790     3.4830   -38.0380    92.2340   -64.4590
 3305.0000     2.4890     0.0110   -17.7450     0.2570   131.1270     8.4970     4.5680     3.2540   -79.6590     3.5110   -38.0380    91.8020   -64.4610
 3305.5000     2.4860     0.0200   -17.2470     0.2560   131.1780     8.4880     4.5230     3.3000   -79.6590     3.5390   -38.0380    91.9390   -64.4600
 3306.0000     2.4890     0.0050   -16.7490     0.2550   131.6850     8.4790     4.4800     3.3460   -80.1020     3.5660   -38.0380    92.0640   -64.4500
 3306.5000     2.4940    -0.0020   -16.2520     0.2550   131.5820     8.4720     4.4380     3.3910   -80.4510     3.5940   -38.0380    92.2760   -64.4300
 3307.0000     2.4980     0.0090   -15.7540     0.2560   130.7580     8.4680     4.3960     3.4370   -80.8000     3.6220   -38.0380    92.5250   -64.4050
 3307.5000     2.5000     0.0260   -15.2560     0.2550   130.4840     8.4660     4.3530     3.4830   -81.1480     3.6500   -38.0380    92.7740   -64.3790
 3308.0000     2.4990     0.0420   -14.7650     0.2490   132.1500     8.4660     4.3110     3.5280   -81.4970     3.6780   -38.0380    93.0230   -64.3560
 3308.5000     2.4980     0.0500   -14.4460     0.2420   135.5360     8.4650     4.2430     3.5280   -81.8450     3.7060   -38.0380    93.0980   -64.3350
 3309.0000     2.4940     0.0320   -14.1310     0.2480   138.6350     8.4630     4.2430     3.5280   -82.1940     3.7330   -38.0380    92.8890   -64.3130
 3309.5000     2.4850     0.0130   -13.8160     0.2530   139.3650     8.4610     4.3350     3.5280   -82.5430     3.7610   -38.0380    92.5900   -64.2910
 3310.0000     2.4750    -0.0050   -13.5010     0.2550   137.3620     8.4600     4.4010     3.5280   -82.8910     3.7890   -38.0380    92.2910   -64.2670
 3310.5000     2.4680    -0.0130   -13.1860     0.2540   134.0270     8.4580     4.4850     3.5280   -83.2400     3.8170   -38.0380    92.0510   -64.2440
 3311.0000     2.4740    -0.0220   -12.8710     0.2540   131.0370     8.4570     4.5000     3.5280   -83.5880     3.8450   -38.0380    91.8380   -64.2230
 3311.5000     2.4800    -0.0300   -12.5560     0.2550   129.1230     8.4560     4.5210     3.5280   -83.9370     3.8690   -39.7500    91.6240   -64.2030
