~VERSION INFORMATION
 VERS.                2.0:   CWLS LOG ASCII STANDARD - VERSION 2.0
 WRAP.                 NO:   ONE LINE PER DEPTH STEP
~WELL INFORMATION
#MNEM.UNIT      DATA TYPE    INFORMATION
#----------   ------------   ------------------------------
 STRT.F          200.0000:   START DEPTH
 STOP.F         3124.0000:   STOP DEPTH
 STEP.F            0.5000:   STEP LENGTH
 NULL.          -999.2500:   NO VALUE
 COMP.    FENIX & SCISSON:   COMPANY
 WELL. FENIX SCISSON #18-27:   WELL
 FLD .                NPR:   FIELD
 LOC .      S27 T39N R78W:   LOCATION
 CNTY.            NATRONA:   COUNTY
 STAT.            WYOMING:   STATE
 CTRY. UNITED STATES OF AMERICA:   COUNTRY
 SRVC.              WELEX:   SERVICE COMPANY
 DATE.        26-SEP-1977:   LOGDATE
 API .     49025104210000:   API NUMBER
~CURVE INFORMATION
#MNEM.UNIT       API CODE    CURVE DESCRIPTION
#----------   ------------   ------------------------------
 DEPT.F                  :   
 CALD.IN     45 280 60 00:   CALIPER FROM DENSITY LOG
 GRD .GAPI   45 310 01 00:   GAMMA RAY FROM DENSITY LOG
 RHOB.G/C3   45 350 01 00:   BULK DENSITY
 CORR.G/C3   45 356 01 00:   DENSITY CORRECTION
 NPHI.DEC    42 890 03 00:   NEUTRON POROSITY SANDSTONE
 SPR .MV     07 010 01 00:   SPONTANEOUS POTENTIAL
 GURD.OHMM   07 220 05 00:   GUARD LOG RESISTIVITY
 ILD .OHMM   07 120 46 00:   DEEP INDUCTION RESISTIVITY
 ILM .OHMM   07 120 44 00:   INDUCTION LOG MEDIUM RESISTIVITY
 TENR.LBS    07 635 01 00:   TENSION FROM RESISTIVITY
~PARAMETER INFORMATION
#MNEM.UNIT          VALUE    DESCRIPTION
#----------   ------------   ------------------------------
 EKB .F         5080.0000:   Kelly bushing
 EGL .F         5070.0000:   Ground level
 EDF .F            0.0000:   Drilling floor
 EPD .F            0.0000:   Permanent datum
 TD  .F         3117.0000:   Total depth
 DATE.        26-SEP-1977:   Date logged
 CLNT.            A2DTECH:   Client Code
 SL  . 330' FSL & 1650' FWL:   Surface Location
 PD  .                 GL:   Permanent Datum
 DAPD.F                10:   Feet Above Permanent Datum
 DD  .F              3115:   Depth driller
 DL  .F              3117:   Depth logger
 BLI .F              3115:   Bottom log interval
 TLI .F               200:   Top log interval
 CS1 .IN            8.625:   Casing size
 CBD1.      8.625" @ 219':   Casing driller 1
 CBL1.F               220:   Casing logger 1
 BS1 .IN            7.875:   Bit size
 BSD1.F              3115:   Depth drilled with bit1
 DFT .            KCL MUD:   Type fluid in hole
 DFD .                9.1:   Density
 DFV .                 35:   Viscosity
 DFPH.                 11:   pH
 DFL .               17.2:   Fluid loss
 MSS .           FLOWLINE:   Source of sample
 RMS .OHMM            .59:   Rm
 MST .F                98:   Rm Meas. temp.
 RMF .OHMM            .56:   Rmf
 MFST.F                98:   Rmf Meas. temp.
 RMC .OHMM            .24:   Rmc
 MCST.F                98:   Rmc Meas. temp.
 MFSS.               MEAS:   Source Rmf.
 MCSS.               MEAS:   Source Rmc.
 RMB .OHMM            .48:   Rm. at BHT
 BHT .F               116:   BHT.
 TCS .HRS               4:   Time Circ. stopped
 MRT .F               116:   Maximum recorded temp.
 LUN .               8611:   Logging unit number
 LUL .             CASPER:   Logging unit location
 ENGI.            C. DOAK:   Recorded By
 WITN.         PETTINGILL:   Witnessed by
 ORIG.           5" PRINT:   Origin of data
 UWI .     49025104210000:   Unique Well ID
 DICO. A2D TECHNOLOGIES, INC.:   Digitizing Company
~OTHER INFORMATION
~A   DEPT     CALD        GRD       RHOB       CORR         NPHI      SPR       GURD        ILD        ILM        TENR  
# ...
 2880.0000     9.0138   129.6930     2.4637     0.0029     0.3408   -70.4093     7.0684     4.4123     5.5507   899.5809
 2880.5000     9.0069   122.3651     2.4686     0.0029     0.3419   -70.4110     7.4002     4.3711     5.4989   899.7953
 2881.0000     9.0001   121.9644     2.4855     0.0049     0.3463   -70.4127     6.9804     4.3702     5.3485   900.0098
 2881.5000     8.9932   123.9390     2.4895     0.0028     0.3519   -70.4144     6.4255     4.3295     5.2021   910.1175
 2882.0000     8.9863   127.8940     2.4686    -0.0032     0.3594   -70.0212     5.9690     4.2110     5.1065   920.3968
 2882.5000     8.9794   129.8686     2.4726    -0.0032     0.3610   -70.4179     6.3061     4.2882     5.1055   900.6531
 2883.0000     8.9725   132.6351     2.4845     0.0028     0.3578   -70.4196     6.3630     4.3264     5.1045   880.9095
 2883.5000     8.9657   135.5957     2.4954     0.0067     0.3515   -70.4210     7.1027     4.3258     5.2123   891.1030
 2884.0000     8.9593   131.4381     2.5054     0.0127     0.3375   -70.2253     7.4349     4.3651     5.2113   891.3174
 2884.5000     8.9590   127.0786     2.5103     0.0107     0.3264   -70.4245     7.0993     4.4861     5.2103   891.5319
 2885.0000     8.9587   120.5367     2.5183     0.0126     0.3097   -70.4262     6.9693     4.6099     5.2573   901.7254
 2885.5000     8.9585   123.1102     2.5213     0.0146     0.3081   -70.2305     7.0322     4.6521     5.2563   901.9398
 2886.0000     8.9582   123.8973     2.5223     0.0146     0.3077   -70.4296     6.7154     4.7810     5.3038   902.1543
 2886.5000     8.9579   128.8375     2.5023     0.0106     0.3077   -70.4314     6.7141     4.9136     5.3027   902.3687
 2887.0000     8.9577   126.2632     2.4824     0.0066     0.3093   -70.4331     7.0281     5.1908     5.2051   892.6041
 2887.5000     8.9970   121.9034     2.4923     0.0085     0.3144   -70.2374     6.9625     5.3007     5.0163   892.8186
 2888.0000     8.9967   117.7404     2.5003     0.0125     0.3168   -70.2391     7.0253     5.4478     5.0478   893.0330
 2888.5000     8.9965   121.8939     2.5092     0.0125     0.3228   -70.2408     7.0239     5.5477     4.9550   913.2056
 2889.0000     8.9962   124.4616     2.5162     0.0204     0.3264   -70.2426     7.0225     5.6498     4.9088   903.4410
 2889.5000     8.9960   115.5485     2.5212     0.0284     0.3244   -70.2443     6.8937     5.7008     4.8629   903.6554
 2890.0000     8.9957   110.1975     2.5232     0.0284     0.3216   -70.2460     6.6636     5.7523     4.8177   903.8699
 2890.5000     8.9954   116.7267     2.5221     0.0303     0.3240   -70.2478     6.9756     5.7512     4.7293   904.0843
 2891.0000     8.9952   118.7025     2.5221     0.0303     0.3247   -70.2495     7.5518     5.6974     4.6420   874.3616
 2891.5000     8.9949   121.2694     2.5211     0.0263     0.3196   -70.4486     7.1456     5.5926     4.5566   884.5551
 2892.0000     8.9946   116.5132     2.5151     0.0243     0.3176   -70.2529     7.2766     5.4394     4.5141   884.7267
 2892.5000     8.9746   113.7376     2.5072     0.0223     0.3160   -70.2547     6.8852     5.2418     4.4311   894.9631
 2893.0000     9.0139   117.6914     2.5032     0.0143     0.3172   -70.2564     6.6969     5.0054     4.1928   895.1775
 2893.5000     9.0136   117.2906     2.5032     0.0162     0.3192   -70.4555     6.1082     4.8237     3.9403   895.3491
 2894.0000     9.0133   118.4737     2.5051     0.0162     0.3211   -70.6546     5.6227     4.5640     3.7629   895.6064
 2894.5000     9.0131   125.9924     2.5101     0.0262     0.3275   -70.4590     5.4688     4.2009     3.3692   895.8209
 2895.0000     9.0128   137.4719     2.5111     0.0281     0.3315   -70.2633     5.0803     3.8312     3.1878   896.0353
 2895.5000     9.0125   142.2200     2.5021     0.0281     0.3359   -70.4624     4.4259     3.5918     3.0440   896.2069
 2896.0000     9.0123   148.1552     2.4822     0.0201     0.3402   -70.4641     3.9999     3.2159     2.8801   896.4642
 2896.5000     9.0120   165.1791     2.4612     0.0141     0.3474   -70.2685     3.3588     2.9874     2.8271   896.6787
 2897.0000     9.0315   171.5098     2.4632     0.0141     0.3510   -70.2702     3.2075     2.9055     2.8007   896.8502
 2897.5000     9.0314   167.9424     2.4841     0.0141     0.3506   -70.2716     3.4832     3.1846     2.8260   897.1076
 2898.0000     9.0509   149.7211     2.4881     0.0180     0.3442   -70.2733     5.7178     4.0436     2.9312   897.3220
 2898.5000     9.0505   136.2516     2.5210     0.0240     0.3307   -70.2751     6.3242     4.3115     3.2128   897.4936
 2899.0000     9.0503   130.3069     2.5209     0.0280     0.3100   -70.2768     6.1512     4.6824     3.3945   897.7509
 2899.5000     9.0499   127.5301     2.5229     0.0299     0.3000   -70.2785     6.2067     4.9469     3.5450   897.9654
 2900.0000     9.0498   125.5453     2.5269     0.0299     0.2920   -70.0829     6.4376     5.1313     3.7450   898.1369
 2900.5000     9.0495   121.8586     2.5324     0.0317     0.2857   -70.0849     6.8009     5.3224     3.9382   898.3902
 2901.0000     9.0491   116.4220     2.5348     0.0319     0.2889   -70.0933     6.8627     5.4205     4.1417   898.5344
 2901.5000     9.0488   113.6444     2.5348     0.0298     0.2901   -70.0988     7.0535     5.7798     4.2960   898.6919
 2902.0000     9.0485   117.5957     2.5328     0.0298     0.2921   -70.1044     7.0524     6.2773     4.4153   898.9280
 2902.5000     9.0481   119.9645     2.5248     0.0298     0.2929   -70.1099     6.6122     6.5113     4.4965   899.1426
 2903.0000     9.0478   121.5427     2.5199     0.0238     0.2996   -70.3128     6.3145     5.4171     4.5792   899.3217
 2903.5000     9.0476   123.5154     2.5129     0.0158     0.3036   -70.1210     6.0859     5.1257     4.6633   899.4791
 2904.0000     9.0273   130.2368     2.4989     0.0118     0.3084   -70.3239     6.0293     5.0780     4.6626   899.7153
 2904.5000     9.0270   127.4607     2.5059     0.0118     0.3092   -70.3294     5.9733     5.1241     4.7048   899.9121
 2905.0000     9.0069   126.2655     2.5118     0.0137     0.3056   -70.3349     6.0830     4.8932     4.7913   900.0695
 2905.5000     8.9868   123.4866     2.5198     0.0237     0.2969   -70.3405     6.4267     4.8924     4.7905   900.2663
 2906.0000     8.9866   123.0834     2.5258     0.0296     0.2917   -70.3460     7.0648     5.2164     4.7898   900.5025
 2906.5000     8.9465   124.6601     2.5257     0.0316     0.2869   -70.3515     6.5438     5.1209     4.4910   900.6993
 2907.0000     8.9265   130.1961     2.5207     0.0316     0.2901   -70.3571     6.4829     4.8008     4.1723   890.8783
 2907.5000     8.9063   131.3767     2.5217     0.0375     0.2993   -70.3626     6.2482     4.7564     3.7708   891.0751
 2908.0000     8.8863   133.3506     2.5257     0.0435     0.3092   -70.5655     6.0220     4.4186     3.4395   891.2720
 2908.5000     8.8661   132.9473     2.5227     0.0435     0.3180   -70.3737     5.4425     4.1809     3.2547   891.4688
 2909.0000     8.8461   134.9197     2.5217     0.0514     0.3260   -70.3792     5.1233     3.8484     3.1369   891.7050
 2909.5000     8.8060   140.0595     2.5177     0.0534     0.3367   -70.3847     4.7409     3.6413     3.0512   891.8625
 2910.0000     8.7857   145.9924     2.5097     0.0534     0.3483   -70.3881     4.0182     3.3826     3.0507   892.0593
 2910.5000     8.7855   161.4258     2.5057     0.0494     0.3491   -70.3958     3.3744     3.1136     3.0503   892.2955
 2911.0000     8.7852   175.2783     2.4977     0.0434     0.3463   -70.2039     2.9130     3.2297     3.0781   892.4530
 2911.5000     8.7849   210.1555     2.4878     0.0334     0.3348   -70.2094     2.8859     3.3812     3.1058   892.6892
 2912.0000     8.7252   212.5286     2.4788     0.0174     0.3268   -70.0164     4.7372     3.6053     3.1629   892.8466
 2912.5000     8.7051   198.2190     2.4907     0.0094     0.3177   -70.2194     6.1814     3.9155     3.2508   893.0041
 2913.0000     8.6883   150.6987     2.5037     0.0114     0.3045   -70.2249     6.5302     4.2918     3.4030   893.2403
