~VERSION INFORMATION
 VERS.                2.0:   CWLS LOG ASCII STANDARD - VERSION 2.0
 WRAP.                 NO:   ONE LINE PER DEPTH STEP
~WELL INFORMATION
#MNEM.UNIT      DATA TYPE    INFORMATION
#----------   ------------   ------------------------------
 STRT.F           36.0000:   START DEPTH
 STOP.F         3488.0000:   STOP DEPTH
 STEP.F            0.5000:   STEP LENGTH
 NULL.          -999.2500:   NO VALUE
 COMP. LAWRENCE - ALLISON  & ASSOCIATE:   COMPANY
 WELL. LAWRENCE "STX" #76-23:   WELL
 FLD .              NPR 3:   FIELD
 LOC .      S23 T38N R78W:   LOCATION
 CNTY.            NATRONA:   COUNTY
 STAT.            WYOMING:   STATE
 CTRY. UNITED STATES OF AMERICA:   COUNTRY
 SRVC.       SCHLUMBERGER:   SERVICE COMPANY
 DATE.        07-MAY-1982:   LOGDATE
 API .     49025108920000:   API NUMBER
~CURVE INFORMATION
#MNEM.UNIT       API CODE    CURVE DESCRIPTION
#----------   ------------   ------------------------------
 DEPT.F                  :   
 CORR.G/C3   45 356 01 00:   DENSITY CORRECTION
 CALD.IN     45 280 60 00:   CALIPER FROM DENSITY LOG
 GRD .GAPI   45 310 01 00:   GAMMA RAY FROM DENSITY LOG
 RHOB.G/C3   45 350 01 00:   BULK DENSITY
 SFL .OHMM   07 220 01 00:   SHALLOW FOCUSED LOG RESISTIVITY
 ILD .OHMM   07 120 46 00:   DEEP INDUCTION RESISTIVITY
 ILM .OHMM   07 120 44 00:   INDUCTION LOG MEDIUM RESISTIVITY
 TENR.LBS    07 635 01 00:   TENSION
 SPR .MV     07 010 01 00:   SPONTANEOUS POTENTIAL
 NPHI.DEC    42 890 03 00:   NEUTRON POROSITY SANDSTONE
 TEND.LBS    45 635 01 00:   TENSION FROM DENSITY LOG
~PARAMETER INFORMATION
#MNEM.UNIT          VALUE    DESCRIPTION
#----------   ------------   ------------------------------
 EKB .F         5441.0000:   Kelly bushing
 EGL .F         5431.0000:   Ground level
 EDF .F            0.0000:   Drilling floor
 EPD .F            0.0000:   Permanent datum
 TD  .F         3788.0000:   Total depth
 DATE.        07-MAY-1982:   Date logged
 CLNT.            A2DTECH:   Client Code
 SL  . 1327' FSL & 1190' FEL:   Surface Location
 PD  .                 GL:   Permanent Datum
 DAPD.F                10:   Feet Above Permanent Datum
 DD  .F              3788:   Depth driller
 DL  .F              3478:   Depth logger
 BLI .F              3471:   Bottom log interval
 TLI .F              1615:   Top log interval
 CS1 .IN            9.625:   Casing size
 CBD1.     9.625" @ 1603':   Casing driller 1
 CBL1.F              1615:   Casing logger 1
 BS1 .IN            7.875:   Bit size
 BSD1.F              3788:   Depth drilled with bit1
 DFT .                AIR:   Type fluid in hole
 TCS .HRS            1230:   Time Circ. stopped
 TLAB.HRS            1500:   Time logger at bottom
 MRT .F               125:   Maximum recorded temp.
 LUN .               8035:   Logging unit number
 LUL .               CSPR:   Logging unit location
 ENGI.              PENNY:   Recorded By
 WITN.    JENNINGS/STRONG:   Witnessed by
 ORIG.       2.5"5" PRINT:   Origin of data
 UWI .     49025108920000:   Unique Well ID
 DICO. A2D TECHNOLOGIES, INC.:   Digitizing Company
~OTHER INFORMATION
~A   DEPT       CORR     CALD        GRD         RHOB      SFL        ILD        ILM       TENR        SPR        NPHI      TEND   
# ...
 2079.5000     0.1420    12.2700   148.6710     2.5170  -999.2500     7.8720     7.8720  1912.5811  -999.2500  -999.2500  -999.2500
 2080.0000     0.1270    12.2700   150.8030     2.4990  -999.2500     7.8590     7.8590  1913.1240  -999.2500  -999.2500  -999.2500
 2080.5000     0.1250    12.2600   150.6840     2.4830  -999.2500     7.8450     7.8450  1913.6670  -999.2500  -999.2500  -999.2500
 2081.0000     0.1590    12.1900   147.0090     2.4860  -999.2500     7.8320     7.8320  1914.2100  -999.2500  -999.2500  -999.2500
 2081.5000     0.1860    12.1310   142.4260     2.5020  -999.2500     7.8180     7.8180  1914.7531  -999.2500  -999.2500  -999.2500
 2082.0000     0.1880    12.1550   143.5550     2.5090  -999.2500     7.8040     7.8040  1915.2960  -999.2500  -999.2500  -999.2500
 2082.5000     0.1800    12.1770   145.4920     2.4930  -999.2500     7.7910     7.7910  1915.8390  -999.2500  -999.2500  -999.2500
 2083.0000     0.1900    12.1980   145.4000     2.4800  -999.2500     7.7770     7.7770  1916.3820  -999.2500  -999.2500  -999.2500
 2083.5000     0.2180    12.2200   142.9800     2.4670  -999.2500     7.7630     7.7630  1916.9250  -999.2500  -999.2500  -999.2500
 2084.0000     0.1900    12.1710   139.3560     2.4520  -999.2500     7.7500     7.7500  1917.4670  -999.2500  -999.2500  -999.2500
 2084.5000     0.1350    12.0730   136.0790     2.4360  -999.2500     7.7360     7.7360  1918.0100  -999.2500  -999.2500  -999.2500
 2085.0000     0.0800    12.0790   138.5400     2.4270  -999.2500     7.7220     7.7220  1918.5530  -999.2500  -999.2500  -999.2500
 2085.5000     0.0430    12.1060   147.4320     2.4390  -999.2500     7.7090     7.7090  1919.1920  -999.2500  -999.2500  -999.2500
 2086.0000     0.0800    12.1940   152.4930     2.4820  -999.2500     7.6950     7.6950  1919.1920  -999.2500  -999.2500  -999.2500
 2086.5000     0.1140    12.2830   156.3880     2.5120  -999.2500     7.6820     7.6820  1919.1920  -999.2500  -999.2500  -999.2500
 2087.0000     0.1420    12.3710   162.8010     2.5200  -999.2500     7.6680     7.6680  1919.1920  -999.2500  -999.2500  -999.2500
 2087.5000     0.1280    12.4590   165.2670     2.4840  -999.2500     7.6540     7.6540  1919.1920  -999.2500  -999.2500  -999.2500
 2088.0000     0.1010    12.5320   157.2890     2.4480  -999.2500     7.6410     7.6410  1919.1920  -999.2500  -999.2500  -999.2500
 2088.5000     0.1310    12.4990   144.3860     2.4670  -999.2500     7.6270     7.6270  1919.1920  -999.2500  -999.2500  -999.2500
 2089.0000     0.2430    12.4490   147.8950     2.5220  -999.2500     7.6130     7.6130  1919.1920  -999.2500  -999.2500  -999.2500
 2089.5000     0.2420    12.3990   150.7400     2.4810  -999.2500     7.6000     7.6000  1919.1920  -999.2500  -999.2500  -999.2500
 2090.0000     0.2420    12.3500   155.5190     2.4140  -999.2500     7.5860     7.5860  1919.1920  -999.2500  -999.2500  -999.2500
 2090.5000     0.2350    12.3170   157.9260     2.3580  -999.2500     7.5720     7.5720  1919.1920  -999.2500  -999.2500  -999.2500
 2091.0000     0.2310    12.3580   157.4790     2.3750  -999.2500     7.5590     7.5590  1919.1920  -999.2500  -999.2500  -999.2500
 2091.5000     0.2310    12.3970   154.1820     2.4260  -999.2500     7.5450     7.5450  1919.1920  -999.2500  -999.2500  -999.2500
 2092.0000     0.2030    12.4360   149.8510     2.4070  -999.2500     7.5310     7.5310  1919.1920  -999.2500  -999.2500  -999.2500
 2092.5000     0.1330    12.4440   146.7120     2.2860  -999.2500     7.5180     7.5180  1919.1920  -999.2500  -999.2500  -999.2500
 2093.0000     0.0910    12.4350   143.9180     2.3050  -999.2500     7.5040     7.5040  1919.1920  -999.2500  -999.2500  -999.2500
 2093.5000     0.1060    12.4140   143.5520     2.3500  -999.2500     7.4910     7.4910  1919.1920  -999.2500  -999.2500  -999.2500
 2094.0000     0.1380    12.4250   143.9220     2.3850  -999.2500     7.4760     7.4760  1919.1920  -999.2500  -999.2500  -999.2500
 2094.5000     0.1690    12.4380   145.5940     2.3130  -999.2500     7.4630     7.4630  1919.1920  -999.2500  -999.2500  -999.2500
 2095.0000     0.2010    12.4220   147.2500     2.2860  -999.2500     7.4290     7.4290  1919.1920  -999.2500  -999.2500  -999.2500
 2095.5000     0.2280    12.3000   145.8560     2.2830  -999.2500     7.3900     7.3900  1919.1920  -999.2500  -999.2500  -999.2500
 2096.0000     0.2370    12.1800   143.2480     2.1940  -999.2500     7.3510     7.3510  1919.1920  -999.2500  -999.2500  -999.2500
 2096.5000     0.2370    12.0600   140.4820     2.0870  -999.2500     7.3110     7.3110  1919.1920  -999.2500  -999.2500  -999.2500
 2097.0000     0.2370    11.9500   140.5580     2.0230  -999.2500     7.2720     7.2720  1919.1920  -999.2500  -999.2500  -999.2500
 2097.5000     0.2380    11.9730   141.6660     2.1170  -999.2500     7.2330     7.2330  1919.1920  -999.2500  -999.2500  -999.2500
 2098.0000     0.2380    12.1790   144.9000     2.2100  -999.2500     7.1930     7.1930  1919.1920  -999.2500  -999.2500  -999.2500
 2098.5000     0.2380    12.9610   146.7840     2.1090  -999.2500     7.1540     7.1540  1919.1920  -999.2500  -999.2500  -999.2500
 2099.0000     0.2380    13.3310   147.2820     2.0010  -999.2500     7.1150     7.1150  1919.1920  -999.2500  -999.2500  -999.2500
 2099.5000     0.2330    13.5660   147.7920     2.0070  -999.2500     7.0750     7.0750  1919.1920  -999.2500  -999.2500  -999.2500
 2100.0000     0.2110    13.6950   147.6730     2.0290  -999.2500     7.0360     7.0360  1919.1920  -999.2500  -999.2500  -999.2500
 2100.5000     0.2380    13.8230   146.9160     2.1950  -999.2500     6.9970     6.9970  1919.1920  -999.2500  -999.2500  -999.2500
 2101.0000     0.2390    14.4310   146.0850     2.1950  -999.2500     6.9570     6.9570  1919.1920  -999.2500  -999.2500  -999.2500
 2101.5000     0.2400    15.5180   148.2780     2.0660  -999.2500     6.9180     6.9180  1919.1920  -999.2500  -999.2500  -999.2500
 2102.0000     0.2410    16.1240   151.7620     1.9450  -999.2500     6.8790     6.8790  1919.1920  -999.2500  -999.2500  -999.2500
 2102.5000     0.2410    16.3080   156.3970     1.7760  -999.2500     6.8390     6.8390  1919.1920  -999.2500  -999.2500  -999.2500
 2103.0000     0.2080    16.7370   159.4340     1.5460  -999.2500     6.8000     6.8000  1919.1920  -999.2500  -999.2500  -999.2500
 2103.5000     0.1490    17.3670   159.1700     1.1850  -999.2500     6.7610     6.7610  1919.1920  -999.2500  -999.2500  -999.2500
 2104.0000     0.0990    17.6560   159.7360     1.2990  -999.2500     6.7210     6.7210  1919.1920  -999.2500  -999.2500  -999.2500
 2104.5000     0.1940    15.8920   160.4960     1.6230  -999.2500     6.6720     6.6720  1919.1920  -999.2500  -999.2500  -999.2500
 2105.0000     0.2390    15.0190   160.0300     2.0730  -999.2500     6.6900     6.6900  1919.1920  -999.2500  -999.2500  -999.2500
 2105.5000     0.2380    14.2910   158.2980     2.0450  -999.2500     6.7410     6.7410  1919.1920  -999.2500  -999.2500  -999.2500
 2106.0000     0.2190    14.3130   156.5660     1.9710  -999.2500     6.7930     6.7930  1919.1920  -999.2500  -999.2500  -999.2500
 2106.5000     0.2400    14.3180   155.3680     1.8740  -999.2500     6.8440     6.8440  1919.1920  -999.2500  -999.2500  -999.2500
 2107.0000     0.2390    14.0120   154.5140     1.8930  -999.2500     6.8950     6.8950  1919.1920  -999.2500  -999.2500  -999.2500
 2107.5000     0.2370    13.6400   153.7160     1.9390  -999.2500     6.9460     6.9460  1919.1920  -999.2500  -999.2500  -999.2500
 2108.0000     0.2460    13.2680   151.7040     1.9850  -999.2500     6.9970     6.9970  1919.1920  -999.2500  -999.2500  -999.2500
 2108.5000     0.1470    12.9030   149.8170     2.0710  -999.2500     7.0550     7.0550  1919.1920  -999.2500  -999.2500  -999.2500
 2109.0000     0.1550    12.6230   148.2860     2.1800  -999.2500     7.0550     7.0550  1919.1920  -999.2500  -999.2500  -999.2500
 2109.5000     0.1640    12.4670   146.6940     2.3150  -999.2500     7.2660     7.2660  1919.1920  -999.2500  -999.2500  -999.2500
