~VERSION INFORMATION
 VERS.                2.0:   CWLS LOG ASCII STANDARD - VERSION 2.0
 WRAP.                 NO:   ONE LINE PER DEPTH STEP
~WELL INFORMATION
#MNEM.UNIT      DATA TYPE    INFORMATION
#----------   ------------   ------------------------------
 STRT.F           72.5000:   START DEPTH
 STOP.F         2820.0000:   STOP DEPTH
 STEP.F            0.5000:   STEP LENGTH
 NULL.          -999.2500:   NO VALUE
 COMP.          INTEX OIL:   COMPANY
 WELL. INTEX OIL AX N. P. R. #51-29:   WELL
 FLD .             TEAPOT:   FIELD
 LOC .      S29 T39N R78W:   LOCATION
 CNTY.            NATRONA:   COUNTY
 STAT.            WYOMING:   STATE
 CTRY. UNITED STATES OF AMERICA:   COUNTRY
 SRVC.       SCHLUMBERGER:   SERVICE COMPANY
 DATE.        01-MAY-1966:   LOGDATE
 API .     49025094920000:   API NUMBER
~CURVE INFORMATION
#MNEM.UNIT       API CODE    CURVE DESCRIPTION
#----------   ------------   ------------------------------
 DEPT.F                  :   
 GRD .GAPI   45 310 01 00:   GAMMA RAY FROM DENSITY LOG
 CALD.IN     45 280 60 00:   CALIPER FROM DENSITY LOG
 RHOB.G/C3   45 350 01 00:   BULK DENSITY
 CORR.G/C3   45 356 01 00:   DENSITY CORRECTION
 SPR .MV     07 010 01 00:   SPONTANEOUS POTENTIAL
 ASN .OHMM   05 041 16 00:   AMPLIFIED SHORT NORMAL 16"
 ILD .OHMM   05 120 46 00:   DEEP INDUCTION RESISTIVITY
 DT  .US/F   60 520 00 00:   DELTA TIME
~PARAMETER INFORMATION
#MNEM.UNIT          VALUE    DESCRIPTION
#----------   ------------   ------------------------------
 EKB .F         5007.3000:   Kelly bushing
 EGL .F         4997.0000:   Ground level
 EDF .F            0.0000:   Drilling floor
 TD  .F         2799.0000:   Total depth
 DATE.        01-MAY-1966:   Date logged
 CLNT.            A2DTECH:   Client Code
 PD  .                 GL:   Permanent Datum
 EPD .F              4997:   Elevation Permanent Datum
 LMF .                 KB:   Log Measured From
 DMF .                 KB:   Drilling Measured From
 DAPD.F              10.3:   Feet Above Permanent Datum
 DD  .F              2798:   Depth driller
 DL  .F              2799:   Depth logger
 BLI .F              2798:   Bottom log interval
 TLI .F                88:   Top log interval
 CS1 .IN            10.75:   Casing size
 CBD1.       10.75" @ 30':   Casing driller 1
 BS1 .IN            7.875:   Bit size
 BSD1.F              2798:   Depth drilled with bit1
 DFT .           CHEM/OIL:   Type fluid in hole
 DFD .                9.5:   Density
 DFV .                 46:   Viscosity
 DFPH.                7.2:   pH
 DFL .                7.0:   Fluid loss
 MSS .         CIRCULATED:   Source of sample
 RMS .OHMM           2.28:   Rm
 MST .F                68:   Rm Meas. temp.
 RMF .OHMM           1.32:   Rmf
 MFST.F                72:   Rmf Meas. temp.
 MFSS.                 FP:   Source Rmf.
 RMB .OHMM           1.52:   Rm. at BHT
 BHT .F               102:   BHT.
 TCS .HRS             1.5:   Time Circ. stopped
 MRT .F               102:   Maximum recorded temp.
 LUN .               4507:   Logging unit number
 LUL .               CSPR:   Logging unit location
 ENGI.               HAUG:   Recorded By
 WITN.      TUTTLE/HUDSON:   Witnessed by
 ORIG.           5" PRINT:   Origin of data
 UWI .     49025094920000:   Unique Well ID
 DICO. A2D TECHNOLOGIES, INC.:   Digitizing Company
~OTHER INFORMATION
~A   DEPT      GRD       CALD       RHOB       CORR        SPR        ASN        ILD         DT   
# ...
 2583.5000   101.4360     8.4600     2.4810    -0.0180   -28.7360     8.8590     6.4940    85.0570
 2584.0000   101.4390     8.4700     2.4880    -0.0130   -28.5920     9.5550     6.6840    83.8800
 2584.5000   101.9330     8.4700     2.5010    -0.0060   -28.6020    10.0000     6.9200    82.7030
 2585.0000   103.4770     8.4700     2.4960    -0.0040   -28.7120    10.0320     7.2590    82.3620
 2585.5000   104.8340     8.4700     2.4770    -0.0120   -28.8310    10.3060     7.6470    82.4950
 2586.0000   106.5720     8.4700     2.4900    -0.0190   -28.9200    11.0680     8.0100    82.5770
 2586.5000   105.0070     8.4700     2.5230    -0.0130   -29.0030    11.8290     8.3630    81.9090
 2587.0000   100.1970     8.4700     2.5290    -0.0140   -29.1150    12.4450     8.7400    80.0620
 2587.5000    95.1410     8.4710     2.5190    -0.0180   -29.2350    13.0790     9.0570    77.6760
 2588.0000    89.6410     8.4620     2.5220    -0.0170   -29.3010    13.6930     9.1440    75.2910
 2588.5000    85.8910     8.4390     2.5070    -0.0120   -29.2800    14.0920     8.9070    72.9050
 2589.0000    88.7220     8.4280     2.5130    -0.0100   -29.2010    13.9900     8.4240    71.2620
 2589.5000    99.2010     8.4300     2.5240    -0.0080   -29.1160    13.0120     7.8620    73.4870
 2590.0000   106.3790     8.4330     2.5360     0.0060   -29.0410    11.5160     7.3430    76.9230
 2590.5000   111.4160     8.4680     2.5430     0.0110   -28.9640    10.3360     6.8710    80.3580
 2591.0000   116.7630     8.4970     2.5180     0.0050   -28.8880     9.8170     6.3620    84.3170
 2591.5000   121.1140     8.5320     2.4840    -0.0020   -28.8240     9.5370     5.7850    85.6820
 2592.0000   122.4410     8.5500     2.4880    -0.0090   -28.7510     9.1520     5.2560    85.9170
 2592.5000   123.4940     8.5430     2.4920    -0.0150   -28.6490     8.7850     4.9580    86.1010
 2593.0000   124.4580     8.5400     2.4830    -0.0230   -28.5660     8.5450     4.9340    86.2860
 2593.5000   123.9240     8.5350     2.4880    -0.0200   -28.5910     8.3260     5.0310    86.4710
 2594.0000   122.0300     8.5300     2.4920    -0.0130   -28.7360     8.1100     5.0820    86.1590
 2594.5000   120.1200     8.5260     2.5010    -0.0180   -28.8930     8.0120     5.0650    85.8460
 2595.0000   119.7830     8.5210     2.4840    -0.0160   -28.9500     8.0470     5.0510    85.5330
 2595.5000   119.5070     8.5170     2.5050    -0.0100   -28.9140     8.0840     5.0730    85.8420
 2596.0000   119.4240     8.5120     2.4990    -0.0030   -28.8650     8.0240     5.0970    86.4690
 2596.5000   119.9430     8.5130     2.4890    -0.0090   -28.8470     7.9140     5.1020    86.5210
 2597.0000   120.7370     8.5220     2.4910    -0.0040   -28.8370     7.8290     5.1030    86.4440
 2597.5000   121.5360     8.5290     2.5020    -0.0030   -28.8130     7.7540     5.1150    86.3720
 2598.0000   124.7450     8.5370     2.4760    -0.0080   -28.7830     7.6820     5.1290    86.7370
 2598.5000   127.5330     8.5450     2.4670    -0.0130   -28.7610     7.6050     5.1370    87.1380
 2599.0000   129.5180     8.5530     2.4710    -0.0160   -28.7420     7.5510     5.1440    87.5380
 2599.5000   129.5560     8.5600     2.4800    -0.0120   -28.7160     7.5490     5.1570    87.2290
 2600.0000   129.3750     8.5680     2.4960    -0.0080   -28.6910     7.5900     5.1700    86.3390
 2600.5000   126.3970     8.5760     2.5120    -0.0040   -28.6740     7.6470     5.1750    86.1780
 2601.0000   123.9760     8.5840     2.5110    -0.0040   -28.6550     7.7140     5.1800    86.3870
 2601.5000   121.4560     8.5900     2.5100    -0.0060   -28.6220     7.7980     5.1990    86.4830
 2602.0000   121.2140     8.5860     2.4980    -0.0090   -28.5900     7.8820     5.2200    85.7330
 2602.5000   121.9260     8.5820     2.4940    -0.0080   -28.5870     7.9160     5.1930    85.1230
 2603.0000   122.7720     8.5780     2.5120     0.0010   -28.5860     7.8780     5.0720    85.4560
 2603.5000   124.5920     8.5740     2.5070    -0.0030   -28.4980     7.7980     4.8820    85.7890
 2604.0000   126.4700     8.5700     2.5000    -0.0140   -28.2700     7.7060     4.7150    86.1230
 2604.5000   128.4400     8.5660     2.5040    -0.0050   -27.9850     7.5860     4.6510    86.4710
 2605.0000   130.2380     8.5620     2.4970    -0.0120   -27.8010     7.4350     4.6910    87.0440
 2605.5000   132.3650     8.5580     2.4970     0.0000   -27.7890     7.3240     4.7700    87.6440
 2606.0000   131.5180     8.5540     2.4970    -0.0030   -27.8810     7.3160     4.8370    88.2600
 2606.5000   129.1600     8.5500     2.4920    -0.0070   -27.9730     7.3820     4.8890    86.9020
 2607.0000   127.0870     8.5460     2.4850    -0.0120   -28.0360     7.4540     4.9470    87.6640
 2607.5000   124.8330     8.5420     2.4770    -0.0160   -28.1000     7.5540     5.0100    86.4830
 2608.0000   124.1020     8.5380     2.4700    -0.0080   -28.1790     7.7380     5.0680    85.2780
 2608.5000   125.1400     8.5340     2.4820     0.0070   -28.2540     7.9480     5.1250    85.7880
 2609.0000   125.7630     8.5310     2.5030     0.0010   -28.3210     8.0450     5.1910    86.4270
 2609.5000   126.6100     8.5270     2.4990    -0.0120   -28.4000     8.0110     5.2550    87.0650
 2610.0000   127.8210     8.5230     2.4810    -0.0100   -28.4830     8.0010     5.3010    87.1270
 2610.5000   128.2040     8.5190     2.4700    -0.0090   -28.5050     8.1080     5.3460    86.6830
 2611.0000   127.6170     8.5150     2.4750    -0.0180   -28.3900     8.2150     5.4500    87.1500
 2611.5000   126.8000     8.5100     2.4920    -0.0170   -28.1450     8.1940     5.6400    87.5730
 2612.0000   123.8080     8.5120     2.5040    -0.0140   -27.9010     8.1790     5.8720    87.9960
 2612.5000   121.3620     8.5130     2.4990    -0.0110   -27.8210     8.4520     6.0820    87.8630
 2613.0000   117.9900     8.5150     2.5020    -0.0090   -27.9390     9.0540     6.2710    85.5880
 2613.5000   113.9920     8.5170     2.5040    -0.0190   -28.1000     9.6690     6.4900    82.6420
 2614.0000   109.8320     8.5190     2.4950    -0.0210   -28.1030     9.9600     6.7370    79.5650
 2614.5000   107.5740     8.5210     2.4900    -0.0120   -27.9210     9.9220     6.9280    77.5110
 2615.0000   108.7750     8.5230     2.4940     0.0000   -27.7580     9.8190     6.9900    78.1910
 2615.5000   110.3040     8.5250     2.4970    -0.0060   -27.8350     9.8430     6.9500    78.8710
 2616.0000   111.7170     8.5270     2.5010    -0.0120   -28.1460     9.9390     6.8910    79.5510
 2616.5000   113.1990     8.5290     2.5050    -0.0070   -28.4530     9.9380     6.8600    80.2310
 2617.0000   114.6090     8.5310     2.5070    -0.0100   -28.5040     9.7940     6.8390    81.1740
 2617.5000   116.0920     8.5330     2.5020    -0.0100   -28.2610     9.6470     6.8090    82.7240
 2618.0000   116.9950     8.5340     2.5170    -0.0050   -27.9310     9.6480     6.7700    83.6060
 2618.5000   117.1860     8.5360     2.5080    -0.0110   -27.8010     9.7660     6.7340    82.0310
 2619.0000   116.2370     8.5380     2.5030    -0.0150   -27.9790     9.8620     6.7020    80.4560
 2619.5000   116.6650     8.5400     2.5000    -0.0050   -28.2920     9.8890     6.6750    78.8810
 2620.0000   118.5870     8.5420     2.4900    -0.0080   -28.4590     9.9090     6.6440    77.5250
 2620.5000   121.1190     8.5440     2.4950    -0.0140   -28.3650     9.9160     6.5880    77.8090
 2621.0000   123.6590     8.5460     2.5070    -0.0080   -28.1270     9.7880     6.4760    80.8850
 2621.5000   126.1460     8.5480     2.5150    -0.0020   -27.8940     9.4910     6.3020    83.3850
 2622.0000   128.1600     8.5500     2.5190     0.0040   -27.6940     9.1700     6.0980    84.3650
 2622.5000   126.9300     8.5490     2.5230    -0.0030   -27.5160     8.9720     5.9040    83.6370
 2623.0000   125.1930     8.5460     2.5250    -0.0110   -27.4290     8.8900     5.7410    82.8930
 2623.5000   123.0370     8.5440     2.5110    -0.0160   -27.5170     8.8340     5.6000    83.1370
