~VERSION INFORMATION
 VERS.                2.0:   CWLS LOG ASCII STANDARD - VERSION 2.0
 WRAP.                 NO:   ONE LINE PER DEPTH STEP
~WELL INFORMATION
#MNEM.UNIT      DATA TYPE    INFORMATION
#----------   ------------   ------------------------------
 STRT.F           81.0000:   START DEPTH
 STOP.F          910.0000:   STOP DEPTH
 STEP.F            0.5000:   STEP LENGTH
 NULL.          -999.2500:   NO VALUE
 COMP.         U. S. NAVY:   COMPANY
 WELL. US NAVY NPR 3 "S" #37-35:   WELL
 FLD .             TEAPOT:   FIELD
 LOC .      S35 T39N R78W:   LOCATION
 CNTY.            NATRONA:   COUNTY
 STAT.            WYOMING:   STATE
 CTRY. UNITED STATES OF AMERICA:   COUNTRY
 SRVC.       SCHLUMBERGER:   SERVICE COMPANY
 DATE.        22-JUL-1963:   LOGDATE
 API .     49025065040000:   API NUMBER
~CURVE INFORMATION
#MNEM.UNIT       API CODE    CURVE DESCRIPTION
#----------   ------------   ------------------------------
 DEPT.F                  :   
 SPR .MV     05 010 01 00:   SPONTANEOUS POTENTIAL FROM RES.
 ASN .OHMM   05 041 16 00:   AMPLIFIED SHORT NORMAL 16"
 ILD .OHMM   05 120 46 00:   INDUCTION LOG DEEP
~PARAMETER INFORMATION
#MNEM.UNIT          VALUE    DESCRIPTION
#----------   ------------   ------------------------------
 EKB .F         5113.0000:   Kelly bushing
 EGL .F         5108.0000:   Ground level
 TD  .F          900.0000:   Total depth
 DATE.        22-JUL-1963:   Date logged
 CLNT.            A2DTECH:   Client Code
 PD  .                 GL:   Permanent Datum
 EPD .F              5108:   Elevation Permanent Datum
 LMF .                 KB:   Log Measured From
 DMF .                 KB:   Drilling Measured From
 DAPD.F                 5:   Feet Above Permanent Datum
 DD  .F               900:   Depth driller
 DL  .F               900:   Depth logger
 BLI .F               899:   Bottom log interval
 TLI .F                81:   Top log interval
 BS1 .IN            7.875:   Bit size
 BSD1.F               900:   Depth drilled with bit1
 DFT .                GEL:   Type fluid in hole
 DFD .                9.6:   Density
 DFV .                 67:   Viscosity
 DFPH.                  9:   pH
 DFL .                4.8:   Fluid loss
 MSS .           FLOWLINE:   Source of sample
 RMS .OHMM            3.4:   Rm
 MST .F                77:   Rm Meas. temp.
 RMF .OHMM            3.3:   Rmf
 MFST.F                77:   Rmf Meas. temp.
 RMC .OHMM            3.8:   Rmc
 MCST.F                77:   Rmc Meas. temp.
 MFSS.                 FP:   Source Rmf.
 TCS .HRS               1:   Time Circ. stopped
 LUN .               2523:   Logging unit number
 LUL .               CSPR:   Logging unit location
 ENGI.            GIFFORD:   Recorded By
 WITN.          JORGENSON:   Witnessed by
 ORIG.           5" PRINT:   Origin of data
 UWI .     49025065040000:   Unique Well ID
 DICO. A2D TECHNOLOGIES, INC.:   Digitizing Company
~OTHER INFORMATION
~A   DEPT      SPR        ASN        ILD   
   81.0000   -55.4480  -999.2500  -999.2500
   81.5000   -55.4360  -999.2500  -999.2500
   82.0000   -55.4240  -999.2500  -999.2500
   82.5000   -55.4120  -999.2500  -999.2500
   83.0000   -55.4030  -999.2500  -999.2500
   83.5000   -55.3910  -999.2500     2.4460
   84.0000   -55.3790     2.8670     3.3300
   84.5000   -55.3670     3.9300     4.2130
   85.0000   -55.3550     4.9940     4.8670
   85.5000   -55.3420     5.7840     5.5510
   86.0000   -55.3300     6.0110     5.5690
   86.5000   -55.3180     6.0830     5.6010
   87.0000   -55.3060     6.1590     5.6740
   87.5000   -55.2940     6.3690     5.9110
   88.0000   -55.2820     6.6720     6.1460
   88.5000   -55.2710     6.9760     6.3800
   89.0000   -55.2590     7.2690     6.6160
   89.5000   -55.2990     7.2330     6.8560
   90.0000   -55.3680     7.1800     6.8700
   90.5000   -55.4360     7.1360     6.6790
   91.0000   -55.5050     7.1310     6.4920
   91.5000   -55.5740     7.1430     6.3040
   92.0000   -55.6430     6.9800     6.1160
   92.5000   -55.7120     6.7230     5.9290
   93.0000   -55.7810     6.4560     5.7420
   93.5000   -55.8500     6.1870     5.5560
   94.0000   -55.8070     5.9850     5.4060
   94.5000   -55.7230     5.9230     5.3330
   95.0000   -55.6400     5.8730     5.4010
   95.5000   -55.5560     5.9690     5.4990
   96.0000   -55.4720     6.0820     5.5980
   96.5000   -55.3890     6.1900     5.6980
   97.0000   -55.3050     6.2970     5.7980
   97.5000   -55.2210     6.3850     5.8970
   98.0000   -55.1370     6.4370     5.9970
   98.5000   -55.0540     6.5020     6.0960
   99.0000   -54.9700     6.5780     6.1960
   99.5000   -54.8840     6.6890     6.2950
  100.0000   -54.8520     6.7970     6.3950
  100.5000   -54.8360     6.9060     6.4990
  101.0000   -54.8210     7.0160     6.4500
  101.5000   -54.8060     7.0220     6.3520
  102.0000   -54.7910     7.0190     6.2520
  102.5000   -54.7760     6.9280     6.1510
  103.0000   -54.7610     6.8270     6.0510
  103.5000   -54.7460     6.8190     5.9510
  104.0000   -54.7320     6.7000     5.8500
  104.5000   -54.7170     6.5720     5.7500
  105.0000   -54.7020     6.4460     5.6490
  105.5000   -54.6870     6.3690     5.5450
  106.0000   -54.6720     6.3820     5.6230
  106.5000   -54.6630     6.7930     5.7390
  107.0000   -54.6630     6.8800     5.8560
  107.5000   -54.6630     6.9430     5.9120
  108.0000   -54.6630     7.0110     5.8790
  108.5000   -54.6630     6.8670     5.8480
  109.0000   -54.6640     6.4200     5.8160
  109.5000   -54.7090     6.1710     5.7840
  110.0000   -54.8240     6.2540     5.7540
  110.5000   -54.9380     6.4500     5.7980
  111.0000   -55.0520     6.6420     6.0980
  111.5000   -55.1660     6.7860     6.3880
  112.0000   -55.2790     6.7900     6.3900
  112.5000   -55.3930     6.7980     6.3530
  113.0000   -55.4550     6.7780     6.3160
  113.5000   -55.2930     6.7300     6.2780
  114.0000   -55.1050     6.6830     6.2400
  114.5000   -54.9170     6.6350     6.2030
  115.0000   -54.7280     6.5810     6.1650
  115.5000   -54.5400     6.6150     6.1280
  116.0000   -54.3520     6.6800     6.1800
  116.5000   -54.1650     6.7470     6.2370
  117.0000   -54.1200     6.8050     6.2940
  117.5000   -54.3120     6.8800     6.3510
  118.0000   -54.4980     6.9810     6.4080
  118.5000   -54.6510     7.0810     6.4650
  119.0000   -54.5780     7.1810     6.5220
  119.5000   -54.5010     7.2760     6.5790
  120.0000   -54.4660     7.3670     6.6360
  120.5000   -54.5820     7.3850     6.6930
  121.0000   -54.7960     7.3490     6.7500
  121.5000   -55.0120     7.3140     6.8070
  122.0000   -55.0550     7.2840     6.8640
  122.5000   -54.9580     7.3330     6.9210
  123.0000   -54.8530     7.3850     6.9780
  123.5000   -54.7490     7.5100     7.0340
  124.0000   -54.6590     7.6320     7.0910
  124.5000   -54.6220     7.7270     7.0700
  125.0000   -54.5160     7.7490     6.9660
  125.5000   -54.4110     7.7730     6.8620
  126.0000   -54.3060     7.7970     6.7580
  126.5000   -54.2300     7.7840     6.6540
  127.0000   -54.1710     7.5590     6.5500
  127.5000   -54.1120     7.3170     6.4460
  128.0000   -54.0540     7.1910     6.3420
  128.5000   -53.9950     7.0960     6.2370
  129.0000   -53.9360     6.8080     6.1320
  129.5000   -53.8770     6.7490     6.0340
  130.0000   -53.8770     7.0760     6.1590
  130.5000   -54.0400     7.3620     6.2940
  131.0000   -54.2040     7.4780     6.4270
  131.5000   -54.3660     7.4860     6.5560
  132.0000   -54.5290     7.4950     6.6860
  132.5000   -54.6910     7.5310     6.8160
  133.0000   -54.8530     7.6060     6.9460
  133.5000   -55.0140     7.6880     7.0780
  134.0000   -55.1760     7.9350     7.2680
  134.5000   -55.1510     8.1820     7.6040
  135.0000   -54.9470     8.4820     7.9380
  135.5000   -54.7450     8.8480     8.2690
  136.0000   -54.5410     9.2270     8.5090
  136.5000   -54.3370     9.3570     8.4520
  137.0000   -54.1330     9.0070     8.4010
  137.5000   -53.9300     8.6530     8.3510
  138.0000   -53.7250     9.0680     8.3010
  138.5000   -53.5140     9.4750     8.2510
  139.0000   -53.6070     9.2560     8.2010
  139.5000   -53.7760     8.9540     8.1510
  140.0000   -53.9480     8.6480     8.1010
  140.5000   -54.1200     8.5390     8.0500
  141.0000   -54.2920     8.4840     8.0000
  141.5000   -54.4580     8.4300     7.9500
  142.0000   -54.4100     8.3770     7.9180
  142.5000   -54.3230     8.3250     7.9000
  143.0000   -54.2350     8.2720     7.8680
  143.5000   -54.1470     8.2180     7.8350
  144.0000   -54.0590     8.2150     7.8030
  144.5000   -53.9710     8.2420     7.7710
  145.0000   -53.8830     8.2700     7.7390
  145.5000   -53.8410     8.2980     7.7070
  146.0000   -53.7770     8.2500     7.6750
  146.5000   -53.7140     8.1990     7.6420
  147.0000   -53.6510     8.2270     7.6100
  147.5000   -53.5870     8.2970     7.5780
  148.0000   -53.5240     8.3170     7.5460
  148.5000   -53.4600     8.2730     7.5140
  149.0000   -53.3970     8.2090     7.4810
  149.5000   -53.3340     8.1450     7.4490
  150.0000   -53.2700     8.0810     7.4240
  150.5000   -53.2070     8.0160     7.4930
  151.0000   -53.1430     7.9560     7.5600
  151.5000   -53.0800     7.8970     7.6260
  152.0000   -53.1270     7.8380     7.6930
  152.5000   -53.1830     7.7950     7.7590
  153.0000   -53.2390     7.9010     7.8250
  153.5000   -53.2940     7.9570     7.8920
  154.0000   -53.3500     7.9600     7.9580
  154.5000   -53.4050     8.1050     8.0240
  155.0000   -53.4610     8.0630     8.0910
  155.5000   -53.4500     7.9040     8.0840
  156.0000   -53.3380     7.9220     8.0310
  156.5000   -53.2270     8.0340     7.9780
  157.0000   -53.1150     8.0200     7.9250
  157.5000   -53.0990     7.9340     7.8710
  158.0000   -53.1510     7.8510     7.8180
  158.5000   -53.2020     7.8570     7.7640
  159.0000   -53.2540     7.9290     7.7110
  159.5000   -53.3060     7.9080     7.6580
  160.0000   -53.3580     7.8810     7.6190
  160.5000   -53.4090     8.1120     7.6120
  161.0000   -53.4610     8.1740     7.5980
  161.5000   -53.5130     8.1420     7.5840
  162.0000   -53.5650     8.0350     7.5690
  162.5000   -53.6160     7.9000     7.5550
  163.0000   -53.6680     7.7640     7.5410
  163.5000   -53.6260     7.7640     7.5260
  164.0000   -53.5500     7.9460     7.5500
  164.5000   -53.4730     8.1400     7.6000
  165.0000   -53.3960     8.2560     7.6500
  165.5000   -53.3190     8.3470     7.7000
  166.0000   -53.2420     8.3880     7.7500
  166.5000   -53.1650     8.4280     7.8000
  167.0000   -53.0870     8.5190     7.8510
  167.5000   -53.1030     8.6480     7.9010
  168.0000   -53.1340     8.7760     7.9510
  168.5000   -53.1660     8.7810     8.0010
  169.0000   -53.1980     8.7520     8.0520
  169.5000   -53.2290     8.7230     8.1020
  170.0000   -53.2610     8.7210     8.1520
  170.5000   -53.2930     8.8280     8.2050
  171.0000   -53.3250     8.8160     8.1820
  171.5000   -53.3570     8.7460     8.1350
