~VERSION INFORMATION
 VERS.                2.0:   CWLS LOG ASCII STANDARD - VERSION 2.0
 WRAP.                 NO:   ONE LINE PER DEPTH STEP
~WELL INFORMATION
#MNEM.UNIT      DATA TYPE    INFORMATION
#----------   ------------   ------------------------------
 STRT.F            0.5000:   START DEPTH
 STOP.F         4256.0000:   STOP DEPTH
 STEP.F            0.5000:   STEP LENGTH
 NULL.          -999.2500:   NO VALUE
 COMP. LAWRENCE-ALLISON & ASSOC:   COMPANY
 WELL. LAWRENCE "X" #64-15:   WELL
 FLD .        N.P.R. NO.3:   FIELD
 LOC .      S15 T38N R78W:   LOCATION
 CNTY.            NATRONA:   COUNTY
 STAT.            WYOMING:   STATE
 CTRY. UNITED STATES OF AMERICA:   COUNTRY
 SRVC.      DRESSER ATLAS:   SERVICE COMPANY
 DATE.        13-SEP-1984:   LOGDATE
 API .     49025111610000:   API NUMBER
~CURVE INFORMATION
#MNEM.UNIT       API CODE    CURVE DESCRIPTION
#----------   ------------   ------------------------------
 DEPT.F                  :   
 TENR.LBS    07 635 01 00:   TENSION FROM RESISTIVITY
 GRR .GAPI   07 310 01 00:   GAMMA RAY FROM RESISTIVITY
 RFOC.OHMM   07 220 04 00:   RESISTIVITY FOCUSED LOG RES.
 RILD.OHMM   07 120 46 00:   DEEP INDUCTION RESISTIVITY
 RILM.OHMM   07 120 44 00:   INDUCTION LOG MEDIUM RESISTIVITY
 SPR .MV     07 010 01 00:   SPONTANEOUS POTENTIAL
 DT  .US/F   60 520 00 00:   DELTA TIME
 TENS.LBS    60 635 01 00:   TENSION FROM SONIC
 CALD.IN     45 280 60 00:   CALIPER FROM DENSITY LOG
 TEND.LBS    45 635 01 00:   TENSION FORM DENSITY LOG
 CORR.G/C3   45 356 01 00:   DENSITY CORRECTION
 DEN .G/C3   45 350 01 00:   BULK DENSITY
 CNC .DEC    42 890 03 00:   NEUTRON POROSITY SANDSTONE
~PARAMETER INFORMATION
#MNEM.UNIT          VALUE    DESCRIPTION
#----------   ------------   ------------------------------
 EKB .F         5294.0000:   Kelly bushing
 EGL .F         5282.0000:   Ground level
 TD  .F         4256.0000:   Total depth
 CLNT.            A2DTECH:   Client Code
 SL  . 2299' FNL & 1785' FEL:   Surface Location
 PD  .                 GL:   Permanent Datum
 EPD .F              5282:   Elevation Permanent Datum
 LMF .                 KB:   Log Measured From
 DMF .                 KB:   Drilling Measured From
 DAPD.F                12:   Feet Above Permanent Datum
 DATE.        13-SEP-1984:   Date Logged [DD-MMM-YYYY]
 DD  .F              4256:   Depth driller
 DL  .F              4248:   Depth logger
 BLI .F              4246:   Bottom log interval
 TLI .F                 0:   Top log interval
 CS1 .IN            8.625:   Casing size
 CBD1.      8.625" @ 817':   Casing driller 1
 CBL1.F               814:   Casing logger 1
 BS1 .IN            7.875:   Bit size
 BSD1.F              4256:   Depth drilled with bit1
 DFT .            KCL-GEL:   Type fluid in hole
 DFD .                  9:   Density
 DFV .                 40:   Viscosity
 DFPH.                8.6:   pH
 DFL .               11.8:   Fluid loss
 MSS .            MUDTANK:   Source of sample
 RMS .OHMM           0.38:   Rm
 MST .F                74:   Rm Meas. temp.
 RMF .OHMM           0.31:   Rmf
 MFST.F                72:   Rmf Meas. temp.
 MFSS.               MEAS:   Source Rmf.
 RMC .OHMM           0.48:   Rmc
 MCST.F                74:   Rmc Meas. temp.
 MCSS.               CALC:   Source Rmc.
 RMB .OHMM           0.22:   Rm. at BHT
 BHT .F               134:   BHT.
 TCS .HRS               4:   Time Circ. stopped
 MRT .F               134:   Maximum recorded temp.
 LUN .            HL-6274:   Logging unit number
 LUL .           GILLETTE:   Logging unit location
 ENGI.             RAUTIO:   Recorded By
 WITN.            JOHNSON:   Witnessed by
 ORIG.        2" 5" PRINT:   Origin of data
 UWI .     49025111610000:   Unique Well ID
 DICO. A2D TECHNOLOGIES, INC.:   Digitizing Company
~OTHER INFORMATION
~A    DEPT    TENR         GRR      RFOC       RILD       RILM        SPR         DT       TENS       CALD       TEND       CORR        DEN        CNC   
# ...
 2158.5000   -89.7886   121.2030    10.9490     9.4227     9.3741   -29.8799    91.9224   -47.4935     8.8300   -45.8167     0.1077     2.5172     0.2764
 2159.0000   -93.5954   116.3910    11.1017     9.4857     9.4368   -29.8799    91.7813   -46.9791     8.8300   -45.8167     0.1111     2.5256     0.2860
 2159.5000   -95.0000   111.5789    11.1017     9.4170     9.3036   -29.7297    91.7084   -46.4647     8.8296   -25.8535     0.1168     2.5331     0.2856
 2160.0000   -95.3333   108.8722    11.1017     9.3495     9.1094   -29.8799    91.7121   -45.9502     8.8262    -7.1758     0.1184     2.5331     0.2758
 2160.5000   -85.0000   110.9774    10.9490     9.2184     8.9814   -30.1802    91.8652   -55.7769     8.8229   -17.3696     0.1139     2.5347     0.2686
 2161.0000   -85.0000   112.1805    10.8735     9.1523     8.8551   -30.0300    91.8679   -55.7478     8.8195   -27.3307     0.0944     2.5354     0.2656
 2161.5000   -85.0000   111.8797    10.8735     9.0240     8.7915   -30.0300    91.9993   -55.7743     8.8162   -37.3108     0.0778     2.5377     0.2650
 2162.0000   -85.0000   111.8954    10.7984     8.9593     8.6680   -29.8799    92.3636   -55.7769     8.8128   -47.2908     0.0869     2.5407     0.2683
 2162.5000   -84.9461   114.8371    10.7984     8.8337     8.6057   -29.7297    92.5903   -55.7769     8.8095   -57.2709     0.0990     2.5415     0.2739
 2163.0000   -85.4408   120.0000    10.5764     8.7098     8.4848   -29.7297    92.7419   -55.7769     8.8062   -45.8167     0.1021     2.5408     0.2791
 2163.5000   -94.0014   122.1053    10.3589     8.6468     8.4238   -29.7297    92.7434   -55.7769     8.8028   -45.8167     0.0810     2.5347     0.2805
 2164.0000   -75.0000   121.5038    10.2846     8.5256     8.4214   -29.5796    92.7448   -55.7769     8.7995   -54.4821     0.0690     2.5263     0.2809
 2164.5000   -83.4667   118.1955    10.1061     8.5233     8.4187   -29.4294    92.7463   -55.7769     8.7961   -45.8167     0.0826     2.5257     0.2817
 2165.0000   -85.0000   116.6917    10.0064     8.5210     8.4164   -29.4294    92.7478   -55.7769     8.7928   -45.8167     0.1023     2.5318     0.2871
 2165.5000   -85.0104   118.1955    10.0064     8.5785     8.3559   -29.4294    92.6624   -55.7769     8.7899   -46.2410     0.1219     2.5378     0.2973
 2166.0000   -85.0074   120.3008    10.0064     8.6357     8.2385   -29.7297    92.6005   -55.7769     8.7900   -53.9635     0.1310     2.5446     0.2985
 2166.5000   -85.1492   120.6015    10.0064     8.6585     8.1793   -29.8913    92.3020   -55.7769     8.7900   -50.6423     0.1175     2.5507     0.2924
 2167.0000   -85.0000   120.6015    10.0064     8.6905     8.2346   -30.3303    91.4777   -55.7769     8.7900   -46.6952     0.0994     2.5530     0.2823
 2167.5000   -95.0000   120.0000    10.0759     8.7485     8.3469   -30.3303    90.7284   -55.7769     8.7900   -45.8252     0.0874     2.5498     0.2766
 2168.0000  -117.6800   118.7970    10.2165     8.8069     8.4027   -30.3303    90.0538   -55.7769     8.7900   -45.8117     0.0890     2.5394     0.2757
 2168.5000   -95.0000   118.1955    10.3589     8.8657     8.4004   -30.3303    90.3559   -55.7769     8.7900   -45.8038     0.0890     2.5372     0.2825
 2169.0000   -85.2413   118.7970    10.5764     8.8627     8.3981   -30.0300    90.9595   -55.7769     8.7900   -45.8167     0.0936     2.5387     0.2870
 2169.5000   -86.1562   120.0000    10.7239     8.7992     8.4544   -29.8799    91.0345   -55.7769     8.7900   -45.8167     0.0997     2.5410     0.2864
 2170.0000   -79.6167   117.8947    10.7984     8.7968     8.5109   -29.8799    91.2615   -55.7769     8.7900   -41.6335     0.1087     2.5417     0.2788
 2170.5000   -85.0000   114.8872    10.7984     8.8556     8.5679   -29.8799    91.4882   -55.7769     8.7900   -45.8167     0.0952     2.5402     0.2750
 2171.0000   -85.0000   114.9429    10.7984     8.8532     8.5650   -30.0306    91.7149   -55.7769     8.7900   -45.8167     0.0742     2.5318     0.2807
 2171.5000   -85.0000   117.2932    10.7984     8.9124     8.5627   -30.3303    91.7163   -55.7769     8.7900   -45.8167     0.0667     2.5274     0.2864
 2172.0000   -95.0000   115.7895    10.8735     8.9718     8.4423   -30.4805    91.6427   -55.7769     8.7903   -33.4670     0.0698     2.5275     0.2816
 2172.5000   -95.0000   114.8872    10.8735     9.0401     8.4401   -30.4805    91.4189   -55.7769     8.7893   -25.8408     0.0894     2.5320     0.2780
 2173.0000   -85.0000   116.9925    10.8735     9.1552     8.5558   -30.4805    91.4209   -55.7769     8.8326   -25.8238     0.1271     2.5365     0.2816
 2173.5000   -85.0000   119.3985    10.9490     9.4092     8.7961   -30.1802    91.4970   -55.7769     8.8292   -25.8964     0.1301     2.5373     0.3065
 2174.0000   -85.0000   120.3008    11.0251     9.6715     9.1106   -30.0300    91.4233   -55.7769     8.8280   -32.0966     0.0850     2.5320     0.3089
 2174.5000   -85.0000   118.1955    11.1071     9.9405     9.5522   -29.8799    91.1999   -55.7769     8.8270   -38.3342     0.0670     2.5290     0.2954
 2175.0000   -95.0000   118.7970    11.1789     9.8692     9.5496   -29.8799    90.9011   -46.9385     8.8260   -44.5898     0.0700     2.5369     0.2791
 2175.5000  -105.0000   119.6992    11.1789    10.0035     9.6142   -29.8799    90.5272   -54.7826     8.8250   -50.7774     0.0776     2.5396     0.2779
 2176.0000  -105.0000   114.2857    11.1789    10.0092     9.7459   -29.8739    90.3030   -61.8578     8.8241   -54.0113     0.0792     2.5359     0.2785
 2176.5000  -105.0000   110.9774    11.1789     9.9291     9.7426   -29.7297    90.5301   -55.7200     8.8231   -45.8167     0.0882     2.5382     0.2773
 2177.0000  -105.0000   110.6767    10.9490     9.8578     9.6057   -29.4294    91.4324   -55.7770     8.8221   -35.8566     0.1035     2.5412     0.2692
 2177.5000  -105.0000   113.0827    10.7239     9.9237     9.5367   -29.2793    92.9530   -55.7724     8.8211   -45.8167     0.1124     2.5405     0.2539
 2178.0000   -85.0000   116.6917    10.5034     9.8519     9.5341   -29.1291    93.0870   -55.7769     8.8201   -57.2851     0.1095     2.5382     0.2475
 2178.5000  -105.0000   119.0977    10.2165     9.6468     9.5315   -28.9790    92.4882   -55.7769     8.8191   -64.4138     0.1035     2.5382     0.2574
 2179.0000   -95.0000   119.6992    10.0064     9.5115     9.3240   -28.9790    91.7389   -55.7769     8.8181   -65.7371     0.0975     2.5375     0.2688
 2179.5000  -105.0000   118.7909     9.9374     9.3134     8.8255   -29.1291    91.5899   -55.7769     8.8171   -75.6972     0.0945     2.5367     0.2694
 2180.0000  -105.0000   117.8947    10.1553     9.1195     8.2888   -29.1291    92.0421   -55.7769     8.8161   -73.0827     0.0901     2.5292     0.2670
 2180.5000  -105.0000   117.8947    10.2165     8.8679     8.0597   -29.2793    92.3439   -55.7769     8.8151   -66.8451     0.0901     2.5209     0.2658
 2181.0000   -95.0000   119.0977    10.1236     8.6233     8.0575   -29.4403    92.7207   -55.7769     8.8141   -65.7371     0.0917     2.5187     0.2694
 2181.5000   -95.0000   120.6015     9.8007     8.4406     8.1120   -29.7562    93.1804   -55.7769     8.8131   -65.7371     0.0872     2.5157     0.2940
 2182.0000   -85.0000   120.9023     9.7330     8.3831     8.1663   -29.8799    93.6249   -55.7769     8.8122   -65.7371     0.0737     2.5095     0.3078
 2182.5000   -85.0000   118.4962     9.7330     8.3804     8.1635   -30.0300    93.8516   -55.7769     8.8112   -65.7371     0.0692     2.5006     0.3087
 2183.0000   -85.0000   116.3910     9.8007     8.3781     8.1613   -30.3303    94.0032   -55.7769     8.8102   -65.7371     0.0677     2.4938     0.2970
 2183.5000   -95.0000   115.4887     9.9374     8.3759     8.1026   -30.3303    93.9292   -56.4318     8.8100   -65.7371     0.0678     2.4871     0.2916
 2184.0000   -95.0000   117.3295    10.0064     8.4318     8.1004   -30.1802    93.7809   -57.9440     8.8100   -65.7371     0.0678     2.4825     0.2846
