~VERSION INFORMATION
 VERS.                2.0:   CWLS LOG ASCII STANDARD - VERSION 2.0
 WRAP.                 NO:   ONE LINE PER DEPTH STEP
~WELL INFORMATION
#MNEM.UNIT      DATA TYPE    INFORMATION
#----------   ------------   ------------------------------
 STRT.F           40.0000:   START DEPTH
 STOP.F         3326.0000:   STOP DEPTH
 STEP.F            0.5000:   STEP LENGTH
 NULL.          -999.2500:   NO VALUE
 COMP.    FENIX & SCISSON:   COMPANY
 WELL.  FENIX "AX" #53-15:   WELL
 FLD .              NPR-3:   FIELD
 LOC .      S15 T38N R78W:   LOCATION
 CNTY.            NATRONA:   COUNTY
 STAT.            WYOMING:   STATE
 CTRY. UNITED STATES OF AMERICA:   COUNTRY
 SRVC.              WELEX:   SERVICE COMPANY
 DATE.        02-MAR-1977:   LOGDATE
 API .     49025102640000:   API NUMBER
~CURVE INFORMATION
#MNEM.UNIT       API CODE    CURVE DESCRIPTION
#----------   ------------   ------------------------------
 DEPT.F                  :   
 CALD.IN     42 280 60 00:   CALIPER
 TEND.LBS    42 635 01 00:   TENSION FROM NEUTRON POROSITY LOG
 GRD .GAPI   42 310 30 00:   GAMMA RAY
 NPHI.DEC    42 890 03 00:   NEUTRON POROSITY SANDSTONE
 DPHI.DEC    45 890 12 00:   DENSITY POROSITY SANDSTONE
 SPR .MV     07 010 01 00:   SPONTANEOUS POTENTIAL
 ILD .OHMM   07 120 46 00:   DEEP INDUCTION RESISTIVITY
 ILM .OHMM   07 120 44 00:   INDUCTION LOG MEDIUM RESISTIVITY
 SGRD.OHMM   07 220 05 00:   SHALLOW SHORT GUARD RESISTIVITY
~PARAMETER INFORMATION
#MNEM.UNIT          VALUE    DESCRIPTION
#----------   ------------   ------------------------------
 EKB .F            0.0000:   Kelly bushing
 EGL .F         5251.0000:   Ground level
 EDF .F            0.0000:   Drilling floor
 TD  .F          750.0000:   Total depth
 DATE.        02-MAR-1977:   Date logged
 CLNT.            A2DTECH:   Client Code
 SL  . 1650' FNL & 2360' FEL:   Surface Location
 PD  .                 GL:   Permanent Datum
 EPD .F              5253:   Elevation Permanent Datum
 LMF .                 GL:   Log Measured From
 DMF .                 GL:   Drilling Measured From
 DD  .F               750:   Depth driller
 DL  .F               747:   Depth logger
 BLI .F               745:   Bottom log interval
 CS1 .IN            8.625:   Casing size
 CBD1.       8.625" @ 40':   Casing driller 1
 CBL1.F                44:   Casing logger 1
 BS1 .IN            7.875:   Bit size
 BSD1.F               750:   Depth drilled with bit1
 DFT .           CHEM-GEL:   Type fluid in hole
 MSS .           FLOWLINE:   Source of sample
 RMS .OHMM          0.425:   Rm
 MST .F                56:   Rm Meas. temp.
 RMF .OHMM          0.466:   Rmf
 MFST.F                56:   Rmf Meas. temp.
 RMC .OHMM          0.712:   Rmc
 MCST.F                56:   Rmc Meas. temp.
 MFSS.               MEAS:   Source Rmf.
 MCSS.               MEAS:   Source Rmc.
 RMB .OHMM          0.350:   Rm. at BHT
 BHT .F                68:   BHT.
 TCS .HRS               2:   Time Circ. stopped
 MRT .F                68:   Maximum recorded temp.
 LUN .               8611:   Logging unit number
 LUL .            GILLETH:   Logging unit location
 ENGI.          D. LAWSON:   Recorded By
 WITN.           S. BURKL:   Witnessed by
 ORIG.           5" PRINT:   Origin of data
 UWI .     49025102640000:   Unique Well ID
 DICO. A2D TECHNOLOGIES, INC.:   Digitizing Company
~OTHER INFORMATION
~A   DEPT     CALD       TEND         GRD        NPHI     DPHI        SPR        ILD        ILM       SGRD   
# ...
 3033.0000     8.0880   134.8650   144.3950     0.3140     0.0840  -999.2500  -999.2500  -999.2500  -999.2500
 3033.5000     8.0890   137.6080   147.6280     0.3140     0.0880  -999.2500  -999.2500  -999.2500  -999.2500
 3034.0000     8.0900   146.7440   145.1080     0.3150     0.0860  -999.2500  -999.2500  -999.2500  -999.2500
 3034.5000     8.0890   155.0230   144.9680     0.3200     0.0720  -999.2500  -999.2500  -999.2500  -999.2500
 3035.0000     8.0880   156.5930   145.8000     0.3180     0.0780  -999.2500  -999.2500  -999.2500  -999.2500
 3035.5000     8.0870   158.1640   143.8870     0.3150     0.0830  -999.2500  -999.2500  -999.2500  -999.2500
 3036.0000     8.0850   159.7340   136.3660     0.3110     0.0780  -999.2500  -999.2500  -999.2500  -999.2500
 3036.5000     8.0840   161.3040   142.1930     0.3070     0.0750  -999.2500  -999.2500  -999.2500  -999.2500
 3037.0000     8.0830   162.8750   142.8780     0.3060     0.0770  -999.2500  -999.2500  -999.2500  -999.2500
 3037.5000     8.0820   164.4450   141.3670     0.3150     0.0710  -999.2500  -999.2500  -999.2500  -999.2500
 3038.0000     8.0800   162.1380   147.1580     0.3250     0.0710  -999.2500  -999.2500  -999.2500  -999.2500
 3038.5000     8.0790   158.5490   142.0690     0.3330     0.0770  -999.2500  -999.2500  -999.2500  -999.2500
 3039.0000     8.0780   154.8450   145.6830     0.3310     0.0860  -999.2500  -999.2500  -999.2500  -999.2500
 3039.5000     8.0770   154.8450   148.7600     0.3350     0.0950  -999.2500  -999.2500  -999.2500  -999.2500
 3040.0000     8.0760   154.8450   150.3540     0.3330     0.0970  -999.2500  -999.2500  -999.2500  -999.2500
 3040.5000     8.0740   153.0090   147.1950     0.3300     0.0910  -999.2500  -999.2500  -999.2500  -999.2500
 3041.0000     8.0730   148.2230   150.6500     0.3250     0.0830  -999.2500  -999.2500  -999.2500  -999.2500
 3041.5000     8.0720   143.4380   144.8550     0.3200     0.0760  -999.2500  -999.2500  -999.2500  -999.2500
 3042.0000     8.0710   138.6520   142.9300     0.3180     0.0760  -999.2500  -999.2500  -999.2500  -999.2500
 3042.5000     8.0690   137.1130   143.8770     0.3220     0.0840  -999.2500  -999.2500  -999.2500  -999.2500
 3043.0000     8.0680   147.8810   138.0360     0.3250     0.0850  -999.2500  -999.2500  -999.2500  -999.2500
 3043.5000     8.0670   158.6480   141.6410     0.3240     0.0850  -999.2500  -999.2500  -999.2500  -999.2500
 3044.0000     8.0660   164.8350   142.6560     0.3250     0.0850  -999.2500  -999.2500  -999.2500  -999.2500
 3044.5000     8.0640   162.7240   132.0670     0.3210     0.0820  -999.2500  -999.2500  -999.2500  -999.2500
 3045.0000     8.0630   159.3740   137.3700     0.3180     0.0770  -999.2500  -999.2500  -999.2500  -999.2500
 3045.5000     8.0620   156.0240   149.1350     0.3170     0.0720  -999.2500  -999.2500  -999.2500  -999.2500
 3046.0000     8.0610   154.8450   141.0150     0.3190     0.0750  -999.2500  -999.2500  -999.2500  -999.2500
 3046.5000     8.0590   154.8450   142.8680     0.3190     0.0750  -999.2500  -999.2500  -999.2500  -999.2500
 3047.0000     8.0580   154.8450   146.1230     0.3190     0.0720  -999.2500  -999.2500  -999.2500  -999.2500
 3047.5000     8.0570   157.5170   148.4670     0.3210     0.0820  -999.2500  -999.2500  -999.2500  -999.2500
 3048.0000     8.0560   160.0300   145.6540     0.3170     0.0890  -999.2500  -999.2500  -999.2500  -999.2500
 3048.5000     8.0550   162.5420   147.2190     0.3230     0.0940  -999.2500  -999.2500  -999.2500  -999.2500
 3049.0000     8.0530   164.8350   148.5500     0.3310     0.0970  -999.2500  -999.2500  -999.2500  -999.2500
 3049.5000     8.0520   160.6280   142.8920     0.3370     0.0940  -999.2500  -999.2500  -999.2500  -999.2500
 3050.0000     8.0510   156.7600   144.9040     0.3290     0.0940  -999.2500  -999.2500  -999.2500  -999.2500
 3050.5000     8.0510   154.8450   142.8530     0.3240     0.1030  -999.2500  -999.2500  -999.2500  -999.2500
 3051.0000     8.0560   154.8450   141.4540     0.3350     0.1090  -999.2500  -999.2500  -999.2500  -999.2500
 3051.5000     8.0610   154.8450   143.4100     0.3430     0.1070  -999.2500  -999.2500  -999.2500  -999.2500
 3052.0000     8.0650   154.8450   153.3250     0.3420     0.0970  -999.2500  -999.2500  -999.2500  -999.2500
 3052.5000     8.0700   154.8450   159.6410     0.3410     0.0840  -999.2500  -999.2500  -999.2500  -999.2500
 3053.0000     8.0740   154.8450   155.6180     0.3430     0.0840  -999.2500  -999.2500  -999.2500  -999.2500
 3053.5000     8.0790   151.5040   153.9940     0.3390     0.0840  -999.2500  -999.2500  -999.2500  -999.2500
 3054.0000     8.0830   148.0240   148.8110     0.3350     0.0790  -999.2500  -999.2500  -999.2500  -999.2500
 3054.5000     8.0880   144.5450   142.9600     0.3420     0.0850  -999.2500  -999.2500  -999.2500  -999.2500
 3055.0000     8.0900   141.0660   149.8280     0.3450     0.0880  -999.2500  -999.2500  -999.2500  -999.2500
 3055.5000     8.0900   137.5870   152.4670     0.3340     0.0870  -999.2500  -999.2500  -999.2500  -999.2500
 3056.0000     8.0900   140.3600   152.2420     0.3270     0.0830  -999.2500  -999.2500  -999.2500  -999.2500
 3056.5000     8.0900   151.6230   149.2340     0.3250     0.0860  -999.2500  -999.2500  -999.2500  -999.2500
 3057.0000     8.0900   144.0560   152.2020     0.3210     0.0910  -999.2500  -999.2500  -999.2500  -999.2500
 3057.5000     8.0900   136.4890   159.7420     0.3260     0.0960  -999.2500  -999.2500  -999.2500  -999.2500
 3058.0000     8.0900   128.9210   155.2760     0.3310     0.1040  -999.2500  -999.2500  -999.2500  -999.2500
 3058.5000     8.0900   145.1050   147.8700     0.3380     0.0920  -999.2500  -999.2500  -999.2500  -999.2500
 3059.0000     8.0900   143.8560   145.7340     0.3460     0.0800  -999.2500  -999.2500  -999.2500  -999.2500
 3059.5000     8.0900   134.8650   146.0090     0.3400     0.0950  -999.2500  -999.2500  -999.2500  -999.2500
 3060.0000     8.0900   137.3630   147.6130     0.3380     0.0960  -999.2500  -999.2500  -999.2500  -999.2500
 3060.5000     8.0900   140.9660   150.2650     0.3430     0.0840  -999.2500  -999.2500  -999.2500  -999.2500
 3061.0000     8.0900   144.5700   150.7670     0.3470     0.0820  -999.2500  -999.2500  -999.2500  -999.2500
 3061.5000     8.0900   148.1730   149.6990     0.3490     0.0840  -999.2500  -999.2500  -999.2500  -999.2500
 3062.0000     8.0900   151.7770   146.2860     0.3360     0.0890  -999.2500  -999.2500  -999.2500  -999.2500
 3062.5000     8.0900   153.8460   142.9070     0.3260     0.0930  -999.2500  -999.2500  -999.2500  -999.2500
 3063.0000     8.0900   147.1200   141.2630     0.3280     0.0920  -999.2500  -999.2500  -999.2500  -999.2500
 3063.5000     8.0900   140.3930   140.3630     0.3240     0.0940  -999.2500  -999.2500  -999.2500  -999.2500
 3064.0000     8.0900   134.8650   145.7490     0.3270     0.1000  -999.2500  -999.2500  -999.2500  -999.2500
 3064.5000     8.0900   134.8650   142.0960     0.3270     0.0960  -999.2500  -999.2500  -999.2500  -999.2500
 3065.0000     8.0900   134.8650   143.3040     0.3220     0.0930  -999.2500  -999.2500  -999.2500  -999.2500
 3065.5000     8.0900   134.8650   141.9500     0.3160     0.0880  -999.2500  -999.2500  -999.2500  -999.2500
 3066.0000     8.0900   135.4930   137.9690     0.3110     0.0900  -999.2500  -999.2500  -999.2500  -999.2500
 3066.5000     8.0900   138.3760   140.5390     0.3100     0.0930  -999.2500  -999.2500  -999.2500  -999.2500
 3067.0000     8.0900   141.2590   143.8190     0.3150     0.0870  -999.2500  -999.2500  -999.2500  -999.2500
 3067.5000     8.0900   144.1420   145.4260     0.3190     0.0820  -999.2500  -999.2500  -999.2500  -999.2500
 3068.0000     8.0900   147.0240   146.9130     0.3230     0.0840  -999.2500  -999.2500  -999.2500  -999.2500
 3068.5000     8.0900   149.9070   138.6740     0.3230     0.0850  -999.2500  -999.2500  -999.2500  -999.2500
 3069.0000     8.0900   152.7900   139.2940     0.3290     0.0840  -999.2500  -999.2500  -999.2500  -999.2500
