~VERSION INFORMATION
 VERS.                2.0:   CWLS LOG ASCII STANDARD - VERSION 2.0
 WRAP.                 NO:   ONE LINE PER DEPTH STEP
~WELL INFORMATION
#MNEM.UNIT      DATA TYPE    INFORMATION
#----------   ------------   ------------------------------
 STRT.F          720.0000:   START DEPTH
 STOP.F         3416.0000:   STOP DEPTH
 STEP.F            0.5000:   STEP LENGTH
 NULL.          -999.2500:   NO VALUE
 COMP.    FENIX & SCISSON:   COMPANY
 WELL.  FENIX "AX" #31-14:   WELL
 FLD .                NPR:   FIELD
 LOC .      S14 T38N R78W:   LOCATION
 CNTY.            NATRONA:   COUNTY
 STAT.            WYOMING:   STATE
 CTRY. UNITED STATES OF AMERICA:   COUNTRY
 SRVC.       SCHLUMBERGER:   SERVICE COMPANY
 DATE.        04-JUN-1981:   LOGDATE
 API .     49025108730000:   API NUMBER
~CURVE INFORMATION
#MNEM.UNIT       API CODE    CURVE DESCRIPTION
#----------   ------------   ------------------------------
 DEPT.F                  :   
 TEND.LBS    45 635 01 00:   TENSION FROM DENSITY LOG
 CORR.G/C3   45 356 01 00:   DENSITY CORRECTION
 RHOB.G/C3   45 350 01 00:   BULK DENSITY
 CALD.IN     45 280 60 00:   CALIPER FROM DENSITY LOG
 GRD .GAPI   45 310 01 00:   GAMMA RAY FROM DENSITY LOG
 SPR .MV     07 010 01 00:   SPONTANEOUS POTENTIAL
 SFL .OHMM   07 220 01 00:   SHALLOW FOCUSED LOG RESISTIVITY
 ILD .OHMM   07 120 46 00:   INDUCTION LOG DEEP RESISTIVITY
 ILM .OHMM   07 120 44 00:   INDUCTION LOG MEDIUM RESISTIVITY
 TENR.LBS    07 635 01 00:   TENSION FROM RESISTIVITY
~PARAMETER INFORMATION
#MNEM.UNIT          VALUE    DESCRIPTION
#----------   ------------   ------------------------------
 EKB .F         5196.0000:   Kelly bushing
 EGL .F         5186.0000:   Ground level
 EDF .F            0.0000:   Drilling floor
 TD  .F         3402.0000:   Total depth
 DATE.        04-JUN-1981:   Date logged
 CLNT.            A2DTECH:   Client Code
 SL  . 377' FWL & 1733' FWL:   Surface Location
 PD  .                 GL:   Permanent Datum
 DD  .F              3400:   Depth driller
 DL  .F              3402:   Depth logger
 BLI .F              3395:   Bottom log interval
 TLI .F               720:   Top log interval
 CS1 .IN            8.625:   Casing size
 CBD1.      8.625" @ 707':   Casing driller 1
 CBL1.F               751:   Casing logger 1
 BS1 .IN            7.875:   Bit size
 BSD1.F              3400:   Depth drilled with bit1
 DFT .                FGM:   Type fluid in hole
 DFD .                8.8:   Density
 DFV .                 55:   Viscosity
 DFPH.                9.5:   pH
 DFL .                  9:   Fluid loss
 MSS .           MUD TANK:   Source of sample
 RMS .OHMM            1.7:   Rm
 MST .F                78:   Rm Meas. temp.
 RMF .OHMM           1.45:   Rmf
 MFST.F                78:   Rmf Meas. temp.
 MFSS.               MEAS:   Source Rmf.
 RMB .OHMM           1.12:   Rm. at BHT
 BHT .F               118:   BHT.
 TCS .HRS            1200:   Time Circ. stopped
 TLAB.HRS            1600:   Time logger at bottom
 MRT .F               118:   Maximum recorded temp.
 LUN .               8043:   Logging unit number
 LUL .             CASPER:   Logging unit location
 ENGI.             LARSON:   Recorded By
 WITN.              FIVAS:   Witnessed by
 ORIG.      2.5" 5" PRINT:   Origin of data
 UWI .     49025108730000:   Unique Well ID
 DICO. A2D TECHNOLOGIES, INC.:   Digitizing Company
 EPD .               5186:   Elevation Permanent Datum
 LMF .                 KB:   Log Measured From
 DMF .                 KB:   Drilling Measured From
 DAPD.                 10:   Feet Above Permanent Datum
~OTHER INFORMATION
~A   DEPT     TEND       CORR       RHOB       CALD         GRD       SPR        SFL        ILD        ILM       TENR   
# ...
 2663.0000  1487.0980     0.0010     2.5390     8.6650   105.8660   -29.2040     5.8550     4.8560     4.9950  1542.7950
 2663.5000  1483.2930     0.0050     2.5440     8.6700   108.2540   -29.1740     5.8370     4.6330     4.8100  1542.9220
 2664.0000  1479.4890     0.0090     2.5450     8.6750   112.9920   -29.1300     5.8200     4.4120     4.6570  1543.0480
 2664.5000  1475.6840     0.0130     2.5380     8.6800   117.7160   -28.4420     5.6070     4.1900     4.5040  1543.1750
 2665.0000  1471.8790     0.0160     2.5290     8.6770   122.4580   -27.7750     5.0990     3.9680     4.3510  1543.3010
 2665.5000  1468.0750     0.0140     2.5200     8.6610   127.1700   -27.5310     4.5920     3.8350     4.1980  1543.4270
 2666.0000  1464.2700     0.0120     2.5110     8.6460   130.8380   -27.5540     3.9830     3.7640     4.1360  1543.5540
 2666.5000  1460.4650     0.0100     2.5070     8.6300   130.8810   -27.5570     3.8350     3.6930     4.0590  1543.6801
 2667.0000  1456.6610     0.0100     2.5120     8.6150   126.5150   -27.5390     3.8720     3.7320     4.0590  1543.8060
 2667.5000  1452.8560     0.0130     2.5260     8.5990   123.4530   -27.7350     3.9830     3.7970     4.0590  1543.9330
 2668.0000  1449.0510     0.0200     2.5390     8.5830   120.5280   -28.5750     4.4890     3.8610     4.0590  1544.0590
 2668.5000  1447.7200     0.0390     2.5500     8.5800   120.4830   -28.3620     4.9950     3.9260     4.1190  1544.1851
 2669.0000  1448.3500     0.0380     2.5370     8.5760   124.3420   -27.9090     4.7730     3.9900     4.1680  1544.3120
 2669.5000  1448.9810     0.0210     2.5200     8.5730   127.7190   -27.9390     4.5500     4.0550     4.2180  1544.4380
 2670.0000  1449.6110     0.0080     2.5100     8.5700   128.7940   -27.9170     4.4610     4.1190     4.2680  1544.5640
 2670.5000  1450.2410     0.0000     2.5180     8.5660   124.3460   -27.8890     4.8040     4.1840     4.3170  1544.6910
 2671.0000  1450.8719     0.0030     2.5270     8.5630   121.2490   -27.8790     5.2320     4.2490     4.3770  1544.8170
 2671.5000  1451.5020     0.0070     2.5370     8.5610   118.7050   -27.8560     5.4900     4.3130     4.3770  1544.9430
 2672.0000  1452.1320     0.0100     2.5470     8.5650   117.4590   -27.8380     5.3820     4.3780     4.4610  1545.0699
 2672.5000  1452.7620     0.0090     2.5540     8.5680   117.2380   -27.8190     5.2740     4.4420     4.6320  1545.1960
 2673.0000  1453.3929     0.0040     2.5530     8.5710   118.8040   -27.8000     5.1880     4.5070     4.7200  1545.3220
 2673.5000  1454.0229     0.0000     2.5410     8.5740   121.7340   -27.7810     5.1880     4.5880     4.7200  1545.4490
 2674.0000  1454.6530    -0.0040     2.5280     8.5770   124.6080   -27.7630     5.1880     4.6930     4.8300  1545.5750
 2674.5000  1455.2841    -0.0010     2.5230     8.5800   127.4720   -27.7440     5.1880     4.7980     4.9390  1545.7020
 2675.0000  1455.9139     0.0010     2.5290     8.5830   129.9650   -27.7250     5.1880     4.9040     5.0490  1545.8280
 2675.5000  1456.5439     0.0030     2.5340     8.5860   130.0500   -27.7060     5.4570     5.0090     5.1580  1545.9540
 2676.0000  1457.1750     0.0040     2.5310     8.5900   126.5870   -27.6870     5.7940     5.1140     5.2670  1546.0811
 2676.5000  1457.8051     0.0050     2.5300     8.5930   122.3800   -27.6680     6.1300     5.2200     5.3770  1546.2070
 2677.0000  1458.4351     0.0070     2.5400     8.5960   120.5060   -27.6500     6.4230     5.3250     5.4860  1546.3330
 2677.5000  1459.0660     0.0080     2.5520     8.5990   120.9560   -27.6310     6.6870     5.4300     5.5960  1546.4600
 2678.0000  1459.6960     0.0070     2.5600     8.6020   122.2480   -27.6120     6.9510     5.5360     5.7050  1546.5861
 2678.5000  1460.3260     0.0050     2.5600     8.6050   123.5860   -27.5920     7.2140     5.6410     5.8140  1546.7120
 2679.0000  1460.9570     0.0040     2.5480     8.6080   123.9050   -27.5760     7.4250     5.7460     5.9240  1546.8390
 2679.5000  1461.5870     0.0020     2.5360     8.6110   123.9110   -27.5570     7.2720     5.8430     6.0330  1546.9650
 2680.0000  1462.2170     0.0010     2.5280     8.6140   123.9060   -27.6610     7.1440     5.9280     6.0330  1547.0909
 2680.5000  1462.8480     0.0010     2.5290     8.6170   123.8980   -27.8050     7.0160     6.0130     6.0330  1547.2180
 2681.0000  1463.4780     0.0010     2.5320     8.6210   123.9390   -27.9530     7.0160     6.0970     6.0330  1547.3440
 2681.5000  1464.1080     0.0020     2.5340     8.6240   124.5610   -28.1020     7.2570     6.1480     6.0330  1547.4700
 2682.0000  1464.7390     0.0010     2.5360     8.6270   127.2650   -28.2260     7.5570     6.1480     6.0330  1547.5970
 2682.5000  1465.3690     0.0000     2.5380     8.6300   129.7110   -28.4070     7.8580     6.1480     6.0330  1547.7230
 2683.0000  1465.9990    -0.0010     2.5430     8.6330   128.7680   -28.0250     7.8580     6.1480     6.0330  1547.8490
 2683.5000  1466.6290     0.0020     2.5470     8.6360   129.9250   -27.9830     7.3710     6.1480     6.0330  1547.9760
 2684.0000  1467.2600     0.0060     2.5580     8.6390   133.3360   -27.9120     6.8850     6.2710     6.0330  1548.1021
 2684.5000  1472.9830     0.0100     2.5670     8.6420   137.6360   -28.2170     7.0160     6.4760     6.1780  1548.2280
 2685.0000  1485.1290     0.0120     2.5570     8.6370   139.5180   -27.9040     7.5740     6.6800     6.3590  1548.3550
 2685.5000  1497.2750     0.0130     2.5460     8.6330   137.1960   -27.9980     8.1310     6.8850     6.5390  1548.4810
 2686.0000  1509.4210     0.0060     2.5350     8.6280   133.7440   -27.2000     8.8000     7.0160     6.7560  1548.6080
 2686.5000  1521.5660     0.0000     2.5240     8.6240   130.3450   -26.6950     8.8670     7.0160     7.1500  1548.7340
 2687.0000  1524.2321    -0.0030     2.5180     8.6190   129.2130   -26.7450     8.9670     7.0160     7.0710  1548.8600
 2687.5000  1514.9440    -0.0010     2.5190     8.6150   128.8420   -26.7350     8.8060     7.0160     6.9380  1548.9871
 2688.0000  1505.6560     0.0060     2.5300     8.6100   129.7590   -26.7320     8.4020     7.0160     6.8210  1549.1130
 2688.5000  1496.3680     0.0120     2.5440     8.6060   131.6630   -26.7380     8.1600     6.9000     6.8850  1549.2390
 2689.0000  1487.0800     0.0130     2.5480     8.6010   131.8770   -26.7340     7.7050     6.8040     6.6270  1549.3660
 2689.5000  1477.7920     0.0080     2.5360     8.5970   132.1400   -26.7370     7.2490     6.7070     6.2650  1549.4919
 2690.0000  1467.6110     0.0030     2.5320     8.5920   130.9760   -26.7300     6.8850     6.6300     6.2830  1549.6180
 2690.5000  1469.8490     0.0010     2.5380     8.5870   128.1490   -26.7910     6.8850     6.6080     6.3130  1549.7450
 2691.0000  1486.4690     0.0040     2.5460     8.5830   125.3240   -26.9240     7.3190     6.5790     6.3430  1549.8710
 2691.5000  1503.0900     0.0040     2.5520     8.5820   123.0700   -27.0490     7.7530     6.5510     6.3730  1549.9969
 2692.0000  1519.7100     0.0040     2.5550     8.5840   122.6660   -27.1760     8.1870     6.5230     6.3850  1550.1240
 2692.5000  1526.8470     0.0030     2.5570     8.5860   122.7840   -27.3040     8.6200     6.5060     6.3850  1550.2500
 2693.0000  1521.6700     0.0030     2.5600     8.5880   126.1760   -27.4310     8.9670     6.3800     6.2710  1550.3760
 2693.5000  1516.4930     0.0030     2.5600     8.5900   134.8330   -27.5570     8.9670     6.2550     6.1570  1550.5031
 2694.0000  1511.3160     0.0050     2.5560     8.5920   139.9090   -27.6860     8.7180     6.1290     6.0430  1550.6290
 2694.5000  1506.1390     0.0110     2.5360     8.5940   148.3490   -27.8090     8.0070     6.0030     5.9290  1550.7550
 2695.0000  1500.9620     0.0150     2.5210     8.5960   159.9710   -27.9540     6.6470     5.8770     5.8150  1550.8820
 2695.5000  1495.7850     0.0170     2.5220     8.5980   161.7110   -28.1770     5.2860     5.7010     5.7010  1551.0081
 2696.0000  1490.6090     0.0120     2.5290     8.5990   148.9740   -28.2920     5.4380     5.8410     5.7010  1551.1350
