~VERSION INFORMATION
 VERS.                2.0:   CWLS LOG ASCII STANDARD - VERSION 2.0
 WRAP.                 NO:   ONE LINE PER DEPTH STEP
~WELL INFORMATION
#MNEM.UNIT      DATA TYPE    INFORMATION
#----------   ------------   ------------------------------
 STRT.F           32.0000:   START DEPTH
 STOP.F         5116.0000:   STOP DEPTH
 STEP.F            0.5000:   STEP LENGTH
 NULL.          -999.2500:   NO VALUE
 COMP. LAWRENCE ALLISON AND ASSOCIATES:   COMPANY
 WELL. LAWRENCE "X" #11-26:   WELL
 FLD .       N.P.R. NO. 3:   FIELD
 LOC .      S26 T38N R78W:   LOCATION
 CNTY.            NATRONA:   COUNTY
 STAT.            WYOMING:   STATE
 CTRY. UNITED STATES OF AMERICA:   COUNTRY
 SRVC.      DRESSER ATLAS:   SERVICE COMPANY
 DATE.        03-DEC-1984:   LOGDATE
 API .     49025110120000:   API NUMBER
~CURVE INFORMATION
#MNEM.UNIT       API CODE    CURVE DESCRIPTION
#----------   ------------   ------------------------------
 DEPT.F                  :   
 CALD.IN     45 280 60 00:   CALIPER FROM DENSITY LOG
 TEND.LBS    45 635 01 00:   TENSION FORM DENSITY LOG
 CORR.G/C3   45 356 01 00:   DENSITY CORRECTION
 DEN .G/C3   45 350 01 00:   BULK DENSITY
 NPHI.DEC    42 890 03 00:   NEUTRON POROSITY SANDSTONE
 GRR .GAPI   07 310 01 00:   GAMMA RAY FROM RESISTIVITY
 SPR .MV     07 010 01 00:   SPONTANEOUS POTENTIAL
 CALR.IN     07 280 01 00:   CALIPER FROM RESISTIVITY
 TENR.LBS    07 635 01 00:   TENSION FROM RESISTIVITY
 RILD.OHMM   07 120 46 00:   INDUCTION LOG DEEP RESISTIVITY
 RILM.OHMM   07 120 44 00:   INDUCTION LOG MEDIUM RESISTIVITY
 RFOC.OHMM   07 220 04 00:   RESISTIVITY FOCUSED LOG RES.
 TENS.LBS    60 635 01 00:   TENSION FROM SONIC
 DT  .US/F   60 520 00 00:   DELTA TIME
~PARAMETER INFORMATION
#MNEM.UNIT          VALUE    DESCRIPTION
#----------   ------------   ------------------------------
 EKB .F         5321.0000:   Kelly bushing
 EGL .F         5309.0000:   Ground level
 EDF .F         5320.0000:   Drilling floor
 TD  .F         5104.0000:   Total depth
 CLNT.            A2DTECH:   Client Code
 SL  . 509' FWL & 22' FNL:   Surface Location
 PD  .                 GL:   Permanent Datum
 EPD .F              5309:   Elevation Permanent Datum
 LMF .                 KB:   Log Measured From
 DMF .                 KB:   Drilling Measured From
 DAPD.F                12:   Feet Above Permanent Datum
 DATE.        03-DEC-1984:   Date Logged [DD-MMM-YYYY]
 DD  .F              5100:   Depth driller
 DL  .F              5104:   Depth logger
 BLI .F              5102:   Bottom log interval
 TLI .F              1400:   Top log interval
 CS1 .IN            9.625:   Casing size
 CBD1.     9.625' @ 1657':   Casing driller 1
 CBL1.F              1652:   Casing logger 1
 BS1 .IN            7.875:   Bit size
 DFT .            KCL GEL:   Type fluid in hole
 DFD .                90.:   Density
 DFV .                 41:   Viscosity
 DFPH.                8.9:   pH
 DFL .               12.6:   Fluid loss
 MSS .           FLOWLINE:   Source of sample
 RMS .OHMM           .327:   Rm
 MST .F                84:   Rm Meas. temp.
 RMF .OHMM            .29:   Rmf
 MFST.F                84:   Rmf Meas. temp.
 MFSS.               CALC:   Source Rmf.
 RMC .OHMM            .42:   Rmc
 MCST.F                84:   Rmc Meas. temp.
 MCSS.               CALC:   Source Rmc.
 RMB .OHMM            .23:   Rm. at BHT
 BHT .F               142:   BHT.
 TCS .HRS               4:   Time Circ. stopped
 MRT .F               142:   Maximum recorded temp.
 LUN .               6307:   Logging unit number
 LUL .               CLTE:   Logging unit location
 WITN.             STRONG:   Witnessed by
 ORIG.           5" PRINT:   Origin of data
 UWI .     49025110120000:   Unique Well ID
 DICO. A2D TECHNOLOGIES, INC.:   Digitizing Company
~OTHER INFORMATION
~A  DEPTH     CALD       TEND       CORR        DEN       NPHI        GRR        SPR       CALR       TENR       RILD       RILM       RFOC       TENS         DT
# ...
 3388.5000  -999.2500  -999.2500  -999.2500  -999.2500  -999.2500   103.2162   -44.5203    10.7719   -64.2959     6.4200     5.7241     8.5476  -999.2500  -999.2500
 3389.0000  -999.2500  -999.2500  -999.2500  -999.2500  -999.2500   100.2280   -44.8115    10.7423   -71.4120     6.2430     5.4150     8.4852  -999.2500  -999.2500
 3389.5000  -999.2500  -999.2500  -999.2500  -999.2500  -999.2500   102.0606   -45.1027    10.6830   -78.5283     6.1559     5.3400     7.3875  -999.2500  -999.2500
 3390.0000  -999.2500  -999.2500  -999.2500  -999.2500  -999.2500   103.5916   -45.3916    10.5894   -63.0631     6.3707     5.5659     6.7048  -999.2500  -999.2500
 3390.5000  -999.2500  -999.2500  -999.2500  -999.2500  -999.2500   103.6143   -45.6826    10.5039   -47.6175     6.4133     5.8418     6.4303  -999.2500  -999.2500
 3391.0000  -999.2500  -999.2500  -999.2500  -999.2500  -999.2500    98.8162   -45.9738    10.4293   -39.7147     6.3230     6.0053     6.5225  -999.2500  -999.2500
 3391.5000  -999.2500  -999.2500  -999.2500  -999.2500  -999.2500    94.9173   -46.2650    10.3848   -31.7219     6.3213     6.0047     7.5448  -999.2500  -999.2500
 3392.0000  -999.2500  -999.2500  -999.2500  -999.2500  -999.2500    95.5434   -46.2525    10.3855   -31.3305     6.4972     6.0458     8.6072  -999.2500  -999.2500
 3392.5000  -999.2500  -999.2500  -999.2500  -999.2500  -999.2500    98.2810   -46.2425    10.3262   -30.9392     6.8766     6.1294     8.5450  -999.2500  -999.2500
 3393.0000  -999.2500  -999.2500  -999.2500  -999.2500  -999.2500    97.7061   -46.2301    10.2968   -38.0553     7.1549     6.3447     7.8668  -999.2500  -999.2500
 3393.5000  -999.2500  -999.2500  -999.2500  -999.2500  -999.2500    94.1089   -45.9189    10.2674   -37.6501     7.3539     6.8034     7.6521  -999.2500  -999.2500
 3394.0000  -999.2500  -999.2500  -999.2500  -999.2500  -999.2500    84.4785   -45.6077    10.2380   -44.7799     7.5059     7.4385     8.0890  -999.2500  -999.2500
 3394.5000  -999.2500  -999.2500  -999.2500  -999.2500  -999.2500    79.0714   -45.4471    10.1786   -44.2908     7.5561     7.4378     8.9137  -999.2500  -999.2500
 3395.0000  -999.2500  -999.2500  -999.2500  -999.2500  -999.2500    76.0832   -45.2861    10.1490   -43.8993     7.5536     7.3348    10.0988  -999.2500  -999.2500
 3395.5000  -999.2500  -999.2500  -999.2500  -999.2500  -999.2500    79.1225   -44.9728    10.0897   -43.5061     7.7637     7.4364    10.2403  -999.2500  -999.2500
 3396.0000  -999.2500  -999.2500  -999.2500  -999.2500  -999.2500    84.5751   -44.9628    10.0602   -43.0188     7.9797     7.6443     8.9776  -999.2500  -999.2500
 3396.5000  -999.2500  -999.2500  -999.2500  -999.2500  -999.2500    87.0110   -44.9528    10.0297   -42.6802     8.1457     7.9128     8.1480  -999.2500  -999.2500
 3397.0000  -999.2500  -999.2500  -999.2500  -999.2500  -999.2500    86.7378   -44.9428     9.9715   -42.2359     8.3139     8.1343     8.0923  -999.2500  -999.2500
 3397.5000  -999.2500  -999.2500  -999.2500  -999.2500  -999.2500    86.4531   -45.2340     9.9419   -41.8446     8.3112     8.1900     8.3204  -999.2500  -999.2500
 3398.0000  -999.2500  -999.2500  -999.2500  -999.2500  -999.2500    86.1742   -45.3746     9.9125   -41.4415     8.3090     8.3034     9.2967  -999.2500  -999.2500
 3398.5000  -999.2500  -999.2500  -999.2500  -999.2500  -999.2500    86.2026   -45.5152     9.8833   -40.9639     8.3068     8.2453    10.2446  -999.2500  -999.2500
 3399.0000  -999.2500  -999.2500  -999.2500  -999.2500  -999.2500    86.8343   -45.5027     9.8539   -40.5726     8.3041     8.3018    11.4469  -999.2500  -999.2500
 3399.5000  -999.2500  -999.2500  -999.2500  -999.2500  -999.2500    86.8570   -45.4925     9.8245   -40.1812     8.1800     8.4167    10.9056  -999.2500  -999.2500
 3400.0000  -999.2500  -999.2500  -999.2500  -999.2500  -999.2500    88.6897   -45.4803     9.7951   -39.7897     8.0730     8.5331     9.6272  -999.2500  -999.2500
 3400.5000  -999.2500  -999.2500  -999.2500  -999.2500  -999.2500    93.0508   -45.6931     9.7754   -39.3006     7.9599     7.8517     9.2357  -999.2500  -999.2500
 3401.0000  -999.2500  -999.2500  -999.2500  -999.2500  -999.2500    97.7683   -45.9283     9.7518   -46.9902     7.7256     7.3766     9.2788  -999.2500  -999.2500
 3401.5000  -999.2500  -999.2500  -999.2500  -999.2500  -999.2500   100.5730   -46.2016     9.7281   -47.6167     7.5265     7.1239    10.3180  -999.2500  -999.2500
 3402.0000  -999.2500  -999.2500  -999.2500  -999.2500  -999.2500   104.7384   -46.1916     9.7045   -48.2433     7.5245     7.0260    10.0359  -999.2500  -999.2500
 3402.5000  -999.2500  -999.2500  -999.2500  -999.2500  -999.2500   105.9593   -46.1816     9.6793   -48.8698     7.5749     7.0741     9.8978  -999.2500  -999.2500
 3403.0000  -999.2500  -999.2500  -999.2500  -999.2500  -999.2500   104.7668   -46.1716     9.6801   -49.4963     7.5682     7.1721    10.0359  -999.2500  -999.2500
 3403.5000  -999.2500  -999.2500  -999.2500  -999.2500  -999.2500   103.5744   -45.8579     9.6810   -50.1228     7.4662     7.2212    10.1057  -999.2500  -999.2500
 3404.0000  -999.2500  -999.2500  -999.2500  -999.2500  -999.2500   102.3819   -45.5467     9.6821   -50.7493     7.3108     7.0718    10.1057  -999.2500  -999.2500
 3404.5000  -999.2500  -999.2500  -999.2500  -999.2500  -999.2500   101.4911   -45.2355     9.7130   -51.3758     6.8197     6.7834    10.0359  -999.2500  -999.2500
 3405.0000  -999.2500  -999.2500  -999.2500  -999.2500  -999.2500   101.5089   -45.2255     9.7440   -52.0023     6.3879     6.3729     9.6941  -999.2500  -999.2500
 3405.5000  -999.2500  -999.2500  -999.2500  -999.2500  -999.2500   106.1988   -45.2154     9.7298   -52.6288     5.9321     5.9459     9.1079  -999.2500  -999.2500
 3406.0000  -999.2500  -999.2500  -999.2500  -999.2500  -999.2500   116.3221   -44.9018     9.6857   -53.2553     5.6890     5.6220     8.0957  -999.2500  -999.2500
 3406.5000  -999.2500  -999.2500  -999.2500  -999.2500  -999.2500   122.9728   -44.2894     9.6565   -53.8818     5.5319     5.4328     7.1462  -999.2500  -999.2500
 3407.0000  -999.2500  -999.2500  -999.2500  -999.2500  -999.2500   127.8136   -43.8276     9.6270   -54.5084     5.4538     5.3575     6.7141  -999.2500  -999.2500
 3407.5000  -999.2500  -999.2500  -999.2500  -999.2500  -999.2500   128.7327   -43.3658     9.6281   -55.1349     5.4901     5.3200     6.5760  -999.2500  -999.2500
 3408.0000  -999.2500  -999.2500  -999.2500  -999.2500  -999.2500   120.9073   -43.0343     9.6289   -62.5671     5.6427     5.3195     6.4855  -999.2500  -999.2500
 3408.5000  -999.2500  -999.2500  -999.2500  -999.2500  -999.2500   110.9668   -42.4396     9.6300   -62.1404     5.9623     5.6218     6.4855  -999.2500  -999.2500
 3409.0000  -999.2500  -999.2500  -999.2500  -999.2500  -999.2500   106.7578   -42.4296     9.6610   -61.7117     6.4469     6.0244     6.8078  -999.2500  -999.2500
 3409.5000  -999.2500  -999.2500  -999.2500  -999.2500  -999.2500   108.7074   -42.2690     9.6919   -68.7947     7.0846     6.6370     7.8200  -999.2500  -999.2500
 3410.0000  -999.2500  -999.2500  -999.2500  -999.2500  -999.2500   123.3809   -42.2590     9.6928   -60.7538     7.5904     7.2114    11.2908  -999.2500  -999.2500
 3410.5000  -999.2500  -999.2500  -999.2500  -999.2500  -999.2500   135.4615   -42.5477     9.7400   -60.3274     7.8555     7.4133    13.0596  -999.2500  -999.2500
 3411.0000  -999.2500  -999.2500  -999.2500  -999.2500  -999.2500   144.2238   -42.8389     9.7851   -59.9099     7.7990     7.3612    11.3693  -999.2500  -999.2500
 3411.5000  -999.2500  -999.2500  -999.2500  -999.2500  -999.2500   150.3716   -43.2808     9.8462   -51.9520     7.2745     7.2091     8.7370  -999.2500  -999.2500
 3412.0000  -999.2500  -999.2500  -999.2500  -999.2500  -999.2500   152.3970   -43.5720     9.9374   -51.4333     6.7389     6.6336     7.2460  -999.2500  -999.2500
 3412.5000  -999.2500  -999.2500  -999.2500  -999.2500  -999.2500   146.3816   -43.8632    10.0588   -51.0066     5.9887     5.9306     7.0479  -999.2500  -999.2500
