~VERSION INFORMATION
 VERS.                2.0:   CWLS LOG ASCII STANDARD - VERSION 2.0
 WRAP.                 NO:   ONE LINE PER DEPTH STEP
~WELL INFORMATION
#MNEM.UNIT      DATA TYPE    INFORMATION
#----------   ------------   ------------------------------
 STRT.F         2496.0000:   START DEPTH
 STOP.F         4120.0000:   STOP DEPTH
 STEP.F            0.5000:   STEP LENGTH
 NULL.          -999.2500:   NO VALUE
 COMP. LAWRENCE ALLISON AND ASSOCIATES:   COMPANY
 WELL. LAWRENCE "X" #85-10:   WELL
 FLD .              N P R:   FIELD
 LOC .      S10 T38N R78W:   LOCATION
 CNTY.            NATRONA:   COUNTY
 STAT.            WYOMING:   STATE
 CTRY. UNITED STATES OF AMERICA:   COUNTRY
 SRVC.      DRESSER ATLAS:   SERVICE COMPANY
 DATE.        20-JAN-1984:   LOGDATE
 API .     49025109580000:   API NUMBER
~CURVE INFORMATION
#MNEM.UNIT       API CODE    CURVE DESCRIPTION
#----------   ------------   ------------------------------
 DEPT.F                  :   
 SPR .MV     07 010 01 00:   SPONTANEOUS POTENTIAL
 TENR.LBS    07 635 01 00:   TENSION FROM RESISTIVITY
 ILD .OHMM   07 120 46 00:   DEEP INDUCTION RESISTIVITY
 ILM .OHMM   07 120 44 00:   INDUCTION LOG MEDIUM RESISTIVITY
 RFOC.OHMM   07 220 04 00:   RESISTIVITY FOCUSED LOG RES.
 GRD .GAPI   45 310 01 00:   GAMMA RAY FROM DENSITY LOG
 CALD.IN     45 280 60 00:   CALIPER FROM DENSITY LOG
 TEND.LBS    45 635 01 00:   TENSION FROM DENSITY LOG
 RHOB.G/C3   45 350 01 00:   BULK DENSITY
 CORR.G/C3   45 356 01 00:   DENSITY CORRECTION
 CN  .DEC    42 890 03 00:   NEUTRON POROSITY SANDSTONE
~PARAMETER INFORMATION
#MNEM.UNIT          VALUE    DESCRIPTION
#----------   ------------   ------------------------------
 EKB .F         5231.0000:   Kelly bushing
 EGL .F         5221.0000:   Ground level
 EDF .F            0.0000:   Drilling floor
 TD  .F         4115.0000:   Total depth
 DATE.        20-JAN-1984:   Date logged
 CLNT.            A2DTECH:   Client Code
 SL  . 2159' FSL & 292' FEL:   Surface Location
 PD  .                 GL:   Permanent Datum
 EPD .F              5221:   Elevation Permanent Datum
 LMF .                 KB:   Log Measured From
 DMF .                 KB:   Drilling Measured From
 DD  .F              4115:   Depth driller
 DL  .F              4111:   Depth logger
 BLI .F              4109:   Bottom log interval
 TLI .F              2496:   Top log interval
 CS1 .IN            8.625:   Casing size
 CBD1.       8.625 @ 537':   Casing driller 1
 BS1 .IN            7.875:   Bit size
 DFT .            GEL KCL:   Type fluid in hole
 DFD .                8.8:   Density
 DFV .                 40:   Viscosity
 DFPH.                  9:   pH
 DFL .                9.8:   Fluid loss
 MSS .           FLOWLINE:   Source of sample
 RMS .OHMM           0.61:   Rm
 MST .F                77:   Rm Meas. temp.
 RMF .OHMM           0.51:   Rmf
 MFST.F                69:   Rmf Meas. temp.
 RMC .OHMM           0.76:   Rmc
 MCST.F                77:   Rmc Meas. temp.
 MFSS.               MEAS:   Source Rmf.
 RMB .OHMM           0.38:   Rm. at BHT
 BHT .F               122:   BHT.
 TCS .HRS               4:   Time Circ. stopped
 MRT .F               122:   Maximum recorded temp.
 LUN .               6307:   Logging unit number
 LUL .               GLTE:   Logging unit location
 ENGI.            DEYOUNG:   Recorded By
 WITN.           R. SCOTT:   Witnessed by
 ORIG.           5" PRINT:   Origin of data
 UWI .     49025109580000:   Unique Well ID
 DICO. A2D TECHNOLOGIES, INC.:   Digitizing Company
 DAPD.                 10:   Feet Above Permanent Datum
 MCSS.               CALC:   Source Rmc.
~OTHER INFORMATION
~A  DEPT       SPR       TENR        ILD        ILM       RFOC        GRD       CALD       TEND       RHOB       CORR         CN   
# ...
 3136.5000   -59.8850   -25.8520     3.9180     4.2390     4.1210   118.2940     8.2390   -34.8420     2.5160     0.0580     0.2120
 3137.0000   -59.9670   -25.8520     4.2040     4.3960     4.1590   117.4570     8.2390   -34.9880     2.5180     0.0480     0.2050
 3137.5000   -59.9190   -25.8520     4.4900     4.8030     4.5390   114.6480     8.2390   -35.1350     2.5210     0.0370     0.1970
 3138.0000   -59.6600   -25.8520     4.7760     5.2120     4.9690   110.9550     8.2390   -35.2810     2.5320     0.0450     0.1890
 3138.5000   -59.4050   -25.8520     5.0620     5.6210     5.3980   107.1220     8.2390   -35.4270     2.5440     0.0560     0.1810
 3139.0000   -59.1490   -25.8520     5.3480     6.0290     5.8270   103.2910     8.2390   -35.5740     2.5560     0.0670     0.1780
 3139.5000   -58.8920   -25.8520     5.6340     6.4190     6.2560   100.4330     8.2390   -35.7200     2.5560     0.0720     0.1840
 3140.0000   -58.6360   -25.8520     5.8410     6.7960     6.5980    99.5150     8.2390   -35.8660     2.5540     0.0670     0.1900
 3140.5000   -58.3790   -25.8520     6.0270     7.2390     6.8850    98.5520     8.2390   -36.0120     2.5510     0.0600     0.1920
 3141.0000   -58.1230   -25.8520     6.2450     6.9870     7.1070    98.9490     8.2390   -36.1590     2.5530     0.0540     0.1940
 3141.5000   -57.8660   -25.8520     6.1190     6.6800     6.9380    99.7350     8.2390   -36.3050     2.5550     0.0480     0.1950
 3142.0000   -57.6090   -25.8520     5.9680     6.3740     6.5070   100.5020     8.2390   -36.4510     2.5610     0.0650     0.2030
 3142.5000   -57.4230   -25.8520     5.8160     6.0670     6.0130   102.8880     8.2390   -36.5970     2.5670     0.0820     0.2050
 3143.0000   -57.7960   -25.8520     5.6650     6.0020     5.9920   105.7930     8.2390   -36.7440     2.5710     0.1050     0.2060
 3143.5000   -58.1670   -25.8520     5.4840     5.9820     5.9700   108.7700     8.2400   -36.8900     2.5670     0.1040     0.2070
 3144.0000   -58.5360   -25.8520     5.2990     5.9630     5.8220   109.5080     8.2400   -37.0360     2.5610     0.0900     0.2060
 3144.5000   -58.9050   -25.8520     5.1130     5.7220     5.6040   109.4700     8.2410   -37.1830     2.5550     0.0790     0.2030
 3145.0000   -59.2750   -25.8520     5.0490     5.4920     5.3870   107.8870     8.2410   -37.3290     2.5490     0.0680     0.2060
 3145.5000   -59.6130   -25.8520     5.0490     5.2630     5.0960   106.1440     8.2420   -37.4750     2.5420     0.0690     0.2110
 3146.0000   -59.6210   -25.8520     5.0490     5.0490     5.1950   104.3720     8.2420   -37.6210     2.5470     0.0740     0.2160
 3146.5000   -59.6190   -25.8520     5.0490     5.1800     5.3430   102.4010     8.2430   -37.7510     2.5550     0.0780     0.2130
 3147.0000   -59.6190   -25.8520     5.0490     5.3020     5.4920   103.2220     8.2430   -37.5380     2.5630     0.0780     0.2080
 3147.5000   -59.6190   -25.8520     5.0490     5.4240     5.6400   104.3110     8.2440   -37.3050     2.5620     0.0650     0.2030
 3148.0000   -59.6190   -25.8520     5.0490     5.5380     5.7880   105.3900     8.2440   -37.0720     2.5560     0.0710     0.1980
 3148.5000   -59.6190   -25.8520     5.0140     5.3100     5.9370   106.4240     8.2450   -36.8390     2.5610     0.0840     0.1940
 3149.0000   -59.6190   -25.8520     4.8920     5.0990     6.1300   109.7600     8.2450   -36.6050     2.5660     0.0960     0.2030
 3149.5000   -59.6190   -25.9910     4.7700     4.8710     6.1300   114.0000     8.2460   -36.3720     2.5670     0.0950     0.2100
 3150.0000   -59.6190   -26.1910     4.7160     4.8960     5.5810   117.6340     8.2460   -36.1390     2.5600     0.0730     0.2170
 3150.5000   -59.6190   -26.3910     4.6920     4.9300     5.1560   118.6210     8.2470   -35.9060     2.5530     0.0540     0.2220
 3151.0000   -59.6190   -26.5910     4.6680     4.9630     4.8660   113.8500     8.2470   -35.6730     2.5460     0.0390     0.2210
 3151.5000   -59.6190   -26.7920     4.6440     4.9970     4.9430   110.1810     8.2480   -35.4400     2.5520     0.0420     0.2200
 3152.0000   -59.6190   -26.9920     4.6200     5.0300     5.1790   106.4550     8.2480   -35.2060     2.5620     0.0630     0.2190
 3152.5000   -59.6190   -27.1920     4.6040     5.0640     5.4150   104.4410     8.2490   -34.9730     2.5720     0.0810     0.2180
 3153.0000   -59.6210   -27.3930     4.6810     5.0970     5.6500   103.9220     8.2490   -34.7400     2.5770     0.1300     0.2170
 3153.5000   -59.6210   -27.5930     4.7390     5.1310     5.8000   104.4640     8.2500   -34.5070     2.5830     0.1260     0.2180
 3154.0000   -59.8050   -27.7930     4.7970     5.1640     5.5840   105.5240     8.2500   -34.2740     2.5830     0.1170     0.2180
 3154.5000   -60.1170   -27.9940     4.8540     5.2150     5.3620   106.5820     8.2510   -34.0410     2.5840     0.1080     0.2190
 3155.0000   -60.4270   -28.1940     5.0040     5.3430     5.0960   106.9260     8.2510   -33.8080     2.5840     0.0990     0.2180
 3155.5000   -60.5680   -28.3940     5.1780     5.4700     5.2260   107.0220     8.2520   -33.5740     2.5850     0.0910     0.2180
 3156.0000   -60.3010   -28.5940     5.3530     5.5980     5.5440   106.7270     8.2520   -33.3410     2.5820     0.0840     0.2090
 3156.5000   -60.0390   -28.7950     5.5270     5.7260     5.8540   106.4410     8.2530   -33.1080     2.5780     0.0770     0.1960
 3157.0000   -59.7750   -28.9950     5.7010     5.8530     6.0640   106.1550     8.2530   -32.8750     2.5740     0.0700     0.1900
 3157.5000   -59.5000   -29.1950     5.8760     5.9810     6.2680   105.8690     8.2530   -32.6420     2.5720     0.0740     0.1860
 3158.0000   -59.4230   -29.3960     6.0500     6.1080     6.5040   105.5870     8.2540   -32.4090     2.5700     0.0790     0.1820
 3158.5000   -59.4640   -29.5960     6.1520     6.2360     6.8280   105.2690     8.2540   -32.1760     2.5690     0.0770     0.1800
 3159.0000   -59.5080   -29.7960     6.2430     6.3640     7.1520   104.0120     8.2550   -31.9420     2.5720     0.0740     0.1840
 3159.5000   -59.5520   -29.7050     6.3610     6.4800     7.4770   102.6430     8.2550   -31.7090     2.5770     0.0710     0.1890
 3160.0000   -59.5960   -29.4790     6.2990     6.5400     7.5820   103.9650     8.2560   -31.4760     2.5810     0.0680     0.1950
 3160.5000   -59.6390   -29.2530     6.1730     6.3800     7.1610   105.4970     8.2560   -31.2430     2.5840     0.0720     0.2010
 3161.0000   -59.6830   -29.0270     6.0470     6.2340     6.8410   107.0210     8.2570   -31.0100     2.5840     0.0770     0.2060
 3161.5000   -59.7260   -28.8010     5.8960     6.0880     6.5220   108.5300     8.2570   -30.7770     2.5810     0.0810     0.2100
 3162.0000   -59.7700   -28.5740     5.6900     5.9420     6.2020   108.9200     8.2580   -30.5440     2.5750     0.0830     0.2120
 3162.5000   -59.8130   -28.3480     5.4840     5.7960     5.8830   108.1000     8.2580   -30.3100     2.5680     0.0820     0.2190
 3163.0000   -59.8570   -28.1220     5.2780     5.6510     5.4870   107.4910     8.2590   -30.0770     2.5630     0.0870     0.2250
 3163.5000   -59.9000   -27.8960     5.0720     5.5050     5.4990   106.8870     8.2590   -29.8440     2.5610     0.0930     0.2260
 3164.0000   -59.9440   -27.6700     4.8660     5.3590     5.5150   106.2700     8.2600   -29.6110     2.5600     0.0910     0.2210
 3164.5000   -59.9870   -27.4440     4.7280     5.2130     5.5380   105.6020     8.2600   -29.3780     2.5570     0.0830     0.2180
 3165.0000   -60.0310   -27.2180     4.6080     5.0590     5.4040   107.3080     8.2610   -29.1450     2.5540     0.0750     0.2140
 3165.5000   -60.0740   -26.9910     4.4880     4.8720     5.1780   109.3170     8.2610   -28.9120     2.5520     0.0670     0.2110
 3166.0000   -60.1180   -26.7650     4.3680     4.6840     4.9110   111.3660     8.2620   -28.6780     2.5500     0.0630     0.2070
 3166.5000   -60.1620   -26.5390     4.2370     4.4970     5.0210   111.4530     8.2620   -28.4450     2.5500     0.0670     0.2050
