~VERSION INFORMATION
 VERS.                2.0:   CWLS LOG ASCII STANDARD - VERSION 2.0
 WRAP.                 NO:   ONE LINE PER DEPTH STEP
~WELL INFORMATION
#MNEM.UNIT      DATA TYPE    INFORMATION
#----------   ------------   ------------------------------
 STRT.F           22.0000:   START DEPTH
 STOP.F         4228.5000:   STOP DEPTH
 STEP.F            0.5000:   STEP LENGTH
 NULL.          -999.2500:   NO VALUE
 COMP. LAWRENCE ALLISON & ASSOCIATES:   COMPANY
 WELL. LAWRENCE NPR 3 "X" #25-2:   WELL
 FLD .                NPR:   FIELD
 LOC .       S2 T38N R78W:   LOCATION
 CNTY.            NATRONA:   COUNTY
 STAT.            WYOMING:   STATE
 CTRY. UNITED STATES OF AMERICA:   COUNTRY
 SRVC.      DRESSER ATLAS:   SERVICE COMPANY
 DATE.        22-DEC-1985:   LOGDATE
 API .     49025110700000:   API NUMBER
~CURVE INFORMATION
#MNEM.UNIT       API CODE    CURVE DESCRIPTION
#----------   ------------   ------------------------------
 DEPT.F                  :   
 TENS.LBS    60 635 01 00:   TENSION FROM SONIC
 DT  .US/F   60 520 00 00:   DELTA TIME
 SPHI.DEC    60 890 00 00:   SONIC POROSITY
 TENR.LBS    07 635 01 00:   TENSION FROM RESISTIVITY
 CALR.IN     07 280 01 00:   CALIPER FROM RESISTIVITY
 SPR .MV     07 010 01 00:   SPONTANEOUS POTENTIAL
 GRR .GAPI   07 310 01 00:   GAMMA RAY FROM RESISTIVITY
 SFL .OHMM   07 220 01 00:   SHALLOW FOCUSED LOG RESISTIVITY
 ILD .OHMM   07 120 46 00:   DEEP INDUCTION RESISTIVITY
 ILM .OHMM   07 120 44 00:   INDUCTION LOG MEDIUM RESISTIVITY
~PARAMETER INFORMATION
#MNEM.UNIT          VALUE    DESCRIPTION
#----------   ------------   ------------------------------
 EKB .F         5148.0000:   Kelly bushing
 EGL .F         5136.0000:   Ground level
 EDF .F            0.0000:   Drilling floor
 TD  .F         4228.0000:   Total depth
 DATE.        22-DEC-1985:   Date logged
 CLNT.            A2DTECH:   Client Code
 SL  . 1350' FWL & 1968' FSL:   Surface Location
 PD  .                 GL:   Permanent Datum
 DD  .F              4224:   Depth driller
 DL  .F              4228:   Depth logger
 BLI .F              4225:   Bottom log interval
 CS1 .IN            8.625:   Casing size
 CBD1.      8.625" @ 677':   Casing driller 1
 CBL1.F               677:   Casing logger 1
 BS1 .IN            7.875:   Bit size
 DFT .            KCL/GEL:   Type fluid in hole
 DFD .                9.2:   Density
 DFV .                 45:   Viscosity
 DFPH.                8.5:   pH
 DFL .               11.5:   Fluid loss
 MSS .               TANK:   Source of sample
 RMS .OHMM           .256:   Rm
 MST .F                63:   Rm Meas. temp.
 RMF .OHMM           .192:   Rmf
 MFST.F                64:   Rmf Meas. temp.
 RMC .OHMM           .320:   Rmc
 MCST.F                64:   Rmc Meas. temp.
 MFSS.               MEAS:   Source Rmf.
 RMB .OHMM           .119:   Rm. at BHT
 BHT .F               143:   BHT.
 TCS .HRS             4.5:   Time Circ. stopped
 MRT .F               143:   Maximum recorded temp.
 LUN .               6427:   Logging unit number
 LUL .          WILLISTON:   Logging unit location
 ENGI.             MCHUCH:   Recorded By
 WITN.             STRONG:   Witnessed by
 ORIG.           5" PRINT:   Origin of data
 UWI .     49025110700000:   Unique Well ID
 DICO. A2D TECHNOLOGIES, INC.:   Digitizing Company
 DAPD.                 12:   Feet Above Permanent Datum
 BSD1.               4224:   Depth drilled with bit1
 MCSS.               CALC:   Source Rmc.
 EPD .F              5136:   Elevation Permanent Datum
 LMF .                 KB:   Log Measured From
 DMF .                 KB:   Drilling Measured From
~OTHER INFORMATION
~A   DEPT     TENS         DT       SPHI       TENR       CALR        SPR         GRR       SFL        ILD        ILM   
# ...
 1161.0000  -999.2500  -999.2500  -999.2500   -92.8790    10.7950   -62.0250    88.7880     8.5630     9.5540     9.2430
 1161.5000  -999.2500  -999.2500  -999.2500   -94.6300    10.8170   -62.0900    88.8320     8.9200     9.6890     9.4590
 1162.0000  -999.2500  -999.2500  -999.2500   -95.0120    10.8380   -62.1440    90.1370     9.1630     9.8240     9.6750
 1162.5000  -999.2500  -999.2500  -999.2500   -94.1520    10.8600   -62.1190    95.7430     9.0680     9.9590     9.8910
 1163.0000  -999.2500  -999.2500  -999.2500   -93.2910    10.8820   -62.0930    96.9940     8.9960    10.0940    10.0440
 1163.5000  -999.2500  -999.2500  -999.2500   -92.4310    10.9030   -62.0680    95.4000     8.9240    10.1420    10.0440
 1164.0000  -999.2500  -999.2500  -999.2500   -91.5700    10.9250   -62.0420    94.0790     8.9040    10.1490    10.0440
 1164.5000  -999.2500  -999.2500  -999.2500   -90.7090    10.9470   -62.0160    92.8600     8.8930    10.1560    10.0450
 1165.0000  -999.2500  -999.2500  -999.2500   -89.8490    10.9550   -61.9900    91.6310     8.8810    10.1620    10.0440
 1165.5000  -999.2500  -999.2500  -999.2500   -88.9880    10.9550   -61.9650    91.4200     8.8700    10.1690    10.0440
 1166.0000  -999.2500  -999.2500  -999.2500   -88.1280    10.9550   -61.9180    91.8990     8.8580    10.1760    10.0450
 1166.5000  -999.2500  -999.2500  -999.2500   -87.2670    10.9550   -61.8360    92.2520     8.8470    10.1830    10.0450
 1167.0000  -999.2500  -999.2500  -999.2500   -86.4070    10.9550   -61.7500    90.0020     8.8330    10.1900    10.0630
 1167.5000  -999.2500  -999.2500  -999.2500   -85.4940    10.9550   -61.5920    87.4210     9.0030    10.1970    10.0820
 1168.0000  -999.2500  -999.2500  -999.2500   -86.4740    10.9550   -61.4370    87.1810     9.2480    10.2040    10.1010
 1168.5000  -999.2500  -999.2500  -999.2500   -87.5170    10.9550   -61.2050    89.9980     9.2480    10.2100    10.1200
 1169.0000  -999.2500  -999.2500  -999.2500   -88.5610    10.9550   -61.4820    90.7300     9.2480    10.2170    10.1370
 1169.5000  -999.2500  -999.2500  -999.2500   -89.6050    10.9840   -61.5520    88.6890     9.0250    10.2250    10.0200
 1170.0000  -999.2500  -999.2500  -999.2500   -90.6480    11.0160   -61.5530    86.6990     8.7520    10.2330     9.9130
 1170.5000  -999.2500  -999.2500  -999.2500   -91.6920    11.0490   -61.5530    84.8820     8.7780    10.0660     9.8060
 1171.0000  -999.2500  -999.2500  -999.2500   -92.7360    11.0810   -61.5540    85.3960     8.8280     9.9110     9.6990
 1171.5000  -999.2500  -999.2500  -999.2500   -93.7790    11.1140   -61.6130    88.6190     8.7590     9.7560     9.5920
 1172.0000  -999.2500  -999.2500  -999.2500   -94.8230    11.1460   -61.7570    92.1570     8.6410     9.6010     9.4740
 1172.5000  -999.2500  -999.2500  -999.2500   -95.8670    11.1740   -61.9000    95.1850     8.4810     9.4450     9.3140
 1173.0000  -999.2500  -999.2500  -999.2500   -96.9100    11.1730   -62.0430    94.8470     8.2910     9.2880     9.1530
 1173.5000  -999.2500  -999.2500  -999.2500   -97.9540    11.1730   -62.1870    95.1310     8.1880     9.1300     8.9930
 1174.0000  -999.2500  -999.2500  -999.2500   -98.9980    11.1700   -62.3300    96.5490     8.1550     8.9730     8.8320
 1174.5000  -999.2500  -999.2500  -999.2500  -100.0410    11.1480   -62.4730   100.0400     8.1230     8.8160     8.6720
 1175.0000  -999.2500  -999.2500  -999.2500  -101.0850    11.1250   -62.5680   103.0870     8.0450     8.6580     8.5380
 1175.5000  -999.2500  -999.2500  -999.2500  -102.1290    11.1120   -62.6170   101.3920     7.9670     8.5140     8.4300
 1176.0000  -999.2500  -999.2500  -999.2500  -103.1720    11.1070   -62.6660    99.0390     7.8890     8.4390     8.3220
 1176.5000  -999.2500  -999.2500  -999.2500  -104.2160    11.1020   -62.7140    94.8060     7.7670     8.3590     8.2140
 1177.0000  -999.2500  -999.2500  -999.2500  -105.2600    11.0970   -62.7320    93.8300     7.7890     8.3900     8.1320
 1177.5000  -999.2500  -999.2500  -999.2500  -103.1630    11.0850   -62.6860    91.6930     7.8380     8.4250     8.2010
 1178.0000  -999.2500  -999.2500  -999.2500  -100.4380    11.0440   -62.6410    89.6530     7.8880     8.4610     8.2560
 1178.5000  -999.2500  -999.2500  -999.2500   -97.7120    11.0030   -62.5950    90.3280     7.9370     8.4970     8.3120
 1179.0000  -999.2500  -999.2500  -999.2500   -94.9870    10.9930   -62.5500    92.3470     7.9860     8.5330     8.3670
 1179.5000  -999.2500  -999.2500  -999.2500   -92.2620    10.9900   -62.5050    94.6250     8.0580     8.5690     8.4230
 1180.0000  -999.2500  -999.2500  -999.2500   -89.5370    10.9880   -62.4590    95.0640     7.9590     8.6040     8.4840
 1180.5000  -999.2500  -999.2500  -999.2500   -86.8120    10.9850   -62.4140    92.8510     7.8390     8.6400     8.5470
 1181.0000  -999.2500  -999.2500  -999.2500   -88.3070    10.9830   -62.3690    92.3660     8.0580     8.6760     8.6090
 1181.5000  -999.2500  -999.2500  -999.2500   -93.7580    10.9810   -62.3950    93.4500     8.0580     8.7120     8.6720
 1182.0000  -999.2500  -999.2500  -999.2500   -99.2080    10.9780   -62.4930    94.2190     8.0580     8.7470     8.7350
 1182.5000  -999.2500  -999.2500  -999.2500  -104.6580    10.9760   -62.5900    93.6230     8.1690     8.7520     8.7980
 1183.0000  -999.2500  -999.2500  -999.2500  -101.9280    10.9790   -62.6870    93.9050     8.2730     8.7520     8.9140
 1183.5000  -999.2500  -999.2500  -999.2500   -97.8400    10.9870   -62.7840    92.7790     8.4360     8.7520     8.8060
 1184.0000  -999.2500  -999.2500  -999.2500   -95.4640    10.9950   -62.8810    90.9770     8.3580     8.7520     8.5580
 1184.5000  -999.2500  -999.2500  -999.2500   -95.4640    11.0040   -62.9310    89.2650     8.1710     8.7970     8.3360
 1185.0000  -999.2500  -999.2500  -999.2500   -95.4640    11.0130   -62.8820    90.6920     8.1190     8.8330     8.2210
 1185.5000  -999.2500  -999.2500  -999.2500   -95.4640    10.9920   -62.8330    94.3370     8.1040     8.7460     8.1060
 1186.0000  -999.2500  -999.2500  -999.2500   -95.4640    10.9650   -62.7850    95.6600     8.0880     8.6350     7.9840
 1186.5000  -999.2500  -999.2500  -999.2500   -95.4640    10.9360   -62.7560    93.9060     8.0720     8.5240     7.8730
 1187.0000  -999.2500  -999.2500  -999.2500   -95.4640    10.9390   -62.8530    95.2860     8.0390     8.4130     7.7560
 1187.5000  -999.2500  -999.2500  -999.2500   -95.4640    10.9460   -62.9510    98.2520     7.8820     8.3020     7.6390
 1188.0000  -999.2500  -999.2500  -999.2500   -95.4640    10.9530   -63.0480    98.3830     7.7250     8.1900     7.5350
 1188.5000  -999.2500  -999.2500  -999.2500   -95.4640    10.9600   -63.1370    97.4630     7.5680     8.1050     7.4630
 1189.0000  -999.2500  -999.2500  -999.2500   -95.4640    10.9680   -63.1390    97.0010     7.4190     8.0480     7.3510
 1189.5000  -999.2500  -999.2500  -999.2500   -95.4640    10.9750   -63.1390    98.3300     7.4910     7.9900     7.3800
 1190.0000  -999.2500  -999.2500  -999.2500   -95.4640    10.9830   -63.1390    98.9820     7.5770     7.9190     7.4470
 1190.5000  -999.2500  -999.2500  -999.2500   -95.4640    10.9920   -63.1390    97.5800     7.6630     7.9860     7.5140
 1191.0000  -999.2500  -999.2500  -999.2500   -95.4640    11.0000   -63.1390    94.9130     7.7490     8.1070     7.5800
 1191.5000  -999.2500  -999.2500  -999.2500   -95.4640    11.0090   -63.1390    92.7840     7.8430     8.2290     7.6470
 1192.0000  -999.2500  -999.2500  -999.2500   -95.4640    11.0120   -63.1390    93.5560     7.9400     8.3510     7.7140
 1192.5000  -999.2500  -999.2500  -999.2500   -95.4640    11.0040   -63.1390    95.4580     8.0290     8.4730     7.7810
 1193.0000  -999.2500  -999.2500  -999.2500   -95.4640    10.9970   -63.1380    95.9270     8.1090     8.5940     7.8600
 1193.5000  -999.2500  -999.2500  -999.2500   -95.4640    10.9890   -63.1190    95.2880     8.1320     8.7160     8.0310
 1194.0000  -999.2500  -999.2500  -999.2500   -95.4640    10.9820   -63.0970    94.4510     8.5590     8.7910     8.2020
