~VERSION INFORMATION
 VERS.                2.0:   CWLS LOG ASCII STANDARD - VERSION 2.0
 WRAP.                 NO:   ONE LINE PER DEPTH STEP
~WELL INFORMATION
#MNEM.UNIT      DATA TYPE    INFORMATION
#----------   ------------   ------------------------------
 STRT.F           48.0000:   START DEPTH
 STOP.F         3235.5000:   STOP DEPTH
 STEP.F            0.5000:   STEP LENGTH
 NULL.          -999.2500:   NO VALUE
 COMP.    TESORO PEROLEUM:   COMPANY
 WELL. TESORO P46 T 28 N.P.R. #3-28:   WELL
 FLD .        TEAPOT DOME:   FIELD
 LOC .      S28 T39N R78W:   LOCATION
 CNTY.            NATRONA:   COUNTY
 STAT.            WYOMING:   STATE
 CTRY. UNITED STATES OF AMERICA:   COUNTRY
 SRVC.      DRESSER ATLAS:   SERVICE COMPANY
 DATE.        17-SEP-1975:   LOGDATE
 API .     49025102530000:   API NUMBER
~CURVE INFORMATION
#MNEM.UNIT       API CODE    CURVE DESCRIPTION
#----------   ------------   ------------------------------
 DEPT.F                  :   
 CALD.IN     45 280 60 00:   CALIPER FROM DENSITY LOG
 RHOB.G/C3   45 350 01 00:   BULK DENSITY
 CORR.G/C3   45 356 01 00:   DENSITY CORRECTION
 TEND.LBS    45 635 01 00:   TENSION FORM DENSITY LOG
 NPHI.DEC    42 890 03 00:   NEUTRON POROSITY SANDSTONE
 SPR .MV     07 010 01 00:   SPONTANEOUS POTENTIAL
 ILD .OHMM   07 120 46 00:   DEEP INDUCTION RESISTIVITY
 ILM .OHMM   07 120 44 00:   INDUCTION LOG MEDIUM RESISTIVITY
 SFL .OHMM   07 220 01 00:   SHALLOW FOCUSED LOG RESISTIVITY
 GRD .GAPI   45 310 01 00:   GAMMA RAY FROM DENSITY LOG
~PARAMETER INFORMATION
#MNEM.UNIT          VALUE    DESCRIPTION
#----------   ------------   ------------------------------
 EKB .F         5088.0000:   Kelly bushing
 EGL .F         5075.0000:   Ground level
 TD  .F         3218.0000:   Total depth
 CLNT.            A2DTECH:   Client Code
 SL  . 2310' FWL & 1650' FSL:   Surface Location
 PD  .                 GL:   Permanent Datum
 EPD .F              5075:   Elevation Permanent Datum
 LMF .                 KB:   Log Measured From
 DMF .                 KB:   Drilling Measured From
 DAPD.F                13:   Feet Above Permanent Datum
 DATE.        17-SEP-1975:   Date Logged [DD-MMM-YYYY]
 DD  .F              3218:   Depth driller
 DL  .F              3217:   Depth logger
 BLI .F              3215:   Bottom log interval
 TLI .F               395:   Top log interval
 CS1 .IN            8.625:   Casing size
 CBD1.      8.625" @ 393':   Casing driller 1
 CBL1.F               395:   Casing logger 1
 BS1 .IN            7.875:   Bit size
 BSD1.F              3218:   Depth drilled with bit1
 DFT .           CHEM GEL:   Type fluid in hole
 DFD .                9.5:   Density
 DFV .                 60:   Viscosity
 DFPH.                9.5:   pH
 DFL .                 11:   Fluid loss
 MSS .           FLOWLINE:   Source of sample
 RMS .OHMM           0.55:   Rm
 MST .F                60:   Rm Meas. temp.
 RMF .OHMM           0.48:   Rmf
 MFST.F                62:   Rmf Meas. temp.
 MFSS.               MEAS:   Source Rmf.
 RMC .OHMM            1.6:   Rmc
 MCST.F                62:   Rmc Meas. temp.
 MCSS.               MEAS:   Source Rmc.
 RMB .OHMM            0.3:   Rm. at BHT
 BHT .F               112:   BHT.
 TCS .HRS               5:   Time Circ. stopped
 MRT .F               112:   Maximum recorded temp.
 LUN .               6008:   Logging unit number
 LUL .              GLTTE:   Logging unit location
 ENGI.            MILHOAN:   Recorded By
 WITN.               WOLF:   Witnessed by
 ORIG.           5" PRINT:   Origin of data
 UWI .     49025102530000:   Unique Well ID
 DICO. A2DTECHNOLOGIES,INC.:   Digitizing Company
~OTHER INFORMATION
~A   DEPT     CALD       RHOB       CORR       TEND       NPHI         SPR         ILD        ILM        SFL      GRD   
# ...
 1790.0000     8.4645     2.5500     0.0020  2380.5867     0.3038   -29.8801     7.7661     8.1414     8.3720    90.9632
 1790.5000     8.4510     2.5510     0.0021  2379.4163     0.3101   -29.8743     7.7693     8.0329     8.3776    90.9897
 1791.0000     8.4371     2.5420    -0.0007  2378.2458     0.3091   -29.8686     7.7724     8.0361     8.3182    91.2498
 1791.5000     8.4386     2.5316    -0.0020  2377.0391     0.3091   -29.9256     7.7755     7.9836     8.1597    91.0255
 1792.0000     8.4397     2.5301    -0.0034  2375.6123     0.3130   -30.1547     7.8874     7.9307     8.0508    91.0515
 1792.5000     8.4409     2.5310    -0.0032  2374.4419     0.3180   -30.1488     7.8906     8.0458     8.0575    90.8272
 1793.0000     8.4420     2.5333    -0.0031  2373.4138     0.3078   -30.4409     7.8939     8.0491     8.0629    90.8532
 1793.5000     8.4432     2.5356    -0.0029  2372.1011     0.3047   -30.4337     7.8977     8.0523     8.2388    90.8740
 1794.0000     8.4444     2.5394    -0.0012  2370.9304     0.3029   -30.5782     7.7911     7.9442     8.4821    91.1639
 1794.5000     8.4458     2.5441     0.0004  2369.7883     0.3004   -30.7213     7.6867     7.8384     9.0334    92.1201
 1795.0000     8.4469     2.5516     0.0083  2368.5801     0.2992   -30.7141     7.4798     7.8416     9.2949    92.8605
 1795.5000     8.4481     2.5600     0.0189  2367.3713     0.3021   -30.7083     7.3795     7.7356     9.1087    93.6009
 1796.0000     8.4493     2.5683     0.0281  2365.9561     0.3087   -30.5298     7.2807     7.6318     8.6810    95.3009
 1796.5000     8.4504     2.5721     0.0358  2364.7859     0.3117   -30.3978     7.1831     7.4261     8.1022    96.7609
 1797.0000     8.4516     2.5730     0.0375  2363.6155     0.3135   -30.3921     7.1867     7.3264     7.3462    94.0995
 1797.5000     8.4530     2.5693     0.0376  2362.4451     0.3191   -30.0887     7.1896     7.2281     7.1569    90.8107
 1798.0000     8.4542     2.5545     0.0333  2391.4863     0.3263   -30.0830     7.1925     7.2317     7.9519    91.3112
 1798.5000     8.4553     2.5295     0.0274  2420.5439     0.3290   -30.0772     7.1954     7.2852     7.5259    90.3725
 1799.0000     8.4565     2.5153     0.0230  2435.5527     0.3302   -29.7738     7.1983     7.2953     7.0720    89.1938
 1799.5000     8.4576     2.5123     0.0217  2448.3979     0.3316   -29.7667     7.2019     7.3419     7.8031    89.2146
 1800.0000     8.4588     2.5132     0.0234  2446.9348     0.3205   -29.7609     7.2550     7.3449     8.9758    89.7151
 1800.5000     8.4600     2.5132     0.0236  2445.7644     0.3203   -29.7552     7.3085     7.4585     8.7158    90.5318
 1801.0000     8.4614     2.5153     0.0237  2444.5940     0.3153   -29.7495     7.4137     7.5590     8.2670    91.6809
 1801.5000     8.4472     2.5241     0.0229  2443.4236     0.3125   -29.7437     7.4167     7.7754     7.9351    92.3826
 1802.0000     8.4489     2.5329     0.0216  2445.0049     0.3140   -29.7380     7.5234     7.7785     7.6154    93.2230
 1802.5000     8.4507     2.5429     0.0202  2446.6997     0.3124   -30.0161     7.5265     7.7269     7.5138    93.9171
 1803.0000     8.4524     2.5452     0.0179  2448.3945     0.3106   -30.3050     7.5302     7.6771     7.6256    95.1264
 1803.5000     8.4542     2.5453     0.0150  2450.0894     0.3070   -30.4430     7.5333     7.7879     7.7444    95.3871
 1804.0000     8.4559     2.5438     0.0120  2451.7842     0.3058   -30.5833     7.5363     7.9010     7.9631    91.8098
 1804.5000     8.4577     2.5379     0.0091  2452.7546     0.3123   -30.5744     7.6202     7.9594     7.8574    91.5855
 1805.0000     8.4594     2.5260     0.0077  2451.4739     0.3129   -30.8633     7.6809     8.0182     7.9733    92.0913
 1805.5000     8.4612     2.5170     0.0063  2450.4487     0.3153   -31.1522     7.7947     8.1338     8.0943    90.9128
 1806.0000     8.4629     2.5141     0.0079  2449.4236     0.3128   -31.1414     7.8554     8.0932     8.2100    89.9711
 1806.5000     8.4647     2.5269     0.0080  2448.3987     0.3152   -30.9839     7.9166     8.1552     8.3321    89.5152
 1807.0000     8.4664     2.5308     0.0096  2447.3738     0.3164   -30.8264     7.8122     8.1597     8.3377    89.5413
 1807.5000     8.4682     2.5339     0.0127  2446.3489     0.3166   -30.8177     7.7107     8.1641     8.3434    89.8021
 1808.0000     8.4699     2.5410     0.0158  2445.3171     0.3133   -30.8090     7.6121     8.0556     8.1764    90.5425
 1808.5000     8.4717     2.5483     0.0174  2444.2598     0.3091   -30.6515     7.5655     7.9497     8.0113    91.2831
 1809.0000     8.4734     2.5507     0.0190  2443.0178     0.3099   -30.4940     7.4673     7.8431     7.9611    92.2634
 1809.5000     8.4752     2.5485     0.0160  2442.1450     0.3126   -30.4851     7.4195     7.7399     8.0236    93.2438
 1810.0000     8.4768     2.5463     0.0101  2440.9680     0.3258   -30.1768     7.3252     7.6904     8.1417    93.7444
 1810.5000     8.4784     2.5479     0.0087  2439.9431     0.3216   -30.1681     7.3327     7.6402     8.1473    92.3312
 1811.0000     8.4650     2.5509     0.0103  2438.9727     0.3203   -29.8618     7.3386     7.5924     8.2100    91.3874
 1811.5000     8.4820     2.5541     0.0134  2437.8933     0.3185   -30.1529     7.3446     7.5437     8.1584    91.6533
 1812.0000     8.4836     2.5556     0.0150  2436.8579     0.3154   -30.1421     7.3506     7.4436     8.1086    90.4748
 1812.5000     8.4852     2.5564     0.0151  2435.8005     0.3154   -30.4332     7.3566     7.4478     7.9463    86.6575
 1813.0000     8.4868     2.5565     0.0152  2434.5620     0.3202   -30.5711     7.3626     7.4527     7.7332    88.1177
 1813.5000     8.4884     2.5558     0.0153  2433.6858     0.3190   -30.5624     7.3686     7.4568     7.7384    89.0986
 1814.0000     8.4900     2.5544     0.0138  2432.6284     0.3162   -30.5536     7.3963     7.4710     7.8524    87.6849
 1814.5000     8.4916     2.5515     0.0124  2431.5710     0.3108   -30.5429     7.4839     7.5694     8.0798    86.2664
 1815.0000     8.4936     2.5485     0.0095  2430.5134     0.3122   -30.6852     7.4918     7.6797     8.1418    86.2873
 1815.5000     8.4952     2.5479     0.0081  2429.4561     0.3116   -30.6743     7.6011     7.6838     8.1473    87.2677
 1816.0000     8.4968     2.5487     0.0082  2428.3987     0.3194   -30.8144     7.7151     7.7957     8.1530    87.7683
 1816.5000     8.4984     2.5503     0.0098  2427.1311     0.3248   -30.9567     7.8294     7.9092     8.1020    88.2689
 1817.0000     8.4999     2.5503     0.0099  2426.1062     0.3223   -31.2435     7.9454     7.9729     8.1087    89.7742
 1817.5000     8.5015     2.5482     0.0100  2425.2266     0.3223   -31.2348     8.0632     8.1423     8.2280    91.4343
 1818.0000     8.4881     2.5430     0.0100  2424.0564     0.3105   -31.2261     8.1826     8.2608     8.2912    91.9349
 1818.5000     8.4901     2.5393     0.0101  2438.3933     0.3102   -31.2173     8.1893     8.3811     8.4721    91.4760
 1819.0000     8.4763     2.5417     0.0102  2437.1123     0.3045   -31.2066     8.3106     8.4442     8.5371    91.2518
 1819.5000     8.4783     2.5462     0.0088  2420.9968     0.3026   -31.1979     8.3174     8.5077     8.6027    91.0380
 1820.0000     8.4645     2.5478     0.0089  2404.8337     0.3035   -31.1892     8.3242     8.6316     8.6085    89.8594
 1820.5000     8.4665     2.5464     0.0090  2388.6707     0.3026   -30.8829     8.3310     8.6363     8.6144    88.4237
 1821.0000     8.4681     2.5404     0.0091  2372.3333     0.3034   -30.8742     8.3380     8.6409     8.6203    87.9821
 1821.5000     8.4697     2.5367     0.0092  2371.3083     0.3061   -30.5679     8.3463     8.6457     8.6263    88.7278
 1822.0000     8.4714     2.5383     0.0108  2370.3926     0.3090   -30.5592     8.3531     8.6505     8.6938    88.0238
 1822.5000     8.4733     2.5399     0.0109  2369.2585     0.3105   -30.5505     8.3599     8.5354     8.7605    89.2493
 1823.0000     8.4595     2.5400     0.0125  2353.1724     0.3045   -30.5417     8.3667     8.5405     8.7665    90.7094
