~VERSION INFORMATION
 VERS.                2.0:   CWLS LOG ASCII STANDARD - VERSION 2.0
 WRAP.                 NO:   ONE LINE PER DEPTH STEP
~WELL INFORMATION
#MNEM.UNIT      DATA TYPE    INFORMATION
#----------   ------------   ------------------------------
 STRT.F          213.5000:   START DEPTH
 STOP.F         3198.0000:   STOP DEPTH
 STEP.F            0.5000:   STEP LENGTH
 NULL.          -999.2500:   NO VALUE
 COMP.    FENIX & SCISSON:   COMPANY
 WELL.   FENIX "AX" #14-2:   WELL
 FLD .              NPR-3:   FIELD
 LOC .       S2 T38N R78W:   LOCATION
 CNTY.            NATRONA:   COUNTY
 STAT.            WYOMING:   STATE
 CTRY. UNITED STATES OF AMERICA:   COUNTRY
 SRVC.              WELEX:   SERVICE COMPANY
 DATE.        14-MAY-1977:   LOGDATE
 API .     49025103620000:   API NUMBER
~CURVE INFORMATION
#MNEM.UNIT       API CODE    CURVE DESCRIPTION
#----------   ------------   ------------------------------
 DEPT.F                  :   
 GRD .GAPI   45 310 01 00:   GAMMA RAY FROM DENSITY LOG
 CALD.IN     45 280 60 00:   CALIPER FROM DENSITY LOG
 CORR.G/C3   45 356 01 00:   DENSITY CORRECTION
 RHOB.G/C3   45 350 01 00:   BULK DENSITY
 SPR .MV     07 010 01 00:   SPONTANEOUS POTENTIAL FROM RES.
 ILD .OHMM   07 120 46 00:   DEEP INDUCTION RESISTIVITY
 ILM .OHMM   07 120 44 00:   INDUCTION LOG MEDIUM RESISTIVITY
 SGRD.OHMM   07 220 05 00:   SHALLOW SHORT GUARD RESISTIVITY
~PARAMETER INFORMATION
#MNEM.UNIT          VALUE    DESCRIPTION
#----------   ------------   ------------------------------
 EKB .F         5119.0000:   Kelly bushing
 EGL .F         5110.0000:   Ground level
 TD  .F         3200.0000:   Total depth
 CLNT.            A2DTECH:   Client Code
 SL  . 2400' FNL & 150' FWL:   Surface Location
 PD  .                 GL:   Permanent Datum
 EPD .F              5110:   Elevation Permanent Datum
 LMF .                 KB:   Log Measured From
 DMF .                 KB:   Drilling Measured From
 DAPD.F                 9:   Feet Above Permanent Datum
 DATE.        14-MAY-1977:   Date Logged [DD-MMM-YYYY]
 DD  .F              3200:   Depth driller
 DL  .F              3199:   Depth logger
 BLI .F              3197:   Bottom log interval
 TLI .F               217:   Top log interval
 CS1 .IN            8.625:   Casing size
 BS1 .IN            7.875:   Bit size
 BSD1.F              3200:   Depth drilled with bit1
 DFT .            KCL MUD:   Type fluid in hole
 DFD .                8.8:   Density
 TCS .HRS             2.5:   Time Circ. stopped
 MRT .F               130:   Maximum recorded temp.
 ENGI.          T. JOYNER:   Recorded By
 WITN.      W. PETTINGILL:   Witnessed by
 ORIG.           5" PRINT:   Origin of data
 UWI .     49025103620000:   Unique Well ID
 DICO. A2D TECHNOLOGIES, INC.:   Digitizing Company
 DFV .                 31:   Viscosity
 DFPH.                7.5:   pH
 DFL .                6.4:   Fluid loss
 MSS .          FLOW LINE:   Source of sample
 RMS .OHMM            .13:   Rm
 MST .F               62.:   Rm Meas. temp.
 RMF .OHMM            .12:   Rmf
 MFST.F                62:   Rmf Meas. temp.
 MFSS.           FANN KIT:   Source Rmf.
 RMC .OHMM            .28:   Rmc
 MCST.F                62:   Rmc Meas. temp.
 RMB .OHMM            .06:   Rm. at BHT
 BHT .F               130:   BHT.
~OTHER INFORMATION
~A   DEPT      GRD       CALD       CORR       RHOB        SPR        ILD        ILM       SGRD   
# ...
  618.5000   114.3821     8.6052     0.0020     2.4298   -45.4050     7.5701     7.0910     8.7034
  619.0000   115.6179     8.5919     0.0006     2.4253   -45.5371     7.7093     7.1942     8.8288
  619.5000   113.2793     8.5786     0.0023     2.4224   -45.5174     7.7402     7.3010     8.9588
  620.0000   110.3352     8.5806     0.0039     2.4195   -45.5016     7.8310     7.4094     8.8391
  620.5000   107.6896     8.5669     0.0056     2.4188   -45.4859     7.8930     7.4283     8.5399
  621.0000   108.9245     8.5690     0.0072     2.4174   -45.4701     7.9555     7.5684     8.3653
  621.5000   112.2490     8.5854     0.0088     2.4175   -45.4541     7.9647     7.6378     8.1381
  622.0000   114.6678     8.5869     0.0105     2.4175   -45.4385     7.9722     7.7360     7.9438
  622.5000   109.9429     8.6035     0.0106     2.4184   -45.5707     7.9659     7.8662     7.7552
  623.0000   110.5808     8.6200     0.0107     2.4124   -45.8468     7.7914     7.9297     7.5305
  623.5000   109.7262     8.6216     0.0079     2.4035   -45.9829     7.5117     7.9903     7.3313
  624.0000   107.0806     8.6232     0.0065     2.3953   -46.2590     7.2629     7.5674     7.0883
  624.5000   107.4209     8.6249     0.0036     2.3869   -46.5431     7.0069     7.0669     6.8035
  625.0000   107.7612     8.6115     0.0023     2.3765   -47.1154     6.6502     6.7382     6.5657
  625.5000   109.0047     8.5987     0.0024     2.3664   -47.5490     6.3787     6.5770     6.2763
  626.0000   113.2247     8.5850     0.0010     2.3560   -47.6752     6.0761     6.3859     6.0265
  626.5000   115.0567     8.5870    -0.0033     2.3426   -47.9513     5.7678     6.2290     5.7468
  627.0000   115.6947     8.5642    -0.0062     2.3269   -48.2354     5.5717     5.8467     5.4424
  627.5000   114.5416     8.5452    -0.0091     2.3127   -48.6594     5.1625     5.3627     5.1898
  628.0000   113.4845     8.5319    -0.0119     2.2978   -48.9395     4.7533     5.1450     4.8474
  628.5000   113.7279     8.5339    -0.0133     2.2837   -49.3675     4.3441     4.8348     4.4656
  629.0000   114.3659     8.5355    -0.0147     2.2755   -49.3517     3.9349     4.4194     4.0523
  629.5000   115.3023     8.5371    -0.0145     2.2666   -49.4839     3.5257     3.7962     3.5807
  630.0000   115.9403     8.5387    -0.0144     2.2562   -49.4675     3.2009     3.4941     2.9588
  630.5000   114.4398     8.5416    -0.0278     2.2473   -49.4484     3.0312     3.2384     2.5971
  631.0000   112.0439     8.5717    -0.0382     2.2549   -48.8409     3.0131     3.1501     2.3435
  631.5000   109.2077     8.5885    -0.0412     2.2777   -48.5293     3.0793     3.1284     2.2347
  632.0000   106.8606     8.5901    -0.0319     2.3141   -47.9218     3.1980     3.1284     2.4635
  632.5000   103.9062     8.6066    -0.0242     2.3495   -47.3143     3.4236     3.2180     3.3407
  633.0000   108.1365     8.6082    -0.0196     2.3765   -46.8547     3.6221     3.4148     3.9188
  633.5000   109.9582     8.6098    -0.0165     2.3953   -46.3888     3.8320     3.8490     5.0755
  634.0000   104.9348     8.5966    -0.0133     2.4043   -45.9103     4.3149     4.1818     6.1313
  634.5000   110.3488     8.5982    -0.0102     2.4067   -45.3241     4.7258     4.4501     6.6861
  635.0000   113.3748     8.5848    -0.0070     2.4097   -45.0125     5.1047     4.7030     7.0228
  635.5000   114.9083     8.5865    -0.0069     2.4128   -44.8488     5.5139     5.2166     7.1756
  636.0000   115.2478     8.5732    -0.0053     2.4227   -44.8330     6.0402     6.0730     7.2403
  636.5000   114.3932     8.5749    -0.0067     2.4280   -44.8172     6.3452     6.2431     7.2871
  637.0000   116.8736     8.5765    -0.0065     2.4295   -44.9497     6.3525     6.2002     7.2927
  637.5000   118.9629     8.5784    -0.0094     2.4281   -44.9334     6.3585     6.2431     7.2999
  638.0000   121.3919     8.5800    -0.0092     2.4297   -44.9172     6.4533     6.4181     7.3048
  638.5000   122.6166     8.5814    -0.0061     2.4342   -44.8981     6.7802     6.6514     7.3109
  639.0000   119.6725     8.5830    -0.0045     2.4418   -44.8823     6.8338     6.8299     7.3703
  639.5000   119.7237     8.5847    -0.0073     2.4501   -44.8665     6.7914     6.7829     7.4253
  640.0000   120.6601     8.5864    -0.0117     2.4270   -44.8508     6.7992     6.6898     7.4310
  640.5000   120.9996     8.5880    -0.0086     2.4173   -44.8350     6.8058     6.6898     7.4378
  641.0000   121.0405     8.5897    -0.0054     2.4226   -44.8192     6.7653     6.6898     7.3844
  641.5000   120.1859     8.5913    -0.0038     2.4279   -44.8033     6.7720     6.7362     7.3473
  642.0000   118.4358     8.5929    -0.0036     2.4304   -44.7870     6.7797     6.6437     7.2527
  642.5000   116.9601     8.5945    -0.0050     2.4273   -44.7679     6.7851     6.5980     7.1259
  643.0000   115.4845     8.5961    -0.0049     2.4289   -44.7521     6.7917     6.5980     7.0144
  643.5000   114.6433     8.5981    -0.0017     2.4328   -44.7364     6.7989     6.5980     6.9277
  644.0000   117.7143     8.6143     0.0014     2.4374   -44.7206     6.8053     6.5980     6.8391
  644.5000   118.3522     8.6087     0.0030     2.4434   -44.7048     6.8282     6.5980     6.7968
  645.0000   118.6917     8.6025     0.0032     2.4397   -44.6890     6.8656     6.5980     6.8158
  645.5000   119.6281     8.6045     0.0018     2.4323   -44.6731     6.7775     6.5525     6.9510
  646.0000   120.5646     8.6061     0.0004     2.4264   -44.6568     6.7842     6.4626     6.9995
  646.5000   121.7996     8.6076    -0.0010     2.4272   -44.6377     6.7967     6.5074     7.0808
  647.0000   123.3330     8.6093    -0.0038     2.4295   -44.6220     6.8446     6.5525     7.2126
  647.5000   126.0606     8.6109    -0.0037     2.4281   -44.7541     6.8521     6.5980     7.3726
  648.0000   125.4773     8.6274    -0.0035     2.4229   -44.7383     6.8585     6.7362     7.4795
  648.5000   123.8569     8.6290    -0.0034     2.4207   -44.7226     6.8726     6.7829     7.5374
  649.0000   122.1052     8.6455    -0.0003     2.4253   -44.7068     6.9193     6.8299     7.4900
  649.5000   116.9808     8.6475     0.0044     2.4314   -44.6908     6.9258     6.8772     7.4311
  650.0000   122.3949     8.6640     0.0060     2.4262   -44.6752     6.9323     6.9729     7.2820
  650.5000   116.7642     8.6656    -0.0001     2.4186   -44.8074     6.9391     6.9729     7.1061
  651.0000   112.3275     8.6672    -0.0057     2.4095   -44.7876     6.8991     6.9729     6.9661
  651.5000   107.5923     8.6688    -0.0071     2.4062   -44.7719     6.7170     7.2651     6.7351
  652.0000   110.6183     8.6704    -0.0054     2.4101   -44.7561     6.5397     7.0029     6.5523
  652.5000   113.6443     8.6720    -0.0039     2.4124   -44.8882     6.4097     6.6960     6.3855
  653.0000   115.5143     8.6732    -0.0020     2.4117   -44.8725     6.2420     6.4196     6.2474
  653.5000   117.8359     8.6741     0.0000     2.4095   -44.8565     6.1194     6.1745     6.1092
  654.0000   121.3365     8.6750    -0.0019     2.4066   -44.8156     5.9167     5.9635     5.9711
  654.5000   117.4736     8.6759    -0.0078     2.4007   -44.5253     5.7208     5.7688     5.8329
  655.0000   119.5808     8.6922    -0.0092     2.4023   -44.3616     5.6060     5.6546     5.6948
  655.5000   116.0163     8.7084    -0.0075     2.4068   -44.1979     5.4920     5.5362     5.5375
  656.0000   123.7995     8.7098    -0.0043     2.4129   -43.8863     5.4229     5.4698     5.2431
  656.5000   120.8321     8.6959    -0.0012     2.4219   -43.7225     5.3582     5.5133     5.2094
  657.0000   120.2483     8.6823     0.0019     2.4303   -43.4109     5.5921     5.7919     5.3385
  657.5000   121.4644     8.6840     0.0021     2.4348   -43.0991     6.1247     6.1704     5.6060
  658.0000   120.2880     8.6853     0.0007     2.4280   -43.0828     6.6221     6.5168     5.8746
  658.5000   113.7384     8.6714    -0.0037     2.4222   -42.9198     7.0386     6.9538     6.0886
