~VERSION INFORMATION
 VERS.                2.0:   CWLS LOG ASCII STANDARD - VERSION 2.0
 WRAP.                 NO:   ONE LINE PER DEPTH STEP
~WELL INFORMATION
#MNEM.UNIT      DATA TYPE    INFORMATION
#----------   ------------   ------------------------------
 STRT.F          204.0000:   START DEPTH
 STOP.F         3104.0000:   STOP DEPTH
 STEP.F            0.5000:   STEP LENGTH
 NULL.          -999.2500:   NO VALUE
 COMP.    FENIX & SCISSON:   COMPANY
 WELL. FENIX NPR 83 "AX" #3-10:   WELL
 FLD .                NPR:   FIELD
 LOC .      S10 T38N R78W:   LOCATION
 CNTY.            NATRONA:   COUNTY
 STAT.            WYOMING:   STATE
 CTRY. UNITED STATES OF AMERICA:   COUNTRY
 SRVC.              WELEX:   SERVICE COMPANY
 DATE.        14-JUL-1977:   LOGDATE
 API .     49025103980000:   API NUMBER
~CURVE INFORMATION
#MNEM.UNIT       API CODE    CURVE DESCRIPTION
#----------   ------------   ------------------------------
 DEPT.F                  :   
 ILD .OHMM   07 120 46 00:   DEEP INDUCTION RESISTIVITY
 GURD.OHMM   07 220 05 00:   GUARD LOG RESISTIVITY
 ILM .OHMM   07 120 44 00:   INDUCTION LOG MEDIUM RESISTIVITY
 SPR .MV     07 010 01 00:   SPONTANEOUS POTENTIAL
 CALD.IN     45 280 60 00:   CALIPER FROM DENSITY LOG
 GRD .GAPI   45 310 01 00:   GAMMA RAY FROM DENSITY LOG
 RHOB.G/C3   45 350 01 00:   BULK DENSITY
 CORR.G/C3   45 356 01 00:   DENSITY CORRECTION
 NPHI.DEC    42 890 03 00:   NEUTRON POROSITY SANDSTONE
~PARAMETER INFORMATION
#MNEM.UNIT          VALUE    DESCRIPTION
#----------   ------------   ------------------------------
 EKB .F         5176.0000:   Kelly bushing
 EGL .F         5166.0000:   Ground level
 TD  .F         3105.0000:   Total depth
 DATE.        14-JUL-1977:   Date logged
 CLNT.            A2DTECH:   Client Code
 SL  . 1650' FNL & 100' FEL:   Surface Location
 PD  .                 GL:   Permanent Datum
 DD  .F              3094:   Depth driller
 DL  .F              3105:   Depth logger
 BLI .F              3103:   Bottom log interval
 CS1 .IN            8.625:   Casing size
 CBD1.      8.625" @ 218':   Casing driller 1
 CBL1.F               220:   Casing logger 1
 BS1 .IN            7.875:   Bit size
 DFT .            KCL/GEL:   Type fluid in hole
 DFD .                9.4:   Density
 DFV .                 36:   Viscosity
 DFPH.                  8:   pH
 DFL .                 12:   Fluid loss
 MSS .           FLOWLINE:   Source of sample
 RMS .OHMM           1.54:   Rm
 MST .F               100:   Rm Meas. temp.
 RMF .OHMM            1.5:   Rmf
 MFST.F               100:   Rmf Meas. temp.
 RMC .OHMM           3.47:   Rmc
 MCST.F               100:   Rmc Meas. temp.
 MFSS.               FANN:   Source Rmf.
 RMB .OHMM           1.36:   Rm. at BHT
 BHT .F               113:   BHT.
 TCS .HRS             2.5:   Time Circ. stopped
 MRT .F               113:   Maximum recorded temp.
 LUN .               8766:   Logging unit number
 LUL .             CASPER:   Logging unit location
 ENGI. G. BENTSEN/T. JOYNER:   Recorded By
 WITN.      B. HARRINGTON:   Witnessed by
 ORIG.           5" PRINT:   Origin of data
 UWI .     49025103980000:   Unique Well ID
 DICO. A2D TECHNOLOGIES, INC.:   Digitizing Company
 DAPD.F                10:   Feet Above Permanent Datum
 BSD1.F              3094:   Depth drilled with bit1
 MCSS.                KIT:   Source Rmc.
 TLI .F               210:   Top log interval
 EPD .F              5166:   Elevation Permanent Datum
 LMF .                 KB:   Log Measured From
 DMF .                 KB:   Drilling Measured From
~OTHER INFORMATION
~A   DEPT      ILD       GURD        ILM        SPR       CALD        GRD       RHOB       CORR       NPHI   
# ...
  386.5000     9.9990    10.7560    15.0200   -55.5260    12.0040    85.8230     2.3670     0.0440     0.2770
  387.0000    10.0780    10.7950    15.4680   -55.4500    11.9970    87.0230     2.3660     0.0430     0.2780
  387.5000    10.1560    10.8350    15.8760   -55.3790    11.9900    87.6510     2.3600     0.0410     0.2790
  388.0000    10.2340    10.8750    15.4610   -55.4030    11.9840    87.3570     2.3550     0.0390     0.2800
  388.5000    10.2900    10.9140    15.0200   -55.5020    11.9770    86.8010     2.3510     0.0370     0.2810
  389.0000    10.3070    10.9710    15.4130   -55.6010    11.9700    85.9480     2.3510     0.0360     0.2820
  389.5000    10.3240    10.9530    15.8760   -55.7000    11.9510    85.6460     2.3570     0.0350     0.2830
  390.0000    10.3420    10.9060    15.4960   -55.8000    11.9310    87.4120     2.3650     0.0380     0.2830
  390.5000    10.3590    10.8580    15.0070   -55.9000    11.9120    88.3630     2.3740     0.0410     0.2860
  391.0000    10.3790    10.8100    14.5170   -55.9150    11.8920    88.0590     2.3830     0.0440     0.2890
  391.5000    10.3400    10.7630    14.0280   -55.8740    11.8730    89.1610     2.3910     0.0470     0.2920
  392.0000    10.2890    10.7150    13.5390   -55.8330    11.8530    89.6430     2.3990     0.0480     0.2950
  392.5000    10.2390    10.6670    13.3180   -55.7920    11.8340    88.6960     2.3960     0.0480     0.2980
  393.0000    10.1890    10.6200    13.1620   -55.7470    11.8140    87.6260     2.3930     0.0480     0.3010
  393.5000    10.1390    10.5730    13.0050   -55.8230    11.7950    86.5560     2.3950     0.0490     0.3030
  394.0000    10.0880    10.5240    12.8490   -55.9210    11.7940    85.4980     2.3990     0.0490     0.3040
  394.5000    10.0380    10.4760    12.6930   -56.0190    11.7940    85.0620     2.4020     0.0490     0.3090
  395.0000     9.9880    10.4270    12.5370   -56.1170    11.7940    85.8310     2.4040     0.0500     0.3140
  395.5000     9.9370    10.3790    12.3810   -56.2160    11.7940    86.4930     2.4020     0.0500     0.3180
  396.0000     9.8870    10.3310    12.2250   -56.3140    11.7940    85.9020     2.4000     0.0500     0.3240
  396.5000     9.8370    10.2830    12.0680   -56.4120    11.7900    84.8730     2.3940     0.0500     0.3280
  397.0000     9.8200    10.2340    11.9220   -56.5100    11.7840    83.8030     2.3890     0.0490     0.3320
  397.5000     9.8600    10.1890    12.1450   -56.6080    11.7770    83.7040     2.3900     0.0480     0.3360
  398.0000     9.8990    10.2280    12.8820   -56.7070    11.7700    84.2860     2.3870     0.0480     0.3390
  398.5000     9.9370    10.2650    13.5710   -56.8050    11.7640    85.0750     2.3810     0.0470     0.3420
  399.0000     9.9750    10.3010    14.2610   -56.9030    11.7570    85.8660     2.3740     0.0460     0.3440
  399.5000    10.0130    10.3370    14.7090   -57.0010    11.7500    86.6560     2.3680     0.0460     0.3470
  400.0000    10.0520    10.3740    14.2140   -57.1020    11.7440    87.4400     2.3620     0.0450     0.3490
  400.5000    10.0900    10.4100    13.6200   -57.0990    11.7370    88.2340     2.3690     0.0460     0.3520
  401.0000    10.1280    10.4470    13.0270   -57.0410    11.7020    88.8350     2.3760     0.0470     0.3530
  401.5000    10.1660    10.4830    12.1450   -56.9830    11.6590    87.8320     2.3790     0.0480     0.3520
  402.0000    10.2050    10.5190    12.3990   -56.9320    11.6180    86.5760     2.3790     0.0490     0.3520
  402.5000    10.2430    10.5730    12.8940   -56.9570    11.6070    85.3120     2.3790     0.0500     0.3500
  403.0000    10.2840    10.5340    13.3890   -56.9830    11.5980    84.0510     2.3820     0.0510     0.3480
  403.5000    10.1810    10.4600    13.9500   -57.0070    11.5880    82.7850     2.3890     0.0520     0.3470
  404.0000    10.1110    10.3860    13.5910   -57.0320    11.5780    81.5330     2.3980     0.0530     0.3450
  404.5000    10.0410    10.3120    13.0980   -57.0570    11.5690    80.8610     2.4060     0.0540     0.3450
  405.0000     9.9710    10.2380    12.6060   -57.0820    11.5590    82.2850     2.3980     0.0520     0.3450
  405.5000     9.8800    10.1520    12.1140   -57.1060    11.5490    83.6510     2.3900     0.0480     0.3420
  406.0000     9.6620    10.0420    11.5960   -57.1310    11.5390    85.0400     2.3810     0.0440     0.3420
  406.5000     9.4440     9.9320    11.8350   -57.1560    11.5300    85.1680     2.3780     0.0400     0.3430
  407.0000     9.2260     9.8220    12.1540   -57.1810    11.5200    84.4760     2.3820     0.0400     0.3450
  407.5000     9.0090     9.7070    12.4860   -57.2050    11.5100    83.7910     2.3880     0.0410     0.3420
  408.0000     8.7910     9.5680    12.2340   -57.2300    11.5010    83.1100     2.3930     0.0390     0.3420
  408.5000     8.5730     9.4290    11.9710   -57.2550    11.4910    82.4280     2.3880     0.0360     0.3430
  409.0000     8.3770     9.2900    11.7080   -57.2800    11.4810    81.7750     2.3810     0.0320     0.3440
  409.5000     8.2890     9.1510    11.4450   -57.3040    11.4710    82.1530     2.3740     0.0290     0.3450
  410.0000     8.1630     9.0350    11.0730   -57.3290    11.4610    82.7640     2.3650     0.0250     0.3450
  410.5000     8.1700     9.0270    11.1810   -57.3540    11.4610    83.3760     2.3560     0.0250     0.3460
  411.0000     8.1810     9.0190    11.4650   -57.3790    11.4610    84.0130     2.3580     0.0260     0.3460
  411.5000     8.1930     9.0110    11.7480   -57.4030    11.4610    83.0760     2.3630     0.0270     0.3460
  412.0000     8.2040     9.0030    12.1450   -57.4280    11.4530    81.3560     2.3720     0.0290     0.3480
  412.5000     8.2150     8.9950    12.1130   -57.4530    11.4420    79.8200     2.3830     0.0300     0.3490
  413.0000     8.2270     8.9870    12.0330   -57.4780    11.4300    80.4530     2.3910     0.0310     0.3460
  413.5000     8.2380     8.9790    11.9530   -57.5020    11.4190    82.5340     2.3890     0.0330     0.3430
  414.0000     8.2500     8.9710    11.7260   -57.5260    11.4070    82.9650     2.3950     0.0330     0.3400
  414.5000     8.2610     8.9630    11.4040   -57.5680    11.3960    80.8530     2.4010     0.0320     0.3400
  415.0000     8.2730     8.9550    11.0810   -57.6080    11.3840    80.7840     2.3990     0.0320     0.3400
  415.5000     8.2840     8.9290    10.7590   -57.6480    11.3730    82.0960     2.3940     0.0310     0.3400
  416.0000     8.2960     8.8990    10.4370   -57.6890    11.3610    83.3560     2.3890     0.0310     0.3400
  416.5000     8.3070     8.8690    10.1320   -57.7160    11.3500    84.6130     2.3900     0.0310     0.3410
  417.0000     8.3150     8.8390     9.8840   -57.5640    11.3380    85.7590     2.3920     0.0340     0.3400
  417.5000     8.2280     8.8090     9.6360   -57.5260    11.3260    84.4340     2.3890     0.0360     0.3400
  418.0000     8.1580     8.7790     9.3870   -57.5240    11.3300    83.7460     2.3930     0.0390     0.3400
  418.5000     8.0870     8.7490     9.1390   -57.5250    11.3420    84.0510     2.3990     0.0410     0.3450
  419.0000     8.0160     8.7190     8.9530   -57.5250    11.3540    84.9780     2.4060     0.0430     0.3480
  419.5000     7.9460     8.6240     8.9530   -57.5250    11.3710    85.8940     2.4120     0.0460     0.3500
  420.0000     7.8750     8.4940     8.8610   -57.5250    11.3940    86.8150     2.4140     0.0450     0.3520
  420.5000     7.8040     8.3640     8.7200   -57.5250    11.4120    87.2420     2.4090     0.0410     0.3540
  421.0000     7.6740     8.2340     8.5790   -57.5250    11.4290    87.0110     2.4050     0.0420     0.3560
  421.5000     7.5350     8.0880     8.3930   -57.5210    11.4470    86.4460     2.4000     0.0430     0.3580
  422.0000     7.3950     8.0920     8.7820   -57.4360    11.4640    86.5360     2.3960     0.0440     0.3570
  422.5000     7.2560     8.0990     9.6040   -57.3540    11.4820    87.9840     2.3910     0.0430     0.3570
