~VERSION INFORMATION
 VERS.                2.0:   CWLS LOG ASCII STANDARD - VERSION 2.0
 WRAP.                 NO:   ONE LINE PER DEPTH STEP
~WELL INFORMATION
#MNEM.UNIT      DATA TYPE    INFORMATION
#----------   ------------   ------------------------------
 STRT.F          209.5000:   START DEPTH
 STOP.F         3130.0000:   STOP DEPTH
 STEP.F            0.5000:   STEP LENGTH
 NULL.          -999.2500:   NO VALUE
 COMP. FENIX & SCISSON-U.S. NAVY:   COMPANY
 WELL.   FENIX "A" #66-29:   WELL
 FLD .              NPR 3:   FIELD
 LOC .      S29 T39N R78W:   LOCATION
 CNTY.            NATRONA:   COUNTY
 STAT.            WYOMING:   STATE
 CTRY. UNITED STATES OF AMERICA:   COUNTRY
 SRVC.       SCHLUMBERGER:   SERVICE COMPANY
 DATE.        12-JUN-1977:   LOGDATE
 API .     49025103850000:   API NUMBER
~CURVE INFORMATION
#MNEM.UNIT       API CODE    CURVE DESCRIPTION
#----------   ------------   ------------------------------
 DEPT.F                  :   
 CALD.IN     45 280 60 00:   CALIPER FROM DENSITY LOG
 GRD .GAPI   45 310 01 00:   GAMMA RAY FROM DENSITY LOG
 RHOB.G/C3   45 350 01 00:   BULK DENSITY
 CORR.G/C3   45 356 01 00:   DENSITY CORRECTION
 LL8 .OHMM   07 220 08 00:   LATEROLOG-8 RES.
 ILD .OHMM   07 120 46 00:   DEEP INDUCTION RESISTIVITY
 ILM .OHMM   07 120 44 00:   INDUCTION LOG MEDIUM RESISTIVITY
 SPR .MV     07 010 01 00:   SPONTANEOUS POTENTIAL
~PARAMETER INFORMATION
#MNEM.UNIT          VALUE    DESCRIPTION
#----------   ------------   ------------------------------
 EKB .F         5058.0000:   Kelly bushing
 EGL .F         5048.0000:   Ground level
 EDF .F            0.0000:   Drilling floor
 TD  .F         3120.0000:   Total depth
 DATE.        12-JUN-1977:   Date logged
 CLNT.            A2DTECH:   Client Code
 SL  . 1650' FSL & 1650' FEL:   Surface Location
 PD  .                 GL:   Permanent Datum
 EPD .F              5048:   Elevation Permanent Datum
 LMF .                 KB:   Log Measured From
 DMF .                 KB:   Drilling Measured From
 DAPD.F                10:   Feet Above Permanent Datum
 DD  .F              3120:   Depth driller
 DL  .F              3120:   Depth logger
 BLI .F              3120:   Bottom log interval
 TLI .F               219:   Top log interval
 CS1 .IN            8.625:   Casing size
 CBD1.      8.625" @ 225':   Casing driller 1
 CBL1.F               219:   Casing logger 1
 BS1 .IN            7.875:   Bit size
 BSD1.F              3120:   Depth drilled with bit1
 DFT .            KCL MUD:   Type fluid in hole
 DFD .                8.8:   Density
 DFV .                 32:   Viscosity
 DFPH.                7.5:   pH
 DFL .                  8:   Fluid loss
 MSS .              CIRC.:   Source of sample
 RMS .OHMM           2.01:   Rm
 MST .F                72:   Rm Meas. temp.
 RMF .OHMM            1.9:   Rmf
 MFST.F                72:   Rmf Meas. temp.
 RMC .OHMM           3.02:   Rmc
 MCST.F                72:   Rmc Meas. temp.
 MFSS.               MEAS:   Source Rmf.
 MCSS.               CALC:   Source Rmc.
 RMB .OHMM           1.21:   Rm. at BHT
 BHT .F               120:   BHT.
 TCS .HRS            1400:   Time Circ. stopped
 TLAB.HRS            1730:   Time logger at bottom
 MRT .F               120:   Maximum recorded temp.
 LUN .               7711:   Logging unit number
 LUL .               CSPR:   Logging unit location
 ENGI.             SAYLER:   Recorded By
 WITN.             RHODES:   Witnessed by
 ORIG.           5" PRINT:   Origin of data
 UWI .     49025103850000:   Unique Well ID
 DICO. A2D TECHNOLOGIES, INC.:   Digitizing Company
~OTHER INFORMATION
~A   DEPT     CALD         GRD      RHOB       CORR        LL8        ILD        ILM        SPR   
# ...
  574.0000     8.5114   107.6895     2.5224     0.0334     8.6685     9.4345     9.5212   -53.0158
  574.5000     8.4521   108.4799     2.5234     0.0294     8.5907     9.3497     9.5224   -53.4083
  575.0000     8.4520   109.4679     2.5314     0.0344     8.5135     9.2656     9.4368   -53.8009
  575.5000     8.4520   110.4558     2.5393     0.0354     8.4371     9.1823     9.4373   -54.1934
  576.0000     8.4520   109.2690     2.5513     0.0393     8.4382     9.2679     9.3531   -54.3886
  576.5000     8.4520   108.6753     2.5573     0.0443     8.5167     9.1009     9.3542   -54.9786
  577.0000     8.4519   108.4770     2.5692     0.0513     8.5959     9.1018     9.3554   -55.3711
  577.5000     8.4519   107.8833     2.5543     0.0304     8.6759     9.1031     9.3565   -55.5663
  578.0000     8.4519   107.2895     2.5453     0.0274     8.5198     9.1042     9.3577   -55.9589
  578.5000     8.4519   107.2890     2.5393     0.0254     8.4434     9.1054     9.3588   -55.9566
  579.0000     8.4716   107.4861     2.5364     0.0254     8.3676     9.1065     9.3600   -56.1518
  579.5000     8.4716   108.4741     2.5284     0.0234     8.3686     9.1076     9.3611   -56.3470
  580.0000     8.4913   110.6482     2.5204     0.0224     8.5240     9.0257     9.3623   -55.9499
  580.5000     8.4913   108.0775     2.5214     0.0264     8.6033     9.0268     9.3634   -55.7502
  581.0000     8.5111   105.9022     2.5184     0.0244     8.6044     9.0279     9.3645   -55.5505
  581.5000     8.5110   104.3200     2.5194     0.0214     8.6054     8.9468     9.3657   -54.9558
  582.0000     8.5110   103.1333     2.5194     0.0214     8.6065     8.9479     9.3668   -54.5587
  582.5000     8.4912   103.1328     2.5174     0.0234     8.6075     8.9490     9.3680   -54.1615
  583.0000     8.4912   104.5161     2.5154     0.0214     8.5303     8.9501     9.3691   -53.5668
  583.5000     8.4912   105.8995     2.5075     0.0154     8.3768     8.9512     9.3703   -53.5646
  584.0000     8.5504   106.6897     2.4995     0.0055     8.1513     8.9523     9.3714   -53.3648
  584.5000     8.5109   106.4914     2.4985     0.0055     8.0781     8.9534     9.3726   -52.9676
  585.0000     8.5109   106.4909     2.4955     0.0055     8.1533     8.9545     9.3737   -52.7678
  585.5000     8.4911   106.6880     2.4935     0.0045     8.3047     9.0379     9.3749   -52.7655
  586.0000     8.5108   108.6643     2.4935     0.0015     8.3820     9.0390     9.3760   -52.9607
  586.5000     8.4910   110.0473     2.5005     0.0045     8.6160     9.1232     9.4634   -53.1559
  587.0000     8.4910   109.0585     2.5055     0.0055     8.7760     9.1243     9.4643   -53.1536
  587.5000     8.5107   107.2788     2.5125     0.0065     8.8576     9.2094     9.5527   -53.3488
  588.0000     8.5107   105.6967     2.5045     0.0065     8.6983     9.2103     9.5536   -53.9389
  588.5000     8.4909   106.2893     2.5055     0.0105     8.5418     9.2963     9.5550   -54.1341
  589.0000     8.5107   107.6722     2.5095     0.0154     8.3119     9.2974     9.6441   -54.7238
  589.5000     8.5106   107.4743     2.5055     0.0214     8.4662     9.2986     9.6452   -54.9191
  590.0000     8.5106   106.2879     2.5055     0.0184     8.7825     9.2997     9.7344   -55.1143
  590.5000     8.5106   104.1128     2.5065     0.0204     8.8642     9.3863     9.7356   -55.3095
  591.0000     8.5106   102.7283     2.5274     0.0374     8.7846     9.3868     9.7365   -55.3072
  591.5000     8.5303   103.5187     2.5443     0.0623     8.4708     9.4749     9.7382   -55.3050
  592.0000     8.5303   105.4945     2.5513     0.0553     8.4714     9.4761     9.8294   -54.9077
  592.5000     8.5500   104.7035     2.5324     0.0393     8.5502     9.5639     9.8299   -54.7079
  593.0000     8.5302   104.7030     2.5125     0.0204     8.6298     9.6535     9.8311   -54.3106
  593.5000     8.5302   105.6907     2.5115     0.0284     8.7900     9.7434    10.1066   -53.9133
  594.0000     8.5302   107.0737     2.5159     0.0364     8.9532     9.8342    10.1079   -53.1210
  594.5000     8.5302   105.4920     2.5010     0.0244     9.1194     9.9258    10.1091   -52.7237
  595.0000     8.5499   103.1197     2.5005     0.0144     8.8744     9.9270    10.2971   -52.9180
  595.5000     8.5696   101.1427     2.5015     0.0144     8.8748    10.0195    10.2983   -52.3241
  596.0000     8.6289    98.5730     2.5015     0.0194     8.9576    10.0207    10.6835   -51.9267
  596.5000     8.5894   100.9441     2.5005     0.0184     8.9587    10.0219    10.8819   -51.7269
  597.0000     8.5696   102.5245     2.5035     0.0294     9.0420    10.1153    10.9835   -51.5270
  597.5000     8.5498   102.5242     2.5045     0.0324     9.1261    10.3033    11.0858   -51.7223
  598.0000     8.5695   101.1403     2.5135     0.0453     9.2110    10.4949    11.1891   -51.9175
  598.5000     8.5300    98.7681     2.5184     0.0473     9.2967    10.5926    11.2933   -52.1127
  599.0000     8.5299    99.3605     2.5244     0.0483     9.3832    10.6913    11.3985   -52.3504
  599.5000     8.5101   100.3482     2.5254     0.0453     9.5574    10.7909    11.3999   -52.7432
  600.0000     8.4311    98.3713     2.5299     0.0364     9.7348    10.7919    11.4012   -52.9384
  600.5000     8.4310    98.5404     2.5228     0.0303     9.8155    10.7934    11.4026   -53.4629
  601.0000     8.3720    99.3615     2.5155     0.0234     9.9144    10.7923    11.4013   -53.7360
  601.5000     8.3721   100.1531     2.5224     0.0234     9.9144    10.7923    11.4013   -54.0925
  602.0000     8.3524    99.7583     2.5354     0.0314     9.9144    10.6940    11.4013   -54.0964
  602.5000     8.3723    98.3763     2.5414     0.0334     9.9144    10.6940    11.4013   -54.2978
  603.0000     8.3724    99.1677     2.5493     0.0374     9.8243    10.6940    11.4013   -54.3018
  603.5000     8.3527   100.1571     2.5483     0.0404     9.7349    10.6940    11.4013   -54.3057
  604.0000     8.3726   101.5409     2.5444     0.0444     9.6464    10.8915    11.4013   -54.1121
  604.5000     8.3529   102.9255     2.5463     0.0464     9.6464    10.8915    11.2974   -53.7210
  605.0000     8.3728   100.7527     2.5493     0.0493     9.5587    10.8915    11.2974   -53.3299
  605.5000     8.3729    99.9632     2.5434     0.0464     9.4717    10.8915    11.2974   -52.9388
  606.0000     8.3730    97.9881     2.5244     0.0316     9.4717    10.8915    11.4013   -52.3502
  606.5000     8.3533    98.7798     2.5135     0.0105     9.4717    10.9916    11.4013   -52.2007
  607.0000     8.3732    98.7801     2.5125     0.0155     9.5587    10.9916    11.5061   -52.0055
  607.5000     8.3733    97.0027     2.5254     0.0235    10.0054    10.9916    11.6118   -51.6145
  608.0000     8.4129    95.2251     2.5314     0.0225    10.3778    11.0926    11.8263   -51.2234
  608.5000     8.3734    94.8307     2.5344     0.0225    10.3778    11.1945    12.0447   -51.0298
  609.0000     8.3735    94.8317     2.5324     0.0265    10.2835    11.2974    12.3798   -51.0337
  609.5000     8.3736    95.6232     2.5284     0.0334    10.0973    11.4013    12.6085   -51.0376
  610.0000     8.3737    95.8218     2.5235     0.0255    10.0054    11.5061    12.8413   -51.5916
  610.5000     8.3738    96.4157     2.5016     0.0185    10.0054    11.6118    13.0785   -51.7931
  611.0000     8.3542    97.2078     2.4976     0.0076    10.1899    11.8263    13.1987   -51.9945
  611.5000     8.3543    97.4058     2.4996     0.0125    10.4731    12.0447    13.1987   -52.3935
  612.0000     8.3544    97.0115     2.5185     0.0195    11.0632    12.1554    13.0785   -52.9900
  612.5000     8.3545    93.4553     2.5275     0.0235    11.4750    12.2671    13.0785   -53.1914
  613.0000     8.3546    90.0966     2.5374     0.0285    11.5803    12.2671    13.0785   -53.3929
  613.5000     8.3547    88.5165     2.5444     0.0385    11.0632    12.2671    12.9593   -53.3968
  614.0000     8.3152    89.5057     2.5484     0.0424    10.4731    12.2671    12.8413   -53.7958
