~VERSION INFORMATION
 VERS.                2.0:   CWLS LOG ASCII STANDARD - VERSION 2.0
 WRAP.                 NO:   ONE LINE PER DEPTH STEP
~WELL INFORMATION
#MNEM.UNIT      DATA TYPE    INFORMATION
#----------   ------------   ------------------------------
 STRT.F          480.0000:   START DEPTH
 STOP.F         4609.5000:   STOP DEPTH
 STEP.F            0.5000:   STEP LENGTH
 NULL.          -999.2500:   NO VALUE
 COMP.   FENNIX & SCISSON:   COMPANY
 WELL. FENNIX NPR-3 "LX" #58-14:   WELL
 FLD .              NPR-3:   FIELD
 LOC .      S14 T38N R78W:   LOCATION
 CNTY.            NATRONA:   COUNTY
 STAT.            WYOMING:   STATE
 CTRY. UNITED STATES OF AMERICA:   COUNTRY
 SRVC.       SCHLUMBERGER:   SERVICE COMPANY
 DATE.        08-MAR-1978:   LOGDATE
 API .     49025105920000:   API NUMBER
~CURVE INFORMATION
#MNEM.UNIT       API CODE    CURVE DESCRIPTION
#----------   ------------   ------------------------------
 DEPT.F                  :   
 SPR .MV     07 010 01 00:   SPONTANEOUS POTENTIAL
 SFL .OHMM   07 220 01 00:   SHALLOW FOCUSED LOG RESISTIVITY
 ILD .OHMM   07 120 46 00:   DEEP INDUCTION RESISTIVITY
 ILM .OHMM   07 120 44 00:   INDUCTION LOG MEDIUM RESISTIVITY
 CALD.IN     45 280 60 00:   CALIPER FROM DENSITY LOG
 GRD .GAPI   45 310 01 00:   GAMMA RAY FROM DENSITY LOG
 CORR.G/C3   45 356 01 00:   DENSITY CORRECTION
 RHOB.G/C3   45 350 01 00:   BULK DENSITY
 NPHI.DEC    42 890 03 00:   NEUTRON POROSITY SANDSTONE
~PARAMETER INFORMATION
#MNEM.UNIT          VALUE    DESCRIPTION
#----------   ------------   ------------------------------
 EKB .F         5320.0000:   Kelly bushing
 EGL .F         5310.0000:   Ground level
 EDF .F            0.0000:   Drilling floor
 TD  .F         4635.0000:   Total depth
 DATE.        08-MAR-1978:   Date logged
 CLNT.            A2DTECH:   Client Code
 SL  . 810' FSL & 1830' FEL:   Surface Location
 PD  .                 GL:   Permanent Datum
 DD  .F              4635:   Depth driller
 DL  .F              4608:   Depth logger
 BLI .F              4607:   Bottom log interval
 DFT .                FGM:   Type fluid in hole
 DFD .                9.1:   Density
 DFV .                 38:   Viscosity
 DFPH.                 11:   pH
 MSS .           FLOWLINE:   Source of sample
 RMS .OHMM           1.53:   Rm
 MST .F                58:   Rm Meas. temp.
 RMF .OHMM           1.06:   Rmf
 MFST.F                58:   Rmf Meas. temp.
 MFSS.               MEAS:   Source Rmf.
 RMB .OHMM           0.68:   Rm. at BHT
 BHT .F               131:   BHT.
 TCS .HRS            0630:   Time Circ. stopped
 MRT .F               131:   Maximum recorded temp.
 LUN .               8039:   Logging unit number
 LUL .               CSPP:   Logging unit location
 ENGI.           PETERSON:   Recorded By
 ORIG.           5" PRINT:   Origin of data
 UWI .     49025105920000:   Unique Well ID
 DICO. A2D TECHNOLOGIES, INC.:   Digitizing Company
 DAPD.                 20:   Feet Above Permanent Datum
 BSD1.               4635:   Depth drilled with bit1
 EPD .               5310:   Elevation Permanent Datum
 LMF .                 KB:   Log Measured From
 DMF .                 KB:   Drilling Measured From
 TLI .                508:   Top log interval
 CS1 .              8.625:   Casing size
 CBL1.                508:   Casing logger 1
 BS1 .              7.875:   Bit size
~OTHER INFORMATION
~A   DEPT      SPR        SFL        ILD        ILM       CALD         GRD      CORR       RHOB         NPHI 
# ...
 2670.0000   -48.6140    11.5630     9.5640     8.9050     8.9480   139.6820    -0.0160     2.0130     0.3860
 2670.5000   -48.6140    11.4300     9.4570     9.0620     8.9510   140.5240    -0.0140     2.3860     0.3870
 2671.0000   -48.6140    11.6440     9.3500     9.2400     8.9570   141.3550    -0.0050     2.4390     0.3810
 2671.5000   -48.6140    11.5370     9.2440     8.7380     8.9620   141.0730    -0.0020     2.4740     0.3680
 2672.0000   -48.6140    10.7300     9.1370     8.3360     8.9660   140.7710     0.0010     2.4730     0.3630
 2672.5000   -48.6140    10.0610     9.0300     8.2100     8.9720   143.4950     0.0080     2.4610     0.3800
 2673.0000   -48.6140    10.1590     8.9240     8.1860     8.9770   147.1610     0.0180     2.4640     0.3850
 2673.5000   -48.6170    10.3660     8.7580     8.1770     8.9820   148.1580     0.0290     2.4740     0.3800
 2674.0000   -48.4710    10.7140     8.5810     8.1680     9.0540   145.7240     0.0370     2.4800     0.3680
 2674.5000   -48.2760    10.6890     8.6140     8.1600     9.4970   142.4570     0.0330     2.4770     0.3560
 2675.0000   -48.0710    10.6280     8.6460     8.1510     9.8140   142.0940     0.0290     2.4700     0.3410
 2675.5000   -48.1370    10.4680     8.6770     8.1420    10.1060   141.9350     0.0280     2.4680     0.3350
 2676.0000   -48.2960    10.2850     8.7090     8.1330    10.2070   140.0290     0.0340     2.4740     0.3330
 2676.5000   -48.3890    10.1010     8.7420     8.1240    10.3200   136.2600     0.0370     2.4700     0.3380
 2677.0000   -48.2650     9.9180     8.7300     8.1100    10.4770   133.5590     0.0290     2.4630     0.3430
 2677.5000   -48.1470     9.7680     8.7180     8.0870    10.7060   132.5570     0.0250     2.4600     0.3430
 2678.0000   -48.0300     9.8910     8.7070     8.0650    11.2390   130.8170     0.0290     2.4680     0.3390
 2678.5000   -47.9100    10.0420     8.6950     8.0430    11.8050   129.2080     0.0410     2.4760     0.3330
 2679.0000   -47.7250     9.8330     8.6830     8.0200    12.3300   128.4910     0.0530     2.4780     0.3260
 2679.5000   -47.2930     9.4560     8.6710     7.9980    12.8880   129.5030     0.0640     2.4680     0.3130
 2680.0000   -46.8660     8.9050     8.6570     7.9750    13.7010   130.4230     0.0700     2.4360     0.3060
 2680.5000   -46.4400     8.9240     8.6230     7.9390    14.7840   128.1690     0.0580     2.3640     0.3090
 2681.0000   -46.0120     8.9600     8.5900     7.8980    15.5020   126.7030     0.0520     2.3240     0.3200
 2681.5000   -45.8460     8.9960     8.4700     7.8570    14.9250   126.5850     0.1060     2.3380     0.3300
 2682.0000   -46.0900     9.0320     8.3170     7.8160    13.2530   127.6680     0.1690     2.3860     0.3410
 2682.5000   -46.4950     9.0710     8.1180     7.7750    11.4960   129.3890     0.2450     2.4250     0.3460
 2683.0000   -46.9010     9.0420     8.1490     7.7340    10.8670   131.3530     0.2460     2.4110     0.3360
 2683.5000   -47.3120     9.0100     8.1930     7.6930    10.8070   133.1430     0.2460     2.3840     0.3260
 2684.0000   -47.7380     8.9790     8.2360     7.6800    10.9420   133.7900     0.2460     2.3560     0.3200
 2684.5000   -47.5220     8.9470     8.2800     7.6800    11.0270   133.2320     0.2280     2.3080     0.3300
 2685.0000   -47.1250     8.9050     8.3470     7.6800    10.8090   131.3960     0.1890     2.2640     0.3540
 2685.5000   -47.0260     9.0180     8.2680     7.6800    10.2840   129.5360     0.1560     2.2470     0.3750
 2686.0000   -47.3000     9.2400     8.1040     7.6800     9.8760   128.0910     0.1910     2.2860     0.3830
 2686.5000   -47.5990    10.1650     7.9400     7.6800     9.5980   126.7610     0.2300     2.3180     0.3760
 2687.0000   -47.4220    10.2300     7.6800     7.5250     9.5230   125.2970     0.2410     2.3070     0.3550
 2687.5000   -47.2400     9.1330     7.7820     7.1880     9.5240   120.6560     0.1550     2.2850     0.3340
 2688.0000   -47.7070     7.6730     8.0080     6.8170     9.6950   116.8860     0.0950     2.3220     0.3140
 2688.5000   -48.2600     6.5630     8.0700     6.5020    10.2420   116.5700     0.0830     2.4060     0.3050
 2689.0000   -48.5410     7.4790     8.1010     6.8760    10.5680   119.7730     0.0930     2.4510     0.3010
 2689.5000   -48.7340     9.1630     8.1410     7.3230    10.0750   123.0610     0.1190     2.4570     0.3040
 2690.0000   -48.9230    10.4910     8.1940     7.4870     9.5920   124.6250     0.1570     2.3830     0.3150
 2690.5000   -49.1100    11.0150     8.8430     7.7860     9.7570   125.5280     0.2030     2.3120     0.3320
 2691.0000   -49.2970    11.0150     9.4790     8.1850    10.1700   123.3260     0.2220     2.2430     0.3550
 2691.5000   -49.3440    11.4110     9.9640     8.6480    10.6790   119.6050     0.1790     2.1370     0.3700
 2692.0000   -49.2030    11.9710    10.2250     9.3630    11.1010   116.4290     0.1400     1.9960     0.3710
 2692.5000   -49.0640    12.3670    10.4850    10.0790    11.7760   115.2980     0.1070     1.8570     0.3560
 2693.0000   -48.9230    12.7640    10.7460    10.3170    12.4330   116.8170     0.1210     1.8890     0.3580
 2693.5000   -48.7830    13.2530    11.0070    10.4270    12.9680   118.3780     0.1530     1.9440     0.3570
 2694.0000   -48.6430    13.1860    11.3210    10.6740    12.4370   119.9280     0.1100     2.0000     0.3670
 2694.5000   -48.5030    13.1000    11.6750    11.5770    11.5880   121.6320     0.0670     2.0470     0.3710
 2695.0000   -48.3740    13.0100    11.9710    12.0100    10.8150   123.7920     0.0480     2.1900     0.3650
 2695.5000   -48.2650    13.1310    12.0090    12.0820    10.8320   126.4040     0.1300     2.3240     0.3560
 2696.0000   -48.1560    13.6220    12.0490    11.7830    10.9570   129.8360     0.1790     2.3960     0.3490
 2696.5000   -48.0430    13.9320    12.0890    11.4700    11.0530   133.2380     0.1990     2.4120     0.3560
 2697.0000   -48.0670    14.1250    12.1280    11.2200    11.1380   135.6990     0.1890     2.3830     0.3640
 2697.5000   -48.1270    14.0090    12.1680    11.0240    11.4840   134.5130     0.1650     2.3690     0.3730
 2698.0000   -48.1880    13.7660    12.1950    10.8130    12.1840   131.2640     0.1720     2.3850     0.3730
 2698.5000   -48.2170    13.5050    12.0250    10.8130    14.6140   128.1170     0.2440     2.4410     0.3690
 2699.0000   -48.2370    13.2440    11.8350    11.1700    15.4310   125.9810     0.2450     2.5100     0.3690
 2699.5000   -48.4110    12.9820    11.6010    11.7520    16.0000   123.8730     0.2400     2.4690     0.3710
 2700.0000   -48.7280    12.7210    11.3670    11.5150    16.0000   121.6420     0.2360     2.3020     0.3710
 2700.5000   -48.6350    12.5380    11.1330    11.0450    16.0000   120.9280     0.2310     2.1740     0.3600
 2701.0000   -48.3920    12.6780    10.8130    10.6430    16.0000   121.4100     0.2260     2.0850     0.3570
 2701.5000   -48.1440    12.5440    10.8970    10.4020    16.0000   123.0880     0.2140     1.9960     0.3600
 2702.0000   -47.8890    12.4220    11.0660    10.1620    15.9990   127.7510     0.1800     1.9000     0.3710
 2702.5000   -47.8180    12.2160    11.1810    10.8550    16.0000   137.2170     0.0650     1.9800     0.4040
 2703.0000   -48.0970    11.9710    11.2730    11.7240    12.8990   151.5110     0.0010     2.0010     0.4090
 2703.5000   -48.7920    12.2500    11.3650    11.5710    10.0380   162.7220    -0.0190     2.0740     0.3990
 2704.0000   -49.1650    12.8240    11.4960    11.3660     9.3230   168.7330    -0.0150     2.2000     0.3840
 2704.5000   -49.0900    13.7450    11.7290    11.1620     9.2680   167.0500     0.0010     2.3430     0.3620
 2705.0000   -49.0150    14.7130    11.9610    11.0150     9.2140   159.6780     0.0070     2.4270     0.3610
 2705.5000   -49.1530    15.6800    12.2440    11.0560     9.1600   151.2020     0.0070     2.4330     0.3640
 2706.0000   -49.3130    15.7990    12.5810    11.1420     9.1070   145.5650     0.0030     2.4270     0.3650
