~VERSION INFORMATION
 VERS.                2.0:   CWLS LOG ASCII STANDARD - VERSION 2.0
 WRAP.                 NO:   ONE LINE PER DEPTH STEP
~WELL INFORMATION
#MNEM.UNIT      DATA TYPE    INFORMATION
#----------   ------------   ------------------------------
 STRT.F           10.0000:   START DEPTH
 STOP.F         4008.0000:   STOP DEPTH
 STEP.F            0.5000:   STEP LENGTH
 NULL.          -999.2500:   NO VALUE
 COMP. LAWRENCE ALLISON & ASSOC.:   COMPANY
 WELL. LAWRENCE NPR 3 "AX" #75-28:   WELL
 FLD .                NPR:   FIELD
 LOC .      S28 T39N R78W:   LOCATION
 CNTY.            NATRONA:   COUNTY
 STAT.            WYOMING:   STATE
 CTRY. UNITED STATES OF AMERICA:   COUNTRY
 SRVC.      DRESSER ATLAS:   SERVICE COMPANY
 DATE.        28-APR-1983:   LOGDATE
 API .     49025109060000:   API NUMBER
~CURVE INFORMATION
#MNEM.UNIT       API CODE    CURVE DESCRIPTION
#----------   ------------   ------------------------------
 DEPT.F                  :   
 RHOB.G/C3   45 350 01 00:   BULK DENSITY
 CORR.G/C3   45 356 01 00:   DENSITY CORRECTION
 TEND.LBS    45 635 01 00:   TENSION FROM DENSITY LOG
 NPHI.DEC    42 890 03 00:   NEUTRON POROSITY SANDSTONE
 GRR .GAPI   07 310 01 00:   GAMMA RAY FROM RESISTIVITY
 CALR.IN     07 280 01 00:   CALIPER FROM RESISTIVITY
 RFOC.OHMM   07 220 01 00:   RESISTIVITY FOCUSED LOG RES.
 RILD.OHMM   07 120 46 00:   DEEP INDUCTION RESISTIVITY
 TENR.LBS    01 635 01 00:   TENSION FROM RES.
 RILM.OHMM   07 120 44 00:   INDUCTION LOG MEDIUM RESISTIVITY
 TENS.LBS    60 635 01 00:   TENSION FROM SONIC LOG
 DT  .US/F   60 520 00 00:   DELTA TIME
 SPR .MV     07 010 01 00:   SPONTANEOUS POTENTIAL
~PARAMETER INFORMATION
#MNEM.UNIT          VALUE    DESCRIPTION
#----------   ------------   ------------------------------
 EKB .F         5068.0000:   Kelly bushing
 EGL .F         5058.0000:   Ground level
 EDF .F            0.0000:   Drilling floor
 TD  .F         4003.0000:   Total depth
 DATE.        28-APR-1983:   Date logged
 CLNT.            A2DTECH:   Client Code
 SL  . 2100' FSL & 1050' FEL:   Surface Location
 PD  .                 GL:   Permanent Datum
 EPD .F              5058:   Elevation Permanent Datum
 LMF .                 KB:   Log Measured From
 DMF .                 KB:   Drilling Measured From
 DAPD.F                10:   Feet Above Permanent Datum
 DD  .F              4000:   Depth driller
 DL  .F              4003:   Depth logger
 BLI .F              4000:   Bottom log interval
 CS1 .IN            8.625:   Casing size
 CBD1.      8.625" @ 498':   Casing driller 1
 CBL1.F               497:   Casing logger 1
 BS1 .IN            7.875:   Bit size
 BSD1.F              4000:   Depth drilled with bit1
 DFT .            KCL/GEL:   Type fluid in hole
 DFD .                  9:   Density
 DFV .                 43:   Viscosity
 DFPH.                8.5:   pH
 DFL .               12.4:   Fluid loss
 MSS .           MUD/TANK:   Source of sample
 RMS .OHMM            .45:   Rm
 MST .F                43:   Rm Meas. temp.
 RMF .OHMM            .27:   Rmf
 MFST.F                51:   Rmf Meas. temp.
 RMC .OHMM            .56:   Rmc
 MCST.F                43:   Rmc Meas. temp.
 MFSS.               MEAS:   Source Rmf.
 MCSS.               CALC:   Source Rmc.
 RMB .OHMM            .16:   Rm. at BHT
 BHT .F               121:   BHT.
 TCS .HRS               7:   Time Circ. stopped
 MRT .F               121:   Maximum recorded temp.
 LUN .               6274:   Logging unit number
 LUL .               GLTE:   Logging unit location
 ENGI.            WACDELL:   Recorded By
 WITN.             STRONG:   Witnessed by
 ORIG.           5" PRINT:   Origin of data
 UWI .     49025109060000:   Unique Well ID
 DICO. A2D TECHNOLOGIES, INC.:   Digitizing Company
~OTHER INFORMATION
~A   DEPT     RHOB       CORR       TEND       NPHI         GRR      CALR       RFOC       RILD       TENR       RILM       TENS         DT        SPR   
# ...
 2818.0000     2.3710     0.0500   -54.8050     0.2670   139.7260     8.5370     2.9880     2.6260   -99.6990     2.6260   -66.3690    97.8750   -70.2840
 2818.5000     2.4260     0.0080   -54.8050     0.2490   129.1000     8.5400     3.2840     2.9330   -99.6990     2.6260   -66.3690    98.0820   -70.4160
 2819.0000     2.4780     0.0040   -54.8050     0.2320   116.3930     8.5420     3.4630     2.9330   -99.6990     2.9330   -66.3690    93.7320   -70.8830
 2819.5000     2.5320     0.0090   -55.4350     0.2140   107.0630     8.5450     4.5900     3.5130   -99.6990     3.3740   -66.3690    90.3000   -71.4750
 2820.0000     2.5370     0.0130   -56.5570     0.1980   102.4220     8.5470     5.5970     3.8640   -99.6990     3.7250   -66.3690    86.8680   -71.9960
 2820.5000     2.5400     0.0140   -57.6780     0.1940   100.2550     8.5490     5.5970     4.2160   -99.6990     4.0770   -66.3690    83.1300   -72.3410
 2821.0000     2.5430     0.0090   -58.8000     0.1940    98.4270     8.5500     5.5400     4.7400   -99.6990     4.4290   -66.3690    82.6940   -72.4980
 2821.5000     2.5450     0.0050   -59.9210     0.1960    97.2610     8.5500     5.4940     4.7400   -99.6990     4.7400   -66.3690    82.2160   -72.5250
 2822.0000     2.5480     0.0000   -61.0430     0.2030    98.4910     8.5480     5.6860     5.1980   -99.6990     4.9980   -66.3690    81.7370   -72.4980
 2822.5000     2.5500    -0.0170   -62.1640     0.2070   102.5530     8.5470     5.9150     5.1980   -99.6990     5.1980   -66.3690    81.2360   -72.4750
 2823.0000     2.5510    -0.0090   -63.2860     0.2060   107.5010     8.5460     5.7010     5.1200   -99.6990     5.1400   -66.3690    81.0260   -72.4760
 2823.5000     2.5540     0.0080   -64.4080     0.2140   110.6410     8.5450     5.4930     5.0690   -99.6990     5.0890   -66.3690    81.4610   -72.4890
 2824.0000     2.5580     0.0240   -64.0220     0.2250   110.9310     8.5440     5.2740     5.0180   -99.6990     5.0380   -66.3690    82.1490   -72.4990
 2824.5000     2.5620     0.0260   -62.7780     0.2360   109.6590     8.5430     5.0100     4.9670   -99.6990     4.9870   -66.3690    83.3570   -72.5010
 2825.0000     2.5600     0.0270   -61.5340     0.2360   108.9070     8.5420     4.9180     4.9160   -99.6990     4.9360   -66.3690    84.4140   -72.4980
 2825.5000     2.5570     0.0260   -60.2900     0.2320   109.5250     8.5400     4.9180     4.8650   -99.6990     4.8850   -66.3690    84.8620   -72.4850
 2826.0000     2.5530     0.0240   -59.0460     0.2270   110.5830     8.5390     4.9180     4.8140   -99.6990     4.8340   -66.3690    85.0710   -72.4700
 2826.5000     2.5510     0.0110   -57.8020     0.2220   110.6430     8.5380     5.0290     4.7630   -99.6990     4.7830   -66.3690    84.9450   -72.4790
 2827.0000     2.5500     0.0120   -56.5580     0.2250   109.3960     8.5370     5.1030     4.7110   -99.6990     4.7320   -66.3690    84.5050   -72.5400
 2827.5000     2.5490     0.0120   -55.3140     0.2290   107.9400     8.5360     5.1030     4.6530   -99.6990     4.6530   -66.3690    83.7530   -72.6510
 2828.0000     2.5450     0.0100   -54.0700     0.2300   107.7100     8.5350     5.4940     4.4190   -99.6990     4.6530   -66.3690    83.2900   -72.7810
 2828.5000     2.5330    -0.0140   -52.8260     0.2340   109.3880     8.5340     5.2690     4.1480   -99.6990     4.2550   -66.3690    83.0300   -72.9200
 2829.0000     2.5240    -0.0330   -51.5810     0.2440   112.8960     8.5330     5.0580     3.8760   -99.6990     3.9840   -66.3690    83.7750   -73.1040
 2829.5000     2.5190    -0.0270   -50.3370     0.2540   118.2140     8.5320     4.8280     3.6050   -99.6990     3.7120   -66.3690    84.4720   -73.3570
 2830.0000     2.5130     0.0060   -49.0930     0.2620   125.6670     8.5300     4.4440     3.3330   -99.6990     3.4410   -66.3690    86.0080   -73.5920
 2830.5000     2.4840     0.0360   -47.8490     0.2690   134.9880     8.5290     4.0220     3.0440   -99.6990     3.0440   -66.3690    88.3990   -73.6020
 2831.0000     2.4890     0.0510   -46.6050     0.2750   144.0970     8.5280     3.5990     3.0570   -99.6990     3.0440   -66.3690    90.7630   -73.2180
 2831.5000     2.4920     0.1330   -45.3610     0.2730   149.3940     8.5270     3.1580     3.0710   -99.6990     3.0660   -66.3690    92.9200   -72.5110
 2832.0000     2.4870     0.1860   -44.1170     0.2690   147.9750     8.5260     3.1580     3.0860   -99.6990     3.0800   -66.3690    95.0780   -71.8200
 2832.5000     2.4870     0.1080   -42.8730     0.2520   140.0570     8.5250     3.3720     3.1000   -99.6990     3.1000   -66.3690    96.4870   -71.5290
 2833.0000     2.5100     0.0450   -41.6290     0.2360   129.1900     8.5240     3.5940     3.1000   -99.6990     3.1000   -66.3690    94.6930   -71.7650
 2833.5000     2.5310    -0.0020   -40.3850     0.2210   119.8310     8.5230     4.2390     3.3830   -99.6990     3.3120   -66.3690    90.8860   -72.3090
 2834.0000     2.5350    -0.0180   -39.1400     0.2100   114.3560     8.5220     5.1980     3.5940   -99.6990     3.5940   -66.3690    86.9210   -72.7890
 2834.5000     2.5390    -0.0080   -37.8960     0.2030   112.0830     8.5200     5.2950     4.0200   -99.6990     3.5940   -66.3690    82.9570   -72.9750
 2835.0000     2.5430     0.0090   -36.6520     0.2040   110.6770     8.5190     5.2450     4.8280   -99.6990     4.3340   -66.3690    81.9330   -72.8990
 2835.5000     2.5480     0.0270   -35.4080     0.2120   108.2940     8.5180     5.1980     4.8280   -99.6990     4.8280   -66.3690    81.9330   -72.7300
 2836.0000     2.5490     0.0420   -34.5430     0.2210   104.6440     8.5170     5.1980     4.9330   -99.6990     4.8280   -66.3690    81.9330   -72.5950
 2836.5000     2.5460     0.0360   -34.0580     0.2290   100.6620     8.5160     5.7010     5.0320   -99.6990     4.9920   -66.3420    81.6150   -72.5120
 2837.0000     2.5420     0.0260   -33.5730     0.2220    97.6410     8.5150     5.7010     5.1310   -98.7150     5.0920   -66.2240    81.3020   -72.4490
 2837.5000     2.5400     0.0200   -33.0890     0.2150    96.4330     8.5140     5.7010     5.2300   -97.2670     5.1910   -66.1050    80.9900   -72.3890
 2838.0000     2.5380     0.0180   -32.6040     0.2070    96.8630     8.5130     5.5970     5.3290   -95.8190     5.2900   -65.9870    80.6770   -72.3190
 2838.5000     2.5360     0.0080   -32.1190     0.2000    97.6570     8.5110     5.5970     5.4280   -94.3710     5.3890   -65.8680    80.3650   -72.1990
 2839.0000     2.5350    -0.0020   -31.6350     0.1920    97.3200     8.5100     5.8250     5.4940   -92.9230     5.4940   -65.7500    79.9840   -71.9870
 2839.5000     2.5350    -0.0020   -31.1500     0.1890    95.5980     8.5100     5.9760     5.5190   -91.4750     5.5120   -65.6310    79.4250   -71.7010
 2840.0000     2.5360     0.0060   -30.6650     0.1880    93.9320     8.5120     6.1270     5.5370   -90.0270     5.5300   -65.5130    78.6940   -71.4280
 2840.5000     2.5390     0.0160   -30.1800     0.1910    94.1160     8.5140     6.2520     5.5560   -88.5790     5.5490   -65.3940    77.7870   -71.2640
 2841.0000     2.5390     0.0260   -29.6960     0.1970    96.3890     8.5160     6.2520     5.5740   -87.1310     5.5670   -65.2760    77.3480   -71.2320
 2841.5000     2.5340     0.0240   -29.2110     0.2020    99.1700     8.5180     6.1210     5.5970   -85.6830     5.5970   -65.1570    77.5950   -71.2700
 2842.0000     2.5300     0.0070   -28.7260     0.2040   100.6990     8.5200     6.0270     5.5970   -84.2350     5.5970   -65.0390    78.3500   -71.3040
 2842.5000     2.5260    -0.0110   -28.2410     0.1980   100.6240     8.5220     5.9150     5.5970   -82.7870     5.5970   -64.9200    79.1050   -71.3010
 2843.0000     2.5280    -0.0230   -27.7570     0.1890    99.6540     8.5240     6.0740     5.8190   -81.3390     5.7650   -64.8020    79.5210   -71.2840
 2843.5000     2.5310    -0.0290   -27.2720     0.1850    98.1140     8.5260     6.2670     5.9580   -79.8910     5.9030   -64.6830    79.5700   -71.2780
