~VERSION INFORMATION
 VERS.                2.0:   CWLS LOG ASCII STANDARD - VERSION 2.0
 WRAP.                 NO:   ONE LINE PER DEPTH STEP
~WELL INFORMATION
#MNEM.UNIT      DATA TYPE    INFORMATION
#----------   ------------   ------------------------------
 STRT.F          742.0000:   START DEPTH
 STOP.F         3406.0000:   STOP DEPTH
 STEP.F            0.5000:   STEP LENGTH
 NULL.          -999.2500:   NO VALUE
 COMP. FENIX & SCISSON - US NAVY:   COMPANY
 WELL.   FENIX "AX" #85-4:   WELL
 FLD .      NPR - WILDCAT:   FIELD
 LOC .       S4 T38N R78W:   LOCATION
 CNTY.            NATRONA:   COUNTY
 STAT.            WYOMING:   STATE
 CTRY. UNITED STATES OF AMERICA:   COUNTRY
 SRVC.              WELEX:   SERVICE COMPANY
 DATE.        03-MAY-1977:   LOGDATE
 API .     49025103520000:   API NUMBER
~CURVE INFORMATION
#MNEM.UNIT       API CODE    CURVE DESCRIPTION
#----------   ------------   ------------------------------
 DEPT.F                  :   
 SNP .DEC    41 890 00 00:   SIDEWALL NEUTRON POROSITY
 GR  .GAPI   30 310 01 00:   GAMMA RAY
 SPR .MV     07 010 01 00:   SPONTANEOUS POTENTIAL
 RXO .OHMM   11 220 01 00:   FLUSHED ZONE RESISTIVITY
 GURD.OHMM   07 220 05 00:   GUARD LOG RESISTIVITY
 CALD.IN     45 280 60 00:   CALIPER FROM DENSITY LOG
 RHOB.G/C3   45 350 01 00:   BULK DENSITY
 GRD .GAPI   45 310 01 00:   GAMMA RAY FROM DENSITY LOG
 CORR.G/C3   45 356 01 00:   DENSITY CORRECTION
~PARAMETER INFORMATION
#MNEM.UNIT          VALUE    DESCRIPTION
#----------   ------------   ------------------------------
 EKB .F         5254.0000:   Kelly bushing
 EGL .F         5240.0000:   Ground level
 EDF .F            0.0000:   Drilling floor
 TD  .F         3467.0000:   Total depth
 DATE.        03-MAY-1977:   Date logged
 CLNT.            A2DTECH:   Client Code
 SL  . 2200' FSL & 100' FEL:   Surface Location
 PD  .                 GL:   Permanent Datum
 EPD .F              5240:   Elevation Permanent Datum
 LMF .                 KB:   Log Measured From
 DMF .                 KB:   Drilling Measured From
 DAPD.F                14:   Feet Above Permanent Datum
 DD  .F              3647:   Depth driller
 DL  .F              3404:   Depth logger
 BLI .F              3402:   Bottom log interval
 TLI .F               720:   Top log interval
 CS1 .IN            8.625:   Casing size
 CBD1.      8.625" @ 720':   Casing driller 1
 CBL1.F               760:   Casing logger 1
 BS1 .IN            7.875:   Bit size
 BSD1.F              3467:   Depth drilled with bit1
 DFT .            KCL/MUD:   Type fluid in hole
 DFD .                9.1:   Density
 DFV .                 36:   Viscosity
 DFPH.                  8:   pH
 DFL .                  5:   Fluid loss
 MSS .           FLOWLINE:   Source of sample
 RMS .OHMM            .30:   Rm
 MST .F                66:   Rm Meas. temp.
 RMF .OHMM            .21:   Rmf
 MFST.F                66:   Rmf Meas. temp.
 RMC .OHMM            .49:   Rmc
 MCST.F                66:   Rmc Meas. temp.
 MFSS.               FANN:   Source Rmf.
 MCSS.                KIT:   Source Rmc.
 RMB .OHMM            .18:   Rm. at BHT
 BHT .F               107:   BHT.
 TCS .HRS             2.5:   Time Circ. stopped
 MRT .F               107:   Maximum recorded temp.
 LUN .               8611:   Logging unit number
 LUL .             CASPER:   Logging unit location
 ENGI.            C. DOAK:   Recorded By
 WITN.      B. HARRINGTON:   Witnessed by
 ORIG.     2.5", 5" PRINT:   Origin of data
 UWI .     49025103520000:   Unique Well ID
 DICO. A2D TECHNOLOGIES, INC.:   Digitizing Company
~OTHER INFORMATION
~A   DEPT        SNP       GR        SPR        RXO       GURD         CALD       RHOB       GRD       CORR  
# ...
 2676.5000     0.1670   121.8930   -42.5580     9.1580     7.1010     9.2970     2.5690   106.7450     0.0160
 2677.0000     0.1700   122.8270   -42.5370     8.9980     6.9990     9.2820     2.5740   105.4270     0.0150
 2677.5000     0.1730   123.1080   -42.5160     8.8630     6.7350     9.2690     2.5700   104.0440     0.0130
 2678.0000     0.1640   121.8750   -42.4940     8.7290     6.4720     9.2540     2.5650   102.7430     0.0120
 2678.5000     0.1580   120.9180   -42.4730     8.6720     6.2530     9.2480     2.5620   101.3740     0.0100
 2679.0000     0.1590   120.0770   -42.4520     9.0970     7.2310     9.2510     2.5640   101.3200     0.0090
 2679.5000     0.1590   121.3660   -42.4300     9.3780     7.2310     9.2530     2.5590   101.8830     0.0090
 2680.0000     0.1570   123.8190   -42.4100     9.6700     6.9460     9.2560     2.5550   102.4030     0.0090
 2680.5000     0.1550   126.8560   -42.3890     9.2930     6.7430     9.2580     2.5520   102.9150     0.0100
 2681.0000     0.1530   127.8520   -42.4100     8.6170     6.5410     9.2600     2.5490   103.4440     0.0100
 2681.5000     0.1560   127.4690   -42.4470     7.4990     6.3680     9.2630     2.5450   103.9590     0.0110
 2682.0000     0.1600   129.2540   -42.4840     7.6360     6.3680     9.2650     2.5350   104.4810     0.0110
 2682.5000     0.1640   130.3910   -42.5200     7.9350     6.4470     9.2680     2.5290   105.0050     0.0120
 2683.0000     0.1710   128.6570   -42.5570     8.2260     6.3580     9.2700     2.5350   105.5100     0.0120
 2683.5000     0.1690   126.6620   -42.5940     8.3620     6.1410     9.2730     2.5390   106.0620     0.0130
 2684.0000     0.1640   129.0970   -42.6310     8.3620     6.2530     9.2750     2.5450   106.5500     0.0180
 2684.5000     0.1620   133.4940   -42.6670     8.2270     6.6030     9.2770     2.5530   107.1900     0.0220
 2685.0000     0.1650   137.0860   -42.7040     8.0810     6.5760     9.2800     2.5610   106.4650     0.0270
 2685.5000     0.1680   135.0650   -42.7410     7.9350     6.4930     9.2820     2.5600   105.6700     0.0290
 2686.0000     0.1730   130.0220   -42.7780     7.7760     6.4090     9.2850     2.5580   104.8160     0.0270
 2686.5000     0.1720   126.1350   -42.8140     7.7760     6.3680     9.2890     2.5560   103.9990     0.0220
 2687.0000     0.1680   124.6790   -42.8510     7.8650     6.5850     9.3210     2.5570   103.1880     0.0160
 2687.5000     0.1630   125.8320   -42.8880     8.1570     6.8920     9.3570     2.5580   102.3260     0.0130
 2688.0000     0.1580   125.0540   -42.9240     8.3620     7.2310     9.3940     2.5590   101.5380     0.0130
 2688.5000     0.1610   120.7700   -42.9610     8.3620     6.6150     9.4060     2.5600   100.7370     0.0130
 2689.0000     0.1630   118.4560   -42.9980     8.3620     6.6330     9.4040     2.5610   101.0300     0.0120
 2689.5000     0.1660   116.6150   -43.0350     8.2120     7.1010     9.4030     2.5590   100.9560     0.0120
 2690.0000     0.1620   116.3150   -43.0710     9.1020     6.9570     9.4020     2.5540   101.0040     0.0110
 2690.5000     0.1580   119.0210   -43.1080    12.0260     6.4850     9.4010     2.5500   100.8560     0.0110
 2691.0000     0.1550   121.6480   -43.1450     7.4990     6.7980     9.4000     2.5480   100.3240     0.0100
 2691.5000     0.1580   124.2640   -43.1760     9.4960     7.2310     9.3990     2.5480    99.8060     0.0100
 2692.0000     0.1600   126.2240   -43.2000     9.1200     6.6030     9.3980     2.5520    99.2820     0.0090
 2692.5000     0.1620   125.6930   -43.2240     8.3620     6.8760     9.3980     2.5570    98.7210     0.0120
 2693.0000     0.1560   123.5000   -43.2480     8.6780     7.3640     9.3970     2.5610    98.9720     0.0180
 2693.5000     0.1580   123.7840   -43.2730     9.3250     7.2060     9.3960     2.5630    99.9490     0.0240
 2694.0000     0.1620   124.5960   -43.2970     8.9480     6.8580     9.3950     2.5600   100.9520     0.0250
 2694.5000     0.1650   126.4450   -43.3210     8.3690     6.5100     9.3940     2.5560   101.9370     0.0220
 2695.0000     0.1590   128.7970   -43.3460     7.7900     6.1620     9.3930     2.5520   104.3140     0.0180
 2695.5000     0.1660   131.4560   -43.3700     7.2310     5.8140     9.3920     2.5470   107.6700     0.0150
 2696.0000     0.1560   134.3960   -43.3940     7.2310     5.4070     9.3910     2.5430   107.4310     0.0130
 2696.5000     0.1590   137.4950   -43.4190    10.2120     6.8480     9.3900     2.5390   105.3040     0.0130
 2697.0000     0.1660   137.0430   -43.4430     9.6310     6.4700     9.3890     2.5400   105.1000     0.0130
 2697.5000     0.1720   137.3050   -43.4680     8.7030     6.1030     9.3880     2.5440   108.9060     0.0130
 2698.0000     0.1790   138.8720   -43.4910     7.2310     5.8150     9.3870     2.5430   110.0850     0.0130
 2698.5000     0.1860   137.5790   -43.5150     8.2120     5.8150     9.3860     2.5320   110.0170     0.0130
 2699.0000     0.1910   138.5810   -43.5460     7.4990     5.9210     9.3860     2.5260   110.4010     0.0100
 2699.5000     0.1890   142.0020   -43.5030     7.4990     5.9210     9.3850     2.5230   111.9130     0.0090
 2700.0000     0.1860   145.3030   -43.3570     8.0640     5.0180     9.3840     2.5200   113.5190     0.0090
 2700.5000     0.1830   147.5230   -43.2200     6.2970     4.1180     9.3830     2.5160   114.7440     0.0090
 2701.0000     0.1750   143.5690   -43.0800     5.1670     5.0550     9.3820     2.5220   114.5290     0.0090
 2701.5000     0.1620   136.4640   -42.9400     6.2850     6.3680     9.3810     2.5350   111.9660     0.0090
 2702.0000     0.1580   129.7210   -42.8010     9.4960     6.2530     9.3800     2.5410   109.7900     0.0090
 2702.5000     0.1600   128.7150   -42.6610     8.4300     6.1410     9.3790     2.5420   107.4780     0.0070
 2703.0000     0.1630   128.9080   -42.5220     7.4310     6.4130     9.3780     2.5380   105.0040     0.0060
 2703.5000     0.1580   129.0840   -42.3820     8.0350     6.8680     9.3770     2.5310   103.8860     0.0050
 2704.0000     0.1520   129.2090   -42.2430     9.0320     7.2310     9.3760     2.5270   104.9360     0.0120
 2704.5000     0.1440   126.9880   -42.1030    10.0280     7.2310     9.3750     2.5440   105.1340     0.0180
 2705.0000     0.1470   124.5430   -41.9640     9.4030     7.0070     9.3740     2.5570   104.4440     0.0250
 2705.5000     0.1530   122.8220   -41.8240     8.7770     6.7830     9.3740     2.5710   103.8630     0.0310
 2706.0000     0.1580   124.0200   -41.6850     7.7760     6.6030     9.3730     2.5680   103.2320     0.0360
 2706.5000     0.1520   126.2380   -41.5450     8.0640     7.3640     9.3720     2.5560   102.6140     0.0300
 2707.0000     0.1440   127.4330   -41.4060     8.7800     7.2310     9.3710     2.5440   101.9840     0.0240
 2707.5000     0.1460   126.0080   -41.2680     9.4960     7.0380     9.3700     2.5390   101.4020     0.0180
 2708.0000     0.1500   123.4430   -41.1240     9.0060     6.9730     9.3690     2.5440   100.7570     0.0120
 2708.5000     0.1540   121.1000   -40.9920     8.5160     7.0850     9.3680     2.5350   102.0160     0.0090
 2709.0000     0.1580   118.6580   -40.8330     8.5160     7.2240     9.3670     2.5380   103.9420     0.0100
 2709.5000     0.1610   118.2310   -40.8220     9.1580     7.3640     9.3660     2.5470   106.0270     0.0120
 2710.0000     0.1570   117.9750   -40.8180     8.6140     7.3640     9.3660     2.5530   105.4000     0.0130
 2710.5000     0.1500   118.8840   -40.8220     8.0710     6.1410     9.3660     2.5470   103.9570     0.0110
 2711.0000     0.1430   118.8770   -40.8200     7.5680     6.4130     9.3660     2.5400   102.5130     0.0100
 2711.5000     0.1370   116.3020   -40.8200     7.9730     6.8680     9.3660     2.5380   101.1220     0.0060
 2712.0000     0.1340   113.4050   -40.8210     8.5650     7.3220     9.3660     2.5360    99.7050     0.0030
 2712.5000     0.1400   109.3640   -40.8190     9.1580     7.7760     9.3660     2.5340    98.2640     0.0010
