~VERSION INFORMATION
 VERS.                2.0:   CWLS LOG ASCII STANDARD - VERSION 2.0
 WRAP.                 NO:   ONE LINE PER DEPTH STEP
~WELL INFORMATION
#MNEM.UNIT      DATA TYPE    INFORMATION
#----------   ------------   ------------------------------
 STRT.F          540.0000:   START DEPTH
 STOP.F         4100.0000:   STOP DEPTH
 STEP.F            0.5000:   STEP LENGTH
 NULL.          -999.2500:   NO VALUE
 COMP. LAWRENCE ALISON & ASSOC.,WEST:   COMPANY
 WELL. LAWRENCE "X" #15-11:   WELL
 FLD .              N P R:   FIELD
 LOC .      S11 T38N R78W:   LOCATION
 CNTY.            NATRONA:   COUNTY
 STAT.            WYOMING:   STATE
 CTRY. UNITED STATES OF AMERICA:   COUNTRY
 SRVC.      DRESSER ATLAS:   SERVICE COMPANY
 DATE.        18-MAY-1985:   LOGDATE
 API .     49025110220000:   API NUMBER
~CURVE INFORMATION
#MNEM.UNIT       API CODE    CURVE DESCRIPTION
#----------   ------------   ------------------------------
 DEPT.F                  :   
 NPHI.DEC    42 890 03 00:   NEUTRON POROSITY SANDSTONE
 RHOB.G/C3   45 350 01 00:   BULK DENSITY
 CORR.G/C3   45 356 01 00:   DENSITY CORRECTION
 TEND.LBS    45 635 01 00:   TENSION FROM DENSITY LOG
 GRD .GAPI   45 310 01 00:   GAMMA RAY FROM DENSITY LOG
 CALD.IN     45 280 60 00:   CALIPER FROM DENSITY LOG
 SPR .MV     07 010 01 00:   SPONTANEOUS POTENTIAL
 RILD.OHMM   07 120 46 00:   DEEP INDUCTION RESISTIVITY
 RILM.OHMM   07 120 44 00:   INDUCTION LOG MEDIUM RESISTIVITY
 RFOC.OHMM   07 220 04 00:   RESISTIVITY FOCUSED LOG RES.
 TENR.LBS    07 635 01 00:   TENSION FROM RESISTIVITY
~PARAMETER INFORMATION
#MNEM.UNIT          VALUE    DESCRIPTION
#----------   ------------   ------------------------------
 EKB .F         5201.0000:   Kelly bushing
 EGL .F         5189.0000:   Ground level
 EDF .F         5200.0000:   Drilling floor
 TD  .F         4095.0000:   Total depth
 DATE.        18-MAY-1985:   Date logged
 CLNT.            A2DTECH:   Client Code
 SL  . 2203' FSL & 377' FWL:   Surface Location
 PD  .                 GL:   Permanent Datum
 EPD .F              5189:   Elevation Permanent Datum
 LMF .                 KB:   Log Measured From
 DMF .                 KB:   Drilling Measured From
 DAPD.F                12:   Feet Above Permanent Datum
 DD  .F              4095:   Depth driller
 DL  .F              4093:   Depth logger
 BLI .F              4091:   Bottom log interval
 TLI .F                 0:   Top log interval
 CS1 .IN            8.625:   Casing size
 CBD1.      8.625" @ 565':   Casing driller 1
 CBL1.F               565:   Casing logger 1
 BS1 .IN            7.875:   Bit size
 BSD1.F              4095:   Depth drilled with bit1
 DFT .            GEL KCL:   Type fluid in hole
 DFD .                9.2:   Density
 DFV .                 40:   Viscosity
 DFPH.                8.0:   pH
 DFL .                9.0:   Fluid loss
 MSS .            MUDTANK:   Source of sample
 RMS .OHMM            .57:   Rm
 MST .F                69:   Rm Meas. temp.
 RMF .OHMM            .49:   Rmf
 MFST.F                69:   Rmf Meas. temp.
 RMC .OHMM            .71:   Rmc
 MCST.F                69:   Rmc Meas. temp.
 MFSS.               MEAS:   Source Rmf.
 MCSS.               CALC:   Source Rmc.
 RMB .OHMM            .30:   Rm. at BHT
 BHT .F               139:   BHT.
 TCS .HRS               4:   Time Circ. stopped
 MRT .F               139:   Maximum recorded temp.
 LUN .            HL 6302:   Logging unit number
 LUL .               CODY:   Logging unit location
 ENGI.              GETTY:   Recorded By
 WITN.              FIVAS:   Witnessed by
 ORIG.           5" PRINT:   Origin of data
 UWI .     49025110220000:   Unique Well ID
 DICO. A2D TECHNOLOGIES, INC.:   Digitizing Company
~OTHER INFORMATION
~A   DEPT     NPHI       RHOB       CORR        TEND        GRD      CALD        SPR       RILD       RILM       RFOC       TENR   
# ...
 1729.5000     0.2740     2.5740     0.0310   -54.5590    95.8500    11.6750    -6.3540     6.9130     6.5670     7.0650   -56.7390
 1730.0000     0.2680     2.5660     0.0280   -53.2370    97.3560    11.6590    -6.3570     6.8530     6.5160     7.0650   -56.7390
 1730.5000     0.2800     2.5560     0.0270   -51.9160    98.7330    11.6480    -6.3590     6.7940     6.4650     7.0650   -56.7390
 1731.0000     0.3050     2.5540     0.0260   -50.5940    98.7340    11.6730    -6.3620     6.7350     6.4150     7.0470   -56.7390
 1731.5000     0.3100     2.5590     0.0300   -49.2730    99.4520    11.6980    -6.3640     6.6750     6.3640     6.9430   -56.7390
 1732.0000     0.3160     2.5640     0.0500   -47.9520   101.6480    11.7230    -6.3660     6.6160     6.3320     6.8400   -56.7390
 1732.5000     0.3200     2.5680     0.0690   -46.6300   103.9670    11.7480    -6.3690     6.5570     6.3440     6.7360   -56.7390
 1733.0000     0.3080     2.5620     0.0670   -45.3090   105.1810    11.7730    -6.3710     6.5080     6.3570     6.6330   -56.7390
 1733.5000     0.3000     2.5540     0.0090   -43.9870   104.2170    11.7980    -6.3730     6.5170     6.3700     6.5670   -56.7390
 1734.0000     0.3220     2.5460    -0.0120   -42.6660   102.3500    11.8220    -6.3760     6.5290     6.3820     6.6520   -56.7390
 1734.5000     0.3160     2.5560    -0.0130   -41.3450   100.6020    11.8470    -6.3780     6.5410     6.3950     6.6960   -56.2120
 1735.0000     0.2960     2.5700     0.0040   -40.0230   100.8850    11.8710    -6.3810     6.5540     6.4080     6.7400   -54.7570
 1735.5000     0.2890     2.5840     0.0240   -38.7020   101.2310    11.8870    -6.3830     6.5660     6.4200     6.7830   -53.3030
 1736.0000     0.3230     2.5960     0.0430   -37.3800   101.0810    11.9050    -6.3850     6.5780     6.4330     6.8090   -51.8480
 1736.5000     0.3380     2.5940     0.0600   -36.0590   100.1910    11.9220    -6.3880     6.5900     6.4460     6.7780   -50.3940
 1737.0000     0.2990     2.5850     0.0500   -34.7380    99.6490    11.9390    -6.3900     6.6020     6.4590     6.7530   -48.9390
 1737.5000     0.2800     2.5750     0.0340   -33.4160    99.6830    11.9560    -6.3930     6.6150     6.4710     6.7290   -47.4840
 1738.0000     0.2880     2.5720     0.0240   -32.0950   100.6680    11.9690    -6.3950     6.6270     6.4840     6.7040   -46.0300
 1738.5000     0.2990     2.5740     0.0260   -30.7730   101.6950    11.9750    -6.3970     6.7000     6.4970     6.6880   -44.5750
 1739.0000     0.3100     2.5790     0.0370   -29.4520   102.7290    11.9810    -6.4000     6.7770     6.5170     6.8620   -43.1210
 1739.5000     0.3180     2.5840     0.0470   -28.1310   103.2120    11.9880    -6.4020     6.8530     6.5800     7.0140   -41.6660
 1740.0000     0.3140     2.5830     0.0340   -26.8090   102.0630    11.9940    -6.4050     6.9300     6.6430     7.1660   -40.2120
 1740.5000     0.3080     2.5760     0.0120   -25.4880   100.5670    12.0000    -6.4070     7.0060     6.7060     7.3270   -38.7570
 1741.0000     0.3110     2.5700    -0.0040   -24.1670   100.1540    12.0070    -6.4090     7.0830     6.7690     7.3400   -37.3030
 1741.5000     0.3070     2.5650    -0.0060   -22.8450   100.0100    12.0130    -6.4120     7.1590     6.8320     7.3620   -35.8480
 1742.0000     0.3010     2.5720     0.0200   -21.5240   100.4190    12.0200    -6.4140     7.2360     6.8950     7.3840   -34.3930
 1742.5000     0.2970     2.5800     0.0420   -20.2020   101.2210    12.0260    -6.4170     7.3130     6.9580     7.4070   -32.9390
 1743.0000     0.3330     2.5810     0.0510   -18.8810   101.8110    12.0320    -6.4190     7.3950     7.0010     7.4290   -31.4840
 1743.5000     0.3590     2.5760     0.0300   -17.5600   101.9790    12.0390    -6.4210     7.3950     6.8950     7.4520   -30.0300
 1744.0000     0.3380     2.5700     0.0090   -16.1690   102.1470    12.0450    -6.4240     7.3320     6.7500     7.4620   -28.5750
 1744.5000     0.3090     2.5670    -0.0080   -21.8050   102.3680    12.0510    -6.4260     7.2840     6.6050     7.4260   -27.0070
 1745.0000     0.2830     2.5720    -0.0010   -27.7510   104.1810    12.0580    -6.4280     7.2360     6.4600     7.3990   -37.5280
 1745.5000     0.2680     2.5800     0.0270   -33.6980   106.1460    12.0640    -6.4310     7.1890     6.3510     7.3720   -48.9400
 1746.0000     0.2780     2.5830     0.0460   -39.6440   105.9470    12.0660    -6.4330     7.1410     6.3900     7.3450   -54.1300
 1746.5000     0.2910     2.5780     0.0360   -46.0200   103.7780    12.0700    -6.4360     7.0940     6.3900     7.3180   -45.8870
 1747.0000     0.3060     2.5720     0.0240   -40.2740   101.5940    12.0750    -6.4380     7.0460     6.3900     7.2910   -37.6450
 1747.5000     0.3240     2.5670     0.0110   -34.0800   100.7970    12.0800    -6.4400     6.9980     6.3900     7.2610   -29.4020
 1748.0000     0.3540     2.5700     0.0000   -27.8860   101.2410    12.0850    -6.4430     6.9510     6.3320     7.2650   -28.2640
 1748.5000     0.3700     2.5750     0.0240   -21.6920   101.6850    12.0900    -6.4450     6.9370     6.4340     7.2710   -30.0350
 1749.0000     0.3630     2.5800     0.0520   -16.1690   102.1360    12.0960    -6.4480     6.9660     6.4960     7.2770   -31.8060
 1749.5000     0.3500     2.5820     0.0650   -20.5080   102.5890    12.1010    -6.4500     7.0080     6.5580     7.2830   -33.5780
 1750.0000     0.3460     2.5790     0.0550   -25.2880   103.0470    12.1050    -6.4520     7.0500     6.6200     7.2890   -35.3490
 1750.5000     0.3520     2.5760     0.0460   -30.0680   103.5110    12.1000    -6.4550     7.0910     6.6820     7.2950   -37.1200
 1751.0000     0.3490     2.5750     0.0390   -34.8490   103.0320    12.0930    -6.4570     7.1330     6.7440     7.3010   -38.8920
 1751.5000     0.3620     2.5750     0.0320   -39.6290   102.4270    12.0860    -6.4600     7.1740     6.8060     7.3070   -40.6630
 1752.0000     0.3800     2.5730     0.0220   -44.4090   101.7560    12.0800    -6.4740     7.1950     6.8740     7.3130   -42.4340
 1752.5000     0.3560     2.5710    -0.0020   -49.1890   102.5160    12.0730    -6.5240     7.1350     6.7660     7.3190   -44.2060
 1753.0000     0.3130     2.5740     0.0090   -53.9700   103.3890    12.0660    -6.5730     7.0890     6.6480     7.3270   -45.9770
 1753.5000     0.3030     2.5770     0.0250   -58.7500   103.1640    12.0600    -6.6210     7.0440     6.5300     7.2770   -47.7480
 1754.0000     0.3010     2.5710     0.0350   -63.5300   101.7980    12.0530    -6.6700     6.9980     6.4480     7.1780   -49.5200
 1754.5000     0.3010     2.5660     0.0360   -64.5120   101.8320    12.0460    -6.7180     6.9520     6.5550     7.0790   -51.2910
 1755.0000     0.3020     2.5600     0.0260   -61.6960   102.5110    11.9950    -6.7670     6.9060     6.5980     6.9800   -53.0620
 1755.5000     0.3020     2.5550     0.0170   -58.8800   102.1920    11.9380    -6.8150     6.8610     6.6270     6.8740   -54.8340
 1756.0000     0.2930     2.5500     0.0190   -56.0640   102.0640    11.8810    -6.8640     6.8110     6.5670     6.9880   -56.7390
 1756.5000     0.2740     2.5520     0.0310   -53.2480   102.4470    11.8220    -6.9120     6.8110     6.6030     7.1120   -52.7490
 1757.0000     0.2600     2.5530     0.0480   -50.4320   102.6360    11.8030    -6.9610     6.8420     6.6270     7.1950   -48.4320
 1757.5000     0.2690     2.5500     0.0220   -47.6160   102.6000    11.7980    -7.0090     6.8650     6.6540     7.1950   -44.1140
 1758.0000     0.2800     2.5470     0.0050   -44.8000   102.4530    11.7930    -7.0580     6.8880     6.6830     7.1950   -39.7960
 1758.5000     0.2730     2.5470     0.0020   -41.9830   102.3950    11.7870    -7.1060     6.9110     6.7120     7.1950   -39.2820
 1759.0000     0.2610     2.5490     0.0130   -39.1670   103.5900    11.7890    -7.1550     6.9340     6.7400     7.1950   -46.3750
 1759.5000     0.2620     2.5500     0.0270   -36.0700   104.7500    11.7920    -7.2040     6.9570     6.7690     7.1950   -53.4690
