~VERSION INFORMATION
 VERS.                2.0:   CWLS LOG ASCII STANDARD - VERSION 2.0
 WRAP.                 NO:   ONE LINE PER DEPTH STEP
~WELL INFORMATION
#MNEM.UNIT      DATA TYPE    INFORMATION
#----------   ------------   ------------------------------
 STRT.F          200.0000:   START DEPTH
 STOP.F         3060.0000:   STOP DEPTH
 STEP.F            0.5000:   STEP LENGTH
 NULL.          -999.2500:   NO VALUE
 COMP.    FENIX & SCISSON:   COMPANY
 WELL. FENIX NPR 3 "AX" #58-21:   WELL
 FLD .      NPR - WILDCAT:   FIELD
 LOC .      S21 T39N R78W:   LOCATION
 CNTY.            NATRONA:   COUNTY
 STAT.            WYOMING:   STATE
 CTRY. UNITED STATES OF AMERICA:   COUNTRY
 SRVC.              WELEX:   SERVICE COMPANY
 DATE.        12-JUN-1977:   LOGDATE
 API .     49025103790000:   API NUMBER
~CURVE INFORMATION
#MNEM.UNIT       API CODE    CURVE DESCRIPTION
#----------   ------------   ------------------------------
 DEPT.F                  :   
 CALD.IN     45 280 60 00:   CALIPER FROM DENSITY LOG
 GRD .GAPI   45 310 01 00:   GAMMA RAY FROM DENSITY LOG
 CORR.G/C3   45 356 01 00:   DENSITY CORRECTION
 RHOB.G/C3   45 350 01 00:   BULK DENSITY
 SPR .MV     07 010 01 00:   SPONTANEOUS POTENTIAL
 ILD .OHMM   07 120 46 00:   DEEP INDUCTION RESISTIVITY
 GURD.OHMM   07 220 05 00:   GUARD LOG RESISTIVITY
 ILM .OHMM   07 120 44 00:   INDUCTION LOG MEDIUM RESISTIVITY
 DT  .US/F   60 520 00 00:   DELTA TIME
 SPHI.DEC    60 890 00 00:   SONIC POROSITY
~PARAMETER INFORMATION
#MNEM.UNIT          VALUE    DESCRIPTION
#----------   ------------   ------------------------------
 EKB .F         5016.0000:   Kelly bushing
 EGL .F         5006.0000:   Ground level
 EDF .F            0.0000:   Drilling floor
 EPD .F            0.0000:   Permanent datum
 TD  .F         3062.0000:   Total depth
 DATE.        12-JUN-1977:   Date logged
 CLNT.            A2DTECH:   Client Code
 SL  . 280' FSL & 2160' FEL:   Surface Location
 PD  .                 GL:   Permanent Datum
 DD  .F              3060:   Depth driller
 DL  .F              3062:   Depth logger
 BLI .F              3060:   Bottom log interval
 TLI .F              2450:   Top log interval
 CS1 .IN            8.625:   Casing size
 CBD1.      8.625" @ 200':   Casing driller 1
 CBL1.F               218:   Casing logger 1
 BS1 .IN            7.875:   Bit size
 BSD1.F              3060:   Depth drilled with bit1
 DFT .            KCL/MUD:   Type fluid in hole
 DFD .                8.7:   Density
 DFV .                 33:   Viscosity
 DFPH.                7.5:   pH
 DFL .                 36:   Fluid loss
 MSS .           FLOWLINE:   Source of sample
 TCS .HRS             4.5:   Time Circ. stopped
 MRT .F               110:   Maximum recorded temp.
 LUN .               8611:   Logging unit number
 LUL .           GILLETTE:   Logging unit location
 ENGI.            C. DOAK:   Recorded By
 WITN.            RHOADES:   Witnessed by
 ORIG.           5" PRINT:   Origin of data
 UWI .     49025103790000:   Unique Well ID
 DICO. A2D TECHNOLOGIES, INC.:   Digitizing Company
 DAPD.                 10:   Feet Above Permanent Datum
 RMS .OHMM            1.3:   Rm
 MST .F                84:   Rm Meas. temp.
 RMF .OHMM            .52:   Rmf
 MFST.F                84:   Rmf Meas. temp.
 MFSS.               FANN:   Source Rmf.
 RMC .OHMM           1.43:   Rmc
 MCST.F                84:   Rmc Meas. temp.
 MCSS.                KIT:   Source Rmc.
 RMB .OHMM            .99:   Rm. at BHT
 BHT .F               110:   BHT.
~OTHER INFORMATION
~A   DEPT     CALD         GRD      CORR       RHOB        SPR        ILD       GURD        ILM         DT       SPHI   
# ...
 1339.0000     9.1890   110.9690    -0.0040     2.4570   -66.0030     6.0260     7.1030     6.1240  -999.2500  -999.2500
 1339.5000     9.1990   110.6650    -0.0020     2.4560   -65.9490     6.0050     6.9830     6.0940  -999.2500  -999.2500
 1340.0000     9.2060   110.3220    -0.0020     2.4540   -65.8960     5.9850     6.9350     6.0630  -999.2500  -999.2500
 1340.5000     9.2160   109.8970    -0.0020     2.4520   -65.8420     6.0570     7.0140     6.0330  -999.2500  -999.2500
 1341.0000     9.2240   109.4780    -0.0020     2.4520   -65.7890     6.1170     7.1120     5.9850  -999.2500  -999.2500
 1341.5000     9.2330   108.8800    -0.0010     2.4550   -65.7360     6.1770     7.2110     6.0320  -999.2500  -999.2500
 1342.0000     9.2420   107.4620    -0.0010     2.4550   -65.6820     6.2380     7.3290     6.1520  -999.2500  -999.2500
 1342.5000     9.2510   105.8090     0.0000     2.4520   -65.6290     6.2980     7.4120     6.2710  -999.2500  -999.2500
 1343.0000     9.2600   104.0440     0.0000     2.4500   -65.5760     6.3580     7.6200     6.3900  -999.2500  -999.2500
 1343.5000     9.2600   103.3730     0.0000     2.4460   -65.5210     6.4190     7.8270     6.5100  -999.2500  -999.2500
 1344.0000     9.2660   102.6810     0.0010     2.4480   -65.4690     6.4790     8.0350     6.6290  -999.2500  -999.2500
 1344.5000     9.2750   102.0620     0.0010     2.4530   -65.4180     6.5390     8.2430     6.7490  -999.2500  -999.2500
 1345.0000     9.2830   101.3740     0.0010     2.4570   -65.4160     6.5990     8.4920     6.8680  -999.2500  -999.2500
 1345.5000     9.2910   100.7660     0.0020     2.4590   -65.4140     6.6600     8.3920     6.9870  -999.2500  -999.2500
 1346.0000     9.2990   100.0580     0.0020     2.4620   -65.4160     6.6840     8.1400     7.1070  -999.2500  -999.2500
 1346.5000     9.3080   100.4240     0.0040     2.4660   -65.4150     6.8080     7.8890     7.2260  -999.2500  -999.2500
 1347.0000     9.3160   101.1280     0.0060     2.4700   -65.4130     6.8730     8.0000     7.3460  -999.2500  -999.2500
 1347.5000     9.3240   102.5350     0.0080     2.4740   -65.4220     6.9370     8.1850     7.4650  -999.2500  -999.2500
 1348.0000     9.3320   104.0570     0.0100     2.4780   -65.3440     7.0020     8.1680     7.4930  -999.2500  -999.2500
 1348.5000     9.3400   104.3280     0.0130     2.4820   -65.2050     7.0660     8.1390     7.5410  -999.2500  -999.2500
 1349.0000     9.3480   103.0460     0.0150     2.4840   -65.0720     7.1310     8.1110     7.5880  -999.2500  -999.2500
 1349.5000     9.3570   101.8990     0.0170     2.4840   -64.9430     7.1950     8.0820     7.6350  -999.2500  -999.2500
 1350.0000     9.3650   100.6180     0.0180     2.4800   -64.8160     7.2200     8.0360     7.6820  -999.2500  -999.2500
 1350.5000     9.3730   100.0220     0.0140     2.4740   -64.6580     7.2440     8.0700     7.7290  -999.2500  -999.2500
 1351.0000     9.3810    99.3260     0.0110     2.4680   -64.8710     7.2690     8.1570     7.7770  -999.2500  -999.2500
 1351.5000     9.3890    99.8300     0.0080     2.4630   -65.3930     7.2940     8.2430     7.8240  -999.2500  -999.2500
 1352.0000     9.3970   101.4540     0.0060     2.4560   -65.4450     7.3190     8.3300     7.8710  -999.2500  -999.2500
 1352.5000     9.4060   103.1240     0.0080     2.4550   -65.4860     7.3430     8.4170     7.9180  -999.2500  -999.2500
 1353.0000     9.4140   102.6040     0.0090     2.4560   -65.5170     7.3680     8.4920     7.9660  -999.2500  -999.2500
 1353.5000     9.4190   101.7220     0.0110     2.4630   -65.5530     7.3930     8.7880     8.0130  -999.2500  -999.2500
 1354.0000     9.4190   100.9540     0.0120     2.4690   -65.5880     7.4170     9.1970     8.0360  -999.2500  -999.2500
 1354.5000     9.4130   100.8300     0.0140     2.4770   -65.6230     7.4420     9.4850     7.9910  -999.2500  -999.2500
 1355.0000     9.4050   101.8830     0.0150     2.4800   -65.6580     7.4650     9.4850     7.9500  -999.2500  -999.2500
 1355.5000     9.3970   102.9960     0.0170     2.4910   -65.6930     7.4660     9.2020     7.9100  -999.2500  -999.2500
 1356.0000     9.3890   103.8880     0.0180     2.5010   -65.7280     7.4520     8.7970     7.8690  -999.2500  -999.2500
 1356.5000     9.3810   103.3670     0.0190     2.5110   -65.7610     7.4200     8.4920     7.8290  -999.2500  -999.2500
 1357.0000     9.3730   102.8690     0.0210     2.5150   -65.8020     7.3890     8.4920     7.7880  -999.2500  -999.2500
 1357.5000     9.3650   102.4880     0.0220     2.5070   -65.7660     7.3580     8.6740     7.7470  -999.2500  -999.2500
 1358.0000     9.3570   101.8150     0.0210     2.4970   -65.6770     7.3270     8.9630     7.7070  -999.2500  -999.2500
 1358.5000     9.3490   102.7210     0.0180     2.4870   -65.5960     7.2960     9.3120     7.6660  -999.2500  -999.2500
 1359.0000     9.3410   103.6510     0.0160     2.4830   -65.5160     7.2650     9.2060     7.6260  -999.2500  -999.2500
 1359.5000     9.3330   104.6910     0.0140     2.4830   -65.4330     7.2340     8.9340     7.5850  -999.2500  -999.2500
 1360.0000     9.3250   105.6460     0.0110     2.4710   -65.3530     7.2030     8.6500     7.5440  -999.2500  -999.2500
 1360.5000     9.3170   106.6430     0.0100     2.4650   -65.2710     7.1720     8.7140     7.5040  -999.2500  -999.2500
 1361.0000     9.3090   107.6080     0.0100     2.4680   -65.1900     7.1410     8.7800     7.4630  -999.2500  -999.2500
 1361.5000     9.3010   107.8800     0.0110     2.4740   -65.1080     7.1100     8.8110     7.4230  -999.2500  -999.2500
 1362.0000     9.2930   106.5630     0.0130     2.4730   -65.0270     7.0800     8.5210     7.3820  -999.2500  -999.2500
 1362.5000     9.2850   105.0890     0.0140     2.4700   -64.9460     7.0270     8.1850     7.3410  -999.2500  -999.2500
 1363.0000     9.2760   103.6900     0.0160     2.4590   -64.8650     6.9540     8.2720     7.3010  -999.2500  -999.2500
 1363.5000     9.2680   102.2820     0.0170     2.4470   -64.7820     6.8800     8.3370     7.2600  -999.2500  -999.2500
 1364.0000     9.2610   100.8130     0.0180     2.4350   -64.7020     6.8070     7.8530     7.2200  -999.2500  -999.2500
 1364.5000     9.2610    99.4520     0.0180     2.4230   -64.6280     6.7340     7.4040     7.1790  -999.2500  -999.2500
 1365.0000     9.2600    98.0680     0.0210     2.4100   -64.6250     6.6610     7.0640     7.1390  -999.2500  -999.2500
 1365.5000     9.2610    97.5940     0.0270     2.4030   -64.6240     6.5880     7.1440     7.0980  -999.2500  -999.2500
 1366.0000     9.2870    97.5910     0.0340     2.4020   -64.6250     6.5150     7.2390     7.0570  -999.2500  -999.2500
 1366.5000     9.3580    97.9540     0.0390     2.4030   -64.6240     6.4420     7.3340     7.0170  -999.2500  -999.2500
 1367.0000     9.4500    98.3220     0.0410     2.4110   -64.6240     6.4590     7.4290     6.9800  -999.2500  -999.2500
 1367.5000     9.8170    99.0120     0.0260     2.4280   -64.6240     6.4880     7.5250     6.9290  -999.2500  -999.2500
 1368.0000    10.1250    99.7070     0.0130     2.4550   -64.6250     6.5160     7.6040     6.9400  -999.2500  -999.2500
 1368.5000     9.7850   100.9620     0.0050     2.4720   -64.6230     6.5440     7.8570     7.0730  -999.2500  -999.2500
 1369.0000     9.4320   102.0990     0.0100     2.4740   -64.6240     6.5730     8.0030     7.0690  -999.2500  -999.2500
 1369.5000     9.2710   103.2860     0.0160     2.4790   -64.5360     6.6010     8.1500     7.0950  -999.2500  -999.2500
 1370.0000     9.2260   104.5010     0.0210     2.4840   -64.4120     6.6300     8.2960     7.1050  -999.2500  -999.2500
 1370.5000     9.2220   105.6370     0.0260     2.4890   -64.2890     6.6580     8.3370     7.1170  -999.2500  -999.2500
 1371.0000     9.2390   107.0270     0.0310     2.4910   -64.1690     6.6830     8.3370     7.1280  -999.2500  -999.2500
 1371.5000     9.2930   107.1010     0.0360     2.4940   -64.0460     6.6830     8.3370     7.1400  -999.2500  -999.2500
 1372.0000     9.3400   107.1340     0.0410     2.4970   -63.9210     6.6840     8.2410     7.1520  -999.2500  -999.2500
