~VERSION INFORMATION
 VERS.                2.0:   CWLS LOG ASCII STANDARD - VERSION 2.0
 WRAP.                 NO:   ONE LINE PER DEPTH STEP
~WELL INFORMATION
#MNEM.UNIT      DATA TYPE    INFORMATION
#----------   ------------   ------------------------------
 STRT.F         2185.0000:   START DEPTH
 STOP.F         5688.0000:   STOP DEPTH
 STEP.F            0.5000:   STEP LENGTH
 NULL.          -999.2500:   NO VALUE
 COMP.       FLUOR DANIEL:   COMPANY
 WELL.   FLUOR "X" #53-10:   WELL
 FLD .           N.P.R #3:   FIELD
 LOC .      S10 T38N R78W:   LOCATION
 CNTY.            NATRONA:   COUNTY
 STAT.            WYOMING:   STATE
 CTRY. UNITED STATES OF AMERICA:   COUNTRY
 SRVC.      WESTERN ATLAS:   SERVICE COMPANY
 DATE.        23-MAR-1997:   LOGDATE
 API .     49025228470000:   API NUMBER
~CURVE INFORMATION
#MNEM.UNIT       API CODE    CURVE DESCRIPTION
#----------   ------------   ------------------------------
 DEPT.F                  :   
 CNC .DEC    42 890 03 00:   NEUTRON POROSITY SANDSTONE
 TEND.LBS    45 635 01 00:   TENSION FORM DENSITY LOG
 GRD .GAPI   45 310 01 00:   GAMMA RAY FROM DENSITY LOG
 CALD.IN     45 280 60 00:   CALIPER FROM DENSITY LOG
 ZDEN.G/C3   45 350 01 00:   BULK DENSITY
 ZCOR.G/C3   45 356 01 00:   DENSITY CORRECTION
 PE  .B/E    45 358 01 00:   PHOTOELECTRIC FACTOR
 R4SL.OHMM   07 000 00 00:   RESISTIVITY DEL 4
 R2SL.OHMM   07 000 00 00:   RESISTIVITY DEL 2
~PARAMETER INFORMATION
#MNEM.UNIT          VALUE    DESCRIPTION
#----------   ------------   ------------------------------
 EKB .F         5182.0000:   Kelly bushing
 EGL .F         5172.0000:   Ground level
 EDF .F         5181.0000:   Drilling floor
 EPD .F         5172.0000:   Permanent datum
 TD  .F         5690.0000:   Total depth
 CLNT.            A2DTECH:   Client Code
 SL  . 1183' FNL & 2118' FEL:   Surface Location
 PD  .                 GL:   Permanent Datum
 LMF .                 KB:   Log Measured From
 DMF .                 KB:   Drilling Measured From
 DAPD.F                10:   Feet Above Permanent Datum
 DATE.        23-MAR-1997:   Date Logged [DD-MMM-YYYY]
 DD  .F              5690:   Depth driller
 DL  .F              5688:   Depth logger
 BLI .F              5648:   Bottom log interval
 TLI .F              2200:   Top log interval
 CS1 .IN            9.625:   Casing size
 CBD1.      9.625" @ 446':   Casing driller 1
 CBL1.F               452:   Casing logger 1
 BS1 .IN             8.75:   Bit size
 BSD1.F              5690:   Depth drilled with bit1
 DFT .           GEL CHEM:   Type fluid in hole
 DFD .                9.8:   Density
 DFV .                 66:   Viscosity
 DFPH.                8.5:   pH
 DFL .                8.4:   Fluid loss
 MSS .              CIRC.:   Source of sample
 RMS .OHMM            1.1:   Rm
 MST .F                73:   Rm Meas. temp.
 RMF .OHMM           0.87:   Rmf
 MFST.F                73:   Rmf Meas. temp.
 MFSS.               CALC:   Source Rmf.
 RMC .OHMM           1.35:   Rmc
 MCST.F                73:   Rmc Meas. temp.
 MCSS.               CALC:   Source Rmc.
 RMB .OHMM           0.46:   Rm. at BHT
 BHT .F               174:   BHT.
 TCS .HRS               5:   Time Circ. stopped
 MRT .F               174:   Maximum recorded temp.
 LUN .            HL 6530:   Logging unit number
 LUL .          CASPER WY:   Logging unit location
 ENGI.           BROWNLOW:   Recorded By
 WITN.              HARDY:   Witnessed by
 ORIG.     2.5", 5" PRINT:   Origin of data
 UWI .     49025228470000:   Unique Well ID
 DICO. A2D TECHNOLOGIES, INC.:   Digitizing Company
~OTHER INFORMATION
~A  DEPTH      CNC       TEND        GRD       CALD       ZDEN       ZCOR         PE       R4SL       R2SL
# ...
 5397.0000     0.0229     9.8223    19.1274     8.9687     2.6313     0.0595     2.6940    82.6027    39.1780
 5397.5000     0.0256    -4.8288    20.0557     8.9691     2.6320     0.0534     2.6943   101.6310    38.6396
 5398.0000     0.0283   -12.0720    20.6827     8.9696     2.6335     0.0444     2.6795   116.6886    39.7090
 5398.5000     0.0313   -11.8525    21.6115     8.9700     2.6320     0.0369     2.6347   119.9477    40.2517
 5399.0000     0.0349   -19.1045    21.9378     8.9705     2.6222     0.0323     2.6048   116.2469    41.3639
 5399.5000     0.0373   -33.8016    22.5699     8.9709     2.6078     0.0308     2.5750   108.8464    43.1764
 5400.0000     0.0389   -26.1194    22.8957     8.9865     2.5928     0.0277     2.5602   105.4509    47.4275
 5400.5000     0.0399   -10.9702    23.2215     8.9720     2.5867     0.0352     2.5455   104.1503    49.7503
 5401.0000     0.0410   -10.7463    22.6437     8.9729     2.5879     0.0471     2.5608   102.9477    51.5219
 5401.5000     0.0410   -10.4808    21.7647     8.9736     2.6032     0.0620     2.5763   101.5203    52.2467
 5402.0000     0.0404   -17.7787    21.4819     8.9894     2.6092     0.0575     2.5766   123.1883    43.7332
 5402.5000     0.0398   -17.5045    21.2053     8.9902     2.6144     0.0376     2.5617   143.4095    40.5008
 5403.0000     0.0389   -17.2850    21.4414     8.9910     2.6174     0.0259     2.5621   178.6917    39.7515
 5403.5000     0.0386    -9.6028    22.0527     9.0069     2.6174     0.0228     2.5323   205.4131    43.7696
 5404.0000     0.0386    -9.3833    24.1699     9.0077     2.6122     0.0198     2.5174   169.2260    50.2124
 5404.5000     0.0383    -1.7011    25.6848     9.0084     2.6076     0.0197     2.4877   160.0978    50.9187
 5405.0000     0.0373    -8.9991    25.9926     9.0091     2.6074     0.0226     2.5030   157.8780    48.5995
 5405.5000     0.0361    -8.7248    25.7002     9.0099     2.6166     0.0286     2.5786   165.1881    45.1191
 5406.0000     0.0325    -1.0426    25.7112     8.9954     2.6234     0.0300     2.7446   173.2718    43.2288
 5406.5000     0.0301    21.5671    26.0213     8.9963     2.6263     0.0315     2.8814   181.3555    44.4457
 5407.0000     0.0292    21.7910    27.8434     8.9970     2.6285     0.0269     2.9109   189.4392    45.6919
 5407.5000     0.0289    14.5412    29.4223     8.9978     2.6353     0.0283     2.8802   197.0751    46.3357
 5408.0000     0.0289    -0.1646    33.2788     8.9985     2.6472     0.0343     2.8347   208.5163    46.9896
 5408.5000     0.0286     0.1098    34.7937     8.9992     2.6509     0.0341     2.7742   222.8682    48.9748
 5409.0000     0.0286    15.2547    33.5977     9.0000     2.6517     0.0307     2.7277   245.4892    54.6646
 5409.5000     0.0280    30.3996    31.1969     9.0009     2.6539     0.0251     2.6807   274.1718    65.3462
 5410.0000     0.0274    45.5444    29.3985     9.0016     2.6561     0.0280     2.6226   457.2752    71.9451
 5410.5000     0.0268    30.7836    30.3087     9.0024     2.6621     0.0310     2.5772   673.4232    83.6743
 5411.0000     0.0265    23.5404    29.7151     8.9879     2.6696     0.0294     2.5466   938.3706    98.6586
 5411.5000     0.0265    16.3432    29.7261     8.9888     2.6793     0.0278     2.6209  1381.9261   109.1231
 5412.0000     0.0271    16.5715    27.9277     8.9744     2.6931     0.0173     2.7850  1748.4880   104.2778
 5412.5000     0.0283    24.2536    27.3342     8.9752     2.7221     0.0067     2.9191  2052.9810    88.4866
 5413.0000     0.0325    31.9402    27.0418     8.9606     2.7586     0.0022     3.0233  1979.0560    80.4128
 5413.5000     0.0362    47.0896    26.1470     8.9465     2.7750     0.0021     3.1724  1459.7156    71.0998
 5414.0000     0.0386    47.3552    24.3508     8.9472     2.7690     0.0036     3.2467  1439.4762    59.5142
 5414.5000     0.0410    47.5747    23.1548     8.9027     2.7511     0.0067     3.0263  1253.3634    49.8143
 5415.0000     0.0425    40.3315    21.0552     8.9035     2.7099     0.0158     2.7364   794.0011    44.6509
 5415.5000     0.0425    33.0883    16.5459     8.8891     2.6702     0.0304     2.5562   510.0011    40.5786
 5416.0000     0.0428    25.8208    14.4463     8.8748     2.6432     0.0393     2.4808   297.6547    34.9103
 5416.5000     0.0434    18.5469    13.5512     8.8757     2.6110     0.0423     2.4953   235.9569    31.7250
 5417.0000     0.0446     3.8410    12.6567     8.8764     2.5968     0.0587     2.5097   180.6915    28.8303
 5417.5000     0.0474     4.1155    12.6813     8.8772     2.5998     0.0631     2.5089   185.7343    26.1997
 5418.0000     0.0512     4.3350    12.9759     8.8779     2.6164     0.0571     2.5084   222.2862    24.7478
 5418.5000     0.0533    -2.9104    12.9866     8.8787     2.6417     0.0480     2.5078   225.3566    23.8165
 5419.0000     0.0566    -2.6865    13.3465     8.8641     2.6499     0.0419     2.5072   225.3167    25.1653
 5419.5000     0.0602    -9.9319    14.5103     8.8650     2.6514     0.0359     2.5081   220.2708    33.1118
 5420.0000     0.0639    -2.1949    14.8203     8.8658     2.6476     0.0313     2.5807   210.9120    39.5784
 5420.5000     0.0654     5.4873    15.1303     8.8665     2.6506     0.0252     2.8346   219.0778    39.5893
 5421.0000     0.0657    20.6321    16.0428     8.8673     2.6610     0.0222     2.9837   237.9999    39.6010
 5421.5000     0.0657    28.3143    17.2564     8.8680     2.6880     0.0326     3.1029   224.9426    43.0066
 5422.0000     0.0675    35.9965    17.2892     8.8688     2.7187     0.0431     3.1773   204.8099    46.7070
 5422.5000     0.0699    36.2160    16.6669     8.8697     2.7463     0.0490     3.1917   178.0954    45.4561
 5423.0000     0.0744    28.9178    15.4410     8.8703     2.7538     0.0565     3.2061   151.3809    32.7227
 5423.5000     0.0753    21.6746    14.2797     8.8559     2.7514     0.0699     3.3401   134.9062    20.8226
 5424.0000     0.0717     7.0237    13.9873     8.8568     2.7287     0.0653     3.5042   117.4666    13.6190
 5424.5000     0.0699     7.2388    14.9019     8.8575     2.6550     0.0428     3.3175    91.5670    11.5566
 5425.0000     0.0699     7.4627    16.7180     8.8583     2.5748     0.0217     2.7943    77.5548    10.8868
 5425.5000     0.0715     7.6866    17.9316     8.8590     2.4835     0.0127     2.3945    63.8950    10.2209
 5426.0000     0.0807     7.9105    18.2416     8.8598     2.4371     0.0171     2.2442    53.3742    10.3651
 5426.5000     0.0914     8.1760    18.5517     8.8605     2.3974     0.0382     2.1239    43.3694    11.1032
 5427.0000     0.1035     8.3955    19.4641     8.8462     2.3862     0.0561     2.0484    38.8211    11.8939
 5427.5000     0.1093     8.6150    20.3765     8.8167     2.3981     0.0589     1.9880    37.7571    12.0612
 5428.0000     0.1048     8.8345    22.1928     8.8153     2.4228     0.0454     1.9724    38.8108    11.7387
 5428.5000     0.0982     9.0540    21.8466     8.8031     2.4423     0.0498     1.9718    45.8107    11.7414
 5429.0000     0.0982     1.8108    21.6078     8.8191     2.4595     0.0542     1.9712    51.7455    11.7449
 5429.5000     0.0991     9.4930    23.1249     8.8651     2.4614     0.0437     1.9707    53.6313    14.0399
 5430.0000     0.1006    24.6378    23.7339     8.8659     2.4400     0.0301     1.9701    55.5170    17.0142
 5430.5000     0.1012    24.8573    22.8413     8.8513     2.4317     0.0391     1.9843    57.4028    18.9908
 5431.0000     0.1012     2.6888    21.9465     8.8070     2.4339     0.0450     1.9837    60.3641    20.9086
 5431.5000     0.0976   -12.0171    21.0495     8.7925     2.4452     0.0479     2.0014    65.5779    22.6555
 5432.0000     0.0916     3.1343    19.8554     8.7632     2.4511     0.0359     2.0220    95.2493    24.3248
 5432.5000     0.0819    10.8099    18.3585     8.7941     2.4556     0.0298     2.0270   114.3996    24.3312
 5433.0000     0.0795     3.5667    17.4505     8.8100     2.4548     0.0314     2.0414   134.5509    23.3572
