~VERSION INFORMATION
 VERS.                2.0:   CWLS LOG ASCII STANDARD - VERSION 2.0
 WRAP.                 NO:   ONE LINE PER DEPTH STEP
~WELL INFORMATION
#MNEM.UNIT      DATA TYPE    INFORMATION
#----------   ------------   ------------------------------
 STRT.F          200.0000:   START DEPTH
 STOP.F         3078.0000:   STOP DEPTH
 STEP.F            0.5000:   STEP LENGTH
 NULL.          -999.2500:   NO VALUE
 COMP.   FENIX & SCISSION:   COMPANY
 WELL. FENIX NPR 72 "A" #3-28:   WELL
 FLD .              NPR-3:   FIELD
 LOC .      S28 T39N R78W:   LOCATION
 CNTY.            NATRONA:   COUNTY
 STAT.            WYOMING:   STATE
 CTRY. UNITED STATES OF AMERICA:   COUNTRY
 SRVC.              WELEX:   SERVICE COMPANY
 DATE.        06-JUN-1977:   LOGDATE
 API .     49025103770000:   API NUMBER
~CURVE INFORMATION
#MNEM.UNIT       API CODE    CURVE DESCRIPTION
#----------   ------------   ------------------------------
 DEPT.F                  :   
 CORR.G/C3   45 356 01 00:   DENSITY CORRECTION
 RHOB.G/C3   45 350 01 00:   BULK DENSITY
 CALD.IN     45 280 60 00:   CALIPER FROM DENSITY LOG
 SPR .MV     07 010 01 00:   SPONTANEOUS POTENTIAL
 GURD.OHMM   07 220 05 00:   GUARD LOG RESISTIVITY
 ILM .OHMM   07 120 44 00:   INDUCTION LOG MEDIUM RESISTIVITY
 ILD .OHMM   07 120 46 00:   DEEP INDUCTION RESISTIVITY
 GRD .GAPI   45 310 01 00:   GAMMA RAY FROM DENSITY LOG
~PARAMETER INFORMATION
#MNEM.UNIT          VALUE    DESCRIPTION
#----------   ------------   ------------------------------
 EKB .F         5022.0000:   Kelly bushing
 EGL .F         5011.0000:   Ground level
 EDF .F            0.0000:   Drilling floor
 EPD .F         5011.0000:   Permanent datum
 TD  .F         3081.0000:   Total depth
 DATE.        06-JUN-1977:   Date logged
 CLNT.            A2DTECH:   Client Code
 SL  . 990' FNL & 990' FEL:   Surface Location
 PD  .                 GL:   Permanent Datum
 DAPD.F                11:   Feet Above Permanent Datum
 DD  .F              3041:   Depth driller
 DL  .F              3081:   Depth logger
 BLI .F              3079:   Bottom log interval
 TLI .F               200:   Top log interval
 CS1 .IN            8.625:   Casing size
 CBD1.      8.625" @ 200':   Casing driller 1
 CBL1.F               218:   Casing logger 1
 BS1 .IN            7.875:   Bit size
 BSD1.F              3041:   Depth drilled with bit1
 DFT .            KCL MUD:   Type fluid in hole
 DFD .                8.8:   Density
 DFV .                 38:   Viscosity
 DFPH.                7.5:   pH
 DFL .                5.8:   Fluid loss
 MSS .           FLOWLINE:   Source of sample
 RMS .OHMM           1.19:   Rm
 MST .F                89:   Rm Meas. temp.
 RMF .OHMM           1.05:   Rmf
 MFST.F                89:   Rmf Meas. temp.
 RMC .OHMM           2.17:   Rmc
 MCST.F                89:   Rmc Meas. temp.
 MFSS.               FANN:   Source Rmf.
 MCSS.                KIT:   Source Rmc.
 RMB .OHMM           0.98:   Rm. at BHT
 BHT .F               108:   BHT.
 TCS .HRS             2.5:   Time Circ. stopped
 MRT .F               108:   Maximum recorded temp.
 LUN .               8611:   Logging unit number
 LUL .             CASPER:   Logging unit location
 ENGI.          T. JOYNER:   Recorded By
 WITN.      W. PETTINGILL:   Witnessed by
 ORIG.           5" PRINT:   Origin of data
 UWI .     49025103770000:   Unique Well ID
 DICO. A2D TECHNOLOGIES, INC.:   Digitizing Company
~OTHER INFORMATION
~A   DEPT     CORR       RHOB         CALD      SPR       GURD        ILM        ILD         GRD  
# ...
 2265.5000    -0.0070     2.4360     8.2750   -50.3500    11.9980     9.8820     9.2680   119.4730
 2266.0000    -0.0050     2.4410     8.2820   -50.3820    10.4410     9.8820     9.1920   119.8150
 2266.5000    -0.0040     2.4460     8.2900   -50.4130    10.3600     9.8820     9.0930   120.0760
 2267.0000    -0.0030     2.4500     8.2610   -50.4450    10.2510     9.7730     8.9930   118.5340
 2267.5000    -0.0020     2.4530     8.2250   -50.4770    10.2510     9.6600     8.8940   117.1020
 2268.0000    -0.0020     2.4550     8.2290   -50.5080    10.2510     9.5470     8.7950   114.6510
 2268.5000    -0.0010     2.4530     8.2550   -50.5400    10.2720     9.4340     8.6950   111.8330
 2269.0000    -0.0010     2.4510     8.2830   -50.5720    10.3910     9.3210     8.5960   110.1490
 2269.5000    -0.0010     2.4490     8.2690   -50.6030    10.5370     9.2080     8.4570   108.1700
 2270.0000    -0.0010     2.4510     8.2370   -50.6350    10.1580     9.1620     8.2530   105.8290
 2270.5000    -0.0010     2.4500     8.2510   -50.6660    10.4410     9.1340     8.0480   103.4220
 2271.0000    -0.0020     2.4440     8.2710   -50.6310    10.9300     9.1060     7.7900   101.1820
 2271.5000    -0.0020     2.4420     8.2710   -50.4820    11.2350     8.7150     7.5170   103.1780
 2272.0000    -0.0020     2.4460     8.2710   -50.3350     9.7250     8.2250     7.2440   106.1270
 2272.5000    -0.0020     2.4460     8.2710   -50.1890     8.0640     7.7350     6.9710   109.0950
 2273.0000    -0.0020     2.4440     8.2730   -50.1060     7.4130     7.2440     6.6980   110.7060
 2273.5000    -0.0020     2.4450     8.2760   -50.1300     6.8860     6.8490     6.4230   109.6490
 2274.0000    -0.0020     2.4470     8.2790   -50.1530     5.7550     6.9330     6.4230   105.9150
 2274.5000    -0.0010     2.4430     8.2820   -50.1760     5.2990     7.1460     6.6340   102.2140
 2275.0000    -0.0010     2.4410     8.2850   -50.2000     8.3910     7.4330     6.8100    98.5430
 2275.5000    -0.0010     2.4410     8.2880   -50.2230    10.1580     7.7190     6.9860    95.4290
 2276.0000    -0.0010     2.4400     8.2900   -50.2460     9.0170     8.0040     7.1630    96.5630
 2276.5000    -0.0010     2.4380     8.2840   -50.2690     9.3530     8.1190     7.3610    97.5090
 2277.0000    -0.0020     2.4410     8.2780   -50.2920     9.1840     8.2350     7.6450    96.5390
 2277.5000    -0.0020     2.4470     8.2710   -50.3150     8.8530     8.3390     7.9290    95.5330
 2278.0000    -0.0020     2.4520     8.2650   -50.3380     8.9940     8.5110     8.2130    94.5240
 2278.5000    -0.0010     2.4510     8.2590   -50.3610     9.2250     8.6830     8.4060    94.6730
 2279.0000     0.0000     2.4490     8.2530   -50.3840     9.4080     8.8530     8.4710    94.7230
 2279.5000     0.0010     2.4490     8.2520   -50.4080    10.8600     9.5500     8.5340    93.6370
 2280.0000     0.0020     2.4560     8.2510   -50.4310    11.9800    10.6340     8.7840    92.5740
 2280.5000     0.0040     2.4640     8.2510   -50.4540    11.5490    10.5040     9.0290    94.1000
 2281.0000     0.0060     2.4710     8.2490   -50.4760    11.0230    10.1960     9.2680    95.8200
 2281.5000     0.0090     2.4780     8.2420   -50.4710    10.6110     9.8880     9.1250    97.5300
 2282.0000     0.0120     2.4820     8.2350   -50.4250    10.2240     9.5260     9.0170    99.2410
 2282.5000     0.0130     2.4730     8.2310   -50.3790    10.1580     9.6450     9.1340    99.6640
 2283.0000     0.0120     2.4610     8.2290   -50.3330    10.1580     9.7890     9.2760    98.7210
 2283.5000     0.0110     2.4510     8.2270   -50.2870    10.6140     9.9330     9.4180    97.7970
 2284.0000     0.0100     2.4430     8.2260   -50.2410    11.6670    10.1580     9.5260    96.8550
 2284.5000     0.0090     2.4400     8.2240   -50.1960    13.0100    10.0830     9.4570    97.4320
 2285.0000     0.0080     2.4390     8.2220   -50.1500    12.3820     9.9130     9.3910    99.0860
 2285.5000     0.0070     2.4380     8.2200   -50.1040    10.9530     9.7430     9.2950   100.7390
 2286.0000     0.0070     2.4380     8.2190   -50.0580     9.7030     9.5790     9.1640   102.3140
 2286.5000     0.0070     2.4390     8.2170   -50.0120    10.3900     9.4340     9.0330   106.5530
 2287.0000     0.0070     2.4360     8.2150   -49.9660    12.7740     9.2900     8.8710   111.2760
 2287.5000     0.0070     2.4310     8.2130   -49.9210    11.6550     9.1180     8.6140   116.0070
 2288.0000     0.0060     2.4310     8.2150   -49.8750     8.3730     8.8530     8.3570   118.8460
 2288.5000     0.0060     2.4320     8.2220   -49.8290     6.6020     8.8680     8.1010   118.6710
 2289.0000     0.0060     2.4270     8.2280   -49.7830     8.0960     8.9020     7.8580   118.5910
 2289.5000     0.0050     2.4200     8.2350   -49.7370     9.4560     8.9340     7.6480   120.0400
 2290.0000     0.0050     2.4130     8.2410   -49.6910    10.8160     8.5480     7.4490   121.4980
 2290.5000     0.0050     2.4080     8.2480   -49.6460    11.7620     8.1920     7.2510   125.3930
 2291.0000     0.0040     2.4040     8.2510   -49.6000     9.6540     7.8240     7.0520   130.6620
 2291.5000     0.0040     2.4000     8.2510   -49.5540     7.5800     7.4180     6.8530   135.9380
 2292.0000     0.0030     2.3960     8.2510   -49.5080     7.2360     7.0400     6.7770   140.9360
 2292.5000     0.0030     2.3920     8.2510   -49.4620     7.4320     6.9760     6.7560   141.5800
 2293.0000     0.0030     2.3890     8.2510   -49.4160     7.5750     7.2320     6.7240   138.7170
 2293.5000     0.0020     2.3940     8.2510   -49.3700     6.1590     7.5270     6.9800   135.1790
 2294.0000     0.0020     2.3990     8.2510   -49.3250     5.1550     7.8220     7.5200   131.4460
 2294.5000     0.0020     2.4040     8.2470   -49.2790    10.7080     8.4650     8.0600   130.5570
 2295.0000     0.0060     2.4080     8.2410   -49.2330    13.2750     9.1570     8.6000   134.4020
 2295.5000     0.0110     2.4120     8.2350   -49.1870    15.0930     9.8500     9.1400   138.2760
 2296.0000     0.0150     2.4190     8.2290   -49.1410    16.5110    10.4410     9.5260   142.1210
 2296.5000     0.0180     2.4260     8.2240   -49.0940    13.6100    10.4410     9.4030   145.0510
 2297.0000     0.0200     2.4320     8.2180   -49.0470    10.5370    10.2690     9.3330   146.9390
 2297.5000     0.0220     2.4330     8.2120   -48.9990    11.7490    10.0190     9.2900   148.8250
 2298.0000     0.0230     2.4320     8.2080   -48.9510    14.2280     9.7920     9.0830   150.7010
 2298.5000     0.0240     2.4310     8.2040   -48.9030    15.4850     9.2670     8.7380   151.9130
 2299.0000     0.0260     2.4380     8.2000   -48.8550     9.5690     8.6990     8.3940   152.4170
 2299.5000     0.0270     2.4480     8.1960   -48.8070     6.8490     8.1770     8.0770   152.8040
 2300.0000     0.0280     2.4560     8.1940   -48.7600    12.4270     7.6550     7.3940   151.6500
 2300.5000     0.0290     2.4620     8.2000   -48.7380    11.1370     7.1340     6.6320   149.1960
 2301.0000     0.0270     2.4680     8.2060   -48.7910     9.3060     6.6320     6.0300   145.9240
 2301.5000     0.0260     2.4740     8.2130   -48.8410     7.1980     6.1400     5.5910   140.3240
 2302.0000     0.0240     2.4850     8.2440   -48.8910     4.7470     5.6480     5.1510   134.6920
 2302.5000     0.0220     2.4940     8.2790   -48.9420     5.2140     5.2330     4.9200   129.0590
 2303.0000     0.0200     2.4900     8.3150   -48.9920     5.3470     5.0060     4.7480   124.2480
 2303.5000     0.0170     2.4810     8.3580   -49.0420     4.5360     4.7800     4.6280   121.0240
 2304.0000     0.0120     2.4720     8.4000   -49.0920     3.7060     4.6130     4.5150   121.4280
 2304.5000     0.0080     2.4710     8.4430   -49.1310     4.4620     4.5950     4.4110   121.9180
 2305.0000     0.0050     2.4750     8.4850   -49.1570     5.7540     4.5780     4.4440   120.7270
 2305.5000     0.0050     2.4790     8.5090   -49.1830     5.7020     4.6520     4.4920   119.5160
