~VERSION INFORMATION
 VERS.                2.0:   CWLS LOG ASCII STANDARD - VERSION 2.0
 WRAP.                 NO:   ONE LINE PER DEPTH STEP
~WELL INFORMATION
#MNEM.UNIT      DATA TYPE    INFORMATION
#----------   ------------   ------------------------------
 STRT.F          648.0000:   START DEPTH
 STOP.F         3196.0000:   STOP DEPTH
 STEP.F            0.5000:   STEP LENGTH
 NULL.          -999.2500:   NO VALUE
 COMP.    FENIX & SCISSON:   COMPANY
 WELL.   FENIX "AX" #18-2:   WELL
 FLD .             NPR #3:   FIELD
 LOC .       S2 T38N R78W:   LOCATION
 CNTY.            NATRONA:   COUNTY
 STAT.            WYOMING:   STATE
 CTRY. UNITED STATES OF AMERICA:   COUNTRY
 SRVC.              WELEX:   SERVICE COMPANY
 DATE.        05-OCT-1980:   LOGDATE
 API .     49025108500000:   API NUMBER
~CURVE INFORMATION
#MNEM.UNIT       API CODE    CURVE DESCRIPTION
#----------   ------------   ------------------------------
 DEPT.F                  :   
 GRD .GAPI   45 310 01 00:   GAMMA RAY FROM DENSITY LOG
 CALD.IN     45 280 60 00:   CALIPER FROM DENSITY LOG
 CORR.G/C3   45 356 01 00:   DENSITY CORRECTION
 RHOB.G/C3   45 350 01 00:   BULK DENSITY
 SPR .MV     07 010 01 00:   SPONTANEOUS POTENTIAL FROM RES.
 ILD .OHMM   07 120 46 00:   INDUCTION LOG DEEP RESISTIVITY
 ILM .OHMM   07 120 44 00:   INDUCTION LOG MEDIUM RESISTIVITY
 SGRD.OHMM   07 220 05 00:   SHORT GUARD RESISTIVITY
~PARAMETER INFORMATION
#MNEM.UNIT          VALUE    DESCRIPTION
#----------   ------------   ------------------------------
 EKB .F         5162.0000:   Kelly bushing
 EGL .F         5152.0000:   Ground level
 EDF .F            0.0000:   Drilling floor
 TD  .F         3200.0000:   Total depth
 CLNT.            A2DTECH:   Client Code
 PD  .                 GL:   Permanent Datum
 EPD .F              5152:   Elevation Permanent Datum
 LMF .                 KB:   Log Measured From
 DMF .                 KB:   Drilling Measured From
 DAPD.F                10:   Feet Above Permanent Datum
 DATE.        05-OCT-1980:   Date Logged [DD-MMM-YYYY]
 DD  .F              3200:   Depth driller
 DL  .F              3198:   Depth logger
 BLI .F              3196:   Bottom log interval
 TLI .F               646:   Top log interval
 CS1 .IN            8.625:   Casing size
 CBD1.      8.625" @ 647':   Casing driller 1
 CBL1.F               650:   Casing logger 1
 BS1 .IN            7.875:   Bit size
 BSD1.F              3200:   Depth drilled with bit1
 DFT .           CHEM GEL:   Type fluid in hole
 DFD .                8.6:   Density
 DFV .                 38:   Viscosity
 DFPH.                9.5:   pH
 MSS .           FLOWLINE:   Source of sample
 MFSS.               MEAS:   Source Rmf.
 MCSS.               MEAS:   Source Rmc.
 RMB .OHMM           1.24:   Rm. at BHT
 BHT .F               118:   BHT.
 TCS .HRS               5:   Time Circ. stopped
 MRT .F               118:   Maximum recorded temp.
 LUN .               1892:   Logging unit number
 LUL .             CASPER:   Logging unit location
 ORIG.           5" PRINT:   Origin of data
 UWI .     49025108500000:   Unique Well ID
 DICO. A2D TECHNOLOGIES, INC.:   Digitizing Company
 SL  . 313' FSL & 565' FWL:   Surface Location
 RMS .               2.34:   Rm
~OTHER INFORMATION
~A   DEPT       GRD      CALD       CORR       RHOB        SPR        ILD        ILM       SGRD   
# ...
 3159.0000    91.9321     8.2244     0.0663     2.4853   -33.1793     3.6091     4.2439     4.5440
 3159.5000    91.0650     8.2119     0.0724     2.4943   -33.0147     3.3222     4.2468     5.3551
 3160.0000    90.4150     8.2140     0.0771     2.5003   -32.9568     3.2993     4.2497     5.4466
 3160.5000    89.7893     8.2015     0.0802     2.5026   -32.6552     3.3222     4.3457     5.2667
 3161.0000    89.3678     8.1890     0.0834     2.5086   -32.5210     3.3683     4.6281     4.8850
 3161.5000    89.1622     8.1917     0.0850     2.5147   -32.5046     3.3683     4.7574     5.0257
 3162.0000    88.9617     8.1786     0.0881     2.5198   -32.3819     3.4388     4.7606     5.3894
 3162.5000    88.9872     8.1661     0.0882     2.5176   -32.4722     3.5596     4.8637     5.0683
 3163.0000    89.2285     8.1688     0.0868     2.4981   -32.4556     3.7102     4.8001     4.7985
 3163.5000    89.4698     8.1709     0.0855     2.4809   -32.5870     3.9754     4.7374     5.4769
 3164.0000    90.1529     8.1731     0.0809     2.4630   -32.7189     4.2891     4.6425     5.7527
 3164.5000    90.8361     8.1752     0.0737     2.4488   -32.7024     4.4397     4.6465     4.9796
 3165.0000    91.9696     8.1774     0.0677     2.4406   -32.8333     4.2891     4.6497     4.5544
 3165.5000    93.3362     8.1947     0.0588     2.4346   -32.8794     3.9209     4.6528     4.9872
 3166.0000    95.3206     8.2262     0.0454     2.4515   -32.9495     3.6322     4.7866     5.3852
 3166.5000    96.2247     8.2430     0.0439     2.4765   -32.9290     3.5596     4.9241     5.1704
 3167.0000    96.2450     8.2451     0.0456     2.4938   -33.0648     3.7141     5.0308     5.2828
 3167.5000    96.0394     8.1881     0.0502     2.5013   -33.0463     3.8671     5.0691     5.0372
 3168.0000    95.3971     8.1316     0.0549     2.5050   -32.9709     4.0029     5.1433     5.7168
 3168.5000    94.6825     8.0755     0.0611     2.5021   -32.8634     4.0867     5.0715     5.3655
 3169.0000    93.8966     8.0191     0.0687     2.5013   -32.7000     4.1150     4.9077     4.7444
 3169.5000    93.4745     7.9772     0.0749     2.5088   -32.5342     4.0867     4.8764     5.4527
 3170.0000    92.8328     7.9647     0.0795     2.5193   -32.2215     4.0307     4.9828     5.6087
 3170.5000    92.4113     7.9522     0.0857     2.5269   -31.9910     3.9209     4.9862     5.0614
 3171.0000    91.9899     7.9695     0.0918     2.5338   -31.8216     3.7878     4.8872     5.3163
 3171.5000    91.7894     7.9717     0.0964     2.5396   -31.5796     3.8405     4.6917     4.8970
 3172.0000    91.8149     7.9738     0.1011     2.5433   -31.5630     3.9480     4.5041     5.0381
 3172.5000    92.0562     7.9760     0.1042     2.5456   -31.6628     4.0586     4.3240     4.4832
 3173.0000    92.2975     7.9629     0.1074     2.5434   -31.8336     4.0307     4.3270     4.9083
 3173.5000    92.5388     7.9656     0.1092     2.5381   -31.9585     3.5596     4.3299     5.1545
 3174.0000    93.2219     7.9677     0.1106     2.5284   -32.0065     3.3674     4.4853     4.4626
 3174.5000    94.1260     7.9699     0.1123     2.5172   -32.2220     3.3222     4.5824     4.4969
 3175.0000    95.2509     7.9726     0.1124     2.5090   -32.5019     3.2993     4.5855     4.9233
 3175.5000    95.7132     7.9747     0.1140     2.5053   -32.6336     3.2766     4.5236     5.1713
 3176.0000    95.7339     7.9769     0.1126     2.5068   -32.7613     3.2317     4.1819     4.7847
 3176.5000    96.0127     7.9350     0.1127     2.5105   -33.0452     3.1654     3.7607     4.0898
 3177.0000    96.6631     7.9220     0.1129     2.5135   -33.1770     3.1220     3.5118     4.1198
 3177.5000    97.3462     7.9094     0.1130     2.5143   -33.3074     3.0370     3.3481     4.5499
 3178.0000    97.8033     7.8827     0.1131     2.5053   -33.2882     2.9747     3.3038     4.6809
 3178.5000    77.5048     7.8702     0.1117     2.4881   -33.2722     2.9137     3.2388     3.9962
 3179.0000     1.9729     7.8577     0.1103     2.4672   -33.2540     2.8540     3.2181     3.8627
 3179.5000  -999.2500     7.8452     0.1089     2.4649   -33.0907     2.7955     3.1760     4.1710
 3180.0000  -999.2500     7.8479     0.1060     2.4726   -33.0679     2.7382     3.1346     4.1177
 3180.5000  -999.2500     7.8501     0.1031     2.4692   -32.9093     2.7193     3.0936     3.8457
 3181.0000  -999.2500     7.8370     0.0942     2.4433   -32.7412     2.6820     3.0532     3.7690
 3181.5000  -999.2500     7.8397     0.0868     2.4268   -32.7278     2.6271     2.9931     3.8243
 3182.0000  -999.2500     7.8266     0.0839     2.4216   -32.7084     2.5910     2.9744     3.4992
 3182.5000  -999.2500     7.8293     0.0820     2.4276   -32.6920     2.5711     2.9560     3.9931
 3183.0000  -999.2500     7.8314     0.0766     2.4456   -32.5296     2.5348     2.9174     3.6027
 3183.5000  -999.2500     7.8336     0.0948     2.4568   -32.5130     2.5031     2.8992     3.8368
 3184.0000  -999.2500     7.8211     0.1010     2.4666   -32.4946     2.5031     2.8618     3.7610
 3184.5000  -999.2500     7.8237     0.1041     2.4697   -32.6263     2.5031     2.8245     4.0893
 3185.0000  -999.2500     7.8107     0.1088     2.4866   -32.6140     2.5205     2.7876     3.7408
 3185.5000  -999.2500     7.7982     0.1149     2.4996   -32.7458     2.5031     2.7507     3.6062
 3186.0000  -999.2500     7.7857     0.1211     2.4906   -32.7259     2.4518     2.7336     3.3777
 3186.5000  -999.2500     7.7883     0.1273     2.4884   -32.8597     2.4182     2.7166     3.5234
 3187.0000  -999.2500     7.7905     0.1366     2.4936   -32.8406     2.3523     2.6811     3.6006
 3187.5000  -999.2500     7.7926     0.1471     2.5019   -32.8241     2.3201     2.6834     3.4570
 3188.0000  -999.2500     7.7948     0.1578     2.5116   -32.8074     2.2882     2.6852     3.7072
 3188.5000  -999.2500     7.7676     0.1684     2.5191   -32.7907     2.2413     2.6870     3.5594
 3189.0000  -999.2500     7.7551     0.1821     2.5281   -32.6227     2.2259     2.6889     3.7386
 3189.5000  -999.2500     7.6844     0.1943     2.5428   -32.6093     2.2106     2.7094     3.3268
 3190.0000  -999.2500     7.6133     0.2155     2.5663   -32.4444     2.2096     2.7300     3.0218
 3190.5000  -999.2500     7.5421     0.2353     2.5813   -32.4253     2.2106     2.7699     3.2636
 3191.0000  -999.2500     7.5002     0.2505     2.5903   -32.2630     2.2413     2.7937     3.5484
 3191.5000  -999.2500     7.4271     0.2676     2.5948   -32.2078     2.2882     2.8917     3.7394
 3192.0000  -999.2500     7.3492     0.2884     2.5971   -32.0526     2.3523     2.9748     3.7819
 3192.5000  -999.2500     7.2535     0.3038     2.5915   -31.9152     2.4349     3.1029     3.9189
 3193.0000  -999.2500     7.1578     0.3288     2.5785   -31.7519     2.5732     3.2156     3.6579
 3193.5000  -999.2500     7.0621     0.3537     2.5630   -31.5861     2.7382     3.4193     3.4890
 3194.0000  -999.2500  -999.2500     0.3787  -999.2500   -31.4215     2.9047     3.4956     4.5293
 3194.5000  -999.2500  -999.2500  -999.2500  -999.2500   -31.4056     3.1104     3.5720     6.6914
 3195.0000  -999.2500  -999.2500  -999.2500  -999.2500   -31.3889     3.3293     3.6959     7.7959
 3195.5000  -999.2500  -999.2500  -999.2500  -999.2500   -31.3722     3.5716     3.8323     8.1869
 3196.0000  -999.2500  -999.2500  -999.2500  -999.2500   -31.3556     3.9033     3.9688     6.5260
