~VERSION INFORMATION
 VERS.                2.0:   CWLS LOG ASCII STANDARD - VERSION 2.0
 WRAP.                 NO:   ONE LINE PER DEPTH STEP
~WELL INFORMATION
#MNEM.UNIT      DATA TYPE    INFORMATION
#----------   ------------   ------------------------------
 STRT.F            0.0000:   START DEPTH
 STOP.F         4044.0000:   STOP DEPTH
 STEP.F            0.5000:   STEP LENGTH
 NULL.          -999.2500:   NO VALUE
 COMP. LAWRENCE-ALLISON & ASSOC.:   COMPANY
 WELL. LAWRENCE "X" #24-34:   WELL
 FLD .           N P R #3:   FIELD
 LOC .      S34 T39N R78W:   LOCATION
 CNTY.            NATRONA:   COUNTY
 STAT.            WYOMING:   STATE
 CTRY. UNITED STATES OF AMERICA:   COUNTRY
 SRVC.      DRESSER ATLAS:   SERVICE COMPANY
 DATE.        29-MAR-1984:   LOGDATE
 API .     49025109660000:   API NUMBER
~CURVE INFORMATION
#MNEM.UNIT       API CODE    CURVE DESCRIPTION
#----------   ------------   ------------------------------
 DEPT.F                  :   
 DT  .US/F   60 520 00 00:   DELTA TIME
 TENS.LBS    60 635 01 00:   TENSION FROM SONIC
 GRR .GAPI   07 310 01 00:   GAMMA RAY FROM RESISTIVITY
 SPR .MV     07 010 01 00:   SPONTANEOUS POTENTIAL
 CALR.IN     07 280 01 00:   CALIPER FROM RESISTIVITY
 TENR.LBS    07 635 01 00:   TENSION FROM RESISTIVITY
 RSFL.OHMM   07 221 01 00:   AMPPLIFIED SHALLOW FOCUSED LOG RESISTIVITY
 RILD.OHMM   07 120 46 00:   DEEP INDUCTION RESISTIVITY
 RILM.OHMM   07 120 44 00:   INDUCTION LOG MEDIUM RESISTIVITY
 RHOB.G/C3   45 350 01 00:   BULK DENSITY
 DRHO.G/C3   45 356 01 00:   DENSITY CORRECTION
 TEND.LBS    45 635 01 00:   TENSION FROM DENSITY LOG
 NPHI.DEC    42 890 03 00:   NEUTRON POROSITY SANDSTONE
~PARAMETER INFORMATION
#MNEM.UNIT          VALUE    DESCRIPTION
#----------   ------------   ------------------------------
 EKB .F         5101.0000:   Kelly bushing
 EGL .F         5089.0000:   Ground level
 EDF .F         5100.0000:   Drilling floor
 TD  .F         4050.0000:   Total depth
 DATE.        29-MAR-1984:   Date logged
 CLNT.            A2DTECH:   Client Code
 SL  . 2415' FNL & 839' FWL:   Surface Location
 PD  .                 GL:   Permanent Datum
 EPD .F              5089:   Elevation Permanent Datum
 LMF .                 KB:   Log Measured From
 DMF .                 KB:   Drilling Measured From
 DD  .F              4050:   Depth driller
 DL  .F              4043:   Depth logger
 BLI .F              4041:   Bottom log interval
 CS1 .IN            8.625:   Casing size
 CBD1.       8.625 @ 673':   Casing driller 1
 CBL1.F               671:   Casing logger 1
 BS1 .IN            7.875:   Bit size
 DFT .            GEL-KCL:   Type fluid in hole
 DFD .                8.9:   Density
 DFV .                 45:   Viscosity
 DFPH.                  8:   pH
 DFL .               12.8:   Fluid loss
 MSS .           MUD TANK:   Source of sample
 RMS .OHMM           0.46:   Rm
 MST .F                71:   Rm Meas. temp.
 RMF .OHMM           0.31:   Rmf
 MFST.F                71:   Rmf Meas. temp.
 RMC .OHMM           0.55:   Rmc
 MCST.F                71:   Rmc Meas. temp.
 MFSS.               MEAS:   Source Rmf.
 RMB .OHMM           0.25:   Rm. at BHT
 BHT .F               139:   BHT.
 TCS .HRS               4:   Time Circ. stopped
 MRT .F               139:   Maximum recorded temp.
 LUN .               6302:   Logging unit number
 LUL .               CODY:   Logging unit location
 ENGI.              GETTY:   Recorded By
 WITN.           JENNINGS:   Witnessed by
 ORIG.           5" PRINT:   Origin of data
 UWI .     49025109660000:   Unique Well ID
 DICO. A2D TECHNOLOGIES, INC.:   Digitizing Company
 DAPD.                 12:   Feet Above Permanent Datum
 BSD1.               4050:   Depth drilled with bit1
 MCSS.               MEAS:   Source Rmc.
~OTHER INFORMATION
~A  DEPTH       DT       TENS        GRR        SPR       CALR       TENR       RSFL       RILD       RILM       RHOB       DRHO       TEND       NPHI
# ...
 2912.0000    82.9220  -168.6130    99.7790   -21.3530     8.9510  -159.0690     4.2500     3.4360     3.4710     2.4920    -0.0480  -169.2760     0.2030
 2912.5000    82.9700  -169.0110   100.9050   -21.3370     8.9600  -156.8740     4.0180     3.3540     3.4070     2.4920    -0.0390  -170.1140     0.2090
 2913.0000    83.2890  -169.4100    98.4870   -21.3210     8.9680  -154.6800     4.0660     3.3340     3.3430     2.4900    -0.0220  -169.6220     0.2190
 2913.5000    83.6080  -169.8090    95.8310   -21.3050     8.9710  -154.8900     4.1700     3.3340     3.3030     2.4880    -0.0060  -169.1290     0.2210
 2914.0000    83.9330  -170.2080    94.3430   -21.2890     8.9720  -156.8740     4.1230     3.3840     3.3730     2.4830    -0.0010  -168.6360     0.2170
 2914.5000    83.9330  -170.6070    94.7670   -21.2730     8.9740  -158.8570     4.0630     3.4340     3.4230     2.4780     0.0010  -168.1430     0.2160
 2915.0000    83.9330  -171.0060    94.6270   -21.2570     8.9750  -160.8410     4.0180     3.4830     3.4740     2.4810     0.0040  -167.6510     0.2160
 2915.5000    83.9330  -171.4050    92.6800   -21.2410     8.9760  -162.8240     4.1070     3.5320     3.5250     2.4890     0.0070  -167.1580     0.2100
 2916.0000    83.7740  -171.8040    89.2280   -21.2250     8.9770  -160.4360     4.1940     3.6150     3.5760     2.4990     0.0050  -166.6650     0.2040
 2916.5000    83.3910  -172.2030    88.4960   -21.2090     8.9790  -153.0680     4.3240     3.7370     3.6770     2.5050     0.0020  -166.1720     0.1970
 2917.0000    83.0080  -172.6020    88.8920   -21.1930     8.9800  -145.7010     4.2930     3.8580     3.8020     2.5050    -0.0010  -165.6800     0.1940
 2917.5000    82.6250  -173.0010    88.9820   -21.1770     8.9810  -138.3340     4.2490     3.9800     3.9270     2.5040    -0.0030  -165.1870     0.1900
 2918.0000    82.2420  -173.4000    87.8770   -21.1610     8.9830  -130.9670     4.6380     4.1010     4.0520     2.5100     0.0050  -164.6940     0.1860
 2918.5000    81.6050  -173.7990    88.2170   -21.1450     8.9840  -123.3540     4.9830     4.2220     4.1770     2.5210     0.0130  -164.2010     0.1820
 2919.0000    80.8390  -174.1660    90.4450   -21.1290     8.9850  -138.2470     5.2660     4.3440     4.3020     2.5280     0.0220  -163.7080     0.1800
 2919.5000    79.9860  -169.9270    92.7770   -21.1130     8.9860  -157.5860     5.0310     4.4330     4.4190     2.5270     0.0300  -163.2160     0.1820
 2920.0000    79.5850  -165.9990    94.6230   -21.1030     8.9880  -176.9250     4.7970     4.5390     4.5340     2.5270     0.0370  -162.7230     0.1830
 2920.5000    79.3100  -162.0710    93.2970   -21.1220     8.9890  -183.7740     4.8290     4.6210     4.6210     2.5260     0.0310  -162.2300     0.1830
 2921.0000    79.5650  -158.1430    90.2400   -21.1410     8.9900  -182.9150     4.8810     4.5110     4.4860     2.5260     0.0250  -161.7370     0.1830
 2921.5000    79.7830  -154.2160    88.6100   -21.1600     8.9910  -182.0550     4.9330     4.4220     4.3770     2.5280     0.0210  -161.2450     0.1830
 2922.0000    79.7460  -150.2880    88.7500   -21.1780     8.9930  -181.1960     4.9790     4.3330     4.2680     2.5300     0.0260  -160.7520     0.1840
 2922.5000    79.7100  -146.3600    88.9340   -21.1970     8.9940  -180.3360     4.8590     4.2200     4.1580     2.5280     0.0320  -160.2590     0.1860
 2923.0000    79.8690  -145.1320    89.7250   -21.2150     8.9950  -179.4770     4.6200     4.0820     4.0490     2.5250     0.0380  -162.7960     0.1940
 2923.5000    80.6530  -148.7790    91.0540   -21.2340     8.9970  -178.6170     4.3800     3.9450     3.9400     2.5210     0.0440  -165.9020     0.2020
 2924.0000    81.9090  -152.4270    94.1700   -21.2520     8.9980  -177.7580     4.1320     3.8070     3.8300     2.5170     0.0420  -169.0080     0.2120
 2924.5000    83.1660  -156.0740    97.3310   -21.2710     8.9990  -176.8980     4.1460     3.6690     3.7210     2.5130     0.0240  -172.1140     0.2090
 2925.0000    83.6300  -159.7210    98.6530   -21.2890     9.0000  -176.0390     4.1610     3.5500     3.6120     2.5070     0.0080  -175.2200     0.2050
 2925.5000    83.7150  -163.3680    98.7980   -21.3280     9.0020  -175.1790     4.1700     3.5260     3.5260     2.5040    -0.0030  -178.3260     0.2020
 2926.0000    83.8000  -164.0550    98.9120   -21.3980     9.0030  -174.3190     4.1070     3.5440     3.5700     2.5080     0.0040  -178.3860     0.2070
 2926.5000    83.8850  -164.0550    98.6860   -21.4670     9.0040  -176.7730     4.0620     3.5870     3.6060     2.5160     0.0160  -171.9800     0.2120
 2927.0000    83.9330  -164.0550    97.1850   -21.5360     9.0060  -181.0710     4.0550     3.6290     3.6700     2.5200     0.0290  -165.5740     0.2070
 2927.5000    83.9330  -164.0550    95.7290   -21.6050     9.0070  -185.3680     4.1230     3.6930     3.7660     2.5220     0.0270  -159.1680     0.2040
 2928.0000    83.9330  -164.0550    95.2680   -21.6740     9.0080  -189.6660     4.1690     3.8110     3.8610     2.5220     0.0200  -152.7630     0.2050
 2928.5000    83.9330  -164.0550    95.6470   -21.7440     9.0090  -194.2760     4.2540     3.9300     3.9570     2.5190     0.0160  -146.3570     0.2020
 2929.0000    83.2160  -164.0550    94.7070   -21.8130     9.0220  -190.1170     4.6100     4.0480     4.0520     2.5170     0.0230  -139.9250     0.1990
 2929.5000    82.3940  -164.0550    92.6700   -21.8820     9.0450  -185.6330     5.1210     4.1700     4.1700     2.5220     0.0290  -139.9250     0.1980
 2930.0000    81.5710  -164.0550    91.8100   -21.9510     9.0690  -181.1480     5.0090     4.0930     4.1010     2.5270     0.0360  -139.9250     0.2030
 2930.5000    80.9230  -164.0550    93.1780   -22.0200     9.0920  -176.6640     4.8140     4.0010     4.0110     2.5270     0.0420  -139.9250     0.2070
 2931.0000    80.6670  -164.0550    94.8490   -22.0890     9.1150  -176.1200     4.6210     3.9070     3.9210     2.5250     0.0480  -139.9250     0.2120
 2931.5000    81.0350  -164.0550    93.7620   -22.1590     9.1380  -181.2770     4.5110     3.8130     3.8310     2.5220     0.0470  -139.9250     0.2130
 2932.0000    81.6410  -164.0550    92.6980   -22.2280     9.1610  -186.4340     4.3960     3.7190     3.7410     2.5130     0.0370  -139.9250     0.2120
 2932.5000    82.2480  -164.0550    94.1670   -22.2970     9.1840  -191.5910     4.1740     3.6250     3.6510     2.5060     0.0270  -139.9250     0.2110
 2933.0000    83.1190  -164.0550    95.9960   -22.3660     9.2070  -193.5260     3.9530     3.5310     3.5600     2.5000     0.0170  -139.9250     0.2120
 2933.5000    84.2370  -164.0550    95.9470   -22.4350     9.2100  -191.9640     3.8060     3.4280     3.4700     2.5010     0.0160  -139.9250     0.2110
 2934.0000    84.7320  -164.0550    96.1570   -22.5050     9.2090  -190.4010     3.8950     3.4100     3.3800     2.5020     0.0250  -139.9250     0.2080
 2934.5000    84.9960  -164.0550    96.8300   -22.5740     9.1980  -188.8380     3.9700     3.3890     3.3030     2.5030     0.0250  -139.9250     0.2050
 2935.0000    84.5400  -164.0550    97.5180   -22.6430     9.1880  -187.2750     4.0180     3.3690     3.3030     2.5000     0.0100  -139.9250     0.2060
 2935.5000    83.9630  -164.0550    98.1490   -22.7120     9.1770  -185.7130     3.9680     3.3490     3.3030     2.4980    -0.0090  -140.3940     0.2080
 2936.0000    83.6110  -164.0550    97.0500   -22.7760     9.1670  -184.1440     3.9170     3.3280     3.3030     2.5020     0.0010  -141.7430     0.2090
 2936.5000    83.5290  -164.0550    95.8380   -22.8410     9.1560  -184.1440     3.8650     3.3080     3.3030     2.5050     0.0190  -143.0920     0.2130
 2937.0000    84.0090  -164.0550    95.3550   -22.9060     9.1610  -184.1440     3.8140     3.2870     3.3030     2.5060     0.0290  -144.4400     0.2210
 2937.5000    84.4750  -164.0550    96.3620   -22.9700     9.1860  -184.1440     3.7620     3.2630     3.3030     2.5030     0.0260  -145.7890     0.2260
