~VERSION INFORMATION
 VERS.                2.0:   CWLS LOG ASCII STANDARD - VERSION 2.0
 WRAP.                 NO:   ONE LINE PER DEPTH STEP
~WELL INFORMATION
#MNEM.UNIT      DATA TYPE    INFORMATION
#----------   ------------   ------------------------------
 STRT.F           10.0000:   START DEPTH
 STOP.F         5812.0000:   STOP DEPTH
 STEP.F            0.5000:   STEP LENGTH
 NULL.          -999.2500:   NO VALUE
 COMP. LAWRENCE - ALLSISON:   COMPANY
 WELL. LAWRENCE "X" #11-11:   WELL
 FLD .              NPR 3:   FIELD
 LOC .      S11 T38N R78W:   LOCATION
 CNTY.            NATRONA:   COUNTY
 STAT.            WYOMING:   STATE
 CTRY. UNITED STATES OF AMERICA:   COUNTRY
 SRVC.      DRESSER ATLAS:   SERVICE COMPANY
 DATE.        12-NOV-1982:   LOGDATE
 API .     49025109160000:   API NUMBER
~CURVE INFORMATION
#MNEM.UNIT       API CODE    CURVE DESCRIPTION
#----------   ------------   ------------------------------
 DEPT.F                  :   
 TEND.LBS    45 635 01 00:   TENSION FROM DENSITY LOG
 CALD.IN     45 280 60 00:   CALIPER FROM DENSITY LOG
 CORR.G/C3   45 356 01 00:   DENSITY CORRECTION
 RHOB.G/C3   45 350 01 00:   BULK DENSITY
 CN  .DEC    42 890 03 00:   COMPENSATED NEUTRON POROSITY SANDSTONE
 AC  .US/F   60 520 00 00:   ACOUSTIC
 TENS.LBS    60 635 01 00:   TENSION FROM SONIC
 GRR .GAPI   11 310 01 00:   GAMMA RAY FROM RESISTIVITY
 RD  .OHMM   11 220 10 00:   RESISTIVITY DEEP
 RMLL.OHMM   11 270 04 00:   RESISTIVITY MICROLATEROLOG
 RS  .OHMM   11 220 09 00:   RESISTIVITY SHALLOW
 SPR .MV     11 010 01 00:   SPONTANEOUS POTENTIAL FROM RESISTIVITY
 TENR.LBS    11 635 01 00:   TENSION FROM RESISTIVITY
~PARAMETER INFORMATION
#MNEM.UNIT          VALUE    DESCRIPTION
#----------   ------------   ------------------------------
 EKB .F         5160.0000:   Kelly bushing
 EGL .F         5150.0000:   Ground level
 EDF .F            0.0000:   Drilling floor
 TD  .F         5800.0000:   Total depth
 CLNT.            A2DTECH:   Client Code
 SL  . 660' FNL & 660' FWL:   Surface Location
 PD  .                 GL:   Permanent Datum
 EPD .F              5150:   Elevation Permanent Datum
 LMF .                 KB:   Log Measured From
 DMF .                 KB:   Drilling Measured From
 DAPD.F                10:   Feet Above Permanent Datum
 DATE.        12-NOV-1982:   Date Logged [DD-MMM-YYYY]
 DD  .F              5800:   Depth driller
 DL  .F              5795:   Depth logger
 BLI .F              5702:   Bottom log interval
 TLI .F                 0:   Top log interval
 CS1 .IN            9.625:   Casing size
 CBD1.      9.625" @ 664':   Casing driller 1
 CBL1.F               660:   Casing logger 1
 BS1 .IN             8.75:   Bit size
 BSD1.F              5800:   Depth drilled with bit1
 DFT .                KCL:   Type fluid in hole
 DFD .                8.6:   Density
 DFV .                 45:   Viscosity
 DFPH.                8.5:   pH
 DFL .                7.8:   Fluid loss
 MSS .           FLOWLINE:   Source of sample
 RMS .OHMM           0.32:   Rm
 MST .F                92:   Rm Meas. temp.
 RMF .OHMM           0.26:   Rmf
 MFST.F                90:   Rmf Meas. temp.
 MFSS.               MEAS:   Source Rmf.
 RMB .OHMM           0.19:   Rm. at BHT
 BHT .F               160:   BHT.
 TCS .HRS               3:   Time Circ. stopped
 MRT .F               160:   Maximum recorded temp.
 LUN .               6270:   Logging unit number
 LUL .              WLSTN:   Logging unit location
 ENGI.            QUICKEL:   Recorded By
 WITN.             STRONG:   Witnessed by
 ORIG.        2" 5" PRINT:   Origin of data
 UWI .     49025109160000:   Unique Well ID
 DICO. A2D TECHNIOLOGIES,INC.:   Digitizing Company
 RMC .OHMM           0.40:   Rmc
 MCST.F                92:   Rmc Meas. temp.
 MCSS.               CALC:   Source Rmc.
~OTHER INFORMATION
~A  DEPTH     TEND       CALD       CORR       RHOB         CN         AC       TENS        GRR         RD       RMLL         RS        SPR       TENR
# ...
 5756.0000   118.2207     8.7133     0.0094     2.4551     0.2107    59.3336   316.1006     9.9758    35.4194    32.2320    14.5781    20.2048   328.3422
 5756.5000   122.0417     8.7127     0.0049     2.4559     0.1963    60.0899   323.8530    11.2065    34.9375    29.8723    14.7851    20.0748   328.5263
 5757.0000   125.8627     8.7121     0.0139     2.4536     0.1761    61.2234   324.0976    11.5362    33.9912    23.7703    14.3830    19.9390   328.7106
 5757.5000   122.1874     8.7115     0.0109     2.4400     0.1298    63.6388   324.3422    11.2654    32.3878    10.4208    14.1881    19.9574   328.8780
 5758.0000   118.5121     8.7109     0.0064     2.4167     0.1252    64.8477   324.5868    11.5952    31.9471    10.2098    14.2909    19.8215   329.0663
 5758.5000   114.8368     8.7103    -0.0011     2.4062     0.1243    65.3845   336.0926    11.9250    33.5460    11.3306    14.3936    19.5314   329.2634
 5759.0000   122.4241     8.6797     0.0124     2.4077     0.1237    65.4559   343.8447    11.9545    34.2591    11.0231    14.8019    18.9474   333.2128
 5759.5000   141.2376     8.6791     0.0365     2.4122     0.1236    65.2319   355.3552    11.3760    36.7278    13.3872    16.0901    18.6609   340.9271
 5760.0000   148.8067     8.6936     0.0595     2.4091     0.1218    65.0073   366.8669    11.4114    40.2023    19.7390    17.4905    17.7721   341.1145
 5760.5000   148.8795     8.6930     0.0651     2.4084     0.1185    64.4068   363.3475  -999.2500    46.1946    23.6399    20.6629    16.5820   341.3027
 5761.0000   141.4561     8.6924     0.0470     2.4129     0.1131    63.4286   367.4070  -999.2500    53.0801    22.8406    25.2719    15.2413   345.2910
 5761.5000   134.0326     8.6918     0.0305     2.4309     0.1091    62.6012   382.6667  -999.2500    69.1016    23.0041    28.6387    13.7500   349.2403
 5762.0000   126.6093     8.6911     0.0260     2.4603     0.1013    62.2263   394.1728  -999.2500    93.7816    23.6556    34.3384    13.0118   353.1897
 5762.5000   122.9522     8.6756     0.0380     2.4893     0.0953    62.3040   401.9249  -999.2500    97.1129    25.0093    42.2068    13.0271   357.1389
 5763.0000   126.7732     8.6750     0.0440     2.5122     0.0937    62.6094   405.9232  -999.2500    97.1351    25.0144    43.7507    12.8726   361.0883
 5763.5000   138.0904     8.6744     0.0410     2.5167     0.0940    63.1471   402.3529  -999.2500    92.5231    24.6751    41.3987    12.7560   368.8028
 5764.0000   141.8932     8.6738     0.0380     2.5137     0.0934    63.6686   398.9049  -999.2500    87.5015    23.6749    40.5578    12.7732   376.5170
 5764.5000   130.7398     8.6732     0.0290     2.5001     0.0921    63.9725   395.3955  -999.2500    83.3154    22.2310    38.9135    12.8249   380.4664
 5765.0000   127.0615     8.6725     0.0199     2.4850     0.0898    64.2009   399.7135  -999.2500    78.8709    20.6051    37.8574    12.9533   388.1808
 5765.5000   127.1373     8.6794     0.0109     2.4798     0.0876    63.9769   403.4035  -999.2500    77.8909    20.4809    38.1295    12.9680   388.3659
 5766.0000   130.9595     8.6865     0.0049     2.4807     0.0855    63.2249   403.6985  -999.2500    83.5085    23.5319    41.4481    12.9828   392.3193
 5766.5000   138.5456     8.6858     0.0169     2.4933     0.0852    62.9249   411.4506  -999.2500    89.5263    32.8257    46.9699    13.1481   396.2726
 5767.0000   149.8629     8.6852     0.0350     2.4993     0.0831    62.6260   419.2029  -999.2500    97.9956    46.4293    48.9769    13.1628   400.7519
 5767.5000   157.4319     8.6996     0.0455     2.4955     0.0804    62.3265   419.4475  -999.2500    95.3361    38.7817    48.6494    13.1777   404.2084
 5768.0000   161.2529     8.6989     0.0485     2.4940     0.0758    61.8646   423.4459  -999.2500    93.3890    27.2406    48.6605    13.1928   408.1577
 5768.5000   168.8219     8.6833     0.0500     2.5060     0.0746    60.5611   427.4442  -999.2500    94.0658    18.8707    49.0116    13.2108   412.0859
 5769.0000   180.1392     8.6828     0.0470     2.5284     0.0752    57.5826   431.4426  -999.2500    97.4072    20.0893    50.8361    13.2255   412.2741
 5769.5000   183.9602     8.6822     0.0440     2.5903     0.0792    54.1912   442.9487  -999.2500   105.8851    25.6091    61.0156    13.2402   412.4756
 5770.0000   184.0330     8.6816     0.0266     2.6655     0.0844    49.0652   454.4545  -999.2500   136.8925    45.5298   105.1799    13.2550   408.8947
 5770.5000   184.1079     8.6809    -0.0011     2.7295     0.0851    48.9914   458.4585  -999.2500   262.7915    78.1893   161.7254    13.2697   412.8441
 5771.0000   180.4306     8.6654     0.0199     2.7648     0.0836    49.3712   462.5124  -999.2500   275.9274    81.5257   180.7464    13.2845   413.0271
 5771.5000   176.7735     8.6648     0.0350     2.7633     0.0863    50.4292   466.5107  -999.2500   262.9115    77.1195   169.8478    13.2982   416.9803
 5772.0000   165.6019     8.6642     0.0320     2.7317     0.0914    51.4872   466.7556  -999.2500   207.7299    66.0611   130.5271    13.3139   417.1687
 5772.5000   161.9266     8.6637     0.0288     2.7040     0.0986    54.2044   474.5077  -999.2500   141.8848    49.4894    87.9250    13.3287   421.1573
 5773.0000   165.7476     8.6182     0.0229     2.6632     0.1268    56.0357   482.2598  -999.2500   114.4620    26.7360    75.4999    13.4940   421.3415
 5773.5000   177.0648     8.6026     0.0305     2.6143     0.1404    56.7734   493.7656  -999.2500   112.1307    23.2792    70.4530    13.3582   425.2909
 5774.0000   184.6339     8.6020     0.0410     2.5872     0.1693    56.4740   501.5177  -999.2500   119.6062    28.8657    76.5892    13.3735   433.9091
 5774.5000   188.6515     8.5716     0.0561     2.5834     0.1948    55.8729   509.2701  -999.2500   154.8512    41.3980    90.4805    13.3886   444.4846
 5775.0000   196.0270     8.5710     0.0365     2.5955     0.1936    54.5176   517.0222  -999.2500   206.5984    59.3713   112.9899    13.4036   452.1991
 5775.5000   196.1150     8.5704     0.0229     2.6308     0.1792    52.4836   528.5285  -999.2500   282.3242   119.5786   164.5846    13.4208   467.4437
 5776.0000   188.6734     8.5697     0.0311     2.6547     0.1566    51.8071   532.5325  -999.2500   313.9140   154.5625   198.3763    13.4355   482.6880
 5776.5000   192.5126     8.5691     0.0380     2.6729     0.1499    51.5076   525.3246  -999.2500  -999.2500   150.3674  -999.2500    13.2960   490.4025
 5777.0000   200.0816     8.5685     0.0199     2.6842     0.1496    51.0574   506.8007  -999.2500  -999.2500   128.2383  -999.2500    13.1601   486.8217
 5777.5000   211.3989     8.5680     0.0109     2.6978     0.1469    50.9087   439.4778  -999.2500  -999.2500    99.2532  -999.2500    13.1786   487.0105
 5778.0000   215.2198     8.5674     0.0154     2.7015     0.1426    50.9110   297.0797  -999.2500  -999.2500    53.5750  -999.2500    13.0422   487.2362
 5778.5000   215.2926     8.5668     0.0380     2.6880     0.1444  -999.2500   222.2492  -999.2500  -999.2500    27.9339  -999.2500    13.1280   487.3870
 5779.0000   219.1155     8.5661     0.0593     2.6523     0.1474  -999.2500   169.9413  -999.2500  -999.2500    26.8017  -999.2500    13.2229   487.6047
 5779.5000   226.7009     8.5655     0.0636     2.6172  -999.2500  -999.2500    83.8495  -999.2500  -999.2500    29.0644  -999.2500    13.2380   487.7890
 5780.0000   230.5219     8.5650     0.0591     2.6082  -999.2500  -999.2500    39.0493  -999.2500  -999.2500    35.1334  -999.2500    13.2560   487.9734
 5780.5000   230.5947     8.5644     0.0500     2.6029  -999.2500  -999.2500    16.7714  -999.2500  -999.2500    25.0238  -999.2500    13.2707   488.1401
 5781.0000   230.6676     8.5638     0.0410     2.5803  -999.2500  -999.2500     1.9419  -999.2500  -999.2500    14.8836  -999.2500    13.2854   492.1069
 5781.5000   230.7404     8.5632     0.0350     2.5502  -999.2500  -999.2500    -5.6607  -999.2500  -999.2500     9.8217  -999.2500    13.2249   496.0563
