~VERSION INFORMATION
 VERS.                2.0:   CWLS LOG ASCII STANDARD - VERSION 2.0
 WRAP.                 NO:   ONE LINE PER DEPTH STEP
~WELL INFORMATION
#MNEM.UNIT      DATA TYPE    INFORMATION
#----------   ------------   ------------------------------
 STRT.F          218.0000:   START DEPTH
 STOP.F         3062.0000:   STOP DEPTH
 STEP.F            0.5000:   STEP LENGTH
 NULL.          -999.2500:   NO VALUE
 COMP.    FEXIN & SCISSON:   COMPANY
 WELL. FEXIN 32 "A" #3-34:   WELL
 FLD .              N P R:   FIELD
 LOC .      S34 T39N R78W:   LOCATION
 CNTY.            NATRONA:   COUNTY
 STAT.            WYOMING:   STATE
 CTRY. UNITED STATES OF AMERICA:   COUNTRY
 SRVC.              WELEX:   SERVICE COMPANY
 DATE.        18-JUL-1977:   LOGDATE
 API .     49025103960000:   API NUMBER
~CURVE INFORMATION
#MNEM.UNIT       API CODE    CURVE DESCRIPTION
#----------   ------------   ------------------------------
 DEPT.F                  :   
 CALD.IN     45 280 60 00:   CALIPER FROM DENSITY LOG
 RHOB.G/C3   45 350 01 00:   BULK DENSITY
 GRD .GAPI   45 310 01 00:   GAMMA RAY FROM DENSITY LOG
 CORR.G/C3   45 356 01 00:   DENSITY CORRECTION
 SPR .MV     07 010 01 00:   SPONTANEOUS POTENTIAL
 SGRD.OHMM   07 220 05 00:   SHALLOW SHORT GUARD RESISTIVITY
 ILM .OHMM   07 120 44 00:   INDUCTION LOG MEDIUM RESISTIVITY
 ILD .OHMM   07 120 46 00:   DEEP INDUCTION RESISTIVITY
~PARAMETER INFORMATION
#MNEM.UNIT          VALUE    DESCRIPTION
#----------   ------------   ------------------------------
 EKB .F         5080.0000:   Kelly bushing
 EGL .F         5070.0000:   Ground level
 TD  .F         3070.0000:   Total depth
 DATE.        18-JUL-1977:   Date logged
 CLNT.            A2DTECH:   Client Code
 SL  . 900' FNL & 1650'FWL:   Surface Location
 PD  .                 GL:   Permanent Datum
 DD  .F              3070:   Depth driller
 DL  .F              3063:   Depth logger
 BLI .F              3061:   Bottom log interval
 CS1 .IN            8.625:   Casing size
 CBD1.      8.625" @ 212':   Casing driller 1
 CBL1.F               222:   Casing logger 1
 BS1 .IN            7.875:   Bit size
 DFT .           CEHM-GEL:   Type fluid in hole
 DFD .                8.8:   Density
 DFV .                 42:   Viscosity
 DFPH.                7.5:   pH
 DFL .                  8:   Fluid loss
 MSS .           FLOWLINE:   Source of sample
 RMS .OHMM            .89:   Rm
 MST .F                94:   Rm Meas. temp.
 RMF .OHMM            .54:   Rmf
 MFST.F                94:   Rmf Meas. temp.
 RMC .OHMM           1.24:   Rmc
 MCST.F                94:   Rmc Meas. temp.
 MFSS.               FANN:   Source Rmf.
 RMB .OHMM            .67:   Rm. at BHT
 BHT .F               122:   BHT.
 TCS .HRS               4:   Time Circ. stopped
 MRT .F               122:   Maximum recorded temp.
 LUN .               8611:   Logging unit number
 LUL .             CASPER:   Logging unit location
 ENGI.          C.A. DOAK:   Recorded By
 WITN.         PETTINGILL:   Witnessed by
 ORIG.           5" PRINT:   Origin of data
 UWI .     49025103960000:   Unique Well ID
 DICO. A2D TECHNOLOGIES, INC.:   Digitizing Company
 DAPD.                 12:   Feet Above Permanent Datum
 BSD1.F              3950:   Depth drilled with bit1
 MCSS.                KIT:   Source Rmc.
 EPD .F              5070:   Elevation Permanent Datum
 LMF .                 KB:   Log Measured From
 DMF .                 KB:   Drilling Measured From
 TLI .F               200:   Top log interval
~OTHER INFORMATION
~A   DEPT     CALD       RHOB        GRD       CORR        SPR       SGRD        ILM        ILD   
# ...
 2445.5000     8.3130     2.5170   104.8310     0.0200   -70.2810    43.7370    32.7490    28.7910
 2446.0000     8.3070     2.5120   103.4440     0.0200   -70.2680    42.2220    32.3090    28.9390
 2446.5000     8.3010     2.5080   101.9930     0.0210   -70.2550    41.7110    31.8950    29.1660
 2447.0000     8.2950     2.5130   102.5180     0.0210   -70.2430    42.4210    31.8500    29.0610
 2447.5000     8.2890     2.5180   105.1900     0.0210   -70.2300    43.1710    31.7530    28.8320
 2448.0000     8.2830     2.5220   107.8220     0.0220   -70.2170    42.6890    31.6570    28.6040
 2448.5000     8.2770     2.5190   110.6760     0.0180   -70.2050    42.0090    31.5600    28.3760
 2449.0000     8.2710     2.5130   108.1140     0.0130   -70.2350    41.3300    31.4630    28.1480
 2449.5000     8.2650     2.5090   105.5910     0.0080   -70.3090    40.6520    31.3660    27.9180
 2450.0000     8.2590     2.5100   106.6050     0.0080   -70.3840    41.0320    31.2690    27.6830
 2450.5000     8.2680     2.5120   108.7400     0.0070   -70.4590    41.5380    31.1730    27.4480
 2451.0000     8.2800     2.5120   110.6530     0.0070   -70.5340    42.0440    31.0760    27.2130
 2451.5000     8.2910     2.5090   110.5260     0.0070   -70.6080    42.2890    31.2430    26.9780
 2452.0000     8.3020     2.5050   107.5400     0.0070   -70.6830    41.4270    30.6810    26.7420
 2452.5000     8.3130     2.5010   104.3370     0.0060   -70.7570    39.7730    30.0140    26.5070
 2453.0000     8.3250     2.4980   105.4320     0.0060   -70.7370    38.6710    29.3670    26.2720
 2453.5000     8.3360     2.5010   108.0000     0.0060   -70.6380    39.0310    29.1660    26.0370
 2454.0000     8.3360     2.5200   110.5000     0.0140   -70.5380    39.2070    29.1660    25.8020
 2454.5000     8.3350     2.5410   111.9210     0.0220   -70.4380    37.9550    29.1660    25.5670
 2455.0000     8.3340     2.5630   110.5400     0.0310   -70.3390    36.3400    29.2100    25.4160
 2455.5000     8.3320     2.5750   109.2320     0.0340   -70.2380    31.8950    29.2690    25.4990
 2456.0000     8.3310     2.5650   108.2670     0.0340   -70.1940    33.9100    29.3280    25.5850
 2456.5000     8.3300     2.5560   109.8640     0.0340   -70.1870    40.0240    29.3870    25.6710
 2457.0000     8.3290     2.5550   111.6670     0.0340   -70.1800    39.7190    29.4460    25.7570
 2457.5000     8.3270     2.5550   113.4730     0.0320   -70.1740    39.5470    29.5040    25.8430
 2458.0000     8.3260     2.5450   115.2860     0.0260   -70.1670    38.6710    29.5630    25.9290
 2458.5000     8.3250     2.5310   117.0090     0.0200   -70.1600    38.8500    29.6220    26.0150
 2459.0000     8.3240     2.5180   117.3810     0.0140   -70.1530    39.2070    29.6810    26.1010
 2459.5000     8.3220     2.5070   115.1660     0.0080   -70.1460    38.6600    29.7400    26.1870
 2460.0000     8.3210     2.5110   113.0740     0.0040   -70.1400    37.6210    29.7740    26.2950
 2460.5000     8.3200     2.5150   111.0190     0.0050   -70.1330    38.1500    29.7740    26.2440
 2461.0000     8.3190     2.5160   109.4180     0.0070   -70.1260    38.6690    29.7740    26.1440
 2461.5000     8.3250     2.5130   109.9490     0.0080   -70.1190    39.1880    29.5020    26.0440
 2462.0000     8.3590     2.5070   110.6780     0.0090   -70.1130    39.4770    29.2390    25.9450
 2462.5000     8.3920     2.5040   111.4060     0.0100   -70.1060    37.3190    28.9760    25.8450
 2463.0000     8.4250     2.5040   112.1370     0.0080   -70.0990    36.6000    28.7120    25.7450
 2463.5000     8.4340     2.5020   112.8670     0.0060   -70.0920    37.7700    28.5700    25.5920
 2464.0000     8.4310     2.4890   113.5970     0.0040   -70.0850    38.1420    28.6550    25.8000
 2464.5000     8.4280     2.4860   114.3270     0.0040   -70.0790    37.4020    28.9740    26.2490
 2465.0000     8.4250     2.4890   115.0580     0.0040   -70.0720    36.7080    29.2920    26.6970
 2465.5000     8.4220     2.4900   115.7880     0.0040   -70.0650    36.3490    29.6110    27.1450
 2466.0000     8.4200     2.4860   116.5190     0.0020   -70.0580    39.2390    30.2640    27.5940
 2466.5000     8.4170     2.4800   117.2520     0.0010   -70.0510    41.6710    31.2650    28.0420
 2467.0000     8.4140     2.4750   117.9800     0.0000   -70.0450    44.1020    32.2650    28.4900
 2467.5000     8.4110     2.4760   118.5020     0.0000   -70.0380    46.2460    32.8160    28.9390
 2468.0000     8.4080     2.4780   116.5890     0.0000   -70.0310    47.5360    33.2390    29.3870
 2468.5000     8.4050     2.4800   114.0990     0.0010   -70.0240    48.1950    33.7000    29.8350
 2469.0000     8.4020     2.4790   111.6210     0.0010   -70.0170    47.5690    33.9890    30.2840
 2469.5000     8.3990     2.4820   109.1370     0.0010   -70.0110    45.6480    34.0970    30.7320
 2470.0000     8.3960     2.4870   106.6880     0.0010   -70.0040    44.3760    34.2050    31.0290
 2470.5000     8.3900     2.4920   106.2920     0.0010   -70.0050    44.0710    34.3120    31.0290
 2471.0000     8.3840     2.4920   107.0280     0.0020   -70.0160    44.0710    34.4200    31.0290
 2471.5000     8.3770     2.5010   107.8990     0.0020   -70.0270    44.0710    34.5280    31.0290
 2472.0000     8.3710     2.5080   108.7770     0.0020   -70.0380    45.5690    34.6400    31.0290
 2472.5000     8.3650     2.5120   109.6460     0.0070   -70.0490    46.2460    34.5580    31.0290
 2473.0000     8.3580     2.5160   110.5140     0.0160   -70.0600    45.3890    34.4730    30.9120
 2473.5000     8.3570     2.5180   111.0760     0.0180   -70.0710    44.6570    34.3890    30.7610
 2474.0000     8.3570     2.5160   109.8540     0.0100   -70.0820    43.7690    34.3040    30.6100
 2474.5000     8.3570     2.5090   108.6530     0.0040   -70.0930    44.0100    34.2190    30.4590
 2475.0000     8.3570     2.5010   109.3340     0.0040   -70.1050    44.6240    34.1340    30.3080
 2475.5000     8.3570     2.4960   111.0060     0.0040   -70.1160    45.5400    34.0500    30.1570
 2476.0000     8.3570     2.4970   112.6640     0.0040   -70.1270    46.8870    33.9650    30.0050
 2476.5000     8.3570     2.5000   114.3110     0.0040   -70.1380    46.6680    33.7000    29.8540
 2477.0000     8.3570     2.5020   115.4050     0.0040   -70.1490    45.6070    33.3220    29.7030
 2477.5000     8.3570     2.5020   113.8850     0.0040   -70.1600    43.3330    32.9430    29.5520
 2478.0000     8.3570     2.5000   111.4250     0.0040   -70.1710    40.8590    32.5650    29.4010
 2478.5000     8.3570     2.5010   108.9530     0.0050   -70.1820    41.9380    32.1870    29.2500
 2479.0000     8.3600     2.5040   106.4590     0.0060   -70.1930    42.8750    31.8080    29.1660
 2479.5000     8.3640     2.4920   104.0200     0.0060   -70.2010    43.4690    31.6760    29.2020
 2480.0000     8.3680     2.4830   103.8750     0.0030   -70.2070    43.0510    31.6760    29.2360
 2480.5000     8.3730     2.4800   105.7440     0.0000   -70.2130    42.5810    31.6760    29.2710
 2481.0000     8.3770     2.4900   108.0270    -0.0010   -70.2190    43.6320    31.8190    29.3050
 2481.5000     8.3810     2.5020   110.3280     0.0010   -70.2240    44.8440    31.9540    29.3390
 2482.0000     8.3850     2.5140   112.6310     0.0040   -70.2300    44.9910    32.0890    29.3740
 2482.5000     8.3890     2.5210   114.9460     0.0090   -70.2360    42.8130    32.2230    29.4080
 2483.0000     8.3930     2.5210   115.3850     0.0130   -70.2420    41.9990    32.3580    29.4430
 2483.5000     8.3980     2.5150   112.9810     0.0140   -70.2470    42.9300    32.4920    29.4770
 2484.0000     8.4090     2.5090   110.6050     0.0090   -70.2530    43.9680    32.6270    29.5110
 2484.5000     8.4200     2.5030   108.6290     0.0040   -70.2590    45.0060    32.7610    29.5460
 2485.0000     8.4300     2.4970   109.2770     0.0040   -70.2650    45.3010    32.8960    29.5800
 2485.5000     8.4410     2.4910   109.9100     0.0040   -70.2710    44.4330    33.0310    29.6140
