~VERSION INFORMATION
 VERS.                2.0:   CWLS LOG ASCII STANDARD - VERSION 2.0
 WRAP.                 NO:   ONE LINE PER DEPTH STEP
~WELL INFORMATION
#MNEM.UNIT      DATA TYPE    INFORMATION
#----------   ------------   ------------------------------
 STRT.F          198.5000:   START DEPTH
 STOP.F         3172.0000:   STOP DEPTH
 STEP.F            0.5000:   STEP LENGTH
 NULL.          -999.2500:   NO VALUE
 COMP.    FENIX & SCISSON:   COMPANY
 WELL. FENIX & SCISSON AX #26-11:   WELL
 FLD .              NPR-3:   FIELD
 LOC .      S11 T38N R78W:   LOCATION
 CNTY.            NATRONA:   COUNTY
 STAT.            WYOMING:   STATE
 CTRY. UNITED STATES OF AMERICA:   COUNTRY
 SRVC.              WELEX:   SERVICE COMPANY
 DATE.        11-NOV-1977:   LOGDATE
 API .     49025104420000:   API NUMBER
~CURVE INFORMATION
#MNEM.UNIT       API CODE    CURVE DESCRIPTION
#----------   ------------   ------------------------------
 DEPT.F                  :   
 GRD .GAPI   45 310 01 00:   GAMMA RAY FROM DENSITY LOG
 CALD.IN     45 280 60 00:   CALIPER FROM DENSITY LOG
 CORR.G/C3   45 356 01 00:   DENSITY CORRECTION
 TEND.LBS    45 635 01 00:   TENSION FROM DENSITY LOG
 RHOB.G/C3   45 350 01 00:   BULK DENSITY
 SPR .MV     07 010 01 00:   SPONTANEOUS POTENTIAL
 ILD .OHMM   07 120 46 00:   DEEP INDUCTION RESISTIVITY
 ILM .OHMM   07 120 44 00:   INDUCTION LOG MEDIUM RESISTIVITY
 SGRD.OHMM   07 220 05 00:   SHALLOW SHORT GUARD RESISTIVITY
~PARAMETER INFORMATION
#MNEM.UNIT          VALUE    DESCRIPTION
#----------   ------------   ------------------------------
 EKB .F         5187.0000:   Kelly bushing
 EGL .F         5177.0000:   Ground level
 EDF .F            0.0000:   Drilling floor
 EPD .F         5177.0000:   Permanent datum
 TD  .F         3174.0000:   Total depth
 CLNT.            A2DTECH:   Client Code
 SL  . 1650' FSL & 840' FWL:   Surface Location
 PD  .                 GL:   Permanent Datum
 LMF .                 KB:   Log Measured From
 DMF .                 KB:   Drilling Measured From
 DAPD.F                10:   Feet Above Permanent Datum
 DATE.        11-NOV-1977:   Date Logged [DD-MMM-YYYY]
 DD  .F              3170:   Depth driller
 DL  .F              3174:   Depth logger
 BLI .F              3172:   Bottom log interval
 TLI .F               200:   Top log interval
 CS1 .              8.625:   Casing size
 CBD1.      8.625" @ 220':   Casing driller 1
 CBL1.IN              220:   Casing logger 1
 BS1 .IN            7.875:   Bit size
 BSD1.F              3170:   Depth drilled with bit1
 DFT .            KCL MUD:   Type fluid in hole
 DFD .                8.9:   Density
 DFV .                 37:   Viscosity
 DFPH.               11.0:   pH
 DFL .                6.4:   Fluid loss
 MSS .           FLOWLINE:   Source of sample
 RMS .OHMM           2.79:   Rm
 MST .F                50:   Rm Meas. temp.
 RMF .OHMM           2.16:   Rmf
 MFST.F                50:   Rmf Meas. temp.
 MFSS.               FANN:   Source Rmf.
 MCSS.               TEST:   Source Rmc.
 RMB .OHMM           1.22:   Rm. at BHT
 BHT .F               114:   BHT.
 TCS .HRS               3:   Time Circ. stopped
 MRT .F               114:   Maximum recorded temp.
 LUN .               8611:   Logging unit number
 LUL .             CASPER:   Logging unit location
 ENGI.            C. DOAK:   Recorded By
 WITN.         HARRINGTON:   Witnessed by
 ORIG.      2.5" 5" PRINT:   Origin of data
 UWI .     49025104420000:   Unique Well ID
 DICO. A2D TECHNOLOGIES, INC.:   Digitizing Company
~OTHER INFORMATION
~A   DEPT       GRD      CALD       CORR       TEND       RHOB        SPR        ILD        ILM       SGRD   
# ...
 1768.0000   116.7761     9.1441    -0.0147  1601.2307     2.4986   -71.6070     5.6145     6.7780     8.0557
 1768.5000   118.0509     9.1738    -0.0209  1570.9230     2.4924   -71.6128     5.6141     6.6842     8.1111
 1769.0000   119.8346     9.1726    -0.0267  1571.3846     2.5031   -71.6187     5.6152     6.6373     7.9976
 1769.5000   121.8617     9.1713    -0.0267  1571.8461     2.5169   -71.6245     5.6523     6.6879     7.8861
 1770.0000   123.8776     9.2012    -0.0228  1572.3076     2.5246   -71.6303     5.6911     6.8683     8.1075
 1770.5000   124.4598     9.1998    -0.0144  1572.7692     2.5276   -71.6361     5.6906     6.9152     8.5109
 1771.0000   123.8479     9.1986    -0.0110  1573.2307     2.5245   -71.6419     5.6902     6.8665     8.5691
 1771.5000   121.4449     9.1973    -0.0083  1573.6924     2.5229   -71.6478     5.6898     6.8183     8.5676
 1772.0000   121.4301     9.1961    -0.0083  1574.1537     2.5214   -71.6536     5.6894     6.9122     8.6266
 1772.5000   122.0122     9.1949    -0.0048  1574.6154     2.5321   -71.6594     5.6891     7.0073     8.3884
 1773.0000   123.7884     9.2246     0.0013  1558.1538     2.5459   -71.6652     5.6495     7.0064     8.1571
 1773.5000   124.9675     9.2234     0.0074  1544.7693     2.5504   -71.6711     5.6102     6.9094     7.8772
 1774.0000   125.5522     9.2221     0.0100  1545.2307     2.5458   -71.6769     5.5712     6.9084     7.8215
 1774.5000   125.5348     9.2209     0.0131  1545.6924     2.5427   -71.6827     5.5325     6.9075     7.8753
 1775.0000   124.9229     9.2197     0.0125  1546.1538     2.5396   -71.6885     5.4940     6.9065     8.0964
 1775.5000   123.7140     9.2184     0.0100  1546.6155     2.5349   -71.6943     5.4558     6.8543     8.3237
 1776.0000   123.6991     9.2172     0.0069  1547.1688     2.5318   -71.7002     5.4554     6.7631     8.0378
 1776.5000   122.4902     9.2469     0.0032  1547.6285     2.5256   -71.7060     5.4550     6.7620     7.8161
 1777.0000   123.6716     9.2457    -0.0029  1548.0881     2.5256   -71.7118     5.4925     6.8081     7.6537
 1777.5000   126.0425     9.2444    -0.0091  1548.5477     2.5317   -71.7176     5.5302     6.8544     7.6526
 1778.0000   126.0277     9.2432    -0.0085  1549.0073     2.5378   -71.7234     5.5682     6.9007     7.7050
 1778.5000   126.0128     9.2420    -0.0049  1580.2362     2.5408   -71.7293     5.5677     6.9476     7.8737
 1779.0000   125.4009     9.2717    -0.0024  1580.6958     2.5377   -71.7351     5.6060     6.9950     8.2575
 1779.5000   125.9830     9.2705    -0.0024  1581.1554     2.5346   -71.7411     5.6056     7.0913     8.6684
 1780.0000   127.7592     9.2692     0.0012  1581.6150     2.5346   -71.7471     5.6052     7.1887     8.0848
 1780.5000   128.3433     9.2680     0.0067  1582.0746     2.5345   -71.9036     5.6048     7.1937     7.8073
 1781.0000   128.3265     9.2668    -0.0025  1582.5343     2.5376   -71.9097     5.5658     6.8951     8.0265
 1781.5000   128.3116     9.2655    -0.0025  1582.9939     2.5421   -71.9157     5.5271     6.5671     8.4847
 1782.0000   128.2967     9.2643    -0.0019  1583.4535     2.5467   -71.9217     5.4841     6.3399     8.3083
 1782.5000   128.8789     9.2321     0.0036  1583.9131     2.5497   -71.9289     5.4129     6.2140     7.8030
 1783.0000   130.6550     9.2309     0.0036  1584.3728     2.5343   -71.9348     5.3015     6.2562     7.6408
 1783.5000   132.4312     9.2296     0.0029  1584.8324     2.5281   -71.9407     5.2647     6.3865     7.5868
 1784.0000   130.6253     9.2284    -0.0026  1585.2920     2.5312   -71.9467     5.1921     6.5642     7.6387
 1784.5000   130.0134     9.2271    -0.0026  1585.7516     2.5342   -71.9526     5.1205     6.4288     7.6377
 1785.0000   128.2075     9.1950    -0.0095  1586.2113     2.5326   -72.1091     5.0498     6.1671     7.6367
 1785.5000   126.4016     9.1937    -0.0156  1586.6709     2.5265   -72.1151     5.0147     6.0398     7.5792
 1786.0000   125.7897     9.2235    -0.0210  1587.1305     2.5203   -72.1210     5.0492     6.0390     7.4769
 1786.5000   125.7748     9.2222    -0.0241  1587.5901     2.5156   -71.9763     5.1191     6.0800     7.4238
 1787.0000   125.7599     9.2210    -0.0272  1588.0498     2.5171   -71.9823     5.1899     6.1637     7.4748
 1787.5000   126.9391     9.2197    -0.0234  1588.5094     2.5217   -71.8373     5.2618     6.2486     7.4736
 1788.0000   128.1182     9.2185    -0.0150  1588.9690     2.5293   -71.8435     5.3376     6.3346     7.5775
 1788.5000   127.5063     9.2173    -0.0103  1589.4286     2.5339   -71.8495     5.4085     6.3338     7.6293
 1789.0000   128.0885     9.2160    -0.0027  1589.8882     2.5339   -71.8554     5.4457     6.3768     7.7349
 1789.5000   128.0736     9.2148    -0.0089  1590.3479     2.5354   -71.8614     5.4830     6.5091     7.8425
 1790.0000   128.0587     9.2136    -0.0089  1590.8075     2.5369   -71.8675     5.4826     6.5990     8.0068
 1790.5000   128.0438     9.2123    -0.0089  1591.2671     2.5399   -71.8747     5.5203     6.6438     8.1175
 1791.0000   128.6260     9.2111    -0.0050  1560.9575     2.5337   -71.8806     5.5967     6.6427     8.1164
 1791.5000   130.9992     9.2099     0.0003  1561.4172     2.5245   -71.7345     5.5963     6.6880     8.0591
 1792.0000   134.5664     9.2086    -0.0107  1561.8768     2.5198   -71.5898     5.6347     6.6869     8.0580
 1792.5000   135.1493     9.1764    -0.0182  1562.3364     2.5228   -71.5972     5.6343     6.6860     8.0569
 1793.0000   135.7314     9.1442    -0.0182  1562.7960     2.5274   -71.6032     5.6339     6.7314     8.0558
 1793.5000   136.3128     9.1430    -0.0182  1563.2557     2.5289   -71.6091     5.6336     6.7771     8.0622
 1794.0000   137.4919     9.1108    -0.0125  1563.7153     2.5320   -71.6150     5.6332     6.8704     8.2805
 1794.5000   137.4771     9.0786    -0.0020  1564.1749     2.5212   -71.6210     5.6328     6.8695     8.4540
 1795.0000   138.0597     9.0774     0.0032  1564.6345     2.5119   -71.6269     5.6323     6.8683     8.5121
 1795.5000   138.0443     9.0452    -0.0253  1565.0942     2.5073   -71.6328     5.6319     6.8675     8.4517
 1796.0000   138.6265     9.0439    -0.0275  1565.5538     2.5057   -71.7894     5.6315     6.7711     8.3338
 1796.5000   139.2090     9.0427    -0.0265  1566.0134     2.5133   -71.7953     5.6312     6.6738     8.2175
 1797.0000   139.7911     9.0724    -0.0244  1566.4730     2.5240   -71.8012     5.5920     6.5406     8.0467
 1797.5000   139.7759     9.0712    -0.0183  1566.9326     2.5301   -71.8072     5.5531     6.5398     8.0456
 1798.0000   140.3580     9.0700    -0.0153  1567.3923     2.5332   -71.9638     5.5145     6.5389     8.1006
 1798.5000   139.7461     9.0997    -0.0092  1567.8519     2.5347   -71.9699     5.4761     6.5380     8.0995
 1799.0000   138.5372     9.0984    -0.0061  1568.3115     2.5285   -71.8250     5.4381     6.5824     8.0984
 1799.5000   134.9402     9.0972    -0.0031  1568.7711     2.5238   -71.8324     5.4377     6.6271     8.0973
 1800.0000   134.3284     9.0650     0.0000  1569.2308     2.5223   -71.8383     5.3998     6.6876     8.1527
 1800.5000   133.1194     9.0328    -0.0032  1538.9211     2.5253   -71.6922     5.3987     6.7815     8.2617
 1801.0000   131.8941     9.0313    -0.0156  1539.3845     2.5130   -71.6996     5.3975     6.8573     8.2547
 1801.5000   130.0685     8.9994    -0.0247  1539.8403     2.4991   -71.7055     5.4341     6.8561     8.2490
 1802.0000   130.7339     8.9981    -0.0311  1509.5309     2.4960   -71.7100     5.4327     6.9027     8.2434
 1802.5000   134.2935     8.9969    -0.0400  1510.0000     2.4944   -71.6975     5.4316     6.9018     8.2967
 1803.0000   136.0538     8.9957    -0.0338  1479.6808     2.4929   -71.6866     5.4305     6.9489     8.4644
 1803.5000   137.2093     8.9944    -0.0338  1545.0439     2.4897   -71.6756     5.4673     6.9989     8.5771
 1804.0000   137.7914     8.9932    -0.0339  1545.9625     2.4851   -71.6647     5.5041     7.0491     8.6915
