~VERSION INFORMATION
 VERS.                2.0:   CWLS LOG ASCII STANDARD - VERSION 2.0
 WRAP.                 NO:   ONE LINE PER DEPTH STEP
~WELL INFORMATION
#MNEM.UNIT      DATA TYPE    INFORMATION
#----------   ------------   ------------------------------
 STRT.F          195.5000:   START DEPTH
 STOP.F         3197.0000:   STOP DEPTH
 STEP.F            0.5000:   STEP LENGTH
 NULL.          -999.2500:   NO VALUE
 COMP.    FENIX & SCISSON:   COMPANY
 WELL.  FENIX "AX" #17-11:   WELL
 FLD .              NPR-3:   FIELD
 LOC .      S11 T38N R78W:   LOCATION
 CNTY.            NATRONA:   COUNTY
 STAT.            WYOMING:   STATE
 CTRY. UNITED STATES OF AMERICA:   COUNTRY
 SRVC.              WELEX:   SERVICE COMPANY
 DATE.        16-SEP-1977:   LOGDATE
 API .     49025104170000:   API NUMBER
~CURVE INFORMATION
#MNEM.UNIT       API CODE    CURVE DESCRIPTION
#----------   ------------   ------------------------------
 DEPT.F                  :   
 GRD .GAPI   45 310 01 00:   GAMMA RAY FROM DENSITY LOG
 CALD.IN     45 280 60 00:   CALIPER FROM DENSITY LOG
 CORR.G/C3   45 356 01 00:   DENSITY CORRECTION
 TEND.LBS    45 635 01 00:   TENSION FORM DENSITY LOG
 RHOB.G/C3   45 350 01 00:   BULK DENSITY
 SPR .MV     07 010 01 00:   SPONTANEOUS POTENTIAL
 TENR.LBS    07 635 01 00:   TENSION FROM RESISTIVITY
 ILD .OHMM   07 120 46 00:   DEEP INDUCTION RESISTIVITY
 ILM .OHMM   07 120 44 00:   INDUCTION LOG MEDIUM RESISTIVITY
 SGRD.OHMM   07 220 05 00:   SHALLOW SHORT GUARD RESISTIVITY
~PARAMETER INFORMATION
#MNEM.UNIT          VALUE    DESCRIPTION
#----------   ------------   ------------------------------
 EKB .F         5212.0000:   Kelly bushing
 EGL .F         5202.0000:   Ground level
 TD  .F         3195.0000:   Total depth
 CLNT.            A2DTECH:   Client Code
 SL  . 1090' FSL & 330' FWL:   Surface Location
 PD  .                 GL:   Permanent Datum
 EPD .F              5202:   Elevation Permanent Datum
 LMF .                 KB:   Log Measured From
 DMF .                 KB:   Drilling Measured From
 DAPD.F                10:   Feet Above Permanent Datum
 DATE.        16-SEP-1977:   Date Logged [DD-MMM-YYYY]
 DD  .F              3195:   Depth driller
 DL  .F              3195:   Depth logger
 BLI .F              3193:   Bottom log interval
 TLI .F               217:   Top log interval
 CS1 .IN            8.625:   Casing size
 CBD1.      8.625" @ 216':   Casing driller 1
 CBL1.F               217:   Casing logger 1
 BS1 .IN            7.875:   Bit size
 BSD1.F              3195:   Depth drilled with bit1
 DFT .            KCL MUD:   Type fluid in hole
 DFD .                9.2:   Density
 DFV .                 36:   Viscosity
 DFPH.                 11:   pH
 DFL .                8.8:   Fluid loss
 MSS .           FLOWLINE:   Source of sample
 RMS .OHMM           2.76:   Rm
 MST .F                99:   Rm Meas. temp.
 RMF .OHMM           1.54:   Rmf
 MFST.F                99:   Rmf Meas. temp.
 MFSS.               MEAS:   Source Rmf.
 RMC .OHMM           3.01:   Rmc
 MCST.F                99:   Rmc Meas. temp.
 MCSS.               MEAS:   Source Rmc.
 RMB .OHMM           2.40:   Rm. at BHT
 BHT .F               112:   BHT.
 TCS .HRS               6:   Time Circ. stopped
 MRT .F               112:   Maximum recorded temp.
 LUN .               8611:   Logging unit number
 LUL .             CASPER:   Logging unit location
 ENGI.          D. LAWSON:   Recorded By
 WITN.         HARRINGTON:   Witnessed by
 ORIG.           5" PRINT:   Origin of data
 UWI .     49025104170000:   Unique Well ID
 DICO. A2D TECHNOLOGIES, INC.:   Digitizing Company
~OTHER INFORMATION
~A   DEPT       GRD      CALD       CORR       TEND       RHOB        SPR       TENR        ILD        ILM       SGRD   
# ...
 3177.0000   125.0009     7.9882     0.0353  2182.3618     2.5224   -71.3720  1971.6683     2.3822     2.8525     5.5150
 3177.5000    97.8429     7.9827     0.0363  2182.3618     2.5314   -71.2288  1957.2476     2.4325     3.1207     5.4756
 3178.0000    15.3144     7.9825     0.0370  2167.4141     2.5396   -70.9397  1958.1635     2.4840     3.3671     5.1792
 3178.5000     6.7240     7.9974     0.0385  2152.4663     2.5463   -70.9508  1958.8958     2.6094     3.6077     5.4376
 3179.0000     5.8085     7.9973     0.0414  2137.5188     2.5515   -70.4961  1959.6281     2.7765     3.8926     5.8910
 3179.5000     5.4981     7.9971     0.0443  2137.5188     2.5568   -70.0154  1975.3308     2.8550     4.1419    10.2009
 3180.0000     5.7932     7.9970     0.0478  2137.5188     2.5567   -69.0172  1976.0631     2.9767     4.0267    10.8549
 3180.5000     5.7822     7.9968     0.0508  2152.4663     2.5529   -67.9678  1991.7664     3.0822     3.9694     9.0634
 3181.0000     6.0754     7.9665     0.0531  2167.4141     2.5514   -66.7668  1992.5151     3.2360     4.0229     6.6812
 3181.5000     6.6697     7.9814     0.0530  2167.4141     2.5506   -65.2627  1993.2635     3.3740     4.3707     5.6567
 3182.0000     6.3572     7.9842     0.0514  2167.4141     2.5506   -61.0314  1994.1461     3.5424     4.8151     6.5859
 3182.5000     6.3484     7.9962     0.0491  2167.4141     2.5528   -57.2547  1994.8789     3.6935     5.1598     8.8069
 3183.0000     6.3409     8.0112     0.0468  2167.4141     2.5564   -51.9627  1995.5089     3.8854     5.1936    11.7768
 3183.5000     6.3318     8.0110     0.0437  2152.4663     2.5610   -43.1860  1996.3436     4.3643     5.3001    10.0883
 3184.0000     6.6261     8.0109     0.0406  2152.4663     2.5692   -33.5001  1981.9231     4.9117     5.8390     7.6207
 3184.5000     6.3135     8.0107     0.0383  2152.4663     2.5759   -14.3630  1967.6855     5.6442     6.9100     7.3994
 3185.0000     5.7014     8.0106     0.0374  2152.4663     2.5736    -7.3100  1953.6309     6.7619     8.2952    10.5303
 3185.5000     5.3889     7.9953     0.0359  2144.8052     2.5709    -4.4454  1954.3635     6.9049     9.3512    13.2306
 3186.0000     5.0785     7.9952     0.0354  2137.5188     2.5685    -4.4565  1955.0959     7.1495     9.8814   200.0000
 3186.5000     5.0697     7.9950     0.0343  2136.3098     2.5660    -4.4676  1955.8385     8.1023    10.4416  -999.2500
 3187.0000     5.3626     7.9798     0.0327  2122.5710     2.5599    -4.4787  1956.5870    10.5506    11.1880  -999.2500
 3187.5000     5.3539     7.9796     0.0311  2107.6233     2.5541    -4.4899  1972.4465    42.0897    11.8235  -999.2500
 3188.0000     5.0437     7.9795     0.0295  2122.5710     2.5494    -4.5010  1973.1790   141.7597    10.2845  -999.2500
 3188.5000     4.7330     7.9793     0.0280  2127.6086     2.5448    -4.5121  1973.9116    11.1565     9.3276  -999.2500
 3189.0000     4.4205     7.9792     0.0264  2137.5188     2.5395    -4.5232  1974.6440    10.2651     9.4807  -999.2500
 3189.5000     4.1116     7.9790     0.0248  2137.5188     2.5335    -4.5343  1960.2231    10.4821    10.3420  -999.2500
 3190.0000     4.1014     7.9789     0.0232  2137.5188     2.5289    -4.5455  1945.9858    10.2669    10.7041  -999.2500
 3190.5000     4.0935     7.9938     0.0232  2135.8979     2.5281    -4.5568  1946.9012     9.2947     8.9308  -999.2500
 3191.0000     4.0845     7.9937     0.0231  2122.5710     2.5298    -4.5682  1917.6935     9.1249     9.7030  -999.2500
 3191.5000     4.0752     7.9935     0.0230  2122.5710     2.5348    -4.5816  1918.4263     9.9883    10.1128  -999.2500
 3192.0000     4.0664     7.9933     0.0229  2122.5710     2.5378    -4.5927  1919.1619    10.2705     9.5611  -999.2500
 3192.5000     4.0573     7.9932     0.0229  2122.5710     2.5362    -4.6038  1919.9104    19.3259     9.6237  -999.2500
 3193.0000     3.9149     7.9931     0.0228  2122.5710     2.5310  -999.2500  -999.2500  -999.2500  -999.2500  -999.2500
 3193.5000  -999.2500  -999.2500  -999.2500  2122.5710  -999.2500  -999.2500  -999.2500  -999.2500  -999.2500  -999.2500
 3194.0000  -999.2500  -999.2500  -999.2500  2107.6233  -999.2500  -999.2500  -999.2500  -999.2500  -999.2500  -999.2500
 3194.5000  -999.2500  -999.2500  -999.2500  2032.8849  -999.2500  -999.2500  -999.2500  -999.2500  -999.2500  -999.2500
 3195.0000  -999.2500  -999.2500  -999.2500  1925.7349  -999.2500  -999.2500  -999.2500  -999.2500  -999.2500  -999.2500
 3195.5000  -999.2500  -999.2500  -999.2500  1778.7743  -999.2500  -999.2500  -999.2500  -999.2500  -999.2500  -999.2500
 3196.0000  -999.2500  -999.2500  -999.2500  1693.9275  -999.2500  -999.2500  -999.2500  -999.2500  -999.2500  -999.2500
 3196.5000  -999.2500  -999.2500  -999.2500  1606.5988  -999.2500  -999.2500  -999.2500  -999.2500  -999.2500  -999.2500
 3197.0000  -999.2500  -999.2500  -999.2500  1509.5477  -999.2500  -999.2500  -999.2500  -999.2500  -999.2500  -999.2500
