~VERSION INFORMATION
 VERS.                2.0:   CWLS LOG ASCII STANDARD - VERSION 2.0
 WRAP.                 NO:   ONE LINE PER DEPTH STEP
~WELL INFORMATION
#MNEM.UNIT      DATA TYPE    INFORMATION
#----------   ------------   ------------------------------
 STRT.F           36.0000:   START DEPTH
 STOP.F         4960.0000:   STOP DEPTH
 STEP.F            0.5000:   STEP LENGTH
 NULL.          -999.2500:   NO VALUE
 COMP.   TESORO PETROLEUM:   COMPANY
 WELL. TESORO NPR 3 "DX" #55-23:   WELL
 FLD .        TEAPOT DOME:   FIELD
 LOC .      S23 T38N R78W:   LOCATION
 CNTY.            NATRONA:   COUNTY
 STAT.            WYOMING:   STATE
 CTRY. UNITED STATES OF AMERICA:   COUNTRY
 SRVC.           BIRDWELL:   SERVICE COMPANY
 DATE.        17-AUG-1975:   LOGDATE
 API .     49025102510000:   API NUMBER
~CURVE INFORMATION
#MNEM.UNIT       API CODE    CURVE DESCRIPTION
#----------   ------------   ------------------------------
 DEPT.F                  :   
 TEND.LBS    45 635 01 00:   TENSION FROM DENSITY LOG
 CALD.IN     45 280 60 00:   CALIPER FROM DENSITY LOG
 CORR.G/C3   45 356 01 00:   DENSITY CORRECTION
 GRD .GAPI   45 310 01 00:   GAMMA RAY FROM DENSITY LOG
 RHOB.G/C3   45 350 01 00:   BULK DENSITY
 SPR .MV     07 010 01 00:   SPONTANEOUS POTENTIAL
 ILM .OHMM   07 120 44 00:   INDUCTION LOG MEDIUM RESISTIVITY
 ILD .OHMM   07 120 46 00:   DEEP INDUCTION RESISTIVITY
 SFL .OHMM   07 220 01 00:   SHALLOW FOCUSED LOG RESISTIVITY
~PARAMETER INFORMATION
#MNEM.UNIT          VALUE    DESCRIPTION
#----------   ------------   ------------------------------
 EKB .F         5371.0000:   Kelly bushing
 EGL .F         5360.0000:   Ground level
 EDF .F            0.0000:   Drilling floor
 TD  .F         4955.0000:   Total depth
 DATE.        17-AUG-1975:   Date logged
 CLNT.            A2DTECH:   Client Code
 SL  . 1980' FSL & 2030' FEL:   Surface Location
 PD  .                 GL:   Permanent Datum
 DD  .F              4955:   Depth driller
 DL  .F              4945:   Depth logger
 BLI .F              4943:   Bottom log interval
 CS1 .IN            8.625:   Casing size
 CBD1.     8.625" @ 1450':   Casing driller 1
 CBL1.F              1457:   Casing logger 1
 BS1 .IN            7.875:   Bit size
 DFT .            KCL/GEL:   Type fluid in hole
 DFD .                9.5:   Density
 DFV .                 53:   Viscosity
 DFPH.                8.5:   pH
 DFL .                7.4:   Fluid loss
 MSS .           FLOWLINE:   Source of sample
 RMS .OHMM            1.2:   Rm
 MST .F                72:   Rm Meas. temp.
 RMF .OHMM            .94:   Rmf
 MFST.F                74:   Rmf Meas. temp.
 MFSS.               MEAS:   Source Rmf.
 RMB .OHMM            .71:   Rm. at BHT
 BHT .F               121:   BHT.
 TCS .HRS               4:   Time Circ. stopped
 MRT .F               121:   Maximum recorded temp.
 LUN .               6078:   Logging unit number
 LUL .              GLTTE:   Logging unit location
 ENGI.      NORDEN/SUTTON:   Recorded By
 WITN.          UNDERWOOD:   Witnessed by
 ORIG.           5" PRINT:   Origin of data
 UWI .     49025102510000:   Unique Well ID
 DICO. A2D TECHNOLOGIES, INC.:   Digitizing Company
 DAPD.F                11:   Feet Above Permanent Datum
 BSD1.F              5360:   Depth drilled with bit1
 EPD .F              5360:   Elevation Permanent Datum
 LMF .                 KB:   Log Measured From
 DMF .                 KB:   Drilling Measured From
 TLI .F              1457:   Top log interval
~OTHER INFORMATION
~A   DEPT     TEND       CALD       CORR        GRD       RHOB        SPR        ILM        ILD          SFL 
# ...
 2700.5000  3718.9839     8.3630     0.0320    50.6360     2.5320   -33.9320     6.0510     6.2720     6.5000
 2701.0000  3707.6509     8.3540     0.0500    50.7910     2.5590   -33.7970     6.2120     6.4920     6.6250
 2701.5000  3696.3181     8.3460     0.0540    50.9400     2.5690   -33.6680     6.3740     6.7110     6.7530
 2702.0000  3684.9861     8.3370     0.0550    50.9290     2.5690   -33.4710     6.5350     6.9310     7.1090
 2702.5000  3699.9570     8.3290     0.0570    50.8000     2.5670   -32.9660     6.6960     7.1510     7.4760
 2703.0000  3721.8140     8.3210     0.0580    50.6560     2.5640   -32.5610     6.8570     7.4040     7.8420
 2703.5000  3742.5149     8.3120     0.0570    50.4110     2.5540   -32.6800     7.0710     7.3370     7.9970
 2704.0000  3715.6689     8.3040     0.0480    49.9900     2.5420   -32.7890     6.9810     7.2570     8.0390
 2704.5000  3690.1699     8.2950     0.0470    49.1050     2.5300   -32.8910     6.8480     7.1640     7.8350
 2705.0000  3694.6111     8.2870     0.0460    48.3990     2.5180   -32.8750     6.7160     7.0380     7.6010
 2705.5000  3711.6101     8.2780     0.0450    47.7740     2.5060   -32.5220     6.5830     6.9120     7.3680
 2706.0000  3722.5549     8.2770     0.0520    47.5500     2.5010   -32.1830     6.4500     6.7860     7.1900
 2706.5000  3706.1541     8.2820     0.0590    47.3330     2.4950   -31.8410     6.3170     6.6600     7.0540
 2707.0000  3689.1550     8.2870     0.0640    47.2640     2.4920   -31.9360     6.1850     6.5340     6.9170
 2707.5000  3682.6350     8.2910     0.0690    47.4730     2.4900   -32.1970     6.0520     6.4080     6.7760
 2708.0000  3682.6350     8.2960     0.0640    47.5540     2.4680   -32.4620     5.9190     6.2830     6.6180
 2708.5000  3687.1919     8.3010     0.0510    47.4510     2.4460   -32.7300     5.7860     6.1570     6.4610
 2709.0000  3704.1919     8.3060     0.0390    47.4300     2.4250   -32.9520     5.5080     6.0470     6.3030
 2709.5000  3722.5549     8.3100     0.0290    47.9590     2.4110   -32.6380     5.0770     5.5410     6.1460
 2710.0000  3701.7080     8.3160     0.0240    48.5240     2.4190   -32.3260     4.5000     4.9990     5.9560
 2710.5000  3680.3250     8.3380     0.0310    48.6240     2.4570   -32.0020     3.8980     4.4570     5.7100
 2711.0000  3665.7539     8.3600     0.0380    48.2800     2.5260   -31.6770     3.7820     3.9150     5.2330
 2711.5000  3692.8391     8.3820     0.0400    47.9390     2.5610   -31.3560     3.8190     3.3240     4.4360
 2712.0000  3721.2910     8.4040     0.0410    47.6270     2.5680   -31.0470     3.9670     3.5300     3.3870
 2712.5000  3715.6240     8.4250     0.0430    48.1960     2.5700   -30.9110     4.1780     3.8050     4.1630
 2713.0000  3709.9580     8.4470     0.0440    48.8090     2.5720   -31.1220     4.5450     4.0800     5.2980
 2713.5000  3704.2910     8.4690     0.0450    49.3840     2.5720   -31.3270     4.9110     4.3550     6.2380
 2714.0000  3710.1169     8.4910     0.0460    49.3680     2.5710   -31.5360     5.2770     4.7470     6.8150
 2714.5000  3720.8530     8.5120     0.0470    49.3300     2.5700   -31.7450     5.6430     5.1780     6.6500
 2715.0000  3731.5891     8.5040     0.0460    49.2920     2.5690   -31.9520     6.0090     5.6090     6.4490
 2715.5000  3742.5149     8.4920     0.0450    49.2540     2.5680   -32.1590     6.2460     5.9370     6.4940
 2716.0000  3729.9900     8.4800     0.0440    49.2150     2.5670   -32.4030     6.3160     6.0230     6.6410
 2716.5000  3717.2410     8.4680     0.0430    49.2810     2.5660   -32.6360     6.3850     6.0600     6.9130
 2717.0000  3704.4910     8.4560     0.0430    49.5370     2.5640   -32.7630     6.4550     6.0970     6.9450
 2717.5000  3691.7419     8.4450     0.0420    50.3240     2.5620   -32.8850     6.5240     6.1340     6.9490
 2718.0000  3689.9199     8.4400     0.0410    50.8790     2.5600   -33.0640     6.5940     6.1720     6.9530
 2718.5000  3705.2061     8.4690     0.0400    51.2050     2.5580   -33.4390     6.6910     6.2090     6.9570
 2719.0000  3713.7061     8.4980     0.0390    51.2020     2.5590   -33.8000     6.6670     6.2200     6.9600
 2719.5000  3722.5549     8.5270     0.0390    51.2040     2.5590   -34.1150     6.6260     6.2240     6.9640
 2720.0000  3710.3291     8.5550     0.0380    51.2160     2.5580   -33.6430     6.5860     6.2290     6.9680
 2720.5000  3707.6101     8.5690     0.0370    50.6320     2.5570   -33.9690     6.5450     6.2330     6.9720
 2721.0000  3720.3589     8.5420     0.0370    49.8160     2.5600   -34.4790     6.5100     6.2370     6.9750
 2721.5000  3733.1089     8.5160     0.0380    49.0250     2.5640   -34.3670     6.5220     6.2420     6.9790
 2722.0000  3737.1660     8.4900     0.0380    48.7790     2.5660   -34.0460     6.5340     6.2460     6.9830
 2722.5000  3716.7661     8.4650     0.0380    48.6060     2.5650   -34.1940     6.5460     6.2510     6.9860
 2723.0000  3709.5139     8.4390     0.0390    49.0760     2.5640   -34.0820     6.5580     6.2550     6.9900
 2723.5000  3732.1799     8.4300     0.0390    49.5620     2.5630   -33.5300     6.5700     6.2590     6.9940
 2724.0000  3730.1841     8.4230     0.0400    50.0670     2.5600   -32.9970     6.5820     6.2640     6.9980
 2724.5000  3707.5181     8.4160     0.0400    49.8460     2.5580   -33.4480     6.5940     6.2680     7.0010
 2725.0000  3720.3369     8.4100     0.0400    49.3210     2.5560   -33.9870     6.6060     6.2730     7.0050
 2725.5000  3742.5149     8.4030     0.0410    49.7400     2.5560   -34.1580     6.6170     6.3400     7.0320
 2726.0000  3702.5950     8.3970     0.0410    50.5130     2.5590   -34.1630     6.6300     6.4340     7.0690
 2726.5000  3702.5950     8.3700     0.0390    50.1180     2.5610   -34.1600     6.7200     6.5280     7.1060
 2727.0000  3705.7881     8.3370     0.0360    49.6180     2.5600   -33.9530     6.8140     6.6210     7.1610
 2727.5000  3717.1211     8.3040     0.0340    49.4520     2.5580   -33.6280     6.9090     6.7150     7.2880
 2728.0000  3696.0081     8.2710     0.0310    49.6820     2.5550   -34.1240     7.0030     6.8090     7.4140
 2728.5000  3682.6350     8.2380     0.0280    50.1410     2.5520   -34.5840     7.0980     6.9030     7.5410
 2729.0000  3682.6350     8.2050     0.0260    50.6020     2.5470   -34.6130     7.1920     7.0060     7.6680
 2729.5000  3718.4431     8.1750     0.0230    51.0750     2.5430   -34.6560     7.0750     6.8490     7.5140
 2730.0000  3732.2019     8.1750     0.0210    51.1960     2.5410   -34.7010     6.9320     6.6240     7.3270
 2730.5000  3715.2029     8.1760     0.0240    51.1450     2.5420   -34.7450     6.7890     6.3900     7.1410
 2731.0000  3706.9861     8.1770     0.0270    51.0850     2.5440   -34.7900     6.6460     6.3710     6.8780
 2731.5000  3723.9851     8.1780     0.0290    51.0320     2.5440   -34.8340     6.4590     6.3510     6.8920
 2732.0000  3742.5149     8.1790     0.0310    50.8050     2.5440   -34.8780     6.4960     6.3310     6.9160
 2732.5000  3723.9519     8.1800     0.0310    51.1700     2.5430   -34.9220     6.5720     6.3120     6.9390
 2733.0000  3703.5530     8.1810     0.0310    51.5460     2.5440   -34.9980     6.6480     6.2920     6.9630
 2733.5000  3683.1541     8.1820     0.0310    51.9190     2.5460   -35.2530     6.7240     6.2770     6.9860
 2734.0000  3662.6750     8.1830     0.0310    52.1770     2.5470   -35.5210     6.8000     6.4510     7.0060
 2734.5000  3700.7729     8.1840     0.0310    52.0150     2.5460   -35.1900     6.8750     6.6110     7.1060
 2735.0000  3715.2361     8.1850     0.0310    51.8600     2.5430   -34.7650     6.9510     6.7710     7.2420
 2735.5000  3698.2371     8.1860     0.0310    51.7090     2.5410   -34.9320     7.0710     6.9310     7.3780
 2736.0000  3682.6350     8.1870     0.0310    51.6540     2.5390   -35.1410     7.0150     7.0910     7.6640
 2736.5000  3714.1721     8.1880     0.0310    51.8450     2.5390   -34.8050     6.8790     7.3360     7.9690
