~VERSION INFORMATION
 VERS.                2.0:   CWLS LOG ASCII STANDARD - VERSION 2.0
 WRAP.                 NO:   ONE LINE PER DEPTH STEP
~WELL INFORMATION
#MNEM.UNIT      DATA TYPE    INFORMATION
#----------   ------------   ------------------------------
 STRT.F           90.0000:   START DEPTH
 STOP.F         3342.0000:   STOP DEPTH
 STEP.F            0.5000:   STEP LENGTH
 NULL.          -999.2500:   NO VALUE
 COMP. LAWRENCE ALLISON AND ASSOCIATES:   COMPANY
 WELL. LAWERNCE "X" #83-3:   WELL
 FLD .             NPR #3:   FIELD
 LOC .       S3 T38N R78W:   LOCATION
 CNTY.            NATRONA:   COUNTY
 STAT.            WYOMING:   STATE
 CTRY. UNITED STATES OF AMERICA:   COUNTRY
 SRVC.      DRESSER ATLAS:   SERVICE COMPANY
 DATE.        23-APR-1985:   LOGDATE
 API .     49025110210000:   API NUMBER
~CURVE INFORMATION
#MNEM.UNIT       API CODE    CURVE DESCRIPTION
#----------   ------------   ------------------------------
 DEPT.F                  :   
 TENR.LBS    07 635 01 00:   TENSION FROM RESISTIVITY
 CALR.IN     07 280 01 00:   CALIPER FROM RESISTIVITY
 SPR .MV     07 010 01 00:   SPONTANEOUS POTENTIAL
 GRR .GAPI   07 310 01 00:   GAMMA RAY FROM RESISTIVITY
 RFOC.OHMM   07 220 04 00:   RESISTIVITY FOCUSED LOG RES.
 RILD.OHMM   07 120 46 00:   DEEP INDUCTION RESISTIVITY
 RILM.OHMM   07 120 44 00:   INDUCTION LOG MEDIUM RESISTIVITY
 NPHI.DEC    42 890 03 00:   NEUTRON POROSITY SANDSTONE
 RHOB.G/C3   45 350 01 00:   BULK DENSITY
 TEND.LBS    45 635 01 00:   TENSION FROM DENSITY LOG
 CORR.G/C3   45 356 01 00:   DENSITY CORRECTION
~PARAMETER INFORMATION
#MNEM.UNIT          VALUE    DESCRIPTION
#----------   ------------   ------------------------------
 EKB .F         5125.0000:   Kelly bushing
 EGL .F         5112.0000:   Ground level
 EDF .F            0.0000:   Drilling floor
 TD  .F         3330.0000:   Total depth
 DATE.        23-APR-1985:   Date logged
 CLNT.            A2DTECH:   Client Code
 SL  . 1745' FNL & 612' FEL:   Surface Location
 PD  .                 GL:   Permanent Datum
 DD  .F              3330:   Depth driller
 DL  .F              3328:   Depth logger
 BLI .F              3326:   Bottom log interval
 CS1 .IN            8.625:   Casing size
 CBD1.      8.625" @ 526':   Casing driller 1
 CBL1.F               528:   Casing logger 1
 BS1 .IN            7.875:   Bit size
 DFT .            KCL-GEL:   Type fluid in hole
 DFD .                9.1:   Density
 DFV .                 43:   Viscosity
 DFPH.                  8:   pH
 DFL .                  8:   Fluid loss
 MSS .           FLOWLINE:   Source of sample
 RMS .OHMM          0.445:   Rm
 MST .F                72:   Rm Meas. temp.
 RMF .OHMM           0.36:   Rmf
 MFST.F                70:   Rmf Meas. temp.
 RMC .OHMM           0.55:   Rmc
 MCST.F                72:   Rmc Meas. temp.
 MFSS.               MEAS:   Source Rmf.
 RMB .OHMM          0.286:   Rm. at BHT
 BHT .F               116:   BHT.
 TCS .HRS               3:   Time Circ. stopped
 MRT .F               116:   Maximum recorded temp.
 LUN .               6274:   Logging unit number
 LUL .               GLTE:   Logging unit location
 ENGI.             RAUTIO:   Recorded By
 WITN.             STRONG:   Witnessed by
 ORIG.           5" PRINT:   Origin of data
 UWI .     49025110210000:   Unique Well ID
 DICO. A2D TECHNOLOGIES, INC.:   Digitizing Company
 DAPD.                 13:   Feet Above Permanent Datum
 BSD1.               3330:   Depth drilled with bit1
 MCSS.               CALC:   Source Rmc.
 EPD .               5112:   Elevation Permanent Datum
 LMF .                 KB:   Log Measured From
 DMF .                 KB:   Drilling Measured From
~OTHER INFORMATION
~A   DEPT     TENR       CALR        SPR         GRR      RFOC       RILD       RILM       NPHI       RHOB       TEND       CORR   
# ...
 2743.5000   -79.6980     9.5440   -66.7430    80.4120    13.8250    13.9800    12.1920     0.1930     2.4030   -55.8960     0.0030
 2744.0000   -79.0390     9.5390   -66.7820    84.2390    14.1090    13.8290    11.9730     0.1970     2.4210   -56.6040     0.0070
 2744.5000   -78.3800     9.5350   -66.8460    89.1250    13.4590    13.6490    11.6340     0.2050     2.4420   -57.3120     0.0020
 2745.0000   -77.7210     9.5300   -67.7430    94.0040    12.8840    13.4700    11.7070     0.2070     2.4560   -58.0200     0.0010
 2745.5000   -77.0620     9.5260   -68.6820    97.4340    12.1810    13.2910    11.8040     0.2040     2.4620   -58.7280     0.0010
 2746.0000   -76.4040     9.5210   -69.5890    98.6680    12.4920    13.1090    11.9010     0.1980     2.4570   -59.4360     0.0010
 2746.5000   -75.7450     9.5160   -69.3580    95.3810    13.0280    13.1090    11.9650     0.1930     2.4460   -60.1450     0.0010
 2747.0000   -75.0860     9.5120   -69.0440    96.2370    13.5650    13.2420    11.9810     0.1940     2.4430   -60.8530     0.0000
 2747.5000   -74.4270     9.5070   -68.7300    96.4100    13.9800    13.4060    11.9960     0.2010     2.4480   -61.5610    -0.0010
 2748.0000   -73.7680     9.5020   -68.4180    94.7630    13.7280    13.5700    12.0120     0.2120     2.4540   -62.2690    -0.0010
 2748.5000   -73.1090     9.4980   -68.1070    91.7120    13.4840    13.7250    12.0280     0.2200     2.4560   -62.9770     0.0000
 2749.0000   -72.4500     9.4940   -67.7950    91.2850    13.2390    13.7250    12.0430     0.2190     2.4540   -63.6850     0.0000
 2749.5000   -71.7910     9.4850   -67.4840    91.2760    12.8710    13.6390    12.0690     0.2100     2.4510   -64.3930    -0.0020
 2750.0000   -71.1320     9.4660   -67.1710    91.3020    12.9820    13.5400    12.0370     0.2020     2.4440   -65.1010    -0.0140
 2750.5000   -70.4730     9.4590   -66.8410    91.8360    13.2300    13.4410    11.9160     0.2020     2.4390   -65.7370    -0.0180
 2751.0000   -69.8140     9.4540   -66.3820    93.8650    12.8450    13.3520    11.7980     0.2040     2.4450   -63.3470    -0.0100
 2751.5000   -69.1550     9.4480   -65.8850    95.1250    12.6370    13.3520    11.6800     0.2070     2.4660   -61.1770     0.0060
 2752.0000   -68.4960     9.4420   -65.5170    92.7520    12.8870    13.5170    11.5280     0.2010     2.4860   -59.0070     0.0210
 2752.5000   -67.8370     9.4360   -64.5020    89.3460    13.0790    13.6660    11.6860     0.1950     2.4980   -56.8380     0.0290
 2753.0000   -67.1780     9.4300   -63.4770    86.9120    13.2700    13.8140    11.9070     0.1950     2.4950   -55.4160     0.0200
 2753.5000   -66.5190     9.4240   -62.4570    84.3600    13.4750    13.9620    12.1270     0.1970     2.4790   -54.2550     0.0210
 2754.0000   -65.8600     9.4180   -61.4360    81.0520    13.1850    14.1110    12.3480     0.2020     2.4510   -53.0950     0.0280
 2754.5000   -65.1010     9.4120   -60.4160    78.2340    12.7850    14.2390    12.4070     0.2020     2.4220   -51.9340     0.0310
 2755.0000   -61.7650     9.4060   -59.3950    73.4250    12.3860    14.2390    12.0260     0.2010     2.3910   -50.7740     0.0240
 2755.5000   -58.4280     9.4000   -58.3670    66.8560    11.9870    14.3700    11.6910     0.2010     2.3870   -49.6130     0.0130
 2756.0000   -55.0910     9.3940   -57.3350    64.4530    11.5880    13.9680    11.3560     0.2040     2.3870   -48.4530     0.0030
 2756.5000   -51.7550     9.3890   -58.0940    65.8500    11.1890    13.5630    11.0210     0.2050     2.3870   -47.2920    -0.0080
 2757.0000   -48.4180     9.3830   -59.0890    68.9120    10.6130    13.1580    10.6860     0.2030     2.3880   -46.1320    -0.0030
 2757.5000   -45.6130     9.3770   -60.0880    74.0190    10.8430    12.7530    10.3510     0.2010     2.4060   -45.8170     0.0020
 2758.0000   -45.6130     9.3710   -61.0860    78.6840    11.4840    12.3480    10.1370     0.2050     2.4300   -45.8170     0.0180
 2758.5000   -45.6130     9.3730   -62.0820    80.3630    11.6340    11.8500    10.0440     0.2100     2.4530   -45.8170     0.0260
 2759.0000   -45.9670     9.3790   -63.0600    82.2640    11.0570    12.1310    10.2180     0.2160     2.4670   -45.8170     0.0260
 2759.5000   -48.0310     9.3840   -64.0760    87.2010    10.5630    12.4970    10.6870     0.2180     2.4810   -45.8170     0.0200
 2760.0000   -50.0950     9.3900   -65.0680    92.2840     9.8620    12.8710    11.1570     0.2080     2.4960   -45.8170     0.0170
 2760.5000   -52.1580     9.3950   -66.0650    88.0640    10.6440    12.6900    11.6340     0.1890     2.5020   -45.8170     0.0200
 2761.0000   -54.2220     9.4010   -67.0610    82.7440    12.4530    12.2160    11.7420     0.1850     2.5090   -45.8170     0.0210
 2761.5000   -56.2860     9.4070   -68.0570    77.3560    14.6360    11.7420    11.7420     0.1800     2.5140   -45.8170     0.0200
 2762.0000   -58.3500     9.4120   -69.0540    75.9370    13.6790    11.2690    11.3560     0.1800     2.5080   -45.8170     0.0080
 2762.5000   -60.4140     9.4180   -70.0480    86.0550    12.0650    10.7950    10.9220     0.1890     2.4980   -45.8170    -0.0050
 2763.0000   -62.4780     9.4240   -71.0440    94.2790    10.1370    10.3210    10.4880     0.2010     2.4900   -45.8170    -0.0090
 2763.5000   -64.5420     9.4290   -72.0760   102.0320    10.2450     9.8480    10.0530     0.2120     2.4900   -45.8170     0.0020
 2764.0000   -66.6060     9.4270   -72.5300   101.6220    10.4200     9.3740     9.6190     0.2250     2.4900   -45.8170     0.0270
 2764.5000   -68.6700     9.4240   -72.7820    99.9710     9.4190     8.9010     9.1840     0.2220     2.4890   -45.8170     0.0160
 2765.0000   -70.7340     9.4220   -73.0230    98.3310     9.6320     8.4360     8.7500     0.2180     2.4830   -45.8170     0.0040
 2765.5000   -72.7980     9.4190   -73.2640    96.7140    10.1410     8.2870     8.5930     0.2160     2.4750   -45.8170    -0.0090
 2766.0000   -74.8610     9.4170   -73.5060    94.9960    10.3250     8.1400     8.4360     0.2260     2.4670   -54.8800    -0.0140
 2766.5000   -76.9250     9.4140   -73.7490    97.9730     9.7130     7.9940     8.3590     0.2360     2.4610   -65.5020    -0.0100
 2767.0000   -78.9890     9.4120   -73.9890   101.5070     9.2140     7.9110     8.1850     0.2300     2.4650   -65.0860    -0.0060
 2767.5000   -81.0530     9.4090   -74.1610   104.4010     8.4360     7.8430     7.9840     0.2240     2.4760   -64.6700    -0.0020
 2768.0000   -83.1170     9.4070   -74.1660   105.7750     8.5380     7.5560     7.7700     0.2130     2.4760   -64.2550     0.0020
 2768.5000   -85.1810     9.4040   -74.3570   106.5700     8.7690     7.2690     7.5160     0.2040     2.4750   -63.8390     0.0070
 2769.0000   -84.3660     9.4020   -74.7070   105.1680     9.0790     6.9820     7.2610     0.2010     2.4750   -63.4230     0.0090
 2769.5000   -83.0370     9.3990   -75.0140   103.6280     8.8890     6.7680     7.0210     0.1990     2.4750   -63.0070    -0.0030
 2770.0000   -81.7080     9.3960   -75.3210   103.4050     8.4700     6.8420     7.0210     0.2130     2.4760   -62.5910    -0.0150
 2770.5000   -80.3800     9.3940   -75.6310   107.0880     8.0510     7.0050     7.0210     0.2290     2.4860   -62.1750    -0.0210
 2771.0000   -79.0510     9.3910   -75.9450   108.6450     7.6930     7.1670     7.4200     0.2210     2.4990   -61.7600     0.0050
 2771.5000   -77.7220     9.3900   -76.3090   106.3290     7.3510     7.3300     7.8820     0.2060     2.5130   -61.3440     0.0320
 2772.0000   -76.3930     9.3910   -76.1800    99.8910     7.9760     7.6600     8.3440     0.1920     2.5270   -60.9280     0.0200
 2772.5000   -75.0650     9.3930   -76.1000    92.4850     9.5470     8.0150     8.8050     0.1770     2.5410   -60.5120     0.0100
 2773.0000   -73.7360     9.3950   -76.0660    85.1110    11.7070     8.6440     9.2670     0.1670     2.5470   -60.0960    -0.0010
 2773.5000   -72.4070     9.3960   -76.0310    78.4930    13.8680     9.3030     9.7290     0.1540     2.5520   -59.6800    -0.0100
