~VERSION INFORMATION
 VERS.                2.0:   CWLS LOG ASCII STANDARD - VERSION 2.0
 WRAP.                 NO:   ONE LINE PER DEPTH STEP
~WELL INFORMATION
#MNEM.UNIT      DATA TYPE    INFORMATION
#----------   ------------   ------------------------------
 STRT.F           46.5000:   START DEPTH
 STOP.F         3160.0000:   STOP DEPTH
 STEP.F            0.5000:   STEP LENGTH
 NULL.          -999.2500:   NO VALUE
 COMP. LAWRENCE ALLISON & WEST:   COMPANY
 WELL. LAWRENCE NPR 3 "AX" #42-34:   WELL
 FLD .                NPR:   FIELD
 LOC .      S34 T39N R78W:   LOCATION
 CNTY.            NATRONA:   COUNTY
 STAT.            WYOMING:   STATE
 CTRY. UNITED STATES OF AMERICA:   COUNTRY
 SRVC.      WESTERN ATLAS:   SERVICE COMPANY
 DATE.        19-OCT-1987:   LOGDATE
 API .     49025111830000:   API NUMBER
~CURVE INFORMATION
#MNEM.UNIT       API CODE    CURVE DESCRIPTION
#----------   ------------   ------------------------------
 DEPT.F                  :   
 CALD.IN     45 280 60 00:   CALIPER FROM DENSITY LOG
 DEN .LBS    45 635 01 00:   BUCK DENSITY
 CORR.G/C3   45 356 01 00:   DENSITY CORRECTION
 NPOR.DEC    42 890 03 00:   ALPHA PROCESSED NEUTRON POROSITY
 SPR .MV     07 010 01 00:   SPONTANEOUS POTENTIAL
 GRR .GAPI   07 310 01 00:   GAMMA RAY FROM RESISTIVITY
 RFOC.OHMM   07 220 04 00:   RESISTIVITY FOCUSED LOG RES.
 RILD.OHMM   07 120 46 00:   DEEP INDUCTION RESISTIVITY
 RILM.OHMM   07 120 44 00:   INDUCTION LOG MEDIUM RESISTIVITY
 TENR.LBS    07 635 01 00:   TENSION FROM RESISTIVITY
~PARAMETER INFORMATION
#MNEM.UNIT          VALUE    DESCRIPTION
#----------   ------------   ------------------------------
 EKB .F         5088.0000:   Kelly bushing
 EGL .F         5077.0000:   Ground level
 EDF .F         5087.0000:   Drilling floor
 TD  .F         3151.0000:   Total depth
 DATE.        19-OCT-1987:   Date logged
 CLNT.            A2DTECH:   Client Code
 SL  . 1032' FNL & 2316' FWL:   Surface Location
 PD  .                 GL:   Permanent Datum
 EPD .F              5077:   Elevation Permanent Datum
 LMF .                 KB:   Log Measured From
 DMF .                 KB:   Drilling Measured From
 DAPD.F                11:   Feet Above Permanent Datum
 DD  .F              3151:   Depth driller
 DL  .F              3151:   Depth logger
 BLI .F              3149:   Bottom log interval
 TLI .F                50:   Top log interval
 CS1 .IN            8.625:   Casing size
 CBD1.      8.625" @ 693':   Casing driller 1
 CBL1.F               693:   Casing logger 1
 BS1 .IN            7.875:   Bit size
 BSD1.F              3151:   Depth drilled with bit1
 DFT .        KCL/POLYMER:   Type fluid in hole
 DFD .                9.2:   Density
 DFV .                 53:   Viscosity
 DFPH.                9.5:   pH
 DFL .               11.8:   Fluid loss
 MSS .            MUD/PIT:   Source of sample
 RMS .OHMM           .441:   Rm
 MST .F                66:   Rm Meas. temp.
 RMF .OHMM           .336:   Rmf
 MFST.F                66:   Rmf Meas. temp.
 RMC .OHMM           .711:   Rmc
 MCST.F                66:   Rmc Meas. temp.
 MFSS.               MEAS:   Source Rmf.
 MCSS.               MEAS:   Source Rmc.
 RMB .OHMM           .244:   Rm. at BHT
 BHT .F               119:   BHT.
 TCS .HRS               3:   Time Circ. stopped
 MRT .F               119:   Maximum recorded temp.
 LUN .            HL-6343:   Logging unit number
 LUL .               CODY:   Logging unit location
 ENGI.               JULL:   Recorded By
 WITN.             STRONG:   Witnessed by
 ORIG.           5" PRINT:   Origin of data
 UWI .     49025111830000:   Unique Well ID
 DICO. A2D TECHNOLOGIES, INC.:   Digitizing Company
~OTHER INFORMATION
~A   DEPT     CALD        DEN       CORR       NPOR        SPR         GRR      RFOC       RILD       RILM       TENR   
# ...
 1185.5000  -999.2500  -999.2500  -999.2500  -999.2500   -18.4729    99.5094     8.7316     7.9090     7.3854   -96.8373
 1186.0000  -999.2500  -999.2500  -999.2500  -999.2500   -18.0743   101.9269     8.6484     7.9803     7.3833   -76.3165
 1186.5000  -999.2500  -999.2500  -999.2500  -999.2500   -18.2808    99.8948     8.6460     7.9782     7.3813   -86.1291
 1187.0000  -999.2500  -999.2500  -999.2500  -999.2500   -18.2829    96.6482     8.7240     7.9755     7.5174   -85.8305
 1187.5000  -999.2500  -999.2500  -999.2500  -999.2500   -17.2803    94.2087     8.8031     7.9733     7.5856   -85.4722
 1188.0000  -999.2500  -999.2500  -999.2500  -999.2500   -17.0831    93.3882     9.3058     7.9711     7.5835   -85.1737
 1188.5000  -999.2500  -999.2500  -999.2500  -999.2500   -17.0882    93.3772     9.3902     7.9689     7.5815   -84.8751
 1189.0000  -999.2500  -999.2500  -999.2500  -999.2500   -17.2957    94.9783     9.1293     7.9668     7.5798   -94.6877
 1189.5000  -999.2500  -999.2500  -999.2500  -999.2500   -18.1080   101.4435     9.1268     7.9646     7.5777   -94.3891
 1190.0000  -999.2500  -999.2500  -999.2500  -999.2500   -18.1137   104.2616     9.0398     7.9624     7.5740   -94.0906
 1190.5000  -999.2500  -999.2500  -999.2500  -999.2500   -18.3207   105.4716     9.0358     7.9602     7.4928  -103.9031
 1191.0000  -999.2500  -999.2500  -999.2500  -999.2500   -18.7306   100.6012     8.7862     7.9580     7.4124  -103.6046
 1191.5000  -999.2500  -999.2500  -999.2500  -999.2500   -18.9382    98.1616     8.7024     7.8821     7.2925  -103.3060
 1192.0000  -999.2500  -999.2500  -999.2500  -999.2500   -19.1457    96.1267     8.8634     7.8799     7.2905  -103.0075
 1192.5000  -999.2500  -999.2500  -999.2500  -999.2500   -19.3543    92.4726     8.6171     7.8777     7.2889   -92.5978
 1193.0000  -999.2500  -999.2500  -999.2500  -999.2500   -19.3619    96.9143     8.6948     7.8751     7.2869   -92.2993
 1193.5000  -999.2500  -999.2500  -999.2500  -999.2500   -19.5694   100.5465     8.6924     7.9466     7.2841   -92.0007
 1194.0000  -999.2500  -999.2500  -999.2500  -999.2500   -19.9794   103.3648     8.8532     7.9445     7.3502  -101.7536
 1194.5000  -999.2500  -999.2500  -999.2500  -999.2500   -19.7822    97.2840     9.0170     7.9423     7.4861  -101.4550
 1195.0000  -999.2500  -999.2500  -999.2500  -999.2500   -19.7873    94.0346     9.0145     7.9401     7.5545   -91.0454
 1195.5000  -999.2500  -999.2500  -999.2500  -999.2500   -19.5891    97.2621     9.0120     8.0122     7.6230   -90.7468
 1196.0000  -999.2500  -999.2500  -999.2500  -999.2500   -19.7977   103.3234     8.9261     8.0100     7.6205   -90.4483
 1196.5000  -999.2500  -999.2500  -999.2500  -999.2500   -19.6004   112.2185     9.0071     7.8600     7.6184  -100.2608
 1197.0000  -999.2500  -999.2500  -999.2500  -999.2500   -19.6056   111.3981     8.9212     7.8578     7.6163   -99.9623
 1197.5000  -999.2500  -999.2500  -999.2500  -999.2500   -19.8132   108.1486     9.0863     7.7833     7.4738   -89.5526
 1198.0000  -999.2500  -999.2500  -999.2500  -999.2500   -19.8194   106.1136     8.9163     7.7086     7.1989   -89.2541
 1198.5000  -999.2500  -999.2500  -999.2500  -999.2500   -19.8246   104.4834     8.9139     7.7056     7.0642   -99.0666
 1199.0000  -999.2500  -999.2500  -999.2500  -999.2500   -19.8297   103.6628     8.6657     7.5247     6.9321   -98.7681
 1199.5000  -999.2500  -999.2500  -999.2500  -999.2500   -19.6325   100.8180     8.3469     7.4896     6.8656   -88.3584
 1200.0000  -999.2500  -999.2500  -999.2500  -999.2500   -19.6376   100.8070     7.9654     7.4876     6.8638  -128.4446
 1200.5000  -999.2500  -999.2500  -999.2500  -999.2500   -18.9098   102.1633     8.0282     7.6088     6.8618  -107.8756
 1201.0000  -999.2500  -999.2500  -999.2500  -999.2500   -18.4320   104.8392     7.9626     7.6970     6.9907   -97.6163
 1201.5000  -999.2500  -999.2500  -999.2500  -999.2500   -18.8412   105.6417     8.0356     7.6957     6.9890   -97.3689
 1202.0000  -999.2500  -999.2500  -999.2500  -999.2500   -19.0480   105.2298     8.1093     7.8393     7.1190   -97.1216
 1202.5000  -999.2500  -999.2500  -999.2500  -999.2500   -19.2548   102.3891     8.8982     7.7700     7.5264   -86.7637
 1203.0000  -999.2500  -999.2500  -999.2500  -999.2500   -19.4616   102.3821     8.8967     7.6917     7.3180   -86.5165
 1203.5000  -999.2500  -999.2500  -999.2500  -999.2500   -19.6684   103.1846     8.8951     7.6190     6.9842   -86.2693
 1204.0000  -999.2500  -999.2500  -999.2500  -999.2500   -19.2689   103.5823     8.8112     7.6890     6.9830   -86.0221
 1204.5000  -999.2500  -999.2500  -999.2500  -999.2500   -19.4757   106.8132     8.8097     7.6876     6.9818   -85.7750
 1205.0000  -999.2500  -999.2500  -999.2500  -999.2500   -19.8848   108.4250     8.7266     7.6860     7.0456   -85.5278
 1205.5000  -999.2500  -999.2500  -999.2500  -999.2500   -20.2939   110.8461     8.7248     7.9027     7.0444   -95.3907
 1206.0000  -999.2500  -999.2500  -999.2500  -999.2500   -21.3100   108.8152     8.6425     7.6122     7.0434  -105.2533
 1206.5000  -999.2500  -999.2500  -999.2500  -999.2500   -21.3143   103.5456     8.2483     7.4012     7.0419   -84.7369
 1207.0000  -999.2500  -999.2500  -999.2500  -999.2500   -21.5210   104.3479     8.2469     7.3999     6.9109   -94.5995
 1207.5000  -999.2500  -999.2500  -999.2500  -999.2500   -21.5253   109.1968     8.0935     7.2621     6.9097   -94.3522
 1208.0000  -999.2500  -999.2500  -999.2500  -999.2500   -21.7320   113.2362     7.8694     7.1936     6.9086   -94.1050
 1208.5000  -999.2500  -999.2500  -999.2500  -999.2500   -21.1293   111.6102     8.0158     7.1257     6.9074   -93.8577
 1209.0000  -999.2500  -999.2500  -999.2500  -999.2500   -20.9314   114.0307     8.0144     7.1247     6.9064   -93.6105
 1209.5000  -999.2500  -999.2500  -999.2500  -999.2500   -20.9366   118.0696     8.0130     7.1232     6.9052   -93.3632
 1210.0000  -999.2500  -999.2500  -999.2500  -999.2500   -20.3340   118.8789     8.3929     7.1220     6.9038   -93.1160
 1210.5000  -999.2500  -999.2500  -999.2500  -999.2500   -20.9444   114.8178     8.2368     7.1207     6.9026   -92.8688
 1211.0000  -999.2500  -999.2500  -999.2500  -999.2500   -20.3427   112.7875     8.2354     7.1863     6.9012   -82.5127
 1211.5000  -999.2500  -999.2500  -999.2500  -999.2500   -20.1448   109.9482     8.3106     7.3196     6.9000   -92.3744
 1212.0000  -999.2500  -999.2500  -999.2500  -999.2500   -19.3401   106.3044     8.3092     7.3868     6.8988   -92.1272
 1212.5000  -999.2500  -999.2500  -999.2500  -999.2500   -20.1535   106.2973     8.3077     7.5244     6.8976  -101.9885
 1213.0000  -999.2500  -999.2500  -999.2500  -999.2500   -20.3602   108.3068     8.4622     7.5231     6.9611  -101.7412
 1213.5000  -999.2500  -999.2500  -999.2500  -999.2500   -20.9713   106.6815     8.5395     7.5217     7.0249   -91.3361
 1214.0000  -999.2500  -999.2500  -999.2500  -999.2500   -21.5824   105.0564     8.6181     7.5204     7.0891   -91.0889
 1214.5000  -999.2500  -999.2500  -999.2500  -999.2500   -21.7890   106.2627     8.4578     7.5191     7.0884  -100.9499
 1215.0000  -999.2500  -999.2500  -999.2500  -999.2500   -22.1978   107.0646     8.3005     7.5178     7.1529  -100.7026
 1215.5000  -999.2500  -999.2500  -999.2500  -999.2500   -22.2030   106.2484     8.2222     7.5165     7.1519   -90.3475
 1216.0000  -999.2500  -999.2500  -999.2500  -999.2500   -21.3975   106.2413     8.8557     7.5152     7.1504  -100.2081
 1216.5000  -999.2500  -999.2500  -999.2500  -999.2500   -21.5776   105.4253     8.4519     7.5139     7.1492   -89.8531
 1217.0000  -999.2500  -999.2500  -999.2500  -999.2500   -22.2159   104.6093     8.6090     7.6538     7.1482   -89.6060
 1217.5000  -999.2500  -999.2500  -999.2500  -999.2500   -22.4224   105.4110     8.6877     7.6522     7.1464   -89.3588
 1218.0000  -999.2500  -999.2500  -999.2500  -999.2500   -22.8311   108.2348     8.7673     7.6509     7.1454   -89.1117
 1218.5000  -999.2500  -999.2500  -999.2500  -999.2500   -23.2398   110.2496     8.3675     7.6496     7.1440   -88.8645
