~VERSION INFORMATION
 VERS.                2.0:   CWLS LOG ASCII STANDARD - VERSION 2.0
 WRAP.                 NO:   ONE LINE PER DEPTH STEP
~WELL INFORMATION
#MNEM.UNIT      DATA TYPE    INFORMATION
#----------   ------------   ------------------------------
 STRT.F          200.0000:   START DEPTH
 STOP.F         3060.0000:   STOP DEPTH
 STEP.F            0.5000:   STEP LENGTH
 NULL.          -999.2500:   NO VALUE
 COMP.    FENIX & SCISSON:   COMPANY
 WELL. FENIX NPR 3 "AX" #58-21:   WELL
 FLD .      NPR - WILDCAT:   FIELD
 LOC .      S21 T39N R78W:   LOCATION
 CNTY.            NATRONA:   COUNTY
 STAT.            WYOMING:   STATE
 CTRY. UNITED STATES OF AMERICA:   COUNTRY
 SRVC.              WELEX:   SERVICE COMPANY
 DATE.        12-JUN-1977:   LOGDATE
 API .     49025103790000:   API NUMBER
~CURVE INFORMATION
#MNEM.UNIT       API CODE    CURVE DESCRIPTION
#----------   ------------   ------------------------------
 DEPT.F                  :   
 CALD.IN     45 280 60 00:   CALIPER FROM DENSITY LOG
 GRD .GAPI   45 310 01 00:   GAMMA RAY FROM DENSITY LOG
 CORR.G/C3   45 356 01 00:   DENSITY CORRECTION
 RHOB.G/C3   45 350 01 00:   BULK DENSITY
 SPR .MV     07 010 01 00:   SPONTANEOUS POTENTIAL
 ILD .OHMM   07 120 46 00:   DEEP INDUCTION RESISTIVITY
 GURD.OHMM   07 220 05 00:   GUARD LOG RESISTIVITY
 ILM .OHMM   07 120 44 00:   INDUCTION LOG MEDIUM RESISTIVITY
 DT  .US/F   60 520 00 00:   DELTA TIME
 SPHI.DEC    60 890 00 00:   SONIC POROSITY
~PARAMETER INFORMATION
#MNEM.UNIT          VALUE    DESCRIPTION
#----------   ------------   ------------------------------
 EKB .F         5016.0000:   Kelly bushing
 EGL .F         5006.0000:   Ground level
 EDF .F            0.0000:   Drilling floor
 EPD .F            0.0000:   Permanent datum
 TD  .F         3062.0000:   Total depth
 DATE.        12-JUN-1977:   Date logged
 CLNT.            A2DTECH:   Client Code
 SL  . 280' FSL & 2160' FEL:   Surface Location
 PD  .                 GL:   Permanent Datum
 DD  .F              3060:   Depth driller
 DL  .F              3062:   Depth logger
 BLI .F              3060:   Bottom log interval
 TLI .F              2450:   Top log interval
 CS1 .IN            8.625:   Casing size
 CBD1.      8.625" @ 200':   Casing driller 1
 CBL1.F               218:   Casing logger 1
 BS1 .IN            7.875:   Bit size
 BSD1.F              3060:   Depth drilled with bit1
 DFT .            KCL/MUD:   Type fluid in hole
 DFD .                8.7:   Density
 DFV .                 33:   Viscosity
 DFPH.                7.5:   pH
 DFL .                 36:   Fluid loss
 MSS .           FLOWLINE:   Source of sample
 TCS .HRS             4.5:   Time Circ. stopped
 MRT .F               110:   Maximum recorded temp.
 LUN .               8611:   Logging unit number
 LUL .           GILLETTE:   Logging unit location
 ENGI.            C. DOAK:   Recorded By
 WITN.            RHOADES:   Witnessed by
 ORIG.           5" PRINT:   Origin of data
 UWI .     49025103790000:   Unique Well ID
 DICO. A2D TECHNOLOGIES, INC.:   Digitizing Company
 DAPD.                 10:   Feet Above Permanent Datum
 RMS .OHMM            1.3:   Rm
 MST .F                84:   Rm Meas. temp.
 RMF .OHMM            .52:   Rmf
 MFST.F                84:   Rmf Meas. temp.
 MFSS.               FANN:   Source Rmf.
 RMC .OHMM           1.43:   Rmc
 MCST.F                84:   Rmc Meas. temp.
 MCSS.                KIT:   Source Rmc.
 RMB .OHMM            .99:   Rm. at BHT
 BHT .F               110:   BHT.
~OTHER INFORMATION
~A   DEPT     CALD         GRD      CORR       RHOB        SPR        ILD       GURD        ILM         DT       SPHI   
# ...
 2645.5000     9.0220   111.8830     0.0240     2.5100   -67.0050     5.5700     7.6640     6.1740    83.8880     0.2250
 2646.0000     8.9960   113.1500     0.0220     2.5110   -66.9900     5.7350     8.1470     6.3160    83.2190     0.2200
 2646.5000     8.9830   114.2720     0.0220     2.5110   -67.0050     5.9010     8.8110     6.4590    82.0660     0.2130
 2647.0000     8.9880   115.4810     0.0250     2.5060   -66.9090     6.0670     8.7080     6.6010    80.7370     0.2060
 2647.5000     8.9930   116.6390     0.0290     2.5000   -66.7410     6.2330     8.2490     6.6840    80.8100     0.2020
 2648.0000     8.9990   117.8160     0.0320     2.5070   -66.5880     6.3980     7.8890     6.6840    80.9360     0.2020
 2648.5000     9.0040   119.0590     0.0350     2.5230   -66.4330     6.5620     8.6110     6.6840    80.4200     0.2000
 2649.0000     9.0100   119.8310     0.0380     2.5310   -66.2780     6.5620     9.4970     6.5570    79.2120     0.1970
 2649.5000     9.0160   119.7620     0.0420     2.5250   -66.1210     6.3440    10.2100     6.4310    78.0040     0.1840
 2650.0000     9.0210   119.6960     0.0450     2.5170   -65.9660     6.1010    10.2100     6.3060    76.7530     0.1720
 2650.5000     9.0270   120.4700     0.0460     2.5100   -65.8220     5.8590    10.0240     6.1800    77.3450     0.1780
 2651.0000     9.0320   121.7280     0.0450     2.5020   -65.8160     5.6630     8.9130     6.0550    78.8330     0.1940
 2651.5000     9.0380   122.9080     0.0440     2.4980   -66.0130     5.5520     7.7990     5.9290    80.3390     0.2060
 2652.0000     9.0430   124.0590     0.0430     2.4890   -66.2820     5.4120     6.6840     5.8030    83.3490     0.2260
 2652.5000     9.0490   125.2720     0.0410     2.4800   -66.5420     5.2730     6.3250     5.6780    86.3960     0.2460
 2653.0000     9.0540   126.4150     0.0350     2.4690   -66.8080     5.1330     6.5180     5.5520    88.9040     0.2660
 2653.5000     9.0600   127.5840     0.0290     2.4680   -67.0650     4.9930     6.7150     5.4270    89.4880     0.2720
 2654.0000     9.0650   127.6570     0.0220     2.4790   -67.3200     4.8530     6.9120     5.3010    89.0790     0.2720
 2654.5000     9.0710   126.7890     0.0170     2.4880   -67.5120     4.7130     7.1090     5.1760    87.9880     0.2580
 2655.0000     9.0770   125.4890     0.0200     2.4980   -67.7770     4.5730     7.1950     5.0700    87.2310     0.2480
 2655.5000     9.0820   124.2390     0.0240     2.5080   -67.7950     4.4570     7.0930     5.0700    87.0010     0.2480
 2656.0000     9.0880   122.9900     0.0270     2.5150   -67.6340     4.4570     7.0060     5.0700    87.5510     0.2520
 2656.5000     9.0930   121.7260     0.0300     2.5140   -67.3010     4.6880     6.9180     5.0700    88.3450     0.2590
 2657.0000     9.0990   120.4740     0.0220     2.5030   -66.9960     4.8880     6.8310     5.0700    89.1390     0.2660
 2657.5000     9.1030   119.2180     0.0150     2.4910   -66.6890     5.0880     6.5620     5.5350    89.9320     0.2730
 2658.0000     9.1010   117.9540     0.0080     2.4740   -66.3770     5.2610     6.6840     6.1600    90.7220     0.2790
 2658.5000     9.0990   116.7210     0.0060     2.4780   -66.0690     5.5630     7.2910     6.7850    90.2990     0.2790
 2659.0000     9.0970   115.4470     0.0100     2.4840   -65.7590     6.1770     7.8250     7.4100    88.6470     0.2680
 2659.5000     9.0950   114.9460     0.0140     2.4830   -65.4500     6.7910     9.4080     8.0360    86.9120     0.2520
 2660.0000     9.0940   115.4360     0.0180     2.4860   -65.1400     7.4050    13.9630     8.6610    83.6400     0.2260
 2660.5000     9.0920   116.4450     0.0220     2.4920   -64.8310     8.0190    13.3680     9.2860    80.0970     0.2010
 2661.0000     9.0900   117.3280     0.0260     2.4990   -64.5230     8.6340    12.1450     9.8410    76.9520     0.1760
 2661.5000     9.0880   117.3610     0.0330     2.5050   -64.2110     8.9750    12.8900    10.0240    76.8780     0.1690
 2662.0000     9.0860   116.6110     0.0340     2.5110   -63.9060     9.0740    14.2240    10.3080    77.2840     0.1720
 2662.5000     9.0840   115.6120     0.0340     2.5180   -63.5900     9.2700    12.7360    10.5030    77.6900     0.1760
 2663.0000     9.0820   114.6250     0.0290     2.5190   -63.4010     9.4660    12.5490    10.6970    78.0960     0.1800
 2663.5000     9.0800   113.6500     0.0260     2.5190   -63.7020     9.6620    12.1740    10.8920    78.5460     0.1840
 2664.0000     9.0780   112.7130     0.0220     2.5140   -64.1590     9.8410    11.8310    10.9910    78.3690     0.1860
 2664.5000     9.0760   112.7440     0.0190     2.5020   -64.5760     9.6610    12.6570    10.7080    78.1470     0.1840
 2665.0000     9.0750   113.8680     0.0150     2.4900   -64.9950     9.5220    13.4160    10.4190    78.0010     0.1800
 2665.5000     9.0730   114.8720     0.0140     2.4890   -65.4210     9.2350    13.9650    10.1300    77.6120     0.1760
 2666.0000     9.0710   115.9380     0.0140     2.4890   -65.8390     8.9470    13.1540     9.8410    77.1160     0.1720
 2666.5000     9.0690   116.9250     0.0150     2.4920   -66.2620     8.6590    12.2290     9.5520    77.2110     0.1740
 2667.0000     9.0670   118.0220     0.0160     2.4970   -66.6900     8.3710    11.3030     9.2630    78.9110     0.1850
 2667.5000     9.0650   119.0240     0.0180     2.5020   -67.0010     8.0830    10.1280     8.9740    80.6120     0.1970
 2668.0000     9.0630   119.8990     0.0190     2.5070   -66.9120     7.7960     9.0860     8.6850    82.0330     0.2100
 2668.5000     9.0610   121.7650     0.0200     2.5120   -66.7430     7.4650     7.8890     8.3960    83.1250     0.2250
 2669.0000     9.0590   118.8010     0.0220     2.5180   -66.5460     7.4650     8.1850     8.1070    83.7250     0.2230
 2669.5000     9.0570   113.0980     0.0180     2.5230   -66.3780     7.3430     9.0980     7.8890    82.7290     0.2190
 2670.0000     9.0560   107.6100     0.0160     2.5280   -66.2860     7.4000    11.5720     7.8890    80.5440     0.2070
 2670.5000     9.0540   106.4240     0.0130     2.5330   -66.7030     7.4570    13.7100     8.0090    77.4030     0.1840
 2671.0000     9.0520   107.7220     0.0110     2.5350   -66.8960     7.5140    15.8870     8.1250    74.3630     0.1620
 2671.5000     9.0500   110.5850     0.0090     2.5290   -67.1370     7.5710    15.3370     8.2400    72.1710     0.1350
 2672.0000     9.0480   113.0510     0.0070     2.5230   -67.4180     7.6040    12.9380     8.3560    72.6990     0.1350
 2672.5000     9.0460   115.5740     0.0060     2.5170   -67.0660     7.4900     9.1420     8.4920    73.9390     0.1470
 2673.0000     9.0440   118.0860     0.0060     2.5130   -66.9160     7.3790     9.2250     8.4060    75.1790     0.1580
 2673.5000     9.0420   120.4240     0.0070     2.5120   -66.8010     7.2680     9.4250     8.1990    76.4190     0.1690
 2674.0000     9.0400   120.5760     0.0090     2.5180   -66.7160     7.1570     9.6240     7.9930    77.5500     0.1760
 2674.5000     9.0380   120.1530     0.0110     2.5280   -66.6040     7.0460     9.8240     7.7450    77.1510     0.1760
 2675.0000     9.0370   119.0290     0.0130     2.5380   -66.5060     6.9350    10.0240     7.9270    76.0890     0.1760
 2675.5000     9.0350   117.9310     0.0140     2.5380   -66.4040     6.9350     9.6000     8.1540    74.7660     0.1610
 2676.0000     9.0330   116.6520     0.0140     2.5360   -66.3020     7.2350     9.1760     8.3810    73.7650     0.1450
 2676.5000     9.0310   113.6680     0.0210     2.5300   -66.1990     7.4870     8.7530     8.6080    75.4380     0.1450
 2677.0000     9.0290   110.5330     0.0270     2.5250   -66.1000     7.7380     8.4920     8.8350    77.1510     0.1710
 2677.5000     9.0270   107.2590     0.0330     2.5220   -65.9940     7.9890    10.2310     9.0620    77.1510     0.1760
 2678.0000     9.0250   103.9640     0.0300     2.5330   -65.8950     8.2410    11.9980     9.2890    77.1510     0.1750
 2678.5000     9.0230   100.6290     0.0270     2.5450   -65.8260     8.4920    13.4600     9.5160    75.3530     0.1610
