~VERSION INFORMATION
 VERS.                2.0:   CWLS LOG ASCII STANDARD - VERSION 2.0
 WRAP.                 NO:   ONE LINE PER DEPTH STEP
~WELL INFORMATION
#MNEM.UNIT      DATA TYPE    INFORMATION
#----------   ------------   ------------------------------
 STRT.F          204.5000:   START DEPTH
 STOP.F         2964.0000:   STOP DEPTH
 STEP.F            0.5000:   STEP LENGTH
 NULL.          -999.2500:   NO VALUE
 COMP.    FENIX & SCISSON:   COMPANY
 WELL. FENIX NPR 3 "AX" #14-28:   WELL
 FLD .  TEAPOT DOME NPR-3:   FIELD
 LOC .      S28 T39N R78W:   LOCATION
 CNTY.            NATRONA:   COUNTY
 STAT.            WYOMING:   STATE
 CTRY. UNITED STATES OF AMERICA:   COUNTRY
 SRVC.           BIRDWELL:   SERVICE COMPANY
 DATE.        24-MAY-1978:   LOGDATE
 API .     49025106450000:   API NUMBER
~CURVE INFORMATION
#MNEM.UNIT       API CODE    CURVE DESCRIPTION
#----------   ------------   ------------------------------
 DEPT.F                  :   
 SPR .MV     05 010 01 00:   SPONTANEOUS POTENTIAL
 CORR.G/C3   45 356 01 00:   DENSITY CORRECTION
 DEN .G/C3   45 350 01 00:   DENSITY
 CALD.IN     45 280 60 00:   CALIPER FROM DENSITY LOG
 GRD .GAPI   45 310 01 00:   GAMMA RAY FROM DENSITY LOG
 SN  .OHMM   05 040 16 00:   SHORT NORMAL 16"
 ILD .OHMM   05 120 46 00:   DEEP INDUCTION RESISTIVITY
~PARAMETER INFORMATION
#MNEM.UNIT          VALUE    DESCRIPTION
#----------   ------------   ------------------------------
 EKB .F         5042.0000:   Kelly bushing
 EGL .F         5032.0000:   Ground level
 EDF .F            0.0000:   Drilling floor
 TD  .F         2957.0000:   Total depth
 DATE.        24-MAY-1978:   Date logged
 CLNT.            A2DTECH:   Client Code
 SL  . 2410' FNL & 280' FWL:   Surface Location
 PD  .                 GL:   Permanent Datum
 EPD .F              5032:   Elevation Permanent Datum
 LMF .                 KB:   Log Measured From
 DMF .                 KB:   Drilling Measured From
 DAPD.F                10:   Feet Above Permanent Datum
 DD  .F              2950:   Depth driller
 DL  .F              2957:   Depth logger
 BLI .F              2951:   Bottom log interval
 TLI .F               225:   Top log interval
 CS1 .IN            8.625:   Casing size
 CBL1.F               225:   Casing logger 1
 BS1 .IN            7.875:   Bit size
 BSD1.F              2950:   Depth drilled with bit1
 DFT .       CHEMICAL GEL:   Type fluid in hole
 DFD .                  9:   Density
 DFV .                 34:   Viscosity
 DFPH.               10.5:   pH
 DFL .                  6:   Fluid loss
 MSS .           FLOWLINE:   Source of sample
 RMS .OHMM            1.5:   Rm
 MST .F                70:   Rm Meas. temp.
 RMF .OHMM            1.1:   Rmf
 MFST.F                78:   Rmf Meas. temp.
 RMC .OHMM            2.8:   Rmc
 MCST.F                72:   Rmc Meas. temp.
 MFSS.               MEAS:   Source Rmf.
 RMB .OHMM           0.95:   Rm. at BHT
 BHT .F               110:   BHT.
 TCS .HRS               2:   Time Circ. stopped
 MRT .F               110:   Maximum recorded temp.
 LUN .               2958:   Logging unit number
 LUL .               CASP:   Logging unit location
 ENGI.             MILLER:   Recorded By
 WITN.            RHOADES:   Witnessed by
 ORIG.           5" PRINT:   Origin of data
 UWI .     49025106450000:   Unique Well ID
 DICO. A2D TECHNOLOGIES, INC.:   Digitizing Company
~OTHER INFORMATION
~A   DEPT      SPR       CORR        DEN       CALD         GRD        SN        ILD   
# ...
  386.5000    -8.2000     0.1230     2.4410     8.8810   110.5640     6.5400     7.8310
  387.0000    -8.2000     0.1220     2.4430     8.8800   110.4360     6.4500     7.6700
  387.5000    -8.2000     0.1230     2.4440     8.8790   109.9480     6.3600     7.5190
  388.0000    -8.2000     0.1250     2.4450     8.8790   110.0320     6.2700     7.3690
  388.5000    -8.2000     0.1250     2.4460     8.8780   110.6090     6.1800     7.2180
  389.0000    -8.2000     0.1240     2.4460     8.8770   111.8130     6.0900     7.0670
  389.5000    -8.2000     0.1220     2.4390     8.8760   111.7020     6.0000     6.9170
  390.0000    -8.2000     0.1270     2.4300     8.8750   110.8420     5.9100     6.7600
  390.5000    -8.2000     0.1390     2.4240     8.8740   111.8240     5.8200     6.7600
  391.0000    -8.2000     0.1500     2.4230     8.8730   113.4330     5.7300     6.7600
  391.5000    -8.2000     0.1610     2.4220     8.8720   113.6400     5.6400     6.7600
  392.0000    -8.2000     0.1700     2.4210     8.8710   114.5450     5.5500     6.7600
  392.5000    -8.2000     0.1680     2.4140     8.8700   116.4310     5.4600     6.6590
  393.0000    -8.2000     0.1680     2.4050     8.8700   117.1700     5.3700     6.4950
  393.5000    -8.2000     0.1670     2.4000     8.8690   116.1700     5.2800     6.3300
  394.0000    -8.2000     0.1760     2.3990     8.8680   115.3880     5.1900     6.1650
  394.5000    -8.2000     0.1860     2.3900     8.8670   114.6280     5.1000     6.0000
  395.0000    -8.2000     0.1970     2.3770     8.8660   114.2130     4.9650     5.8350
  395.5000    -8.2000     0.2080     2.3650     8.8650   116.4740     4.9940     5.6710
  396.0000    -8.2000     0.2180     2.3530     8.8640   119.1390     5.1630     5.5230
  396.5000    -8.2000     0.2290     2.3400     8.8630   118.1170     5.3310     5.7880
  397.0000    -8.2000     0.2390     2.3280     8.8620   115.2550     5.5000     6.0290
  397.5000    -8.2000     0.2490     2.3200     8.8620   112.6510     5.6680     6.2700
  398.0000    -8.2000     0.2330     2.3250     8.8610   110.1090     5.8360     6.5110
  398.5000    -8.2000     0.2160     2.3590     8.8600   107.3260     6.0230     6.7600
  399.0000    -8.2000     0.1990     2.4060     8.8590   106.8910     6.2420     7.1310
  399.5000    -8.2000     0.1750     2.4140     8.8580   107.9160     6.4610     7.5160
  400.0000    -8.2000     0.1860     2.4260     8.8570   107.3200     6.6370     7.9770
  400.5000    -8.2000     0.1880     2.4600     8.8560   105.4720     6.6370     7.9770
  401.0000    -8.2000     0.1580     2.5010     8.8550   103.7970     6.6370     7.9770
  401.5000    -8.2000     0.1280     2.5390     8.8540   102.2230     6.6370     7.9770
  402.0000    -8.2000     0.1250     2.5170     8.8530   101.9950     6.6370     7.9770
  402.5000    -8.2000     0.1420     2.4760     8.8530   104.9890     6.6370     7.9770
  403.0000    -8.2000     0.1540     2.4480     8.8520   106.9130     6.6370     7.9770
  403.5000    -8.2000     0.1500     2.4460     8.8510   107.6350     6.6370     7.9770
  404.0000    -8.2000     0.1540     2.4460     8.8490   107.4410     6.6370     7.9770
  404.5000    -8.2000     0.1610     2.4480     8.8470   106.6820     6.6370     7.9770
  405.0000    -8.2000     0.1690     2.4490     8.8450   106.1590     6.5170     7.9440
  405.5000    -8.2000     0.1720     2.4510     8.8440   105.9390     6.3170     7.9110
  406.0000    -8.2000     0.1740     2.4490     8.8420   105.7110     6.1160     7.8790
  406.5000    -8.2000     0.1760     2.4440     8.8400   105.5300     5.9160     7.8460
  407.0000    -8.2000     0.1780     2.4390     8.8380   105.4310     5.8360     7.8130
  407.5000    -8.2000     0.1790     2.4360     8.8370   106.2430     5.8360     7.7800
  408.0000    -8.2000     0.1810     2.4320     8.8350   106.8800     5.8360     7.7480
  408.5000    -8.2000     0.1820     2.4260     8.8330   107.6540     5.8360     7.7150
  409.0000    -8.2000     0.1840     2.4200     8.8310   108.2860     5.8360     7.6890
  409.5000    -8.2000     0.1860     2.4150     8.8290   109.9120     5.6830     7.4630
  410.0000    -8.2000     0.1870     2.4160     8.8280   111.1930     5.3020     7.2740
  410.5000    -8.2000     0.1890     2.4170     8.8260   112.4450     4.9200     7.0860
  411.0000    -8.2000     0.1890     2.4110     8.8240   110.7900     4.5950     6.8980
  411.5000    -8.2000     0.1840     2.4060     8.8220   109.0780     4.3930     6.7090
  412.0000    -8.2000     0.1790     2.3970     8.8200   108.5360     4.1920     6.5210
  412.5000    -8.2000     0.1740     2.3860     8.8190   108.0770     3.7400     6.3320
  413.0000    -8.2000     0.1690     2.3780     8.8170   107.7230     3.3640     6.1440
  413.5000    -8.2000     0.1640     2.3710     8.8150   106.7910     2.9880     5.9560
  414.0000    -8.2000     0.1590     2.3470     8.8130   107.9370     2.6110     5.7290
  414.5000    -8.2000     0.1550     2.3200     8.8120   110.6430     2.2350     5.2000
  415.0000    -8.2000     0.1670     2.2940     8.8100   112.3880     2.0460     4.5380
  415.5000    -8.2000     0.1800     2.2350     8.8080   109.7570     2.0550     3.8760
  416.0000    -8.2000     0.1930     2.1840     8.8060   107.7330     2.0650     3.2140
  416.5000    -8.2000     0.2050     2.1310     8.8040   105.4880     2.0760     2.5520
  417.0000    -8.2000     0.2200     2.0790     8.8030   105.6940     2.0840     2.4830
  417.5000    -8.2000     0.2200     2.0250     8.8010   106.0810     2.1840     2.4150
  418.0000    -8.2000     0.2030     2.0010     8.7990   106.0080     2.2660     2.5530
  418.5000    -8.2000     0.1880     2.0040     8.7970   105.5270     2.3490     2.6910
  419.0000    -8.2000     0.1640     2.0020     8.7950   101.3010     2.4150     3.1390
  419.5000    -8.2000     0.1740     2.0040     8.7940    96.8920     2.8780     3.7930
  420.0000    -8.2000     0.2100     2.0110     8.7920    92.5300     3.2630     4.4470
  420.5000    -8.2000     0.2460     1.9850     8.7900    88.1100     3.6490     5.1020
  421.0000    -8.2000     0.2500     2.1780     8.7880    90.1740     4.0350     5.6250
  421.5000    -8.2000     0.2280     2.3160     8.7870    94.2420     4.4200     6.0590
  422.0000    -8.2000     0.2260     2.3060     8.7850    98.3540     4.8060     6.4200
  422.5000    -8.2000     0.2360     2.2950     8.7830   101.9520     5.0910     6.6470
  423.0000    -8.2000     0.2450     2.3060     8.7810   105.1260     5.2250     6.6720
  423.5000    -8.2000     0.2420     2.3270     8.7790   108.5040     5.3590     6.6970
  424.0000    -8.2000     0.2370     2.3380     8.7780   110.3190     5.4920     6.7210
  424.5000    -8.2000     0.2310     2.3500     8.7760   111.1280     5.6260     6.7460
  425.0000    -8.2000     0.2330     2.3620     8.7740   111.0140     5.7600     6.7710
  425.5000    -8.2000     0.2320     2.3730     8.7720   110.0780     5.8940     6.7960
  426.0000    -8.2000     0.2300     2.3770     8.7700   109.9590     6.0540     6.8200
  426.5000    -8.2000     0.2200     2.3800     8.7720   110.3190     6.1000     6.8450
  427.0000    -8.2000     0.2100     2.3830     8.7750   110.7290     6.1570     6.8700
  427.5000    -8.2000     0.2090     2.3810     8.7780   110.9840     6.2150     6.8950
  428.0000    -8.2000     0.2070     2.3790     8.7800   112.0170     6.2720     6.9200
  428.5000    -8.2000     0.2060     2.3790     8.7830   109.7360     6.3290     6.9440
  429.0000    -8.2000     0.2050     2.3800     8.7860   105.3230     6.3980     6.9690
  429.5000    -8.2000     0.2030     2.3800     8.7890   106.2900     6.3620     6.9940
  430.0000    -8.2000     0.2010     2.3810     8.7910   108.8560     6.3160     7.0140
  430.5000    -8.2000     0.1950     2.3810     8.7940   111.4910     6.2710     7.0140
  431.0000    -8.2000     0.1900     2.3810     8.7970   113.6530     6.2260     7.0140
  431.5000    -8.2000     0.1900     2.3820     8.7990   117.1180     6.1810     6.9770
