~VERSION INFORMATION
 VERS.                2.0:   CWLS LOG ASCII STANDARD - VERSION 2.0
 WRAP.                 NO:   ONE LINE PER DEPTH STEP
~WELL INFORMATION
#MNEM.UNIT      DATA TYPE    INFORMATION
#----------   ------------   ------------------------------
 STRT.F          243.5000:   START DEPTH
 STOP.F         2836.0000:   STOP DEPTH
 STEP.F            0.5000:   STEP LENGTH
 NULL.          -999.2500:   NO VALUE
 COMP. FENIX & SCISSON U. S. NAVY:   COMPANY
 WELL.   FENIX "A" #86-20:   WELL
 FLD .             NPR #3:   FIELD
 LOC .      S20 T39N R78W:   LOCATION
 CNTY.            NATRONA:   COUNTY
 STAT.            WYOMING:   STATE
 CTRY. UNITED STATES OF AMERICA:   COUNTRY
 SRVC.       SCHLUMBERGER:   SERVICE COMPANY
 DATE.        22-MAR-1977:   LOGDATE
 API .     49025103130000:   API NUMBER
~CURVE INFORMATION
#MNEM.UNIT       API CODE    CURVE DESCRIPTION
#----------   ------------   ------------------------------
 DEPT.F                  :   
 SPR .MV     07 010 01 00:   SPONTANEOUS POTENTIAL
 ILD .OHMM   07 120 46 00:   DEEP INDUCTION RESISTIVITY
 ILM .OHMM   07 120 44 00:   INDUCTION LOG MEDIUM RESISTIVITY
 LL8 .OHMM   07 220 08 00:   LATEROLOG-8 RES.
 CALD.IN     45 280 60 00:   CALIPER FROM DENSITY LOG
 GRD .GAPI   45 310 01 00:   GAMMA RAY FROM DENSITY LOG
 RHOB.G/C3   45 350 01 00:   BULK DENSITY
 CORR.G/C3   45 356 01 00:   DENSITY CORRECTION
~PARAMETER INFORMATION
#MNEM.UNIT          VALUE    DESCRIPTION
#----------   ------------   ------------------------------
 EKB .F         5005.0000:   Kelly bushing
 EGL .F         4994.0000:   Ground level
 EDF .F            0.0000:   Drilling floor
 TD  .F         2836.0000:   Total depth
 DATE.        22-MAR-1977:   Date logged
 CLNT.            A2DTECH:   Client Code
 SL  . 330' FEL & 1650' FSL:   Surface Location
 PD  .                 GL:   Permanent Datum
 EPD .F              5005:   Elevation Permanent Datum
 LMF .                 KB:   Log Measured From
 DMF .                 KB:   Drilling Measured From
 DD  .F              2835:   Depth driller
 DL  .F              2836:   Depth logger
 BLI .F              2826:   Bottom log interval
 TLI .F               259:   Top log interval
 CBD1.      8.625" @ 258':   Casing driller 1
 CBL1.F               259:   Casing logger 1
 BS1 .IN            7.875:   Bit size
 DFT .                KCL:   Type fluid in hole
 DFD .                9.1:   Density
 DFV .                 35:   Viscosity
 DFPH.                  9:   pH
 DFL .                8.6:   Fluid loss
 MSS .              CIRC.:   Source of sample
 RMS .OHMM           0.22:   Rm
 MST .F                60:   Rm Meas. temp.
 RMF .OHMM           0.18:   Rmf
 MFST.F                60:   Rmf Meas. temp.
 RMC .OHMM           0.33:   Rmc
 MCST.F                60:   Rmc Meas. temp.
 MFSS.               MEAS:   Source Rmf.
 RMB .OHMM           0.12:   Rm. at BHT
 BHT .F               110:   BHT.
 TCS .HRS            0900:   Time Circ. stopped
 MRT .F               110:   Maximum recorded temp.
 LUN .               7980:   Logging unit number
 LUL .               CSPR:   Logging unit location
 ENGI.                FIX:   Recorded By
 WITN.               JAPP:   Witnessed by
 ORIG.           5" PRINT:   Origin of data
 UWI .     49025103130000:   Unique Well ID
 DICO. A2D TECHNOLOGIES, INC.:   Digitizing Company
 DAPD.                 11:   Feet Above Permanent Datum
 CS1 .              8.625:   Casing size
 BSD1.               2835:   Depth drilled with bit1
 MCSS.               CACL:   Source Rmc.
 TLAB.               1630:   Time logger at bottom
~OTHER INFORMATION
~A   DEPT      SPR        ILD        ILM        LL8       CALD         GRD      RHOB       CORR   
# ...
  567.5000   -60.1140     9.7940     9.1030    10.9430     8.4090    99.6050     2.5220     0.0380
  568.0000   -60.0430     9.9710     9.4050    11.1240     8.4080    98.1130     2.5350     0.0460
  568.5000   -59.8920    10.1480     9.6180    11.2530     8.4070    98.9740     2.5130     0.0310
  569.0000   -59.7530    10.3250     9.8310    11.4080     8.4070    99.7720     2.5080     0.0260
  569.5000   -59.6150    10.5020    10.0440    11.5630     8.4060   100.4830     2.5210     0.0410
  570.0000   -59.4740    10.6780    10.2570    11.7180     8.4050   101.6650     2.5280     0.0400
  570.5000   -59.3350    10.8550    10.4700    11.8730     8.4040   102.8300     2.5240     0.0500
  571.0000   -59.1960    11.0320    10.6830    12.0270     8.4040   103.0460     2.5330     0.0410
  571.5000   -59.0560    11.2090    10.8960    12.1820     8.4030   101.5860     2.5160     0.0220
  572.0000   -58.9160    11.5370    11.1240    12.4090     8.4020   100.5710     2.5030     0.0220
  572.5000   -58.7770    11.5370    10.9010    12.2590     8.4020    99.6590     2.5100     0.0260
  573.0000   -58.6350    11.3110    10.8590    11.9650     8.4010    97.2950     2.4860     0.0140
  573.5000   -58.4980    11.2600    10.8180    11.9650     8.4020    94.9080     2.4830     0.0160
  574.0000   -58.3600    11.2090    10.7760    12.0460     8.4030    93.6970     2.5050     0.0270
  574.5000   -58.2030    11.1580    10.7350    12.1160     8.4030    92.9590     2.5010     0.0260
  575.0000   -58.2030    11.1070    10.6930    12.1850     8.4040    92.0880     2.5110     0.0320
  575.5000   -58.4170    11.0560    10.6520    12.1390     8.4050    90.6760     2.5210     0.0420
  576.0000   -58.6140    11.0050    10.6100    11.9180     8.4050    89.3260     2.5260     0.0530
  576.5000   -58.8260    10.9540    10.5690    11.5370     8.4060    92.6620     2.5260     0.0430
  577.0000   -58.9390    10.9030    10.5270    11.5370     8.4060    97.4820     2.5110     0.0320
  577.5000   -58.9260    10.8520    10.4860    11.4820     8.4070    98.9880     2.5240     0.0430
  578.0000   -58.9290    10.8010    10.4440    11.4290     8.4080    99.5190     2.5280     0.0380
  578.5000   -58.9300    10.7500    10.4030    11.3760     8.4080    98.9460     2.5060     0.0240
  579.0000   -58.9280    10.7000    10.3610    11.3290     8.4090    98.0550     2.4900     0.0170
  579.5000   -58.9290    10.6490    10.3200    11.1850     8.4100    96.9920     2.5120     0.0330
  580.0000   -58.9290    10.5980    10.2780    10.9800     8.4100    95.9380     2.5150     0.0280
  580.5000   -58.9290    10.5470    10.2370    10.9230     8.4110    95.2050     2.5120     0.0320
  581.0000   -58.9290    10.4960    10.1950    11.1040     8.4110    96.5820     2.5230     0.0250
  581.5000   -58.9290    10.4460    10.1540    11.2980     8.4120    98.3860     2.5110     0.0110
  582.0000   -58.9290    10.3950    10.1120    11.4920     8.4130   100.2280     2.5110     0.0090
  582.5000   -58.9290    10.3450    10.0710    11.1480     8.4130   100.5170     2.5110     0.0300
  583.0000   -58.9290    10.3520    10.0300    10.6450     8.4140   100.6390     2.5010     0.0240
  583.5000   -58.9290    10.3600     9.9870    10.1550     8.4150   100.2090     2.4880     0.0140
  584.0000   -58.9290    10.3690     9.9730    10.3140     8.4150    99.7770     2.4930     0.0080
  584.5000   -58.9290    10.3770     9.9800    11.0560     8.4160   100.0600     2.5000     0.0090
  585.0000   -58.9290    10.3860     9.9870    11.3410     8.4160   100.8280     2.4950     0.0110
  585.5000   -58.9290    10.3950     9.9930    11.3940     8.4170   101.5200     2.4950     0.0140
  586.0000   -58.9290    10.4040    10.0000    11.4480     8.4180   100.8860     2.5010     0.0290
  586.5000   -58.9290    10.4130    10.0060    11.5010     8.4180   100.1910     2.4970     0.0210
  587.0000   -58.9290    10.4220    10.0130    11.5540     8.4190   100.4490     2.5110     0.0320
  587.5000   -58.9290    10.4310    10.0200    11.6070     8.4200   101.9000     2.5060     0.0330
  588.0000   -58.9290    10.4400    10.0260    11.6600     8.4200   102.8580     2.4970     0.0190
  588.5000   -58.9290    10.4490    10.0330    11.7140     8.4210   102.1490     2.5000     0.0180
  589.0000   -58.9290    10.4580    10.0390    11.7490     8.4220    99.9600     2.5060     0.0160
  589.5000   -58.9290    10.4660    10.0460    11.5050     8.4220    99.5010     2.4970     0.0510
  590.0000   -58.9290    10.4750    10.0530    11.4470     8.4230    99.4960     2.5160     0.0410
  590.5000   -58.9290    10.4840    10.0590    11.3880     8.4230    98.4770     2.5130     0.0330
  591.0000   -58.9280    10.4930    10.0660    11.3290     8.4240    96.8560     2.5150     0.0500
  591.5000   -58.9310    10.5020    10.0730    11.3290     8.4250    95.7220     2.5100     0.0390
  592.0000   -58.9290    10.5110    10.0790    11.4870     8.4250    95.8160     2.5100     0.0280
  592.5000   -58.9230    10.5200    10.0860    11.6200     8.4260    97.6550     2.4970     0.0180
  593.0000   -58.9480    10.5320    10.0920    11.7490     8.4270    98.7890     2.4840     0.0170
  593.5000   -58.7530    10.5260    10.0990    11.5480     8.4270    99.5510     2.4990     0.0340
  594.0000   -58.4300    10.4990    10.1060    11.1240     8.4280    97.6810     2.5110     0.0460
  594.5000   -58.1510    10.4730    10.1120    11.2650     8.4280    95.7850     2.5170     0.0390
  595.0000   -57.7870    10.4460    10.1190    11.7970     8.4290    94.7390     2.5130     0.0340
  595.5000   -58.1100    10.4200    10.1260    11.9650     8.4300    94.5680     2.5030     0.0290
  596.0000   -58.3920    10.3930    10.1330    11.7250     8.4300    94.4210     2.5030     0.0230
  596.5000   -58.6060    10.3670    10.1390    11.4570     8.4310    93.6930     2.5030     0.0220
  597.0000   -58.7850    10.3400    10.1450    11.3290     8.4320    93.2020     2.5100     0.0330
  597.5000   -58.9970    10.3140    10.1530    11.5370     8.4320    94.0620     2.5220     0.0500
  598.0000   -59.2100    10.2870    10.1340    11.4420     8.4330    95.6660     2.5070     0.0360
  598.5000   -59.3440    10.2610    10.0910    11.2680     8.4330    98.2760     2.5020     0.0260
  599.0000   -59.3530    10.2340    10.0500    11.1240     8.4340   100.0630     2.4990     0.0210
  599.5000   -59.3760    10.2080    10.0090    11.1240     8.4350   100.2890     2.4980     0.0160
  600.0000   -59.3980    10.1820     9.9680    11.1710     8.4350   101.0220     2.5010     0.0180
  600.5000   -59.4170    10.1560     9.9270    11.2180     8.4360   101.8430     2.5040     0.0130
  601.0000   -59.4390    10.1400     9.8860    11.2650     8.4370   101.6860     2.5060     0.0220
  601.5000   -59.4600    10.1150     9.8440    11.3290     8.4370   101.4630     2.5090     0.0320
  602.0000   -59.4810    10.0890     9.8030    11.3060     8.4380   101.1540     2.4990     0.0270
  602.5000   -59.5020    10.0640     9.7620    11.2200     8.4380   100.4420     2.5090     0.0320
  603.0000   -59.5230    10.0390     9.7210    11.1350     8.4390    99.7250     2.5140     0.0400
  603.5000   -59.5440    10.0130     9.6800    11.0490     8.4400    99.0170     2.5100     0.0480
  604.0000   -59.5650     9.9880     9.6390    10.9630     8.4400    99.6450     2.5220     0.0370
  604.5000   -59.5870     9.9630     9.5970    10.7260     8.4410   100.0790     2.4990     0.0240
  605.0000   -59.6080     9.9380     9.5560    10.7260     8.4420    99.1560     2.5070     0.0230
  605.5000   -59.6290     9.9130     9.5150    10.8460     8.4420    98.2740     2.5160     0.0230
  606.0000   -59.6500     9.8880     9.4740    11.1240     8.4430    97.0720     2.5120     0.0250
  606.5000   -59.6710     9.8620     9.4410    11.0600     8.4430    94.3250     2.5260     0.0370
  607.0000   -59.6920     9.8370     9.4290    10.9520     8.4440    91.5630     2.5160     0.0300
  607.5000   -59.7130     9.8120     9.4140    10.8450     8.4450    88.8000     2.5300     0.0410
