~VERSION INFORMATION
 VERS.                2.0:   CWLS LOG ASCII STANDARD - VERSION 2.0
 WRAP.                 NO:   ONE LINE PER DEPTH STEP
~WELL INFORMATION
#MNEM.UNIT      DATA TYPE    INFORMATION
#----------   ------------   ------------------------------
 STRT.F            0.0000:   START DEPTH
 STOP.F         4030.0000:   STOP DEPTH
 STEP.F            0.5000:   STEP LENGTH
 NULL.          -999.2500:   NO VALUE
 COMP.  FENIX AND SCISSON:   COMPANY
 WELL.  FENIX "LX" #33-10:   WELL
 FLD . TEAPOT DOME (NPR #3):   FIELD
 LOC .      S10 T38N R78W:   LOCATION
 CNTY.            NATRONA:   COUNTY
 STAT.            WYOMING:   STATE
 CTRY. UNITED STATES OF AMERICA:   COUNTRY
 SRVC.       SCHLUMBERGER:   SERVICE COMPANY
 DATE.        03-APR-1978:   LOGDATE
 API .     49025105980000:   API NUMBER
~CURVE INFORMATION
#MNEM.UNIT       API CODE    CURVE DESCRIPTION
#----------   ------------   ------------------------------
 DEPT.F                  :   
 SPR .MV     07 010 01 00:   SPONTANEOUS POTENTIAL
 ILD .OHMM   07 120 46 00:   DEEP INDUCTION RESISTIVITY
 SFL .OHMM   07 220 01 00:   SHALLOW FOCUSED LOG RESISTIVITY
 ILM .OHMM   07 120 44 00:   INDUCTION LOG MEDIUM RESISTIVITY
 NPHI.DEC    42 890 03 00:   NEUTRON POROSITY SANDSTONE
 GRD .GAPI   45 310 01 00:   GAMMA RAY FROM DENSITY LOG
 CALD.IN     45 280 60 00:   CALIPER FROM DENSITY LOG
 RHOB.G/C3   45 350 01 00:   BULK DENSITY
 CORR.G/C3   45 356 01 00:   DENSITY CORRECTION
~PARAMETER INFORMATION
#MNEM.UNIT          VALUE    DESCRIPTION
#----------   ------------   ------------------------------
 EKB .F         5232.0000:   Kelly bushing
 EGL .F         5222.0000:   Ground level
 EDF .F            0.0000:   Drilling floor
 EPD .F         5222.0000:   Permanent datum
 TD  .F         4040.0000:   Total depth
 DATE.        03-APR-1978:   Date logged
 CLNT.            A2DTECH:   Client Code
 SL  . 1700' FNL & 1700' FWL:   Surface Location
 PD  .                 GL:   Permanent Datum
 DD  .F              4040:   Depth driller
 DL  .F              4031:   Depth logger
 BLI .F              4025:   Bottom log interval
 CS1 .IN            8.625:   Casing size
 CBD1.      8.625" @ 503':   Casing driller 1
 CBL1.F               504:   Casing logger 1
 BS1 .IN            7.875:   Bit size
 DFT .           CHEM GEL:   Type fluid in hole
 DFD .                9.5:   Density
 DFV .                 43:   Viscosity
 DFPH.               11.5:   pH
 DFL .                4.4:   Fluid loss
 MSS .            MUD PIT:   Source of sample
 RMS .OHMM           1.16:   Rm
 MST .F                80:   Rm Meas. temp.
 RMF .OHMM           0.93:   Rmf
 MFST.F                80:   Rmf Meas. temp.
 RMC .OHMM           1.74:   Rmc
 MCST.F                80:   Rmc Meas. temp.
 MFSS.               MEAS:   Source Rmf.
 RMB .OHMM          0.742:   Rm. at BHT
 BHT .F               125:   BHT.
 TCS .HRS            0800:   Time Circ. stopped
 MRT .F               125:   Maximum recorded temp.
 LUN .               7660:   Logging unit number
 LUL .                GLT:   Logging unit location
 ENGI.            TOEPPER:   Recorded By
 WITN.           MCGINLEY:   Witnessed by
 ORIG.         2.5" PRINT:   Origin of data
 UWI .     49025105980000:   Unique Well ID
 DICO. A2D TECHNOLOGIES, INC.:   Digitizing Company
 DAPD.                 10:   Feet Above Permanent Datum
 BSD1.               4040:   Depth drilled with bit1
 MCSS.               CALC:   Source Rmc.
 LMF .                 KB:   Log Measured From
 DMF .                 KB:   Drilling Measured From
 TLI .                504:   Top log interval
 TLAB.               1000:   Time logger at bottom
~OTHER INFORMATION
~A    DEPT     SPR        ILD        SFL        ILM       NPHI         GRD      CALD       RHOB       CORR   
# ...
 2372.5000   -47.8040     3.6480     4.7700     3.8730     0.3280   117.3590    10.1190     2.5290     0.0210
 2373.0000   -47.7810     3.4880     4.9610     3.7540     0.3280   116.0390    10.1100     2.5440     0.0270
 2373.5000   -47.7590     3.5480     4.6340     3.7930     0.3240   113.4820    10.1000     2.5630     0.0330
 2374.0000   -47.7360     3.6200     4.1150     3.8400     0.3200   111.0660    10.0890     2.5800     0.0340
 2374.5000   -47.7140     3.6920     4.2110     3.8870     0.3160   109.2070    10.0790     2.5970     0.0340
 2375.0000   -47.6910     3.7640     4.4450     3.9350     0.3120   108.9690    10.0690     2.5990     0.0280
 2375.5000   -47.6690     3.8360     4.6800     3.9820     0.3120   110.7440    10.0590     2.5680     0.0180
 2376.0000   -47.6460     3.9080     4.6800     4.0290     0.3150   111.9750    10.0490     2.5370     0.0120
 2376.5000   -47.6240     3.9800     4.6070     4.0760     0.3180   110.3430    10.0390     2.5420     0.0100
 2377.0000   -47.5800     4.0400     4.5440     4.1150     0.3220   109.1560    10.0280     2.5450     0.0420
 2377.5000   -47.5020     4.0460     4.4820     4.1300     0.3250   107.7250    10.0050     2.5690     0.0800
 2378.0000   -47.4300     4.0610     4.4290     4.1710     0.3300   109.3010     9.9770     2.6010     0.0940
 2378.5000   -47.3460     4.0760     4.4290     4.2120     0.3240   111.5560     9.9490     2.5870     0.0780
 2379.0000   -47.2790     4.0910     4.4290     4.2530     0.3300   113.6710     9.9210     2.5820     0.0680
 2379.5000   -47.2350     4.1060     4.4290     4.2940     0.3260   116.0470     9.8930     2.5890     0.0580
 2380.0000   -47.5500     4.1210     4.4290     4.3350     0.3190   115.2260     9.8670     2.5970     0.0490
 2380.5000   -47.8320     4.1360     4.5320     4.3760     0.3160   114.0460     9.8360     2.5710     0.0420
 2381.0000   -48.0360     4.1510     4.6740     4.4290     0.3260   112.7440     9.8490     2.5370     0.0170
 2381.5000   -48.0030     4.1660     4.8160     4.3840     0.3370   111.5560     9.8860     2.5410    -0.0010
 2382.0000   -47.9350     4.1880     4.9460     4.3190     0.3470   110.2930     9.9190     2.5580     0.0130
 2382.5000   -47.5630     4.1680     4.7790     4.2540     0.3570   109.0740     9.9520     2.5510     0.0250
 2383.0000   -47.6360     4.0830     4.5370     4.1890     0.3640   107.8680     9.9860     2.5520     0.0310
 2383.5000   -47.6060     3.9980     4.2940     4.1240     0.3670   106.4680    10.0190     2.5500     0.0380
 2384.0000   -47.5320     3.9130     4.0510     4.0590     0.3690   106.7690    10.0530     2.5750     0.0440
 2384.5000   -47.1720     3.8280     3.9670     3.9950     0.3680   108.8960    10.0690     2.5600     0.0380
 2385.0000   -47.2270     3.7430     3.9000     3.9300     0.3670   110.8650    10.0670     2.5350     0.0220
 2385.5000   -47.2070     3.6580     3.8220     3.8650     0.3530   111.7430    10.0670     2.5170     0.0070
 2386.0000   -47.2090     3.5730     3.7430     3.8000     0.3390   112.0560    10.0680     2.5200    -0.0020
 2386.5000   -47.2130     3.4880     3.6180     3.7350     0.3350   112.6070    10.0670     2.5380     0.0090
 2387.0000   -47.2100     3.4030     3.6320     3.6700     0.3390   113.7020    10.0680     2.5250     0.0250
 2387.5000   -47.2110     3.3010     3.6660     3.6180     0.3460   114.7470    10.0670     2.5140     0.0390
 2388.0000   -47.2100     3.2290     3.6990     3.5050     0.3530   115.8510    10.0670     2.5340     0.0540
 2388.5000   -47.2140     3.1390     3.7330     3.4110     0.3570   116.9020    10.0680     2.5300     0.0740
 2389.0000   -47.2070     3.0490     3.7540     3.3170     0.3540   117.7750    10.0670     2.5160     0.0680
 2389.5000   -47.2090     2.9590     3.5100     3.2230     0.3520   117.1350    10.0770     2.5030     0.0460
 2390.0000   -47.2360     2.8690     3.2600     3.1280     0.3400   116.5500    10.0950     2.5190     0.0250
 2390.5000   -47.3890     2.7790     3.0100     3.0160     0.3270   115.8930    10.1110     2.5440     0.0320
 2391.0000   -47.9370     2.6890     2.7460     3.0260     0.3250   115.2740    10.1280     2.5630     0.0480
 2391.5000   -48.0010     2.6470     3.0820     3.0460     0.3280   114.6440    10.1450     2.5700     0.0420
 2392.0000   -48.0110     2.7270     3.4380     3.0660     0.3350   114.0120    10.1610     2.5490     0.0200
 2392.5000   -48.0810     2.7970     3.8710     3.0860     0.3410   113.3840    10.1780     2.5260     0.0390
 2393.0000   -48.4670     2.8680     3.8150     3.1060     0.3460   112.7530    10.1950     2.5750     0.0570
 2393.5000   -48.3260     2.9020     3.7050     3.1240     0.3430   112.1260    10.2110     2.5590     0.0500
 2394.0000   -48.6560     3.0180     3.5950     3.2070     0.3380   111.4920    10.2280     2.5130     0.0350
 2394.5000   -48.2630     3.1230     3.4850     3.2830     0.3330   110.8610    10.2440     2.5380     0.0400
 2395.0000   -48.3640     3.2400     3.3620     3.3590     0.3340   110.2530    10.2610     2.5240     0.0350
 2395.5000   -47.9360     3.2200     3.3800     3.4350     0.3310   109.5740    10.2640     2.5110     0.0290
 2396.0000   -48.0270     3.1960     3.4170     3.5520     0.3280   109.0120    10.2590     2.5150     0.0230
 2396.5000   -48.0420     3.1720     3.4550     3.5220     0.3310   108.4820    10.2560     2.4920     0.0170
 2397.0000   -47.6790     3.1480     3.4920     3.4550     0.3350   110.4680    10.2520     2.4800     0.0180
 2397.5000   -47.6100     3.1250     3.5290     3.3880     0.3380   112.6650    10.2480     2.4880     0.0270
 2398.0000   -47.6200     3.1010     3.5670     3.3210     0.3410   114.8220    10.2450     2.5110     0.0390
 2398.5000   -47.4060     3.0770     3.6180     3.2540     0.3350   116.8490    10.2410     2.5410     0.0350
 2399.0000   -47.2660     3.0530     3.5390     3.1870     0.3300   114.9530    10.2370     2.5200     0.0300
 2399.5000   -47.4460     3.0300     3.4120     3.1200     0.3240   113.5600    10.2330     2.5250     0.0460
 2400.0000   -47.5870     3.0110     3.3620     3.0670     0.3190   112.8470    10.2300     2.5370     0.0580
 2400.5000   -47.7230     3.0520     3.5560     3.1590     0.3140   112.1120    10.2260     2.5270     0.0640
 2401.0000   -47.8720     3.1050     3.6180     3.2740     0.3090   111.3860    10.2220     2.5030     0.0320
 2401.5000   -48.0130     3.1570     3.5510     3.3900     0.3040   110.5790    10.2190     2.5090     0.0000
 2402.0000   -48.1560     3.2090     3.4880     3.5050     0.3000   109.9300    10.2150     2.5270     0.0060
 2402.5000   -48.3010     3.2610     3.7570     3.6210     0.3140   109.3330    10.2110     2.5170     0.0230
 2403.0000   -48.4430     3.2950     4.0790     3.7540     0.3260   112.4820    10.2070     2.5090     0.0430
 2403.5000   -48.5830     3.2740     4.5120     3.6720     0.3380   115.8210    10.2040     2.5150     0.0610
 2404.0000   -48.7440     3.2520     4.3780     3.5760     0.3420   118.6810    10.2000     2.5230     0.0790
 2404.5000   -48.7170     3.2400     3.8700     3.4800     0.3300   119.7030    10.1960     2.5450     0.1010
 2405.0000   -48.4710     3.1290     3.3010     3.3840     0.3130   120.6280    10.1930     2.4730     0.0540
 2405.5000   -48.2570     3.0260     3.1700     3.2880     0.3170   121.5690    10.1880     2.4990     0.0590
 2406.0000   -48.0310     2.9220     3.0670     3.1810     0.3260   122.4230    10.1960     2.5480     0.1010
 2406.5000   -48.0040     2.8180     3.2000     3.1300     0.3340   123.2590    10.2260     2.5350     0.0810
 2407.0000   -48.0010     2.7460     3.3620     3.0740     0.3340   120.3790    10.2550     2.5100     0.0440
 2407.5000   -48.0400     2.6960     3.2970     3.0170     0.3330   118.4000    10.2850     2.5140     0.0540
 2408.0000   -47.7910     2.7060     3.1700     2.9560     0.3310   118.1450    10.3150     2.5210     0.0590
 2408.5000   -47.9120     2.7360     3.0440     2.9560     0.3390   117.7270    10.3440     2.5270     0.0580
