~VERSION INFORMATION
 VERS.                2.0:   CWLS LOG ASCII STANDARD - VERSION 2.0
 WRAP.                 NO:   ONE LINE PER DEPTH STEP
~WELL INFORMATION
#MNEM.UNIT      DATA TYPE    INFORMATION
#----------   ------------   ------------------------------
 STRT.F          200.0000:   START DEPTH
 STOP.F         3135.5000:   STOP DEPTH
 STEP.F            0.5000:   STEP LENGTH
 NULL.          -999.2500:   NO VALUE
 COMP.    FENOX & SCISSON:   COMPANY
 WELL. FENIX NPR 23 "AX" #3-11:   WELL
 FLD .                NPR:   FIELD
 LOC .      S11 T38N R78W:   LOCATION
 CNTY.            NATRONA:   COUNTY
 STAT.            WYOMING:   STATE
 CTRY. UNITED STATES OF AMERICA:   COUNTRY
 SRVC.       SCHLUMBERGER:   SERVICE COMPANY
 DATE.        06-NOV-1977:   LOGDATE
 API .     49025104320000:   API NUMBER
~CURVE INFORMATION
#MNEM.UNIT       API CODE    CURVE DESCRIPTION
#----------   ------------   ------------------------------
 DEPT.F                  :   
 CALD.IN     45 280 60 00:   CALIPER FROM DENSITY LOG
 GRD .GAPI   45 310 01 00:   GAMMA RAY FROM DENSITY LOG
 RHOB.G/C3   45 350 01 00:   BULK DENSITY
 CORR.G/C3   45 356 01 00:   DENSITY CORRECTION
 SPR .MV     07 010 01 00:   SPONTANEOUS POTENTIAL
 LL8 .OHMM   07 220 08 00:   LATEROLOG-8 RES.
 ILD .OHMM   07 120 46 00:   DEEP INDUCTION RESISTIVITY
 ILM .OHMM   07 120 44 00:   INDUCTION LOG MEDIUM RESISTIVITY
~PARAMETER INFORMATION
#MNEM.UNIT          VALUE    DESCRIPTION
#----------   ------------   ------------------------------
 EKB .F         5176.0000:   Kelly bushing
 EGL .F         5171.0000:   Ground level
 TD  .F         3138.0000:   Total depth
 DATE.        06-NOV-1977:   Date logged
 CLNT.            A2DTECH:   Client Code
 SL  . 1650' FNL & 750' FWL:   Surface Location
 PD  .                 GL:   Permanent Datum
 EPD .F              5171:   Elevation Permanent Datum
 LMF .                 KB:   Log Measured From
 DMF .                 KB:   Drilling Measured From
 DAPD.F                 5:   Feet Above Permanent Datum
 DD  .F              3138:   Depth driller
 DL  .F              3135:   Depth logger
 BLI .F              3134:   Bottom log interval
 TLI .F               196:   Top log interval
 CS1 .IN            8.625:   Casing size
 CBD1.      8.625" @ 205':   Casing driller 1
 CBL1.F               205:   Casing logger 1
 BS1 .IN            7.875:   Bit size
 BSD1.F              3138:   Depth drilled with bit1
 DFT .            KCL/MUD:   Type fluid in hole
 DFD .                8.8:   Density
 DFV .                 34:   Viscosity
 DFPH.                 11:   pH
 DFL .                  6:   Fluid loss
 MSS .            MUD/PIT:   Source of sample
 RMS .OHMM           0.27:   Rm
 MST .F                48:   Rm Meas. temp.
 RMF .OHMM           0.29:   Rmf
 MFST.F                48:   Rmf Meas. temp.
 RMC .OHMM           0.39:   Rmc
 MCST.F                48:   Rmc Meas. temp.
 MFSS.               MEAS:   Source Rmf.
 MCSS.               CALC:   Source Rmc.
 RMB .OHMM           0.12:   Rm. at BHT
 BHT .F               104:   BHT.
 TCS .HRS            1500:   Time Circ. stopped
 TLAB.HRS            1930:   Time logger at bottom
 MRT .F               104:   Maximum recorded temp.
 LUN .               7711:   Logging unit number
 LUL .               CSPR:   Logging unit location
 ENGI.       CRAIG/SAYLER:   Recorded By
 WITN.         PETTINGILL:   Witnessed by
 ORIG.           5" PRINT:   Origin of data
 UWI .     49025104320000:   Unique Well ID
 DICO. A2D TECHNOLOGIES, INC.:   Digitizing Company
~OTHER INFORMATION
~A   DEPT     CALD        GRD       RHOB       CORR        SPR        LL8        ILD        ILM   
# ...
  402.5000     8.2636   113.0161     2.4603     0.0042   -73.8769     6.9145     9.4510     8.3489
  403.0000     8.2634   115.1186     2.4553     0.0022   -73.8730     6.4245     9.4534     7.9741
  403.5000     8.2633   117.5218     2.4493     0.0021   -74.0674     5.7226     9.4548     7.7579
  404.0000     8.2631   119.6243     2.4432     0.0051   -74.0658     5.5666     8.9492     7.5476
  404.5000     8.2629   118.4207     2.4302     0.0131   -74.2626     5.5681     8.0897     7.6189
  405.0000     8.2627   117.2164     2.4522     0.0151   -74.0571     6.1970     8.0172     7.7622
  405.5000     8.2625   116.3127     2.4613     0.0241   -74.0531     6.3132     8.0186     7.8355
  406.0000     8.2624   116.6115     2.4753     0.0221   -74.0491     6.2565     7.9467     7.9096
  406.5000     8.2622   115.1065     2.4552     0.0181   -74.4467     6.5528     8.0953     7.6951
  407.0000     8.2620   112.0974     2.4452     0.0161   -74.6435     6.3754     7.9487     7.2154
  407.5000     8.2618   112.3970     2.4351     0.0130   -74.8404     6.0898     7.6639     6.7025
  408.0000     8.2617   112.6954     2.4251     0.0130   -75.2380     4.7955     7.8075     5.1790
  408.5000     8.2615   110.2887     2.4100     0.0200   -75.0332     3.9282     7.7369     4.9008
  409.0000     8.2814   106.0776     2.4000     0.0210   -75.2300     4.0654     7.7389     6.2878
  409.5000     8.2812   104.8730     2.4060     0.0200   -74.6237     5.7671     7.8118     6.5251
  410.0000     8.2610   106.0734     2.4712     0.0220   -74.6197     6.3484     8.0318     6.8973
  410.5000     8.2608   108.1755     2.4889     0.0280   -74.2141     6.4423     8.7264     7.7064
  411.0000     8.2606   108.4743     2.5093     0.0270   -74.0094     6.4435     8.8896     8.0715
  411.5000     8.2604   109.0737     2.4752     0.0109   -73.6038     6.4447     9.6198     8.0603
  412.0000     8.2602   110.2745     2.4711     0.0109   -73.8006     6.5054     9.8003     8.1493
  412.5000     8.2600   110.8740     2.4771     0.0159   -73.3950     6.4470     8.7752     8.4574
  413.0000     8.2599   111.1728     2.4771     0.0119   -73.1903     6.4482     8.5373     8.1526
  413.5000     8.2597   110.5696     2.4711     0.0108   -73.7887     6.6298     8.5389     8.2293
  414.0000     8.2595   109.6657     2.4641     0.0138   -73.3831     6.6310     8.9822     8.3074
  414.5000     8.2593   109.3631     2.4540     0.0078   -73.3791     6.6322     8.1196     8.0822
  415.0000     8.2592   109.0605     2.4470     0.0088   -73.7760     6.3938     7.8277     7.0393
  415.5000     8.2590   109.9603     2.4629     0.0178   -74.9767     5.9963     7.8292     6.7856
  416.0000     8.2789   112.3648     2.4730     0.0248   -74.9728     5.4703     7.9029     5.8556
  416.5000     8.2586   113.5657     2.4560     0.0428   -75.1696     3.8677     7.8320     5.3902
  417.0000     8.2785   113.8646     2.4390     0.0358   -75.1656     4.0401     7.8326     6.2486
  417.5000     8.2783   112.6599     2.4108     0.0197   -74.7600     5.6264     7.7632     6.6660
  418.0000     8.2781   109.3502     2.4289     0.0077   -74.5553     5.8387     7.9087     7.0465
  418.5000     8.2780   104.8376     2.4489     0.0077   -74.3505     5.4949     8.4361     7.3806
  419.0000     8.2778   104.2342     2.4659     0.0097   -73.9449     6.2867     8.6742     7.8023
  419.5000     8.2977   103.9316     2.4790     0.0086   -73.5402     6.7678     8.7550     8.4012
  420.0000     8.3376   104.2304     2.4970     0.0086   -73.3338     6.8316     9.2533     8.5591
  420.5000     8.2973   105.4314     2.4940     0.0116   -72.9267     7.0240     9.9623     8.8824
  421.0000     8.2971   106.6316     2.4849     0.0086   -72.9251     7.0901     9.9641     9.1332
  421.5000     8.3170   107.2312     2.4839     0.0116   -72.7203     7.1569    10.1509     9.3046
  422.0000     8.3168   107.5311     2.4909     0.0176   -72.7179     7.2244    10.1527     9.2209
  422.5000     8.3167   105.1218     2.4849     0.0176   -72.5123     7.3598    10.2484     9.3087
  423.0000     8.3165   105.4206     2.4919     0.0175   -72.5076     7.3612    10.5366     9.3956
  423.5000     8.3163   107.2232     2.4979     0.0115   -72.3036     7.3625    10.5385     9.3980
  424.0000     8.2960   108.4243     2.5029     0.0115   -72.0988     7.3638    10.7353     9.4872
  424.5000     8.3560   109.9261     2.4929     0.0095   -71.8949     7.3655    10.8384     9.5754
  425.0000     8.3358   110.5258     2.4888     0.0075   -72.4909     7.5035    10.6420     9.5786
  425.5000     8.3557   109.9224     2.4938     0.0064   -72.4869     7.7148    10.3547     9.5814
  426.0000     8.3154   108.4167     2.4928     0.0024   -72.4829     7.8595    10.3562     9.8505
  426.5000     8.3553   108.1148     2.4968     0.0024   -72.4789     7.9335    10.3574    10.1287
  427.0000     8.3552   107.2106     2.4958     0.0034   -72.4750     7.9349    10.7490    10.3188
  427.5000     8.3550   106.3064     2.4878     0.0064   -72.6718     7.8637    10.7498    10.5136
  428.0000     8.3548   105.7029     2.4788     0.0043   -72.4670     7.7218    10.8506    10.0412
  428.5000     8.3748   107.2045     2.4747     0.0033   -72.6638     7.5131    10.6545    10.0434
  429.0000     8.3946   107.2026     2.4757     0.0093   -72.6599     7.3100    10.7560     9.9531
  429.5000     8.3944   105.9976     2.4930     0.0223   -72.4551     7.2444    10.7584     9.8631
  430.0000     8.3942   103.2886     2.5128     0.0273   -72.4511     7.7989    10.4672     9.6843
  430.5000     8.4141    97.8717     2.5188     0.0313   -72.4463     7.8723    10.5662     8.6723
  431.0000     8.4139    96.6665     2.5218     0.0293   -72.8447     8.2443    10.5669     7.6230
  431.5000     8.4137    96.3637     2.5187     0.0233   -72.6400     8.6337    11.2314     7.0821
  432.0000     8.4336    97.5649     2.5087     0.0132   -72.6360     8.7959    10.9266     9.3411
  432.5000     8.4334    98.7661     2.4867     0.0082   -72.8328     8.7170    10.2461     9.4293
  433.0000     8.4733   105.6826     2.4536     0.0042   -73.0296     8.6388     9.7854     9.1740
  433.5000     8.4531   111.3960     2.4385     0.0062   -73.0265     7.8812     9.2607     9.0067
  434.0000     8.4529   114.4023     2.4255     0.0122   -74.1796     5.3572     8.7638     6.1164
  434.5000     8.4728   114.1000     2.4115     0.0392   -74.4233     3.9195     8.4083     4.6817
  435.0000     8.4928   107.7806     2.4245     0.0522   -74.2177     3.5757     8.4092     4.1535
  435.5000     8.4724   102.9656     2.4465     0.0392   -73.2098     3.8588     8.3344     7.8500
  436.0000     8.4723    98.7522     2.4776     0.0131   -72.4026     8.6482     8.7281     8.9335
  436.5000     8.4721    98.4493     2.5266     0.0231   -72.1978     8.9739     9.3101     9.1858
  437.0000     8.4719    99.0490     2.5326     0.0331   -71.9931     9.0584     9.7499     8.9367
  437.5000     8.4718   100.2499     2.5326     0.0301   -71.5875     8.9771    10.4962     9.3602
  438.0000     8.4916   101.7521     2.5166     0.0140   -71.7843     8.9788    11.0944     9.7133
  438.5000     8.4915   100.8485     2.5045     0.0090   -71.5795     9.0634    11.1981    10.9529
  439.0000     8.5113   100.5461     2.5015     0.0080   -70.9732     9.0650    11.5147    11.0568
  439.5000     8.5112   100.2429     2.4985     0.0080   -70.9676     9.1504    11.5159    11.0581
  440.0000     8.5912    99.9401     2.4975     0.0120   -70.5637     9.0683    11.6240    10.9589
  440.5000     8.5509    99.3364     2.5025     0.0240   -70.5605     9.0700    11.7331    10.7606
  441.0000     8.5507    97.2285     2.5035     0.0270   -70.3557     8.9886    11.6287    10.6634
  441.5000     8.5907    93.3153     2.5015     0.0269   -69.7485     8.9902    12.0657    10.7646
  442.0000     8.5905    88.4996     2.5015     0.0279   -69.5430     8.9099    12.5210    10.7661
  442.5000     8.5903    81.8781     2.4984     0.0269   -69.3382     9.1608    12.7557    11.1736
