~VERSION INFORMATION
 VERS.                2.0:   CWLS LOG ASCII STANDARD - VERSION 2.0
 WRAP.                 NO:   ONE LINE PER DEPTH STEP
~WELL INFORMATION
#MNEM.UNIT      DATA TYPE    INFORMATION
#----------   ------------   ------------------------------
 STRT.F          207.0000:   START DEPTH
 STOP.F         3130.0000:   STOP DEPTH
 STEP.F            0.5000:   STEP LENGTH
 NULL.          -999.2500:   NO VALUE
 COMP. FENIX & SCISSON U.S. NAVY:   COMPANY
 WELL.    FENIX "A" #61-3:   WELL
 FLD .             NPR #3:   FIELD
 LOC .       S3 T38N R78W:   LOCATION
 CNTY.            NATRONA:   COUNTY
 STAT.            WYOMING:   STATE
 CTRY. UNITED STATES OF AMERICA:   COUNTRY
 SRVC.              WELEX:   SERVICE COMPANY
 DATE.        13-MAY-1977:   LOGDATE
 API .     49025103630000:   API NUMBER
~CURVE INFORMATION
#MNEM.UNIT       API CODE    CURVE DESCRIPTION
#----------   ------------   ------------------------------
 DEPT.F                  :   
 SPR .MV     07 010 01 00:   SPONTANEOUS POTENTIAL
 SFLU.OHMM   07 220 01 00:   SPHERICALLY FOCUSED LOG UNAVERAGED RESISTIVITY
 ILD .OHMM   07 120 46 00:   INDUCTION LOG DEEP RESISTIVITY
 ILM .OHMM   07 120 44 00:   INDUCTION LOG MEDIUM RESISTIVITY
 CALD.IN     45 280 60 00:   CALIPER FROM DENSITY LOG
 GRD .GAPI   45 310 01 00:   GAMMA RAY FROM DENSITY LOG
 RHOB.G/C3   45 350 01 00:   BULK DENSITY
 CORR.G/C3   45 356 01 00:   DENSITY CORRECTION
~PARAMETER INFORMATION
#MNEM.UNIT          VALUE    DESCRIPTION
#----------   ------------   ------------------------------
 EKB .F         5109.0000:   Kelly bushing
 EGL .F         5099.0000:   Ground level
 EDF .F            0.0000:   Drilling floor
 TD  .F         3130.0000:   Total depth
 DATE.        13-MAY-1977:   Date logged
 CLNT.            A2DTECH:   Client Code
 SL  . 330' FNL & 1650' FEL:   Surface Location
 PD  .                 GL:   Permanent Datum
 EPD .F              5099:   Elevation Permanent Datum
 LMF .                 KB:   Log Measured From
 DMF .                 KB:   Drilling Measured From
 DAPD.F                10:   Feet Above Permanent Datum
 DD  .F              3126:   Depth driller
 DL  .F              3129:   Depth logger
 BLI .F              3127:   Bottom log interval
 TLI .F               210:   Top log interval
 CS1 .IN            8.625:   Casing size
 CBD1.      8.625" @ 200':   Casing driller 1
 CBL1.F               216:   Casing logger 1
 BS1 .IN            7.875:   Bit size
 BSD1.F              3126:   Depth drilled with bit1
 DFT .            KCL MUD:   Type fluid in hole
 DFD .                9.1:   Density
 DFV .                 32:   Viscosity
 DFPH.                  8:   pH
 DFL .                8.4:   Fluid loss
 MSS .           FLOWLINE:   Source of sample
 RMS .OHMM            .29:   Rm
 MST .F                68:   Rm Meas. temp.
 RMF .OHMM            .28:   Rmf
 MFST.F                68:   Rmf Meas. temp.
 RMC .OHMM            .43:   Rmc
 MCST.F                68:   Rmc Meas. temp.
 MFSS.           FANN KIT:   Source Rmf.
 MCSS.           FANN KIT:   Source Rmc.
 RMB .OHMM            .16:   Rm. at BHT
 BHT .F               123:   BHT.
 TCS .HRS             2.5:   Time Circ. stopped
 MRT .F               123:   Maximum recorded temp.
 LUN .               9685:   Logging unit number
 LUL .           BRIGHTON:   Logging unit location
 ENGI.          T. JOYNER:   Recorded By
 WITN.      B. HARRINGTON:   Witnessed by
 ORIG.           5" PRINT:   Origin of data
 UWI .     49025103630000:   Unique Well ID
 DICO. A2D TECHNOLOGIES, INC.:   Digitizing Company
~OTHER INFORMATION
~A   DEPT      SPR       SFLU        ILD        ILM       CALD        GRD       RHOB       CORR   
# ...
 1746.0000   -37.8964     8.2253     5.3853     5.8501     8.7540   123.5446     2.5089     0.0058
 1746.5000   -38.1029     8.2228     5.3349     5.9028     8.7343   123.5471     2.5089     0.0059
 1747.0000   -38.1113     7.9965     5.3330     5.9559     8.7343   124.3415     2.5099     0.0079
 1747.5000   -37.9199     7.8486     5.3320     5.8999     8.7344   125.1360     2.5129     0.0079
 1748.0000   -37.9266     7.8471     5.3306     5.8993     8.7146   125.9306     2.5140     0.0079
 1748.5000   -37.9350     7.8447     5.3301     5.8981     8.7147   125.9331     2.5140     0.0079
 1749.0000   -37.9451     7.8432     5.3288     5.9179     8.7148   125.1436     2.5160     0.0100
 1749.5000   -37.9501     7.9133     5.3275     5.9378     8.7148   125.5421     2.5180     0.0120
 1750.0000   -37.9585     8.0584     5.2758     5.9578     8.6753   126.7327     2.5210     0.0160
 1750.5000   -38.1684     8.0563     5.2755     5.9778     8.7133   126.7347     2.5210     0.0186
 1751.0000   -38.1734     8.0543     5.2737     5.9979     8.7348   125.5491     2.5210     0.0220
 1751.5000   -38.3833     8.0531     5.2729     6.0180     8.7348   124.7594     2.5182     0.0221
 1752.0000   -38.3917     8.0503     5.3201     6.0383     8.7547   124.3659     2.5180     0.0221
 1752.5000   -38.1986     8.0483     5.3677     6.0586     8.7349   123.5762     2.5170     0.0221
 1753.0000   -38.2103     8.0463     5.3664     6.0789     8.7350   123.5787     2.5141     0.0161
 1753.5000   -38.0190     8.0447     5.4149     6.1027     8.7350   124.7694     2.5101     0.0101
 1754.0000   -38.0273     8.0431     5.4136     6.1020     8.7351   125.9603     2.5111     0.0082
 1754.5000   -38.0357     8.1897     5.4120     6.1569     8.7352   126.7550     2.5141     0.0082
 1755.0000   -38.0441     8.1880     5.4109     6.1548     8.7154   126.7575     2.5171     0.0082
 1755.5000   -38.0525     8.2613     5.4093     6.1536     8.6957   125.5717     2.5191     0.0082
 1756.0000   -38.0609     8.2601     5.4082     6.1518     8.7353   124.3858     2.5181     0.0082
 1756.5000   -38.0693     8.2572     5.4066     6.1502     8.6958   123.5959     2.5171     0.0082
 1757.0000   -38.0777     8.2551     5.4053     6.1487     8.7156   123.2023     2.5163     0.0083
 1757.5000   -38.2859     8.1774     5.4042     6.1472     8.7157   123.2047     2.5193     0.0083
 1758.0000   -38.2943     8.1758     5.4032     5.9235     8.7553   123.2072     2.5224     0.0067
 1758.5000   -38.3027     8.1742     5.4016     5.9220     8.7356   123.6059     2.5254     0.0147
 1759.0000   -38.3111     8.1713     5.4000     5.9209     8.7356   123.6083     2.5264     0.0148
 1759.5000   -38.3195     8.1693     5.3989     5.9194     8.7357   123.6108     2.5224     0.0148
 1760.0000   -38.3279     8.1672     5.3973     5.9179     8.7159   123.2171     2.5204     0.0148
 1760.5000   -38.1365     8.0163     5.4453     5.9165     8.7358   123.2195     2.5154     0.0148
 1761.0000   -38.1449     8.0143     5.4445     5.9150     8.7557   122.8258     2.5174     0.0168
 1761.5000   -38.3531     8.0123     5.3933     5.9135     8.7359   122.4320     2.5162     0.0168
 1762.0000   -38.1617     7.8642     5.3919     5.9124     8.6963   122.4335     2.5122     0.0169
 1762.5000   -38.3699     8.0823     5.3906     5.9109     8.7360   122.0401     2.5102     0.0169
 1763.0000   -38.3783     8.1550     5.3893     5.9094     8.7361   121.6464     2.5103     0.0169
 1763.5000   -38.1869     8.1530     5.3880     5.9632     8.7361   120.5000     2.5083     0.0169
 1764.0000   -38.1953     8.1510     5.4364     6.1277     8.7560   119.3136     2.5053     0.0090
 1764.5000   -38.0039     8.1489     5.4853     6.2400     8.7362   119.3160     2.5053     0.0130
 1765.0000   -38.0123     8.4524     5.5347     6.2961     8.7363   119.3184     2.5083     0.0170
 1765.5000   -37.8208     8.6869     5.5853     6.1235     8.7364   118.1319     2.5103     0.0210
 1766.0000   -37.8292     8.7650     5.6356     6.1222     8.7364   115.3211     2.5093     0.0210
 1766.5000   -37.8376     8.8438     5.7383     6.1204     8.7365   114.9262     2.5073     0.0190
 1767.0000   -37.8460     8.6799     5.7902     6.1186     8.7365   115.3248     2.5063     0.0191
 1767.5000   -37.8544     8.6782     5.8425     6.1736     8.7366   115.3271     2.5063     0.0172
 1768.0000   -37.8628     8.6760     5.9493     6.2871     8.7366   114.1405     2.5054     0.0191
 1768.5000   -37.8712     8.7541     6.0028     6.3433     8.7565   113.7464     2.5044     0.0191
 1769.0000   -37.4799     8.9145     6.1125     6.4010     8.7367   114.1450     2.5034     0.0192
 1769.5000   -37.8880     8.9951     6.1110     6.5180     8.7368   114.5437     2.5034     0.0172
 1770.0000   -37.6965     9.2441     6.1101     6.5763     8.7963   115.3387     2.5034     0.0172
 1770.5000   -37.9048     9.2418     6.1086     6.5747     8.7765   116.9264     2.5044     0.0172
 1771.0000   -37.5135     9.0710     6.0505     6.5730     8.7766   119.3070     2.5064     0.0172
 1771.5000   -37.9216     8.9866     5.8843     6.4515     8.7568   121.2913     2.5084     0.0173
 1772.0000   -37.9300     8.9834     5.8290     6.2168     8.7767   122.4825     2.5124     0.0213
 1772.5000   -38.1382     8.7366     5.7212     6.1025     8.7569   124.0705     2.5194     0.0253
 1773.0000   -38.3465     8.2652     5.6677     5.8264     8.7570   125.6586     2.5225     0.0293
 1773.5000   -38.3549     7.8915     5.5120     5.7187     8.7570   127.2468     2.5165     0.0293
 1774.0000   -38.3633     7.6044     5.3606     5.4599     8.7571   128.4386     2.5085     0.0294
 1774.5000   -38.3717     7.5333     5.2618     5.3593     8.7571   128.8376     2.5005     0.0294
 1775.0000   -38.3801     7.3940     5.0237     5.1170     8.7572   128.0468     2.4935     0.0254
 1775.5000   -38.3885     7.1909     4.8409     4.9762     8.7771   126.4838     2.4855     0.0254
 1776.0000   -38.3969     6.9934     4.6221     4.7512     8.7573   124.9209     2.4745     0.0274
 1776.5000   -38.4053     6.5551     4.3322     4.4537     8.7772   122.9020     2.4695     0.0255
 1777.0000   -38.4137     6.0883     4.1364     4.3714     8.7772   122.5070     2.4615     0.0215
 1777.5000   -38.4221     5.3020     4.0599     4.2904     8.7773   122.1129     2.4697     0.0155
 1778.0000   -38.4305     4.8347     4.0589     4.2896     8.7575   122.1154     2.4878     0.0155
 1778.5000   -38.4389     5.0147     4.2101     4.3286     8.7576   121.7214     2.4988     0.0155
 1779.0000   -38.6472     5.8088     4.2875     4.5311     8.7576   120.9318     2.5058     0.0156
 1779.5000   -38.8555     7.7951     4.4473     4.7873     8.7577   121.3297     2.5058     0.0196
 1780.0000   -38.8623     8.3902     4.6984     5.1513     8.7379   122.5217     2.5108     0.0216
 1780.5000   -38.8673     8.7031     4.8739     5.4927     8.7380   121.3346     2.5138     0.0216
 1781.0000   -38.8195     8.8603     5.0548     5.5933     8.7182   119.3543     2.5138     0.0216
 1781.5000   -38.7718     8.8599     5.2916     5.8016     8.7183   118.5636     2.5138     0.0197
 1782.0000   -38.7240     8.9391     5.3888     5.9628     8.6985   118.1695     2.5128     0.0137
 1782.5000   -38.6763     8.9369     5.4875     6.0161     8.6985   118.1718     2.5128     0.0197
 1783.0000   -38.6285     8.8528     5.6394     6.0146     8.6788   118.9673     2.5139     0.0217
 1783.5000   -38.5807     8.6896     5.6902     6.0135     8.6986   119.7624     2.5149     0.0257
 1784.0000   -38.5330     8.5290     5.6888     5.9566     8.6789   120.1614     2.5159     0.0258
 1784.5000   -38.4852     8.2943     5.5845     5.8468     8.6988   120.5604     2.5159     0.0278
 1785.0000   -38.4375     8.1414     5.4303     5.6859     8.6988   120.9594     2.5149     0.0318
 1785.5000   -38.3897     7.7734     5.3792     5.5298     8.6790   121.3584     2.5127     0.0338
 1786.0000   -38.3634     7.4216     5.2314     5.4276     8.6989   122.1540     2.5087     0.0318
