~VERSION INFORMATION
 VERS.                2.0:   CWLS LOG ASCII STANDARD - VERSION 2.0
 WRAP.                 NO:   ONE LINE PER DEPTH STEP
~WELL INFORMATION
#MNEM.UNIT      DATA TYPE    INFORMATION
#----------   ------------   ------------------------------
 STRT.F          199.0000:   START DEPTH
 STOP.F         2951.0000:   STOP DEPTH
 STEP.F            0.5000:   STEP LENGTH
 NULL.          -999.2500:   NO VALUE
 COMP.    FENIX & SCISSON:   COMPANY
 WELL. FENIX & SCISSON "A" #3-21:   WELL
 FLD .              XPR-3:   FIELD
 LOC .      S21 T39N R78W:   LOCATION
 CNTY.            NATRONA:   COUNTY
 STAT.            WYOMING:   STATE
 CTRY. UNITED STATES OF AMERICA:   COUNTRY
 SRVC.              WELEX:   SERVICE COMPANY
 DATE.        27-JUN-1977:   LOGDATE
 API .     49025103880000:   API NUMBER
~CURVE INFORMATION
#MNEM.UNIT       API CODE    CURVE DESCRIPTION
#----------   ------------   ------------------------------
 DEPT.F                  :   
 CALD.IN     45 280 60 00:   CALIPER FROM DENSITY LOG
 GRD .GAPI   45 310 01 00:   GAMMA RAY FROM DENSITY LOG
 CORR.G/C3   45 356 01 00:   DENSITY CORRECTION
 RHOB.G/C3   45 350 01 00:   BULK DENSITY
 SPR .MV     07 010 01 00:   SPONTANEOUS POTENTIAL
 ILD .OHMM   07 120 46 00:   DEEP INDUCTION RESISTIVITY
 ILM .OHMM   07 120 44 00:   INDUCTION LOG MEDIUM RESISTIVITY
 SGRD.OHMM   07 220 05 00:   SHALLOW SHORT GUARD RESISTIVITY
~PARAMETER INFORMATION
#MNEM.UNIT          VALUE    DESCRIPTION
#----------   ------------   ------------------------------
 EKB .F         4981.0000:   Kelly bushing
 EGL .F         4971.0000:   Ground level
 TD  .F         2953.0000:   Total depth
 CLNT.            A2DTECH:   Client Code
 SL  . 330' FSL & 1650' FWL:   Surface Location
 DATE.        27-JUN-1977:   Date Logged [DD-MMM-YYYY]
 DD  .F              2930:   Depth driller
 DL  .F              2953:   Depth logger
 BLI .F              2951:   Bottom log interval
 TLI .F               200:   Top log interval
 CS1 .              8.625:   Casing size
 CBD1.      8.625" @ 217':   Casing driller 1
 BS1 .IN            7.875:   Bit size
 BSD1.F              2930:   Depth drilled with bit1
 DFT .            KCL MUD:   Type fluid in hole
 DFD .                9.4:   Density
 DFV .                 37:   Viscosity
 DFPH.                9.0:   pH
 DFL .               16.0:   Fluid loss
 MSS .           FLOWLINE:   Source of sample
 RMS .OHMM           1.10:   Rm
 MST .F                92:   Rm Meas. temp.
 RMF .OHMM           0.85:   Rmf
 MFST.F                92:   Rmf Meas. temp.
 MFSS.           FANN KIT:   Source Rmf.
 RMC .OHMM           1.44:   Rmc
 MCST.F                92:   Rmc Meas. temp.
 MCSS.           FANN KIT:   Source Rmc.
 RMB .OHMM           0.93:   Rm. at BHT
 BHT .F               109:   BHT.
 TCS .HRS            0230:   Time Circ. stopped
 MRT .F               109:   Maximum recorded temp.
 LUN .               8611:   Logging unit number
 LUL .             CASPER:   Logging unit location
 ENGI.         G. BENTSEN:   Recorded By
 WITN.  MR. W. PETTINGILL:   Witnessed by
 ORIG.      2.5" 5" PRINT:   Origin of data
 UWI .     49025103880000:   Unique Well ID
 DICO. A2D TECHNOLOGIES, INC.:   Digitizing Company
 PD  .                 GL:   Permanent Datum
 EPD .               4971:   Elevation Permanent Datum
 LMF .                 KB:   Log Measured From
 DMF .                 KB:   Drilling Measured From
 DAPD.                 10:   Feet Above Permanent Datum
~OTHER INFORMATION
~A   DEPT       CALD       GRD       CORR        RHOB      SPR        ILD        ILM       SGRD   
# ...
 2386.0000     9.8964    99.3342     0.0091     2.5478   -34.3136     6.1702     7.5395     9.1959
 2386.5000     9.8474   103.0185     0.0059     2.5308   -34.4512     6.0454     7.6991     9.1887
 2387.0000     9.8340   106.1314    -0.0003     2.5230   -34.4406     6.0051     7.5437     9.2010
 2387.5000     9.8029   109.1535    -0.0004     2.5145   -34.4303     5.9651     7.3407     8.5900
 2388.0000     9.7536   112.2213    -0.0036     2.5052   -34.1240     5.8847     7.1431     7.9096
 2388.5000     9.7223   113.5703    -0.0036     2.4953   -33.9657     5.8456     6.9509     8.2462
 2389.0000     9.7094   112.3425    -0.0068     2.4886   -33.9553     5.6881     6.9528     8.8377
 2389.5000     9.6783   111.1150    -0.0037     2.5014   -33.9449     5.6501     6.7657     9.0250
 2390.0000     9.6285   110.1538     0.0025     2.5152   -33.7866     5.5740     6.5836     8.7214
 2390.5000     9.5972   109.5385     0.0087     2.5271   -33.7763     5.5370     6.5854     8.4280
 2391.0000     9.5847   109.2778     0.0117     2.5317   -33.7659     5.5382     6.5873     8.3724
 2391.5000     9.5536   108.9231     0.0117     2.5372   -33.7555     5.5393     6.5891     8.1467
 2392.0000     9.5344   108.9231     0.0116     2.5447   -33.7451     5.5022     6.5909     7.9815
 2392.5000     9.5031   108.9231     0.0116     2.5502   -33.5868     5.4283     6.5927     8.2077
 2393.0000     9.4718   108.9231     0.0116     2.5520   -33.5484     5.4295     6.5945     8.5569
 2393.5000     9.4406   108.9231     0.0115     2.5470   -33.4181     5.3931     6.5963     8.7383
 2394.0000     9.4093   108.9231     0.0115     2.5393   -33.4077     5.2839     6.5982     8.6203
 2394.5000     9.3780   109.5385     0.0114     2.5307   -33.2494     5.2488     6.6000     8.3886
 2395.0000     9.3664   109.7742     0.0114     2.5251   -32.9432     5.2138     6.2478     8.0507
 2395.5000     9.3464   110.3865     0.0113     2.5210   -32.4890     5.1436     6.1640     8.2213
 2396.0000     9.3461   110.9991     0.0144     2.5320   -32.3307     5.1094     5.9570     8.1670
 2396.5000     9.3348   111.6111     0.0237     2.5397   -32.1724     5.0754     5.9173     7.7306
 2397.0000     9.3146   112.2237     0.0236     2.5458   -32.1620     5.0419     5.8783     7.2667
 2397.5000     9.3034   112.8361     0.0267     2.5519   -31.8558     5.0081     5.9210     7.8424
 2398.0000     9.2830   112.3983     0.0267     2.5591   -31.2537     4.9254     5.9226     7.6305
 2398.5000     9.2827   109.6986     0.0266     2.5637   -30.9474     4.8601     5.9242     8.0657
 2399.0000     9.3134   106.0385     0.0297     2.5673   -30.6412     4.8289     5.9259     7.5306
 2399.5000     9.3440   103.5834     0.0296     2.5605   -30.6308     4.7979     5.9685     7.7971
 2400.0000     9.3850   101.3334     0.0265     2.5481   -30.6204     4.7672     5.8079     7.6779
 2400.5000     9.3641   100.1056     0.0264     2.5374   -30.1273     4.7046     5.6543     7.4177
 2401.0000     9.3019    98.8778     0.0295     2.5440   -29.7124     4.7067     5.5012     6.8470
 2401.5000     9.2708    98.2660     0.0294     2.5491   -28.9626     4.7088     5.5034     6.2615
 2402.0000     9.2396    97.6533     0.0325     2.5517   -28.2127     4.7764     5.6595     7.3928
 2402.5000     9.2183    96.6154     0.0356     2.5502   -27.0190     4.9122     5.8602     7.5505
 2403.0000     9.1870    95.8136     0.0387     2.5501   -25.6774     5.0171     6.0681     7.4494
 2403.5000     9.1462    94.5857     0.0511     2.5526   -24.0306     5.1954     6.5035     7.4532
 2404.0000     9.0935    92.5620     0.0604     2.5547   -21.7816     5.5305     6.9223     7.4562
 2404.5000     9.0529    89.4915     0.0728     2.5547   -20.1386     6.2210     7.6789     7.6680
 2405.0000     9.0217    86.2461     0.0821     2.5535   -18.3379     7.2432     9.8442     8.8671
 2405.5000     8.9687    78.9017     0.0914     2.5454   -16.4521     8.4916    12.1091    27.5137
 2406.0000     8.9594    65.3931     0.0978     2.5363   -14.2230     9.7514    13.3406    89.5120
 2406.5000     8.8483    54.8898     0.0948     2.5128   -12.4376    11.1981    14.5018    87.1934
 2407.0000     8.5918    52.3077     0.0917     2.4904   -11.5398    12.6834    15.0103    32.4939
 2407.5000     8.3132    51.6923     0.0903     2.4696   -10.3461    13.6889    14.1954    15.1151
 2408.0000     8.0743    51.6923     0.0885     2.4654    -9.8921    14.5717    13.7133    15.7603
 2408.5000     7.8886    51.0769     0.0885     2.4738    -9.7340    15.5116    13.6385    16.4331
 2409.0000     7.6719    50.9271     0.0885     2.4822    -9.5758    16.1740    13.8424    17.1347
 2409.5000     7.6826    50.3147     0.0885     2.4907    -9.4177    16.4060    14.8428    18.3661
 2410.0000     7.8060    49.8462     0.0885     2.4991    -9.4074    16.5271    16.8489    28.1127
 2410.5000     7.9521    49.7058     0.0870     2.5046    -9.6931    16.7643    19.5051    58.9846
 2411.0000     8.0526    49.2308     0.0853     2.4976    -9.9787    16.7719    21.5998    52.8416
 2411.5000     8.1760    48.6154     0.0838     2.4828   -10.4123    16.5385    22.1606    54.3424
 2412.0000     8.2028    48.6657     0.0807     2.4695   -10.4020    15.7489    20.9809    41.5396
 2412.5000     8.1556    49.2308     0.0790     2.4613   -10.5399    14.5653    16.3794    20.2782
 2413.0000     8.0003    51.2370     0.0759     2.4582   -10.5295    13.2007    14.6760    16.2677
 2413.5000     7.9379    53.7044     0.0743     2.4527   -10.8174    11.9093    13.0594    16.5005
 2414.0000     7.9065    56.1731     0.0697     2.4480   -11.2585    10.6704    12.1113    16.6216
 2414.5000     7.8751    58.6394     0.0649     2.4427   -11.3864     9.8276    11.6257    15.5177
 2415.0000     7.8746    61.1081     0.0586     2.4356   -11.5241     9.3689    11.3143    15.4194
 2415.5000     7.9059    62.9601     0.0540     2.4330   -11.5113     9.2448    11.0113    15.6525
 2416.0000     7.9356    66.0430     0.0509     2.4436   -11.5011     9.3174    10.9390    15.8994
 2416.5000     7.9677    69.1258     0.0461     2.4529   -11.6413     9.5187    10.9446    16.3161
 2417.0000     8.0624    71.3845     0.0398     2.4606   -11.6286     9.7915    11.0248    16.0991
 2417.5000     8.1842    73.8464     0.0366     2.4668   -11.6183    10.0841    11.1823    15.4526
 2418.0000     8.3106    75.9133     0.0304     2.4730   -11.9065    10.9344    11.9846    15.5221
 2418.5000     8.4687    79.2246     0.0272     2.4791   -12.6334    11.6396    18.7615    17.3050
 2419.0000     8.6551    82.9296     0.0210     2.4853   -13.5107    12.3903    22.9236    21.0203
 2419.5000     8.8414    86.0188     0.0178     2.4900   -14.2401    13.1894    23.5962    23.8655
 2420.0000     9.0278    88.9858     0.0165     2.4930   -14.8216    13.8478    24.2605    30.0293
 2420.5000     9.1388    87.8582     0.0134     2.4977   -15.5511    14.4392    24.7546    37.4630
 2421.0000     9.1383    85.9938     0.0102     2.4992   -16.2805    14.8497    24.9354    46.4156
 2421.5000     9.1379    84.3939     0.0071     2.4853   -17.3057    15.1670    22.8110    39.6213
 2422.0000     9.1374    83.4215     0.0071     2.4606   -17.8872    15.0679    21.0097    24.7948
 2422.5000     9.1370    82.8000     0.0071     2.4467   -18.6166    14.4656    18.5672    18.8230
 2423.0000     9.1675    82.7938     0.0071     2.4416   -19.7899    13.8858    16.9836    17.4527
 2423.5000     9.1980    83.6923     0.0133     2.4575   -20.5219    13.4214    16.4153    18.1996
 2424.0000     9.2594    84.9230     0.0195     2.4776   -20.9626    13.0618    15.9756    19.5075
 2424.5000     9.3209    85.2369     0.0257     2.4900   -21.2728    12.8888    15.4410    19.3794
 2425.0000     9.3823    84.9234     0.0319     2.4992   -22.1646    12.8061    15.2344    18.7318
 2425.5000     9.3819    83.6798     0.0319     2.5100   -22.6973    12.5469    15.4536    18.2276
 2426.0000     9.3814    81.8215     0.0288     2.5178   -22.9829    12.4636    15.8919    19.6748
