~VERSION INFORMATION
 VERS.                2.0:   CWLS LOG ASCII STANDARD - VERSION 2.0
 WRAP.                 NO:   ONE LINE PER DEPTH STEP
~WELL INFORMATION
#MNEM.UNIT      DATA TYPE    INFORMATION
#----------   ------------   ------------------------------
 STRT.F          203.5000:   START DEPTH
 STOP.F         3126.0000:   STOP DEPTH
 STEP.F            0.5000:   STEP LENGTH
 NULL.          -999.2500:   NO VALUE
 COMP.    FENIX & SCISSON:   COMPANY
 WELL. FENIX NPR 3 "AX" #88-33:   WELL
 FLD .        TEAPOT DOME:   FIELD
 LOC .      S33 T39N R78W:   LOCATION
 CNTY.            NATRONA:   COUNTY
 STAT.            WYOMING:   STATE
 CTRY. UNITED STATES OF AMERICA:   COUNTRY
 SRVC.       SCHLUMBERGER:   SERVICE COMPANY
 DATE.        23-JAN-1978:   LOGDATE
 API .     49025105610000:   API NUMBER
~CURVE INFORMATION
#MNEM.UNIT       API CODE    CURVE DESCRIPTION
#----------   ------------   ------------------------------
 DEPT.F                  :   
 CALD.IN     45 280 60 00:   CALIPER FROM DENSITY LOG
 GRD .GAPI   45 310 01 00:   GAMMA RAY FROM DENSITY LOG
 RHOB.G/C3   45 350 01 00:   BULK DENSITY
 CORR.G/C3   45 356 01 00:   DENSITY CORRECTION
 SPR .MV     05 010 01 00:   SPONTANEOUS POTENTIAL
 SN  .OHMM   05 040 16 00:   SHORT NORMAL 16"
 ILD .OHMM   05 120 46 00:   DEEP INDUCTION RESISTIVITY
~PARAMETER INFORMATION
#MNEM.UNIT          VALUE    DESCRIPTION
#----------   ------------   ------------------------------
 EKB .F         5174.0000:   Kelly bushing
 EGL .F         5164.0000:   Ground level
 EDF .F            0.0000:   Drilling floor
 TD  .F         3115.0000:   Total depth
 DATE.        23-JAN-1978:   Date logged
 CLNT.            A2DTECH:   Client Code
 PD  .                 GL:   Permanent Datum
 EPD .F              5164:   Elevation Permanent Datum
 LMF .                 KB:   Log Measured From
 DMF .                 KB:   Drilling Measured From
 DD  .F              3115:   Depth driller
 DL  .F              3115:   Depth logger
 BLI .F              3115:   Bottom log interval
 TLI .F               210:   Top log interval
 CS1 .IN            8.625:   Casing size
 CBD1.      9.625" @ 219':   Casing driller 1
 CBL1.F               219:   Casing logger 1
 BS1 .IN            7.875:   Bit size
 BSD1.F              3115:   Depth drilled with bit1
 DFT .                GEL:   Type fluid in hole
 DFD .                8.9:   Density
 DFV .                 36:   Viscosity
 DFPH.                 10:   pH
 DFL .                7.8:   Fluid loss
 MSS .           FLOWLINE:   Source of sample
 RMS .OHMM            2.2:   Rm
 MST .F                62:   Rm Meas. temp.
 RMF .OHMM           1.94:   Rmf
 MFST.F                54:   Rmf Meas. temp.
 RMC .OHMM            3.4:   Rmc
 MCST.F                54:   Rmc Meas. temp.
 MFSS.               MEAS:   Source Rmf.
 MCSS.               MEAS:   Source Rmc.
 RMB .OHMM            1.1:   Rm. at BHT
 BHT .F               114:   BHT.
 TCS .HRS             4.5:   Time Circ. stopped
 MRT .F               114:   Maximum recorded temp.
 LUN .               2958:   Logging unit number
 LUL .             CASPER:   Logging unit location
 ENGI.           REYNOLDS:   Recorded By
 WITN.           MCGINLEY:   Witnessed by
 ORIG.           5" PRINT:   Origin of data
 UWI .     49025105610000:   Unique Well ID
 DICO. A2D TECHNOLOGIES, INC.:   Digitizing Company
 DAPD.F              5164:   Feet Above Permanent Datum
 SL  . 100' FSL & 550' FEL:   Surface Location
~OTHER INFORMATION
~A   DEPT     CALD        GRD       RHOB       CORR        SPR         SN        ILD   
# ...
 2706.0000     9.4409    83.9891     2.5305     0.0588   -37.5689    14.5559    14.4550
 2706.5000     9.4208    86.5663     2.5325     0.0588   -37.5685    14.9630    14.4546
 2707.0000     9.4205    87.3569     2.5355     0.0588   -37.5682    15.1010    14.4543
 2707.5000     9.4201    86.5604     2.5385     0.0548   -37.5678    15.1006    14.4540
 2708.0000     9.4198    82.7849     2.5385     0.0469   -37.3686    15.1002    14.1893
 2708.5000     9.4195    80.9967     2.5385     0.0389   -37.5670    14.9616    14.1888
 2709.0000     9.4192    80.3972     2.5375     0.0309   -37.5666    14.5538    14.1886
 2709.5000     9.4189    80.9892     2.5345     0.0229   -37.5662    14.2881    14.0580
 2710.0000     9.4186    82.3758     2.5265     0.0229   -37.5659    14.1568    13.9285
 2710.5000     9.4183    84.7536     2.5195     0.0269   -37.1680    14.1565    13.9283
 2711.0000     9.4180    86.1404     2.5125     0.0349   -37.1676    14.1561    13.9279
 2711.5000     9.4177    86.1364     2.5135     0.0389   -37.1673    14.1558    14.0566
 2712.0000     9.4174    85.1406     2.5185     0.0389   -37.1669    14.1556    14.0562
 2712.5000     9.4171    85.1373     2.5185     0.0369   -37.1665    14.1551    13.9269
 2713.0000     9.4168    86.1266     2.5175     0.0389   -37.1661    14.2856    13.9265
 2713.5000     9.4164    87.7127     2.5175     0.0429   -37.1658    14.2853    13.9262
 2714.0000     9.4161    89.8931     2.5175     0.0449   -38.1591    14.2849    13.9257
 2714.5000     9.4158    88.3010     2.5175     0.0489   -36.9663    14.2845    13.9255
 2715.0000     9.4155    85.9161     2.5175     0.0489   -36.9659    14.2842    13.9252
 2715.5000     9.4152    83.7290     2.5145     0.0508   -36.9655    14.4159    13.9247
 2716.0000     9.4149    84.3206     2.5135     0.0528   -37.1639    14.4155    14.0534
 2716.5000     9.4146    87.4932     2.5165     0.0588   -36.9648    14.5484    14.0531
 2717.0000     9.4142    88.4846     2.5255     0.0608   -36.9644    14.6826    14.0527
 2717.5000     9.4338    82.9208     2.5285     0.0608   -36.9641    14.6823    14.0523
 2718.0000     9.4335    84.9029     2.5275     0.0548   -37.1624    14.8176    14.1823
 2718.5000     9.4332    85.4966     2.5265     0.0469   -37.1620    14.8175    14.1819
 2719.0000     9.4130    88.6682     2.5215     0.0389   -37.5591    14.8170    14.3131
 2719.5000     9.4127    88.8648     2.5175     0.0369   -37.5588    14.9536    14.3128
 2720.0000     9.4124    87.0751     2.5175     0.0369   -37.5584    14.9531    14.4450
 2720.5000     9.3922    86.6740     2.5195     0.0369   -37.5580    14.9530    14.4446
 2721.0000     9.3721    86.2736     2.5215     0.0349   -37.7563    14.9524    14.4443
 2721.5000     9.3718    85.8738     2.5215     0.0349   -37.3586    14.9520    14.4439
 2722.0000     9.3714    85.4727     2.5135     0.0409   -36.9608    14.9516    14.4438
 2722.5000     9.3711    84.8743     2.5125     0.0489   -36.7617    15.0895    14.4433
 2723.0000     9.3708    83.3090     2.5205     0.0568   -36.7613    15.0892    14.4429
 2723.5000     9.3705    86.2578     2.5295     0.0608   -36.5620    15.2284    14.4425
 2724.0000     9.3702    87.4461     2.5375     0.0608   -36.1644    15.2280    14.4422
 2724.5000     9.3499    89.2295     2.5425     0.0608   -36.5615    14.8164    14.4418
 2725.0000     9.3299    89.4249     2.5534     0.0547   -36.5611    15.0912    14.4414
 2725.5000     9.3097    87.6348     2.5505     0.0269   -36.7594    15.2304    14.4411
 2726.0000     9.3094    88.2267     2.5245     0.0249   -37.1564    15.3710    14.5746
 2726.5000     9.3091    89.8124     2.5135     0.0249   -37.1561    15.6560    14.9833
 2727.0000     9.3088    92.5911     2.5085     0.0269   -36.9571    15.8004    14.9830
 2727.5000     9.3085    93.5811     2.5015     0.0289   -37.1554    15.9461    14.9826
 2728.0000     9.3081    91.9876     2.4985     0.0349   -37.5524    15.9458    14.9822
 2728.5000     9.3078    88.0125     2.4975     0.0409   -37.7507    15.9454    14.9819
 2729.0000     9.3075    86.4201     2.4905     0.0548   -37.5516    15.9450    14.8439
 2729.5000     9.3072    84.8277     2.4895     0.0708   -37.5513    15.9446    14.7072
 2730.0000     9.3069    84.2284     2.5045     0.0688   -37.7496    15.9443    14.7068
 2730.5000     9.3066    84.0265     2.5055     0.0768   -37.5505    15.9439    14.7066
 2731.0000     9.3062    84.6191     2.5135     0.0748   -37.5501    15.7974    14.7061
 2731.5000     9.2861    85.8077     2.5215     0.0748   -37.5497    15.9431    14.7057
 2732.0000     9.2857    85.4070     2.5235     0.0768   -37.5494    15.6519    15.2584
 2732.5000     9.2854    85.2050     2.5335     0.0728   -37.7477    16.0897    16.1267
 2733.0000     9.2851    84.8044     2.5375     0.0648   -37.9460    16.5398    16.5790
 2733.5000     9.2849    84.2051     2.5375     0.0588   -37.9456    17.0025    16.5787
 2734.0000     9.2845    85.3938     2.5385     0.0508   -38.1439    18.4706    16.7320
 2734.5000     9.2842    86.3838     2.5385     0.0449   -37.9449    18.8133    16.5779
 2735.0000     9.3435    86.3812     2.5375     0.0449   -38.1431    18.9869    16.5774
 2735.5000     9.3432    86.3779     2.5365     0.0449   -37.3481    18.8124    16.4247
 2736.0000     9.3429    86.9713     2.5305     0.0469   -36.9504    18.9860    16.4243
 2736.5000     9.3426    81.2052     2.5145     0.0508   -36.7513    18.1315    15.8287
 2737.0000     9.3422    76.4324     2.5104     0.0508   -36.7510    17.1569    14.3003
 2737.5000     9.3419    73.2496     2.5175     0.0508   -36.7506    16.2346    13.2821
 2738.0000     9.3416    67.0862     2.5235     0.0409   -37.1476    15.5039    13.0389
 2738.5000     9.3413    68.2747     2.5295     0.0289   -36.7499    14.9431    12.5660
 2739.0000     9.3609    69.6621     2.5215     0.0289   -36.9482    14.2705    12.3358
 2739.5000     9.4003    70.4540     2.5115     0.0528   -36.9478    13.8816    12.1099
 2740.0000     9.4000    72.2389     2.5125     0.0628   -37.3447    13.3794    12.3352
 2740.5000     9.3997    75.2162     2.5185     0.0688   -37.1457    12.8954    11.9981
 2741.0000     9.3994    76.8025     2.5185     0.0728   -37.1453    12.6598    11.6702
 2741.5000     9.4190    78.5876     2.5185     0.0768   -37.1449    12.4285    11.4480
 2742.0000     9.4186    79.7766     2.5205     0.0808   -37.1446    12.0896    11.2301
 2742.5000     9.4183    83.9468     2.5215     0.0788   -37.1443    12.0894    11.0405
 2743.0000     9.4180    85.3353     2.5225     0.0788   -37.1439    11.7598    11.2461
 2743.5000     9.4177    84.7358     2.5215     0.0788   -36.9449    11.7595    10.8380
 2744.0000     9.4174    83.9374     2.5205     0.0808   -36.7459    11.7591    10.6395
 2744.5000     9.4370    82.9403     2.5235     0.0808   -36.5469    11.4385    10.7379
 2745.0000     9.4168    82.7381     2.5325     0.0848   -36.5465    11.2296    10.6389
 2745.5000     9.4164    84.7204     2.5395     0.0928   -36.5461    11.3330    10.6387
 2746.0000     9.4161    84.7186     2.5495     0.0948   -36.5457    11.3329    10.6384
 2746.5000     9.4158    84.7158     2.5614     0.0928   -36.7440    11.3325    10.2525
 2747.0000     9.4155    84.7131     2.5634     0.0868   -36.9422    11.3323    10.0647
 2747.5000     9.4152    85.3061     2.5574     0.0788   -36.9419    11.2281     9.8804
 2748.0000     9.4149    87.6875     2.5514     0.0888   -37.1402    11.3317     9.7893
 2748.5000     9.4146    87.8831     2.5505     0.0808   -36.9412    11.4336     9.0923
 2749.0000     9.4143    87.4822     2.5564     0.0808   -36.7422    11.0200     9.0085
 2749.5000     9.4140    86.8832     2.5624     0.0769   -36.5432    10.3320     9.0084
 2750.0000     9.4137    87.6751     2.5594     0.0609   -37.1387     9.7766     8.2898
 2750.5000     9.4133    88.4327     2.5435     0.0450   -36.5425     9.3365     8.0633
 2751.0000     9.4140    89.2699     2.5335     0.0448   -36.5421     8.9987     7.7708
