~VERSION INFORMATION
 VERS.                2.0:   CWLS LOG ASCII STANDARD - VERSION 2.0
 WRAP.                 NO:   ONE LINE PER DEPTH STEP
~WELL INFORMATION
#MNEM.UNIT      DATA TYPE    INFORMATION
#----------   ------------   ------------------------------
 STRT.F           50.0000:   START DEPTH
 STOP.F         5698.0000:   STOP DEPTH
 STEP.F            0.5000:   STEP LENGTH
 NULL.          -999.2500:   NO VALUE
 COMP. LAWRENCE - ALLISON:   COMPANY
 WELL. LAWRENCE TPX #57-3:   WELL
 FLD .              NPR 3:   FIELD
 LOC .       S3 T38N R78W:   LOCATION
 CNTY.            NATRONA:   COUNTY
 STAT.            WYOMING:   STATE
 CTRY. UNITED STATES OF AMERICA:   COUNTRY
 SRVC.       SCHLUMBERGER:   SERVICE COMPANY
 DATE.        09-AUG-1982:   LOGDATE
 API .     49025108900000:   API NUMBER
~CURVE INFORMATION
#MNEM.UNIT       API CODE    CURVE DESCRIPTION
#----------   ------------   ------------------------------
 DEPT.F                  :   
 TEND.LBS    45 635 01 00:   TENSION FROM DENSITY LOG
 CALD.IN     45 280 60 00:   CALIPER FROM DENSITY LOG
 NPHI.DEC    42 890 03 00:   NEUTRON POROSITY SANDSTONE
 CORR.G/C3   45 356 01 00:   DENSITY CORRECTION
 RHOB.G/C3   45 350 01 00:   BULK DENSITY
 SPR .MV     11 010 01 00:   SPONTANEOUS POTENTIAL FROM RESISTIVITY
 TENR.LBS    11 635 01 00:   TENSION FROM RESISTIVITY
 GRR .GAPI   11 310 01 00:   GAMMA RAY FROM RESISTIVITY
 LLD .OHMM   11 220 10 00:   LATEROLOG DEEP
 LLS .OHMM   11 220 09 00:   LATEROLOG LOG SHALLOW
 MSFL.OHMM   11 270 04 00:   MICRO SPHERICALLY FOCUSED
~PARAMETER INFORMATION
#MNEM.UNIT          VALUE    DESCRIPTION
#----------   ------------   ------------------------------
 EKB .F         5190.0000:   Kelly bushing
 EGL .F         5180.0000:   Ground level
 EDF .F         5189.0000:   Drilling floor
 TD  .F         5686.0000:   Total depth
 CLNT.            A2DTECH:   Client Code
 SL  . 1002' FSL & 2479' FEL:   Surface Location
 PD  .                 GL:   Permanent Datum
 EPD .F              5180:   Elevation Permanent Datum
 LMF .                 KB:   Log Measured From
 DMF .                 KB:   Drilling Measured From
 DAPD.F                10:   Feet Above Permanent Datum
 DATE.        09-AUG-1982:   Date Logged [DD-MMM-YYYY]
 DD  .F              5685:   Depth driller
 DL  .F              5686:   Depth logger
 BLI .F              5683:   Bottom log interval
 TLI .F               494:   Top log interval
 CS1 .IN            9.625:   Casing size
 CBD1.      9.625" @ 500':   Casing driller 1
 CBL1.F               494:   Casing logger 1
 BS1 .IN             8.75:   Bit size
 BSD1.F              5685:   Depth drilled with bit1
 DFT .                KCL:   Type fluid in hole
 DFD .                9.0:   Density
 DFV .                 38:   Viscosity
 DFPH.                8.5:   pH
 DFL .                9.0:   Fluid loss
 MSS .            MUDTANK:   Source of sample
 RMS .OHMM           0.27:   Rm
 MST .F                79:   Rm Meas. temp.
 RMF .OHMM           0.27:   Rmf
 MFST.F                79:   Rmf Meas. temp.
 MFSS.               MEAS:   Source Rmf.
 RMB .OHMM            .13:   Rm. at BHT
 BHT .F               164:   BHT.
 TCS .HRS            1300:   Time Circ. stopped
 MRT .F               164:   Maximum recorded temp.
 LUN .               8035:   Logging unit number
 LUL .               CSPR:   Logging unit location
 ENGI.            PERAKIS:   Recorded By
 WITN.           L. FIVAS:   Witnessed by
 ORIG.        2" 5" PRINT:   Origin of data
 UWI .     49025108900000:   Unique Well ID
 DICO. A2D TECHNIOLOGIES,INC.:   Digitizing Company
 RMC .OHMM           0.41:   Rmc
 MCST.F                79:   Rmc Meas. temp.
 MCSS.               CALC:   Source Rmc.
 TLAB.HRS            2000:   Time logger at bottom
~OTHER INFORMATION
~A  DEPTH     TEND       CALD       NPHI       CORR       RHOB        SPR       TENR        GRR        LLD        LLS       MSFL
# ...
 4960.5000  1778.4011     9.9135     0.1244     0.0110     2.6628   -61.2493  1828.7423    77.7970    43.8025    41.7050    73.9871
 4961.0000  1777.1084     9.9265     0.1078     0.0118     2.6737   -61.2312  1828.1439    75.1083    45.6618    43.4696    74.0229
 4961.5000  1777.1084     9.9394     0.1045     0.0066     2.6812   -61.2131  1827.5452    73.3245    45.9920    44.1065    74.5717
 4962.0000  1777.1084     9.9524     0.1094     0.0037     2.6857   -61.1949  1826.8672    71.4458    46.9658    45.0627    77.2348
 4962.5000  1782.4423     9.9654     0.1135     0.0026     2.6835   -61.1768  1826.3474    67.6520    50.6712    48.9913    83.3681
 4963.0000  1788.8052     9.9784     0.1150     0.0019     2.6843   -61.1586  1840.8220    62.5500    58.7974    55.1332   113.0151
 4963.5000  1795.1766     9.9913     0.1038     0.0019     2.6880   -61.1404  1840.0969    58.9563    67.6797    61.6181   144.9725
 4964.0000  1797.2078    10.0043     0.0953     0.0020     2.6955   -61.1219  1824.5471    58.6743    69.1127    63.8397   137.2462
 4964.5000  1797.1947    10.0173     0.0920     0.0020     2.6941   -61.0993  1823.9521    60.5170    62.7929    60.2723    93.2798
 4965.0000  1797.1887    10.0302     0.0944     0.0019     2.6822   -61.2838  1838.2124    62.6548    52.8966    52.6964    86.3269
 4965.5000  1797.1887    10.0435     0.1046    -0.0032     2.6658   -61.5223  1837.7249    65.1940    46.4360    45.6175    77.4969
 4966.0000  1797.1887    10.0680     0.1121    -0.0084     2.6525   -61.7599  1837.1257    69.3503    39.6213    40.3161    71.3683
 4966.5000  1797.1852    10.1056     0.1142    -0.0091     2.6458   -61.8629  1836.4722    72.9964    33.8739    35.3856    65.2722
 4967.0000  1791.4442    10.1431     0.1196    -0.0061     2.6474   -61.7685  1835.8925    83.5807    27.9529    29.3891    53.0855
 4967.5000  1785.4451    10.1807     0.1406     0.0037     2.6570   -61.6759  1835.3293    96.5782    21.9834    22.9382    40.2939
 4968.0000  1779.4471    10.2184     0.1701     0.0149     2.6832   -61.5812  1849.7024   106.2575    17.1702    17.5249    30.5845
 4968.5000  1772.9719    10.2559     0.2002     0.0209     2.6929   -61.5148  1849.1016   109.9036    15.0731    14.8267    24.8361
 4969.0000  1766.1847    10.2936     0.2294     0.0209     2.6952   -61.8013  1848.3976   111.4731    14.4688    14.4750    23.3893
 4969.5000  1759.3976    10.3141     0.2441     0.0118     2.6810   -62.0874  1847.8179   113.2809    14.9908    15.8489    23.2365
 4970.0000  1764.8240    10.3222     0.2465    -0.0025     2.6483   -62.1609  1847.3053   114.2121    16.0523    16.6459    25.0846
 4970.5000  1776.8013    10.3298     0.2432    -0.0059     2.6297   -62.2233  1846.7067   112.4283    17.0823    17.4830    26.7053
 4971.0000  1788.7787    10.3300     0.2293    -0.0028     2.6290   -62.2926  1846.0775   108.8346    18.4300    18.4894    29.4293
 4971.5000  1797.1887    10.3301     0.2175     0.0009     2.6305   -62.0853  1845.5092   105.5426    19.4783    19.2856    30.9527
 4972.0000  1797.1887    10.3335     0.2124    -0.0005     2.6260   -61.8062  1844.9102   101.0439    19.7544    19.7040    28.6520
 4972.5000  1797.1887    10.3420     0.2148    -0.0035     2.6239   -61.6972  1845.6697    96.5106    19.6256    19.8585    28.6683
 4973.0000  1795.0302    10.3502     0.2166    -0.0050     2.6291   -61.8673  1858.6827    95.3648    19.4870    19.6006    29.4878
 4973.5000  1788.6671    10.3588     0.2168    -0.0042     2.6538   -62.0707  1858.0841    99.3191    18.8468    19.0807    29.2986
 4974.0000  1782.3042    10.3673     0.2162    -0.0004     2.6732   -62.1035  1857.4849   107.1885    17.7221    18.0687    26.6116
 4974.5000  1777.1084    10.3757     0.2261     0.0034     2.6859   -61.9267  1856.8860   111.1363    16.1016    16.7595    22.5585
 4975.0000  1777.1084    10.3842     0.2372     0.0056     2.6867   -61.6721  1856.2872   112.6708    14.7301    15.2266    18.7306
 4975.5000  1777.1084    10.3926     0.2470     0.0034     2.6748   -61.3234  1855.6353   112.6970    14.3342    14.7207    19.1316
 4976.0000  1777.1084    10.4011     0.2492     0.0012     2.6599   -61.5428  1855.0897   112.4215    14.2419    14.4296    19.8131
 4976.5000  1783.2625    10.4096     0.2465    -0.0025     2.6510   -61.8875  1854.3783   112.1526    14.4440    14.4428    19.6880
 4977.0000  1789.2511    10.4101     0.2426    -0.0040     2.6451   -62.0718  1853.8925   110.6705    14.7509    14.8582    19.5594
 4977.5000  1795.2397    10.4100     0.2383    -0.0047     2.6419   -62.2494  1853.2935   108.8868    15.2717    15.3914    20.1189
 4978.0000  1797.1887    10.4105     0.2347    -0.0032     2.6399   -62.4307  1852.6385   108.0015    16.1403    16.3902    21.2713
 4978.5000  1797.1887    10.4134     0.2308    -0.0002     2.6489   -62.4430  1852.0958   107.7315    17.5338    18.0669    23.2797
 4979.0000  1797.1887    10.4163     0.2274     0.0006     2.6661   -62.3510  1851.4971   107.4570    18.7876    19.3726    26.5554
 4979.5000  1797.1887    10.4192     0.2271     0.0006     2.6773   -62.1982  1850.8982   107.8612    19.8562    20.2074    28.0767
 4980.0000  1797.1887    10.4221     0.2274     0.0029     2.6796   -61.9624  1850.2996   110.2310    20.7184    20.7884    28.4835
 4980.5000  1797.1843    10.4250     0.2241     0.0059     2.6632   -61.7323  1849.5941   110.5524    21.2849    20.9512    28.1028
 4981.0000  1793.1422    10.4278     0.2186     0.0089     2.6439   -61.5623  1851.6141   109.3785    21.0012    20.6791    27.3532
 4981.5000  1785.8522    10.4283     0.2132     0.0075     2.6432   -61.4083  1863.5005   107.8898    20.4385    20.4105    26.6175
 4982.0000  1778.5714    10.4203     0.2144     0.0038     2.6523   -61.2978  1862.8744   107.0166    19.6192    19.8691    26.0840
 4982.5000  1777.1084    10.4123     0.2201    -0.0007     2.6552   -61.2719  1862.2756   107.3455    18.9627    19.3421    29.7577
 4983.0000  1777.1084    10.4155     0.2276    -0.0066     2.6493   -61.1830  1861.6638   109.2582    18.4531    18.8291    33.9593
 4983.5000  1777.1084    10.4231     0.2309    -0.0110     2.6493   -61.0956  1861.0356   110.4145    18.0645    18.3243    36.3883
 4984.0000  1780.1339    10.4299     0.2312    -0.0118     2.6493   -61.0079  1860.4789   107.1290    17.6008    17.9672    31.4954
 4984.5000  1786.9210    10.4269     0.2362    -0.0094     2.6524   -60.9203  1859.8802   105.0436    17.4846    17.8567    27.4461
 4985.0000  1793.7081    10.4241     0.2431    -0.0050     2.6554   -60.8328  1859.1990   104.4600    17.9794    18.2472    25.9803
 4985.5000  1797.1887    10.4212     0.2446     0.0003     2.6643   -60.7452  1858.6193   106.3027    19.1331    19.0329    27.4717
 4986.0000  1797.1887    10.4184     0.2428     0.0055     2.6763   -60.6576  1858.0837   109.6471    20.3608    19.9901    29.6533
 4986.5000  1797.2147    10.4156     0.2301     0.0048     2.6726   -60.5700  1863.6598   111.1825    21.0856    20.8509    32.2298
 4987.0000  1792.8479    10.4128     0.2142     0.0018     2.6620   -60.4821  1871.8562   109.4045    21.2339    21.0108    34.3125
 4987.5000  1786.8547    10.4101     0.2018    -0.0004     2.6515   -60.3915  1871.2577   107.0174    20.6649    21.0266    35.2935
 4988.0000  1780.8646    10.4100     0.2017    -0.0018     2.6466   -60.3178  1870.6589   105.8304    20.1111    20.8970    35.5505
 4988.5000  1778.2944    10.4100     0.2096    -0.0025     2.6497   -60.1739  1870.0598   106.4665    19.5722    20.4874    32.7429
 4989.0000  1781.4760    10.4091     0.2219    -0.0017     2.6572   -60.4694  1869.4612   108.0010    19.1791    20.3614    30.5728
 4989.5000  1784.6573    10.4070     0.2339     0.0015     2.6661   -60.7453  1868.8046   109.5355    19.0540    20.0970    28.9434
 4990.0000  1787.8389    10.4049     0.2381     0.0117     2.6766   -61.0250  1868.2249   109.8634    19.4576    19.9697    27.7819
 4990.5000  1791.0204    10.4028     0.2393     0.0095     2.6804   -61.2862  1864.4320   108.3879    20.0082    20.1266    29.4017
