~VERSION INFORMATION
 VERS.                2.0:   CWLS LOG ASCII STANDARD - VERSION 2.0
 WRAP.                 NO:   ONE LINE PER DEPTH STEP
~WELL INFORMATION
#MNEM.UNIT      DATA TYPE    INFORMATION
#----------   ------------   ------------------------------
 STRT.F          190.0000:   START DEPTH
 STOP.F         2998.5000:   STOP DEPTH
 STEP.F            0.5000:   STEP LENGTH
 NULL.          -999.2500:   NO VALUE
 COMP.    FENIX & SCISSON:   COMPANY
 WELL.   FENIX "A" #52-28:   WELL
 FLD .        TEAPOT DOME:   FIELD
 LOC .      S28 T39N R78W:   LOCATION
 CNTY.            NATRONA:   COUNTY
 STAT.            WYOMING:   STATE
 CTRY. UNITED STATES OF AMERICA:   COUNTRY
 SRVC.           BIRDWELL:   SERVICE COMPANY
 DATE.        14-AUG-1977:   LOGDATE
 API .     49025104130000:   API NUMBER
~CURVE INFORMATION
#MNEM.UNIT       API CODE    CURVE DESCRIPTION
#----------   ------------   ------------------------------
 DEPT.F                  :   
 SPR .MV     05 010 01 00:   SPONTANEOUS POTENTIAL FROM RES.
 SN  .OHMM   05 040 16 00:   SHORT NORMAL 16"
 ILD .OHMM   05 120 46 00:   INDUCTION LOG DEEP
 GRD .GAPI   45 310 01 00:   GAMMA RAY FROM DENSITY LOG
 CALD.IN     45 280 60 00:   CALIPER FROM DENSITY LOG
 RHOB.G/C3   45 350 01 00:   BULK DENSITY
 CORR.G/C3   45 356 01 00:   DENSITY CORRECTION
~PARAMETER INFORMATION
#MNEM.UNIT          VALUE    DESCRIPTION
#----------   ------------   ------------------------------
 EKB .F         5026.0000:   Kelly bushing
 EGL .F         5016.0000:   Ground level
 EDF .F            0.0000:   Drilling floor
 TD  .F         3000.0000:   Total depth
 DATE.        14-AUG-1977:   Date logged
 CLNT.            A2DTECH:   Client Code
 SL  . 990' FNL & 2310' FEL:   Surface Location
 PD  .                 GL:   Permanent Datum
 EPD .F              5016:   Elevation Permanent Datum
 LMF .                 KB:   Log Measured From
 DMF .                 KB:   Drilling Measured From
 DAPD.F                10:   Feet Above Permanent Datum
 DD  .F              3000:   Depth driller
 DL  .F              3000:   Depth logger
 BLI .F              2994:   Bottom log interval
 TLI .F               214:   Top log interval
 CS1 .IN            8.625:   Casing size
 CBD1.      8.625" @ 214':   Casing driller 1
 CBL1.F               212:   Casing logger 1
 BS1 .IN            7.875:   Bit size
 BSD1.F              3000:   Depth drilled with bit1
 DFT .                KCL:   Type fluid in hole
 DFD .                8.8:   Density
 DFV .                 30:   Viscosity
 DFPH.               10.5:   pH
 DFL .               10.4:   Fluid loss
 MSS .           FLOWLINE:   Source of sample
 RMS .OHMM           0.13:   Rm
 MST .F                82:   Rm Meas. temp.
 RMF .OHMM           0.12:   Rmf
 MFST.F                72:   Rmf Meas. temp.
 RMC .OHMM           0.16:   Rmc
 MCST.F                72:   Rmc Meas. temp.
 MFSS.               MEAS:   Source Rmf.
 MCSS.               MEAS:   Source Rmc.
 TCS .HRS               4:   Time Circ. stopped
 LUN .               2958:   Logging unit number
 LUL .             CASPER:   Logging unit location
 ENGI.                LAW:   Recorded By
 WITN.         PETTINGILL:   Witnessed by
 ORIG.           5" PRINT:   Origin of data
 UWI .     49025104130000:   Unique Well ID
 DICO. A2D TECHNOLOGIES, INC.:   Digitizing Company
~OTHER INFORMATION
~A   DEPT      SPR         SN        ILD         GRD      CALD       RHOB       CORR   
# ...
  372.0000   -49.8440     5.7360    11.3370    67.8780     9.2190     2.4470     0.0240
  372.5000   -50.1960     5.7630    10.2470    69.0150     9.3110     2.4380     0.0340
  373.0000   -50.3710     5.7880     9.3920    70.1290     9.4080     2.4060     0.0330
  373.5000   -50.5480     5.8140     8.5370    70.2770     9.4340     2.3840     0.0270
  374.0000   -50.8330     5.8390     8.1010    70.2770     9.4390     2.3630     0.0220
  374.5000   -51.6770     5.8930     8.3530    70.2760     9.4430     2.3580     0.0210
  375.0000   -52.6560     5.9510     8.8620    70.0870     9.4480     2.3580     0.0210
  375.5000   -53.6510     6.0170     9.6180    69.6690     9.4520     2.3620     0.0210
  376.0000   -54.2510     6.1590    10.6180    68.7300     9.4530     2.3760     0.0180
  376.5000   -54.6140     6.3000    11.6170    68.1780     9.4450     2.3770     0.0170
  377.0000   -55.2100     6.4380    12.4380    70.1770     9.4370     2.3780     0.0220
  377.5000   -56.1440     6.5700    12.8710    70.2590     9.4290     2.3850     0.0280
  378.0000   -57.0670     6.7020    13.3040    70.5550     9.4220     2.4080     0.0300
  378.5000   -57.8330     6.8190    13.5950    72.8610     9.4090     2.4260     0.0330
  379.0000   -57.9810     6.8390    13.5130    74.3170     9.3720     2.4430     0.0350
  379.5000   -58.1450     6.8590    13.4520    75.2270     9.3340     2.4610     0.0350
  380.0000   -58.1700     6.8800    13.3910    74.7640     9.2960     2.4710     0.0340
  380.5000   -58.1720     6.9000    13.2590    74.9700     9.2590     2.4710     0.0320
  381.0000   -58.3550     6.9200    12.9940    75.9750     9.2580     2.4710     0.0300
  381.5000   -58.7500     6.9400    12.7280    78.1500     9.2580     2.4710     0.0300
  382.0000   -59.0560     6.9600    12.4630    75.5440     9.2580     2.4710     0.0310
  382.5000   -59.2650     6.9800    12.1970    74.6200     9.2580     2.4710     0.0300
  383.0000   -59.4740     7.0050    12.0490    75.0830     9.2580     2.4680     0.0250
  383.5000   -59.6780     6.9950    11.9620    77.3540     9.2580     2.4620     0.0200
  384.0000   -60.1890     6.9780    11.8760    78.2630     9.2580     2.4600     0.0210
  384.5000   -60.8170     6.9610    11.7890    77.0280     9.2580     2.4600     0.0220
  385.0000   -61.2920     6.9440    11.7020    78.2150     9.2580     2.4610     0.0230
  385.5000   -61.6220     6.9270    11.6150    77.6860     9.2580     2.4630     0.0240
  386.0000   -61.9540     6.9090    11.5420    79.1740     9.2580     2.4640     0.0260
  386.5000   -62.2390     6.8920    11.5290    82.9010     9.2580     2.4670     0.0310
  387.0000   -62.4860     6.8750    11.5160    83.8340     9.2580     2.4790     0.0350
  387.5000   -62.7340     6.8580    11.5040    81.7060     9.2590     2.4830     0.0300
  388.0000   -62.9810     6.8410    11.4910    80.4270     9.2610     2.4760     0.0260
  388.5000   -63.2310     6.8230    11.4780    81.4870     9.2640     2.4710     0.0270
  389.0000   -63.3860     6.8060    11.4650    82.4680     9.2660     2.4760     0.0270
  389.5000   -63.5150     6.7890    11.4530    82.5140     9.2680     2.4840     0.0260
  390.0000   -63.6450     6.7720    11.4400    84.5940     9.2710     2.4820     0.0200
  390.5000   -63.7730     6.7550    11.4400    86.8510     9.2730     2.4780     0.0190
  391.0000   -63.8750     6.7410    11.4400    89.0290     9.2760     2.4840     0.0200
  391.5000   -63.8390     6.7280    11.4400    90.1100     9.2790     2.4860     0.0190
  392.0000   -63.8050     6.7140    11.3970    89.7960     9.2910     2.4760     0.0140
  392.5000   -63.7720     6.7000    11.2150    88.4590     9.3020     2.4690     0.0140
  393.0000   -63.7390     6.6870    11.0330    86.7830     9.3140     2.4690     0.0150
  393.5000   -63.7080     6.6730    10.8510    87.1940     9.3250     2.4610     0.0160
  394.0000   -63.7330     6.6600    10.6690    87.5900     9.3360     2.4560     0.0180
  394.5000   -63.9830     6.6460    10.4870    85.7060     9.3400     2.4560     0.0220
  395.0000   -64.3270     6.6330    10.3520    85.5470     9.3430     2.4640     0.0220
  395.5000   -64.7270     6.5370    10.6380    83.5360     9.3460     2.4630     0.0210
  396.0000   -64.8760     6.4460    10.4670    85.6170     9.3490     2.4630     0.0200
  396.5000   -64.9030     6.3550    10.2090    83.2710     9.3520     2.4650     0.0220
  397.0000   -64.9280     6.2640    10.0150    82.9550     9.3550     2.4740     0.0280
  397.5000   -64.9530     6.1730     9.8920    84.7070     9.3580     2.4850     0.0340
  398.0000   -64.9770     6.0820     9.7420    86.0500     9.3610     2.4930     0.0350
  398.5000   -65.0020     5.9910     9.5240    84.6560     9.3640     2.4940     0.0350
  399.0000   -65.0270     5.9000     9.2880    84.9410     9.3670     2.4910     0.0350
  399.5000   -65.0520     5.8090     9.3100    84.7350     9.3700     2.4890     0.0330
  400.0000   -65.0760     5.7180     9.3410    83.7160     9.3730     2.4890     0.0310
  400.5000   -65.1010     5.6270     9.3680    85.5310     9.3760     2.4860     0.0280
  401.0000   -65.1260     5.5360     9.2170    84.6600     9.3790     2.4800     0.0260
  401.5000   -65.1510     5.4450     8.6200    82.4560     9.3820     2.4750     0.0250
  402.0000   -65.1760     5.3310     8.0230    83.2720     9.3850     2.4700     0.0240
  402.5000   -65.2000     5.1690     7.2020    85.6870     9.3880     2.4640     0.0270
  403.0000   -65.2250     5.0080     6.1790    88.2220     9.3910     2.4640     0.0300
  403.5000   -65.2560     4.8470     5.0970    90.7650     9.3940     2.4660     0.0310
  404.0000   -65.0670     4.6850     5.0060    92.4820     9.3860     2.4620     0.0320
  404.5000   -64.8190     4.6130     5.0740    93.2210     9.3710     2.4480     0.0330
  405.0000   -64.4890     4.6130     5.1250    93.0870     9.3560     2.4340     0.0380
  405.5000   -64.0120     4.6550     5.1760    90.0610     9.3410     2.4200     0.0450
  406.0000   -63.5370     4.7720     5.2270    89.7030     9.3250     2.3980     0.0600
  406.5000   -63.0620     4.8880     5.6700    89.9960     9.3130     2.3960     0.0850
  407.0000   -62.5870     5.0390     6.2280    90.3240     9.3040     2.4420     0.1000
  407.5000   -62.4150     5.2440     6.7860    92.4150     9.2880     2.4810     0.0510
  408.0000   -62.3100     5.4500     7.3440    91.8900     9.2490     2.4880     0.0170
  408.5000   -62.2060     5.6550     7.9010    93.5800     9.2110     2.4870     0.0160
  409.0000   -62.1020     5.8080     8.4590    94.2870     9.1730     2.4850     0.0210
  409.5000   -61.9970     5.9270     9.0170    94.5610     9.1400     2.5000     0.0250
  410.0000   -61.8930     6.0470     9.4850    96.6440     9.1400     2.4940     0.0230
  410.5000   -61.7890     6.1660     9.6320    97.5140     9.1400     2.4880     0.0200
  411.0000   -61.7260     6.2850     9.7790    96.4710     9.1400     2.4860     0.0190
  411.5000   -61.7890     6.4040     9.9220    96.4300     9.1400     2.4850     0.0170
  412.0000   -61.8490     6.5230    10.0660    96.5720     9.1400     2.4870     0.0190
  412.5000   -61.9090     6.6430    10.2090    93.0200     9.1400     2.4960     0.0220
  413.0000   -61.9690     6.7550    10.3950    90.4290     9.1400     2.4980     0.0220
  413.5000   -62.0300     6.8100    10.6040    90.9270     9.1400     2.4990     0.0220
  414.0000   -62.0960     6.8610    10.8140    89.2300     9.1420     2.4980     0.0190
  414.5000   -61.9250     6.9130    11.0230    88.7630     9.1440     2.4940     0.0150
  415.0000   -61.6790     6.9650    11.1710    88.3760     9.1460     2.4890     0.0120
  415.5000   -61.4300     7.0160    11.3080    90.0570     9.1480     2.4870     0.0160
  416.0000   -61.1820     7.0680    11.4440    88.9160     9.1500     2.4890     0.0210
  416.5000   -60.9340     7.1200    11.5810    85.5320     9.1530     2.4960     0.0210
  417.0000   -60.6860     7.1710    11.6700    85.6260     9.1550     2.4980     0.0210
