~VERSION INFORMATION
 VERS.                2.0:   CWLS LOG ASCII STANDARD - VERSION 2.0
 WRAP.                 NO:   ONE LINE PER DEPTH STEP
~WELL INFORMATION
#MNEM.UNIT      DATA TYPE    INFORMATION
#----------   ------------   ------------------------------
 STRT.F           90.0000:   START DEPTH
 STOP.F         3342.0000:   STOP DEPTH
 STEP.F            0.5000:   STEP LENGTH
 NULL.          -999.2500:   NO VALUE
 COMP. LAWRENCE ALLISON AND ASSOCIATES:   COMPANY
 WELL. LAWERNCE "X" #83-3:   WELL
 FLD .             NPR #3:   FIELD
 LOC .       S3 T38N R78W:   LOCATION
 CNTY.            NATRONA:   COUNTY
 STAT.            WYOMING:   STATE
 CTRY. UNITED STATES OF AMERICA:   COUNTRY
 SRVC.      DRESSER ATLAS:   SERVICE COMPANY
 DATE.        23-APR-1985:   LOGDATE
 API .     49025110210000:   API NUMBER
~CURVE INFORMATION
#MNEM.UNIT       API CODE    CURVE DESCRIPTION
#----------   ------------   ------------------------------
 DEPT.F                  :   
 TENR.LBS    07 635 01 00:   TENSION FROM RESISTIVITY
 CALR.IN     07 280 01 00:   CALIPER FROM RESISTIVITY
 SPR .MV     07 010 01 00:   SPONTANEOUS POTENTIAL
 GRR .GAPI   07 310 01 00:   GAMMA RAY FROM RESISTIVITY
 RFOC.OHMM   07 220 04 00:   RESISTIVITY FOCUSED LOG RES.
 RILD.OHMM   07 120 46 00:   DEEP INDUCTION RESISTIVITY
 RILM.OHMM   07 120 44 00:   INDUCTION LOG MEDIUM RESISTIVITY
 NPHI.DEC    42 890 03 00:   NEUTRON POROSITY SANDSTONE
 RHOB.G/C3   45 350 01 00:   BULK DENSITY
 TEND.LBS    45 635 01 00:   TENSION FROM DENSITY LOG
 CORR.G/C3   45 356 01 00:   DENSITY CORRECTION
~PARAMETER INFORMATION
#MNEM.UNIT          VALUE    DESCRIPTION
#----------   ------------   ------------------------------
 EKB .F         5125.0000:   Kelly bushing
 EGL .F         5112.0000:   Ground level
 EDF .F            0.0000:   Drilling floor
 TD  .F         3330.0000:   Total depth
 DATE.        23-APR-1985:   Date logged
 CLNT.            A2DTECH:   Client Code
 SL  . 1745' FNL & 612' FEL:   Surface Location
 PD  .                 GL:   Permanent Datum
 DD  .F              3330:   Depth driller
 DL  .F              3328:   Depth logger
 BLI .F              3326:   Bottom log interval
 CS1 .IN            8.625:   Casing size
 CBD1.      8.625" @ 526':   Casing driller 1
 CBL1.F               528:   Casing logger 1
 BS1 .IN            7.875:   Bit size
 DFT .            KCL-GEL:   Type fluid in hole
 DFD .                9.1:   Density
 DFV .                 43:   Viscosity
 DFPH.                  8:   pH
 DFL .                  8:   Fluid loss
 MSS .           FLOWLINE:   Source of sample
 RMS .OHMM          0.445:   Rm
 MST .F                72:   Rm Meas. temp.
 RMF .OHMM           0.36:   Rmf
 MFST.F                70:   Rmf Meas. temp.
 RMC .OHMM           0.55:   Rmc
 MCST.F                72:   Rmc Meas. temp.
 MFSS.               MEAS:   Source Rmf.
 RMB .OHMM          0.286:   Rm. at BHT
 BHT .F               116:   BHT.
 TCS .HRS               3:   Time Circ. stopped
 MRT .F               116:   Maximum recorded temp.
 LUN .               6274:   Logging unit number
 LUL .               GLTE:   Logging unit location
 ENGI.             RAUTIO:   Recorded By
 WITN.             STRONG:   Witnessed by
 ORIG.           5" PRINT:   Origin of data
 UWI .     49025110210000:   Unique Well ID
 DICO. A2D TECHNOLOGIES, INC.:   Digitizing Company
 DAPD.                 13:   Feet Above Permanent Datum
 BSD1.               3330:   Depth drilled with bit1
 MCSS.               CALC:   Source Rmc.
 EPD .               5112:   Elevation Permanent Datum
 LMF .                 KB:   Log Measured From
 DMF .                 KB:   Drilling Measured From
~OTHER INFORMATION
~A   DEPT     TENR       CALR        SPR         GRR      RFOC       RILD       RILM       NPHI       RHOB       TEND       CORR   
# ...
 2560.5000   -55.5830    10.7930   -79.5210   118.9190     7.5370     6.6070     6.4450     0.2390     2.5180   -38.1090    -0.0080
 2561.0000   -55.5830    10.7930   -79.5960   123.9290     6.9770     6.4660     6.3310     0.2390     2.5230   -38.9590    -0.0040
 2561.5000   -55.5830    10.7850   -79.6720   127.2920     6.6330     6.3260     6.2170     0.2390     2.5280   -39.8100     0.0040
 2562.0000   -55.5830    10.7300   -79.7470   123.9860     6.3460     6.1950     6.1030     0.2380     2.5320   -40.6610     0.0130
 2562.5000   -55.5830    10.6900   -79.8230   118.6250     6.6240     6.0620     6.0060     0.2380     2.5370   -41.5120     0.0150
 2563.0000   -55.5830    10.6670   -79.8990   115.1890     7.0860     6.0700     5.9510     0.2340     2.5410   -42.3630     0.0080
 2563.5000   -65.5530    10.6430   -79.9620   120.3310     7.0030     6.0780     5.9510     0.2310     2.5430   -43.2140     0.0030
 2564.0000   -65.2730    10.6190   -80.0670   127.7900     6.6090     6.0870     5.9550     0.2330     2.5410   -44.0640    -0.0030
 2564.5000   -63.7000    10.6140   -80.1690   130.6020     6.1170     6.0950     5.9620     0.2340     2.5290   -44.9150    -0.0080
 2565.0000   -62.1260    10.6120   -80.2580   125.9320     6.3050     6.1040     5.9700     0.2420     2.5180   -45.7660    -0.0100
 2565.5000   -60.5530    10.6110   -80.4190   122.1570     6.5240     6.1120     5.9770     0.2610     2.5120   -46.6170    -0.0060
 2566.0000   -58.9790    10.6090   -80.2910   123.7100     6.3150     6.1380     5.9840     0.2560     2.5110   -47.4680    -0.0020
 2566.5000   -57.4060    10.6080   -80.1700   126.2770     5.8130     6.2300     5.9910     0.2600     2.5030   -48.3190    -0.0160
 2567.0000   -55.8330    10.6060   -80.0450   123.5890     5.4790     6.3220     5.9980     0.2400     2.4980   -49.1690    -0.0200
 2567.5000   -55.5830    10.6050   -79.9190   120.1550     5.7740     6.4140     5.9990     0.2390     2.5040   -50.0200    -0.0100
 2568.0000   -55.5830    10.6030   -79.7950   114.8210     6.3100     6.5060     6.0680     0.2380     2.5150   -50.8710     0.0130
 2568.5000   -65.5530    10.6020   -79.7200   109.8020     6.8460     6.5980     6.2080     0.2380     2.5240   -51.7220     0.0260
 2569.0000   -75.0520    10.6000   -79.8030   109.4340     7.0430     6.6900     6.3450     0.2370     2.5230   -52.5730     0.0120
 2569.5000   -73.3510    10.5990   -79.8820   110.7640     7.0760     6.7830     6.4820     0.2360     2.5230   -53.4240     0.0010
 2570.0000   -71.6500    10.5980   -79.9610   112.8880     7.2030     6.8750     6.6190     0.2300     2.5230   -54.2740    -0.0090
 2570.5000   -69.9490    10.5960   -80.0400   114.9320     7.3720     6.9570     6.7680     0.2180     2.5280   -55.1250    -0.0080
 2571.0000   -68.2480    10.5940   -80.1190   112.4170     7.4870     6.9140     6.7680     0.2230     2.5330   -55.2660    -0.0030
 2571.5000   -66.5470    10.5830   -80.1980   109.4970     7.3250     6.8550     6.7510     0.2260     2.5350   -53.0830     0.0010
 2572.0000   -64.8460    10.5730   -80.2770   108.6860     7.1800     6.7950     6.7360     0.2280     2.5280   -50.9010    -0.0030
 2572.5000   -63.1450    10.5620   -80.3560   111.4180     7.0860     6.7680     6.7210     0.2230     2.5210   -48.7180    -0.0070
 2573.0000   -61.4440    10.5520   -80.4350   112.5910     7.1490     6.7680     6.7060     0.2260     2.5150   -46.5360    -0.0110
 2573.5000   -59.7430    10.5420   -80.5140   113.9950     7.2170     6.8990     6.7380     0.2310     2.5200   -44.3530    -0.0090
 2574.0000   -58.0420    10.5310   -80.5920   115.1260     7.4870     6.9310     6.7800     0.2350     2.5250   -42.1700     0.0000
 2574.5000   -56.3410    10.5210   -80.6720   116.5880     7.4520     7.0210     6.8210     0.2370     2.5260   -39.9880     0.0080
 2575.0000   -54.6400    10.5100   -80.7510   116.0400     7.3910     7.0210     6.8300     0.2380     2.5170   -37.8050    -0.0120
 2575.5000   -52.9390    10.5000   -80.8300   115.4240     7.3310     6.9890     6.8170     0.2430     2.5080   -35.8570    -0.0230
 2576.0000   -51.2380    10.5030   -80.8880   115.8480     7.2570     6.9620     6.7940     0.2460     2.5050   -35.8570    -0.0150
 2576.5000   -49.5370    10.5180   -80.7350   117.2500     7.1370     6.9350     6.7720     0.2410     2.5100   -35.8570    -0.0080
 2577.0000   -47.8360    10.5340   -80.5800   117.2290     7.0210     6.9080     6.7680     0.2350     2.5180   -35.8570    -0.0080
 2577.5000   -46.1350    10.5530   -80.4270   113.6660     7.0210     6.8930     6.8830     0.2260     2.5260   -35.8570    -0.0040
 2578.0000   -44.4340    10.5350   -80.2730   108.5870     7.2480     7.0490     7.0200     0.2160     2.5340   -35.8570     0.0010
 2578.5000   -42.7330    10.5330   -80.1180   105.1120     7.7480     7.2880     7.1570     0.2080     2.5420   -35.8570     0.0050
 2579.0000   -41.0320    10.5310   -79.9640   103.6960     7.9280     7.5260     7.2940     0.2060     2.5440   -35.8570     0.0050
 2579.5000   -39.3310    10.5290   -79.8140   103.9350     7.9520     7.6960     7.4190     0.2020     2.5400   -35.5610    -0.0050
 2580.0000   -37.6300    10.5270   -79.7940   104.3700     7.9840     7.6960     7.4190     0.1970     2.5340   -33.8300    -0.0180
 2580.5000   -35.9290    10.5250   -80.1570   104.6400     7.9090     7.5690     7.4190     0.2090     2.5380   -32.0990    -0.0090
 2581.0000   -34.2280    10.5230   -80.5080   103.7200     7.7600     7.4530     7.3510     0.2200     2.5480   -30.3680     0.0090
 2581.5000   -32.5270    10.5210   -80.8550   102.9010     7.6110     7.3380     7.2400     0.2280     2.5560   -28.6370     0.0220
 2582.0000   -30.8260    10.5190   -81.0930   105.7600     7.4620     7.2220     7.1060     0.2250     2.5560   -26.9060     0.0190
 2582.5000   -29.1250    10.5170   -81.0890   108.9850     7.3130     7.1070     6.9710     0.2130     2.5560   -23.8420     0.0070
 2583.0000   -27.4240    10.5150   -81.0900   110.5560     7.1780     6.9910     6.8370     0.2120     2.5530   -14.4300    -0.0050
 2583.5000   -25.6730    10.5130   -81.0890   112.0420     7.0690     6.8750     6.7030     0.2240     2.5490    -5.0170    -0.0010
 2584.0000   -28.7260    10.5110   -81.0720   113.5550     6.9600     6.7600     6.5690     0.2450     2.5460     3.9840     0.0050
 2584.5000   -31.8730    10.5090   -81.6300   114.2150     6.9040     6.6440     6.4350     0.2540     2.5490   -22.2110     0.0120
 2585.0000   -35.0200    10.5070   -82.3110   113.1280     7.0050     6.5290     6.3010     0.2480     2.5560   -18.1090     0.0180
 2585.5000   -30.3110    10.5050   -83.0100   112.9280     7.0860     6.4130     6.1670     0.2430     2.5590    -8.9820     0.0250
 2586.0000   -17.1770    10.5030   -82.9770   112.9570     6.9700     6.2970     6.0620     0.2390     2.5600     0.1450     0.0330
 2586.5000    -4.0420    10.5010   -82.5180   112.7810     6.7800     6.2280     6.1280     0.2400     2.5610     9.2720     0.0220
 2587.0000     9.0920    10.4990   -82.0550   112.9930     6.5240     6.2150     6.1820     0.2410     2.5580    18.3990     0.0110
 2587.5000    22.2270    10.4970   -81.5860   113.7170     6.5650     6.2020     6.2360     0.2410     2.5470    27.5260    -0.0170
 2588.0000    23.0780    10.4950   -81.1140   114.1720     6.6580     6.1890     6.2900     0.2290     2.5360    33.0350    -0.0320
 2588.5000    21.7870    10.4930   -80.7750   113.4890     6.7510     6.1760     6.3440     0.2200     2.5350    30.3220    -0.0140
 2589.0000    20.4960    10.4910   -81.0960   111.9560     6.8440     6.1740     6.4050     0.2210     2.5440    27.6080     0.0060
 2589.5000    19.2050    10.4890   -81.1470   110.4610     6.9370     6.0970     6.3690     0.2280     2.5530    24.8950     0.0180
 2590.0000    17.9140    10.4870   -81.1770   109.6950     7.0860     6.0260     6.2940     0.2360     2.5550    22.1820     0.0210
 2590.5000    16.6230    10.4850   -81.2070   109.1520     6.9140     5.9550     6.2190     0.2370     2.5500    19.4680     0.0200
