~VERSION INFORMATION
 VERS.                2.0:   CWLS LOG ASCII STANDARD - VERSION 2.0
 WRAP.                 NO:   ONE LINE PER DEPTH STEP
~WELL INFORMATION
#MNEM.UNIT      DATA TYPE    INFORMATION
#----------   ------------   ------------------------------
 STRT.F          196.5000:   START DEPTH
 STOP.F         3219.0000:   STOP DEPTH
 STEP.F            0.5000:   STEP LENGTH
 NULL.          -999.2500:   NO VALUE
 COMP.    FENIX & SCISSON:   COMPANY
 WELL.  FENIX "AX" #73-15:   WELL
 FLD .              NPR 3:   FIELD
 LOC .      S15 T38N R78W:   LOCATION
 CNTY.            NATRONA:   COUNTY
 STAT.            WYOMING:   STATE
 CTRY. UNITED STATES OF AMERICA:   COUNTRY
 SRVC.       SCHLUMBERGER:   SERVICE COMPANY
 DATE.        30-AUG-1977:   LOGDATE
 API .     49025104270000:   API NUMBER
~CURVE INFORMATION
#MNEM.UNIT       API CODE    CURVE DESCRIPTION
#----------   ------------   ------------------------------
 DEPT.F                  :   
 NPHI.DEC    42 890 03 00:   NEUTRON POROSITY SANDSTONE
 CALD.IN     45 280 60 00:   CALIPER FROM DENSITY LOG
 GRD .GAPI   45 310 01 00:   GAMMA RAY FROM DENSITY LOG
 CORR.G/C3   45 356 01 00:   DENSITY CORRECTION
 RHOB.G/C3   45 350 01 00:   BULK DENSITY
 SPR .MV     07 010 01 00:   SPONTANEOUS POTENTIAL
 RILD.OHMM   07 120 46 00:   DEEP INDUCTION RESISTIVITY
 RILM.OHMM   07 120 44 00:   INDUCTION LOG MEDIUM RESISTIVITY
 LL8 .OHMM   07 220 08 00:   LATEROLOG-8 RES.
~PARAMETER INFORMATION
#MNEM.UNIT          VALUE    DESCRIPTION
#----------   ------------   ------------------------------
 EKB .F         5263.0000:   Kelly bushing
 EGL .F         5253.0000:   Ground level
 TD  .F         3220.0000:   Total depth
 CLNT.            A2DTECH:   Client Code
 SL  . 1650' FNL & 875' FEL:   Surface Location
 PD  .                 GL:   Permanent Datum
 EPD .F              5253:   Elevation Permanent Datum
 LMF .                 KB:   Log Measured From
 DMF .                 KB:   Drilling Measured From
 DAPD.F                10:   Feet Above Permanent Datum
 DATE.        30-AUG-1977:   Date Logged [DD-MMM-YYYY]
 DD  .F              3220:   Depth driller
 DL  .F              3219:   Depth logger
 BLI .F              3209:   Bottom log interval
 TLI .F               216:   Top log interval
 CS1 .IN            8.625:   Casing size
 CBL1.F               216:   Casing logger 1
 BS1 .IN            7.875:   Bit size
 BSD1.F              3220:   Depth drilled with bit1
 DFT .                FGM:   Type fluid in hole
 DFD .                8.9:   Density
 DFPH.                 11:   pH
 MSS .            MUDTANK:   Source of sample
 RMS .OHMM           0.40:   Rm
 MST .F                82:   Rm Meas. temp.
 RMF .OHMM           0.25:   Rmf
 MFST.F                72:   Rmf Meas. temp.
 MFSS.               MEAS:   Source Rmf.
 RMC .OHMM           0.60:   Rmc
 MCST.F                82:   Rmc Meas. temp.
 MCSS.               CALC:   Source Rmc.
 RMB .OHMM           0.27:   Rm. at BHT
 BHT .F               120:   BHT.
 MRT .F               120:   Maximum recorded temp.
 LUN .               5642:   Logging unit number
 LUL .               CSPR:   Logging unit location
 ENGI.                FIX:   Recorded By
 WITN.         RETTINGILL:   Witnessed by
 ORIG.           5" PRINT:   Origin of data
 UWI .     49025104270000:   Unique Well ID
 DICO. A2D TECHNOLOGIES, INC.:   Digitizing Company
 DFV .                 35:   Viscosity
 DFL .                8.4:   Fluid loss
 CBD1.      8.625" @ 216':   Casing driller 1
~OTHER INFORMATION
~A   DEPT       NPHI     CALD        GRD       CORR       RHOB        SPR       RILD       RILM        LL8   
# ...
 2386.5000     0.3361     8.7499   116.3890    -0.0023     2.4689   -58.1123     6.7916     7.9506     8.8292
 2387.0000     0.3364     8.7518   111.7483     0.0001     2.4637   -58.0937     6.5625     7.6300     9.3347
 2387.5000     0.3366     8.7537   107.3301     0.0047     2.4511   -58.0788     6.2974     7.0728     9.7327
 2388.0000     0.3397     8.7556   105.8051     0.0063     2.4647   -58.2187     6.0850     6.4215     7.9096
 2388.5000     0.3486     8.7421   106.0606    -0.0011     2.4625   -58.5022     5.9207     5.9526     6.1660
 2389.0000     0.3590     8.7443   107.2062    -0.0017     2.4521   -58.9404     5.8411     5.7522     5.8758
 2389.5000     0.3636     8.7464   107.6842     0.0014     2.4642   -58.9255     5.7627     5.6748     6.6577
 2390.0000     0.3680     8.7483   103.9337     0.0068     2.4725   -58.7596     5.8048     5.7569     7.9733
 2390.5000     0.3590     8.7348    96.3998     0.0114     2.4547   -58.5936     5.9288     6.0038     9.1602
 2391.0000     0.3376     8.7372    91.9816     0.0083     2.4510   -58.2766     6.2724     6.2613     9.3654
 2391.5000     0.3202     8.7241    88.8988     0.0056     2.4466   -58.2617     6.6372     6.5752     8.6114
 2392.0000     0.3046     8.7261    86.4806     0.0087     2.4429   -58.2468     6.9266     6.9049     7.9226
 2392.5000     0.3043     8.7280    86.2939     0.0021     2.4554   -58.2319     7.2089     7.2010     7.4967
 2393.0000     0.3082     8.7300    87.2181    -0.0001     2.4661   -58.2170     7.3180     7.5098     8.7782
 2393.5000     0.3168     8.7319    88.1483     0.0023     2.4755   -58.2022     7.5201     8.0521     9.9022
 2394.0000     0.3231     8.7342    87.5135     0.0039     2.4809   -58.1873     7.6277     8.5163    11.0654
 2394.5000     0.3246     8.7361    84.8757     0.0048     2.4750   -58.1722     7.8448     8.7576    10.9162
 2395.0000     0.3177     8.7380    81.1253     0.0011     2.4496   -58.1571     7.9570     8.6326    10.5476
 2395.5000     0.3110     8.7399    70.9207     0.0020     2.4241   -58.1420     8.1269     8.5078     9.4439
 2396.0000     0.3209     8.7418    69.1650     0.0111     2.4603   -58.1240     8.2023     8.4697     8.5145
 2396.5000     0.3269     8.7437    77.2179     0.0165     2.4806   -58.1091     8.3212     8.4740     8.4574
 2397.0000     0.3250     8.7456    79.6989     0.0124     2.4837   -58.0942     8.7685     8.5365     8.5783
 2397.5000     0.3247     8.7476    79.5092     0.0040     2.4808   -58.0793     8.7734     8.7800     9.8198
 2398.0000     0.3274     8.7495    78.6437     0.0010     2.4719   -57.9133     8.7175     9.6785    11.5986
 2398.5000     0.3300     8.7514    78.6848     0.0042     2.4675   -58.0532     8.7127    10.2345    12.2638
 2399.0000     0.3318     8.7383    77.1598     0.0073     2.4533   -58.0346     8.6668    10.3099    12.2783
 2399.5000     0.3207     8.7403    73.6318     0.0014     2.4324   -58.1745     8.5533    10.2418    11.4533
 2400.0000     0.3111     8.7422    71.6617    -0.0008     2.4085   -58.4580     8.4989     9.8297    10.1161
 2400.5000     0.3150     8.7292    69.9142     0.0063     2.4389   -58.5979     8.3865     9.5639     9.8439
 2401.0000     0.3185     8.7359    69.7245     0.0108     2.4492   -58.7384     8.1616    10.1143    12.0747
 2401.5000     0.3197     8.7476    72.7753     0.0026     2.4575   -58.9542     7.9330     9.8419    13.0404
 2402.0000     0.3110     8.7341    78.4780     0.0096     2.4411   -59.3025     7.6239     8.7516     9.0716
 2402.5000     0.3097     8.7363    86.0776     0.0133     2.4457   -59.5897     7.4195     8.2215     7.7400
 2403.0000     0.3139     8.7381    93.0096     0.0014     2.4315   -59.7297     7.1707     8.2067     7.4275
 2403.5000     0.3405     8.7547    99.7191     0.0039     2.4361   -59.7111     6.9785     8.1918     9.1458
 2404.0000     0.3426     8.7565   103.9804     0.0086     2.4422   -59.6962     6.7914     8.2411    10.0108
 2404.5000     0.3419     8.7583   103.3456     0.0145     2.4483   -59.6814     6.6093     8.3592    10.4394
 2405.0000     0.3404     8.7601   101.3755     0.0026     2.4416   -59.8176     6.4321     7.9681    10.4437
 2405.5000     0.3356     8.7768   100.0731     0.0049     2.4282   -59.9575     6.3032     7.6472     9.5492
 2406.0000     0.3259     8.8083   100.3286     0.0163     2.4365   -60.2417     6.1769     7.7041     6.9007
 2406.5000     0.3301     8.8101   106.5929     0.0089     2.4261   -60.2263     6.0944     7.4970     6.3090
 2407.0000     0.3417     8.8119   112.1895     0.0060     2.4142   -60.2114     6.0146     7.1454     7.1002
 2407.5000     0.3501     8.8137   118.2313     0.0076     2.4135   -60.1966     6.0179     6.9054     7.2247
 2408.0000     0.3438     8.8155   126.4986     0.0062     2.4001   -60.4838     6.0212     6.7198     6.6770
 2408.5000     0.3323     8.8173   145.2687     0.0093     2.3927   -60.6163     6.1510     6.6304     6.5425
 2409.0000     0.3254     8.8343   147.7324     0.0125     2.3905   -60.6015     6.4621     6.7768     6.7307
 2409.5000     0.3212     8.8510   147.1039     0.0163     2.3929   -60.5866     6.9873     8.0288     7.6542
 2410.0000     0.3185     8.8230   137.3208     0.0187     2.3960   -60.5718     7.6062     9.2865    13.4614
 2410.5000     0.3229     8.8248   135.7959     0.0135     2.3907   -60.5569     8.3057    10.0696    15.1403
 2411.0000     0.3277     8.7967   135.5979     0.0128     2.3766   -60.3910     8.7234    10.5752    14.4303
 2411.5000     0.3324     8.7985   139.6450     0.0145     2.3721   -60.5310     8.8499     9.8037    12.3121
 2412.0000     0.3363     8.8152   144.7966     0.0056     2.3651   -60.8145     8.6127     8.6581    10.7252
 2412.5000     0.3339     8.8170   152.3566     0.0177     2.3604   -61.1018     8.2093     8.9666     9.7389
 2413.0000     0.3305     8.8485   162.6084     0.0486     2.3935   -61.2387     7.6639     7.6500     8.8433
 2413.5000     0.3284     8.8950   173.3219     0.0785     2.4205   -61.3746     6.8632     6.6170     7.7569
 2414.0000     0.3262     8.9266   178.6941     0.0594     2.4363   -61.8125     6.1462     5.8034     8.6089
 2414.5000     0.3259     8.9433   181.3957     0.0166     2.3630   -62.4019     5.4661     5.4551     9.2936
 2415.0000     0.3305     8.9600   181.6492     0.0107     2.3533   -62.8549     4.8951     5.2719     7.5545
 2415.5000     0.3350     8.9766   177.6743     0.0130     2.3781   -63.2786     4.5698     4.9212     5.5353
 2416.0000     0.3389     9.0082   169.6934     0.0087     2.3954   -63.5621     4.2959     4.3161     4.4377
 2416.5000     0.3420     9.0249   164.6056    -0.0033     2.4191   -63.5473     4.0104     3.9736     4.3745
 2417.0000     0.3434     9.0416   159.5179     0.0021     2.4428   -63.5324     3.8226     3.8136     4.7267
 2417.5000     0.3296     9.0582   147.6539     0.0112     2.4584   -63.5176     3.7460     3.7111     5.3559
 2418.0000     0.3272     9.0600   137.7685     0.0166     2.4498   -63.6575     3.7481     3.6872     4.9958
 2418.5000     0.3361     9.0618   137.5771     0.0054     2.4491   -63.7900     3.7501     3.7147     4.6322
 2419.0000     0.3379     9.0636   138.0543     0.0228     2.4642   -63.7752     3.7823     3.7986     4.6794
 2419.5000     0.3354     9.0653   138.3078     0.0252     2.4822   -63.9151     3.8602     3.8765     5.0762
 2420.0000     0.3294     9.0671   136.1133     0.0193     2.4643   -63.7455     3.9435     3.9874     5.1486
 2420.5000     0.3204     9.0689   128.1324     0.0156     2.4577   -63.5796     3.9817     4.0450     5.0449
 2421.0000     0.3159     9.0707   115.4779     0.0155     2.4742   -63.4137     4.0638     4.1320     4.9432
 2421.5000     0.3197     9.0724   113.2834     0.0211     2.4968   -63.3988     4.1177     4.1916     4.8437
 2422.0000     0.3377     9.0593   115.1377     0.0122     2.5014   -63.3837     4.1554     4.2522     4.7790
 2422.5000     0.3400     9.0611   119.5885     0.0055     2.4992   -63.3686     4.1795     4.3136     4.7480
