~VERSION INFORMATION
 VERS.                2.0:   CWLS LOG ASCII STANDARD - VERSION 2.0
 WRAP.                 NO:   ONE LINE PER DEPTH STEP
~WELL INFORMATION
#MNEM.UNIT      DATA TYPE    INFORMATION
#----------   ------------   ------------------------------
 STRT.F            5.5000:   START DEPTH
 STOP.F         3006.0000:   STOP DEPTH
 STEP.F            0.5000:   STEP LENGTH
 NULL.          -999.2500:   NO VALUE
 COMP.    FENIX & SCISSON:   COMPANY
 WELL.  FENIX "AX" #28-28:   WELL
 FLD .  TEAPOT DOME NPR-3:   FIELD
 LOC .      S28 T39N R78W:   LOCATION
 CNTY.            NATRONA:   COUNTY
 STAT.            WYOMING:   STATE
 CTRY. UNITED STATES OF AMERICA:   COUNTRY
 SRVC.           BIRDWELL:   SERVICE COMPANY
 DATE.        23-JAN-1980:   LOGDATE
 API .     49025107960000:   API NUMBER
~CURVE INFORMATION
#MNEM.UNIT       API CODE    CURVE DESCRIPTION
#----------   ------------   ------------------------------
 DEPT.F                  :   
 GRD .GAPI   45 310 01 00:   GAMMA RAY FROM DENSITY LOG
 CALD.IN     45 280 60 00:   CALIPER FROM DENSITY LOG
 DPHI.DEC    45 890 12 00:   DENSITY POROSITY SANDSTONE
 NPHI.DEC    42 890 03 00:   NEUTRON POROSITY SANDSTONE
 CORR.G/C3   45 356 01 00:   DENSITY CORRECTION
 SPR .MV     05 010 01 00:   SPONTANEOUS POTENTIAL FROM RES.
 ILD .OHMM   05 120 40 00:   INDUCTION LOG DEEP RESISTIVITY
 SN  .OHMM   05 040 16 00:   SHORT NORMAL 16"
~PARAMETER INFORMATION
#MNEM.UNIT          VALUE    DESCRIPTION
#----------   ------------   ------------------------------
 EKB .F         5120.0000:   Kelly bushing
 EGL .F         5110.0000:   Ground level
 EDF .F         5119.0000:   Drilling floor
 EPD .F         5110.0000:   Permanent datum
 TD  .F         3006.0000:   Total depth
 CLNT.            A2DTECH:   Client Code
 SL  . 600' FSL & 1300' FWL:   Surface Location
 PD  .                 GL:   Permanent Datum
 DAPD.F                 9:   Feet Above Permanent Datum
 DATE.        23-JAN-1980:   Date Logged [DD-MMM-YYYY]
 DD  .F              3006:   Depth driller
 DL  .F              3006:   Depth logger
 BLI .F              3006:   Bottom log interval
 TLI .F                10:   Top log interval
 CS1 .IN            8.625:   Casing size
 CBD1.      8.625" @ 440':   Casing driller 1
 CBL1.F               460:   Casing logger 1
 BS1 .IN            7.875:   Bit size
 BSD1.F              3006:   Depth drilled with bit1
 DFT .       GEL MUD FULL:   Type fluid in hole
 DFD .                  9:   Density
 DFV .                 46:   Viscosity
 DFPH.                 11:   pH
 DFL .               17.2:   Fluid loss
 MSS .           MUD TANK:   Source of sample
 RMS .OHMM            1.9:   Rm
 MST .F                60:   Rm Meas. temp.
 RMF .OHMM            .73:   Rmf
 MFST.F                62:   Rmf Meas. temp.
 MFSS.               MEAS:   Source Rmf.
 RMC .OHMM            .95:   Rmc
 MCST.F                62:   Rmc Meas. temp.
 TCS .HRS               5:   Time Circ. stopped
 MRT .F               110:   Maximum recorded temp.
 LUN .               3029:   Logging unit number
 LUL .             CASPER:   Logging unit location
 ENGI.           T. WOLFF:   Recorded By
 WITN.           DINSMORE:   Witnessed by
 ORIG.           5" PRINT:   Origin of data
 UWI .     49025107960000:   Unique Well ID
 DICO. A2D TECHNOLOGIES, INC.:   Digitizing Company
~OTHER INFORMATION
~A    DEPT      GRD      CALD       DPHI         NPHI     CORR        SPR        ILD         SN   
# ...
 2273.5000   122.1597     8.8081     0.2574     0.0823     0.1872   -29.3841     3.2833     3.7745
 2274.0000   119.5148     8.7933     0.2376     0.1304     0.1411   -29.3660     3.1244     3.5927
 2274.5000   117.7588     8.7823     0.2324     0.1161    -0.0008   -29.3790     3.0177     3.4687
 2275.0000   114.9602     8.7842     0.2394     0.0936     0.0026   -29.7487     3.0197     3.4210
 2275.5000   117.3578     8.7715     0.2527     0.0911     0.0088   -29.8958     3.0220     3.4726
 2276.0000   120.4852     8.7734     0.2619     0.0833     0.0302   -30.0298     3.0674     3.6007
 2276.5000   116.2161     8.7755     0.2628     0.0817     0.0274   -30.1730     3.1134     3.6919
 2277.0000   113.8459     8.7773     0.2603     0.0916     0.0155   -30.3061     3.2056     3.7355
 2277.5000   118.7780     8.7776     0.2573     0.0915     0.0142   -30.8624     3.3004     3.6584
 2278.0000   123.0961     8.7773     0.2422     0.0915     0.0221   -31.1077     3.3262     3.7136
 2278.5000   119.2660     8.7769     0.2320     0.0938     0.0193   -31.5526     3.3283     3.7423
 2279.0000   120.1820     8.7766     0.2457     0.0986     0.0165   -31.5230     3.3304     3.7172
 2279.5000   117.8334     8.7762     0.2566     0.0947     0.0169   -31.5342     3.3325     3.8003
 2280.0000   117.4052     8.7758     0.2665     0.0880     0.0291   -31.1333     3.3346     3.9125
 2280.5000   118.7657     8.7756     0.2758     0.0852     0.0354   -30.7415     3.3367     3.8869
 2281.0000   117.3060     8.7778     0.2581     0.0864     0.0296   -30.3178     3.3388     3.7796
 2281.5000   117.3277     8.7798     0.2472     0.0887     0.0267   -29.9515     3.3409     3.8088
 2282.0000   119.5717     8.7965     0.2556     0.0902     0.0300   -29.7655     3.3431     3.8110
 2282.5000   116.4815     8.7879     0.2597     0.0916     0.0242   -29.7641     3.3452     3.7860
 2283.0000   118.5781     8.8003     0.2525     0.0994     0.0169   -29.7638     3.3474     3.7612
 2283.5000   120.4310     8.8022     0.2482     0.0984     0.0217   -29.7622     3.3499     3.7903
 2284.0000   120.9919     8.8041     0.2520     0.0957     0.0280   -29.8175     3.3520     3.8474
 2284.5000   115.0932     8.8063     0.2478     0.0911     0.0252   -29.8808     3.3541     3.9328
 2285.0000   115.1149     8.7929     0.2465     0.0884     0.0270   -29.9448     3.3563     3.9350
 2285.5000   114.8404     8.7952     0.2414     0.0897     0.0304   -30.0087     3.3584     3.8809
 2286.0000   113.8250     8.7823     0.2455     0.0943     0.0410   -30.0725     3.3846     3.8286
 2286.5000   113.6932     8.7694     0.2563     0.0730     0.0986   -30.1358     3.4110     3.8858
 2287.0000   112.5352     8.7565     0.2598     0.0870     0.1033   -30.1993     3.4375     3.9439
 2287.5000   104.2606     8.7585     0.2396     0.0792     0.0372   -30.2698     3.5393     4.0603
 2288.0000   104.2341     8.7608     0.2366     0.0781     0.0390   -30.3373     3.6441     4.1802
 2288.5000   108.4522     8.7626     0.2387     0.0710     0.0362   -30.9469     3.6464     4.3036
 2289.0000   114.5629     8.7645     0.2374     0.0963     0.0048   -30.9487     3.6487     4.3679
 2289.5000   118.9664     8.7662     0.2517     0.1037     0.0032   -30.9320     3.5482     4.4331
 2290.0000   124.2211     8.7683     0.2628     0.0999     0.0233   -31.0172     3.4506     3.9460
 2290.5000   121.8779     8.7701     0.2570     0.0975     0.0219   -31.3208     3.3766     3.5835
 2291.0000   120.5609     8.7572     0.2495     0.1058     0.0040   -31.3351     3.3107     3.3625
 2291.5000   121.9214     8.7591     0.2401     0.0992     0.0014   -31.3614     3.2427     3.3163
 2292.0000   121.9431     8.7689     0.2446     0.0973     0.0138   -30.7590     3.1755     3.3424
 2292.5000   121.9649     8.7777     0.2538     0.1036     0.0155   -30.5306     3.0869     3.3682
 2293.0000   121.2459     8.7800     0.2561     0.1068     0.0022   -30.9111     2.9727     3.3456
 2293.5000   121.7120     8.7788     0.2507     0.1080    -0.0037   -30.9644     2.8963     3.3961
 2294.0000   122.9189     8.7759     0.2398     0.1061     0.0027   -29.9480     2.8811     3.4468
 2294.5000   126.5052     8.7731     0.2481     0.0964     0.0240   -29.8799     2.9248     3.3999
 2295.0000   127.1106     8.7725     0.2604     0.0793     0.0378   -29.5848     2.9687     3.3536
 2295.5000   114.6879     8.7744     0.2654     0.0748     0.0245   -29.5534     3.0133     3.4526
 2296.0000   115.9002     8.7615     0.2579     0.0742     0.0187   -29.5920     3.1025     3.5828
 2296.5000   116.6572     8.7486     0.2509     0.0720     0.0219   -30.3229     3.1943     3.7690
 2297.0000   115.0548     8.7509     0.2454     0.0675     0.0191   -30.8648     3.3361     4.0180
 2297.5000   105.2987     8.7528     0.2391     0.0638     0.0134   -30.9720     3.5343     4.3484
 2298.0000   104.1353     8.7547     0.2376     0.0707     0.0106   -31.2818     3.7442     4.6064
 2298.5000   106.3792     8.7566     0.2462     0.0694     0.0093   -31.6651     4.0237     4.9498
 2299.0000   106.8978     8.7584     0.2503     0.0655     0.0202   -31.7420     4.2932     5.2435
 2299.5000   106.4227     8.7603     0.2323     0.0603     0.0324   -31.7245     4.5159     5.5546
 2300.0000   107.1076     8.7474     0.2205     0.0804     0.0270   -31.4038     4.6496     5.6475
 2300.5000   109.9350     8.7171     0.2331     0.0785     0.0348   -31.3819     4.6863     5.7225
 2301.0000   118.3795     8.7046     0.2516     0.0734     0.0501   -31.3600     4.7228     5.4862
 2301.5000   122.9600     8.7075     0.2435     0.0707     0.0412   -31.0418     4.6588     5.2973
 2302.0000   121.0623     8.7099     0.2051     0.0694     0.0278   -30.5755     4.6279     5.2247
 2302.5000   110.2709     8.7122     0.1976     0.0694     0.0295   -31.1462     4.5979     5.3039
 2303.0000   102.5905     8.7145     0.1970     0.0711     0.0328   -30.5318     4.5688     5.3453
 2303.5000   103.2065     8.7318     0.2078     0.0807     0.0345   -30.2136     4.5391     5.4644
 2304.0000   105.4462     8.7192     0.2365     0.0795     0.0271   -30.6362     4.5420     5.6261
 2304.5000   105.1733     8.7217     0.2395     0.0746     0.0213   -31.0587     4.6120     5.7105
 2305.0000   105.4988     8.7245     0.2389     0.0721     0.0215   -31.6294     4.8242     5.7142
 2305.5000   106.8555     8.7268     0.2382     0.0692     0.0247   -31.3067     5.0654     5.6771
 2306.0000   108.6567     8.6995     0.2286     0.0714     0.0214   -30.5205     5.1775     5.7223
 2306.5000   111.1986     8.7018     0.2277     0.0823     0.0116   -30.2296     4.9291     5.8497
 2307.0000   114.7775     8.7042     0.2268     0.0900     0.0133   -30.9439     4.7594     5.8953
 2307.5000   120.5787     8.7065     0.2303     0.0918     0.0226   -31.2183     4.6284     5.7741
 2308.0000   118.5279     8.7089     0.2399     0.0863     0.0198   -31.3500     4.5650     5.5753
 2308.5000   116.3291     8.7112     0.2300     0.0779     0.0200   -30.8783     4.5686     5.3071
 2309.0000   113.6184     8.7135     0.2237     0.0659     0.0278   -30.4119     4.6042     5.1971
 2309.5000   106.5642     8.7159     0.2194     0.0557     0.0309   -30.2474     4.7376     5.3138
 2310.0000   106.1770     8.7182     0.2179     0.0589     0.0131   -30.6645     4.8802     5.7512
 2310.5000   106.7988     8.7206     0.2164     0.0622     0.0117   -31.2352     4.9188     6.3593
 2311.0000   106.6682     8.7229     0.2250     0.0597     0.0271   -31.8059     4.9639     6.5944
 2311.5000   102.9937     8.7104     0.2355     0.0563     0.0258   -32.0858     5.2274     6.6458
 2312.0000    95.9060     8.6979     0.2385     0.0648     0.0169   -31.4449     5.6042     6.7457
 2312.5000    96.2256     8.7003     0.2379     0.0644     0.0186   -32.0370     5.8114     6.8470
 2313.0000    99.5083     8.7027     0.2357     0.0619     0.0173   -31.8666     5.9409     7.0004
 2313.5000   101.3094     8.7055     0.2264     0.0589     0.0251   -31.3935     6.1167     7.1564
