~VERSION INFORMATION
 VERS.                2.0:   CWLS LOG ASCII STANDARD - VERSION 2.0
 WRAP.                 NO:   ONE LINE PER DEPTH STEP
~WELL INFORMATION
#MNEM.UNIT      DATA TYPE    INFORMATION
#----------   ------------   ------------------------------
 STRT.F            8.0000:   START DEPTH
 STOP.F         3021.0000:   STOP DEPTH
 STEP.F            0.5000:   STEP LENGTH
 NULL.          -999.2500:   NO VALUE
 COMP. LAWRENCE ALLISON & ASSOCIATES W:   COMPANY
 WELL. LAWRENCE ALLISON #68-28:   WELL
 FLD .              NPR 3:   FIELD
 LOC .      S28 T39N R78W:   LOCATION
 CNTY.            NATRONA:   COUNTY
 STAT.            WYOMING:   STATE
 CTRY. UNITED STATES OF AMERICA:   COUNTRY
 SRVC.      DRESSER ATLAS:   SERVICE COMPANY
 DATE.        19-DEC-1986:   LOGDATE
 API .     49025111580000:   API NUMBER
~CURVE INFORMATION
#MNEM.UNIT       API CODE    CURVE DESCRIPTION
#----------   ------------   ------------------------------
 DEPT.F                  :   
 SPR .MV     07 010 01 00:   SPONTANEOUS POTENTIAL
 TENR.LBS    07 635 01 00:   TENSION FROM RESISTIVITY
 RILD.OHMM   07 120 46 00:   DEEP INDUCTION RESISTIVITY
 RILM.OHMM   07 120 44 00:   INDUCTION LOG MEDIUM RESISTIVITY
 RFOC.OHMM   07 220 04 00:   RESISTIVITY FOCUSED LOG RES.
 CALD.IN     45 280 60 00:   CALIPER FROM DENSITY LOG
 CORR.G/C3   45 356 01 00:   DENSITY CORRECTION
 RHOB.G/C3   45 350 01 00:   BULK DENSITY
 CNC .DEC    42 890 03 00:   NEUTRON POROSITY SANDSTONE
 GRR .GAPI   07 310 01 00:   GAMMA RAY FROM RESISTIVITY
~PARAMETER INFORMATION
#MNEM.UNIT          VALUE    DESCRIPTION
#----------   ------------   ------------------------------
 EKB .F         5106.0000:   Kelly bushing
 EGL .F         5094.0000:   Ground level
 EDF .F            0.0000:   Drilling floor
 EPD .F         5094.0000:   Permanent datum
 TD  .F         3010.0000:   Total depth
 CLNT.            A2DTECH:   Client Code
 SL  . 1559'EL & 533' FSL:   Surface Location
 DATE.        19-DEC-1986:   Date Logged [DD-MMM-YYYY]
 DD  .F              3003:   Depth driller
 DL  .F              3010:   Depth logger
 BLI .F              3007:   Bottom log interval
 TLI .F                 0:   Top log interval
 CS1 .              8.625:   Casing size
 CBD1.      8.625" @ 389':   Casing driller 1
 CBL1.IN              405:   Casing logger 1
 BS1 .IN            7.875:   Bit size
 BSD1.F              3003:   Depth drilled with bit1
 DFT .        KCL POLYMER:   Type fluid in hole
 DFD .                9.0:   Density
 DFV .                 42:   Viscosity
 DFPH.                9.3:   pH
 DFL .                8.8:   Fluid loss
 MSS .           FLOWLINE:   Source of sample
 RMS .OHMM          0.484:   Rm
 MST .F                68:   Rm Meas. temp.
 RMF .OHMM          0.392:   Rmf
 MFST.F                68:   Rmf Meas. temp.
 MFSS.               MEAS:   Source Rmf.
 RMC .OHMM          0.605:   Rmc
 MCST.F                68:   Rmc Meas. temp.
 MCSS.               CALC:   Source Rmc.
 RMB .OHMM          0.269:   Rm. at BHT
 BHT .F               122:   BHT.
 TCS .HRS             3.5:   Time Circ. stopped
 MRT .F               122:   Maximum recorded temp.
 LUN .            HL-6274:   Logging unit number
 LUL .           GILLETTE:   Logging unit location
 ENGI.             RAUTIO:   Recorded By
 WITN.             STRONG:   Witnessed by
 ORIG.        2" 5" PRINT:   Origin of data
 UWI .     49025111580000:   Unique Well ID
 DICO. A2D TECHNOLOGIES, INC.:   Digitizing Company
~OTHER INFORMATION
~A    DEPT     SPR       TENR       RILD       RILM       RFOC       CALD       CORR       RHOB        CNC        GRR   
# ...
 2788.5000   -35.9173   -41.9906     5.5871     5.7356     6.0098     9.0948    -0.0054     2.4981     0.2200   120.1099
 2789.0000   -35.7597   -41.5304     5.6671     5.8176     6.0111     9.0783    -0.0305     2.4996     0.2291   118.3238
 2789.5000   -35.7582   -41.0699     5.7485     5.9008     6.0544     9.0617    -0.0213     2.5081     0.2319   115.9344
 2790.0000   -35.7566   -40.6096     5.8308     6.0285     6.3590     9.0608    -0.0059     2.5213     0.2331   115.6364
 2790.5000   -35.7548   -40.1494     5.9567     6.1148     6.6790     9.0599    -0.0013     2.5236     0.2288   116.8870
 2791.0000   -35.5972   -39.6875     6.0420     6.1577     6.6803     9.0590    -0.0062     2.5227     0.2276   118.1176
 2791.5000   -35.5957   -39.2188     6.1288     6.0670     6.4977     9.0422    -0.0063     2.5211     0.2307   118.4715
 2792.0000   -35.5942   -38.7501     5.9960     5.9326     6.3640     9.0413    -0.0034     2.5179     0.2447   119.1151
 2792.5000   -35.4366   -38.1931     5.9517     5.9438     6.2336     9.0404     0.0043     2.5163     0.2475   120.3064
 2793.0000   -35.4351   -37.7326     6.1255     6.1966     6.2786     9.0551     0.0104     2.5210     0.2425   121.5369
 2793.5000   -35.4336   -37.2724     6.3523     6.3765     6.5030     9.0698     0.0118     2.5271     0.2236   123.0690
 2794.0000   -35.4320   -44.6246     6.5873     6.5148     6.6886     9.0845     0.0101     2.5270     0.2136   119.4729
 2794.5000   -35.4305   -44.1643     6.7710     6.6555     6.7841     9.0836     0.0083     2.5230     0.2099   113.4635
 2795.0000   -35.2730   -43.7041     6.8185     6.7025     6.8809     9.0826     0.0004     2.5190     0.2086   111.9790
 2795.5000   -35.1154   -43.2436     6.7191     6.6049     6.8824     9.0817    -0.0232     2.5182     0.2108   111.3936
 2796.0000   -35.1058   -42.7833     6.5739     6.5560     6.8841     9.0808     0.0001     2.5275     0.2136   113.5350
 2796.5000   -34.9563   -50.1356     6.4318     6.4145     6.5571     9.0799     0.0218     2.5345     0.2177   117.7820
 2797.0000   -34.9360   -49.6753     6.1138     6.2309     6.1161     9.0790     0.0091     2.5117     0.2249   121.7274
 2797.5000   -34.9379   -49.2148     5.5655     6.0525     5.7048     9.0778    -0.0129     2.4922     0.2308   124.4661
 2798.0000   -34.7830   -56.5671     5.0299     5.1583     5.3584     9.0769    -0.0368     2.4843     0.2358   126.6016
 2798.5000   -34.9409   -56.0937     4.7127     4.5904     5.2119     9.0760    -0.0444     2.4885     0.2277   128.1337
 2799.0000   -35.2545   -55.5313     4.2900     4.2634     5.1049     9.0751    -0.0196     2.5002     0.2261   127.8558
 2799.5000   -35.4120   -55.0711     3.4796     3.5221     5.0704     9.0898     0.0099     2.5122     0.2258   126.9744
 2800.0000   -35.2572   -54.6108     2.5147     2.7363     4.9701     9.0888     0.0300     2.5215     0.2601   126.6968
 2800.5000   -34.9467   -54.6094     2.1889     2.3012     4.2604     9.0860     0.0247     2.5035     0.2794   130.8199
 2801.0000   -34.4805   -45.4606     2.0688     2.1101     3.3375     9.0821     0.0129     2.4448     0.2969   159.2693
 2801.5000   -33.8581   -38.8136     2.0683     2.1558     2.8037     9.0782     0.0030     2.3457     0.3408   182.4802
 2802.0000   -33.0796   -38.7370     2.1131     2.2832     2.3552     9.0744    -0.0018     2.2145     0.3863   216.3901
 2802.5000   -32.4416   -38.6604     2.2060     2.4357     2.0922     9.0705     0.0917     2.1652     0.3427   220.0336
 2803.0000   -31.8346   -38.5838     2.3366     2.6172     2.1823     9.0686     0.1243     2.1831     0.2857   208.5942
 2803.5000   -31.8365   -38.5072     2.4928     3.0884     3.5341     9.0522     0.1008     2.3526     0.2505   197.2711
 2804.0000   -32.3060   -38.4306     2.7570     3.5880     6.5354     9.0359     0.0444     2.4796     0.2128   153.7395
 2804.5000   -32.7756   -38.3540     3.6279     4.3259     7.6227     9.0351    -0.0027     2.5296     0.2031   126.0105
 2805.0000   -33.4011   -38.2774     4.4713     5.2533     7.7862     9.0342     0.0177     2.5381     0.1950   104.9180
 2805.5000   -33.8707   -46.0156     5.3928     5.7258     7.1417     9.0492     0.0221     2.5341     0.1992   100.1151
 2806.0000   -34.3402   -45.9367     5.9221     6.0635     6.5888     9.0483     0.0032     2.5286     0.2040   101.0437
 2806.5000   -34.6537   -45.8594     6.0946     6.0613     6.2326     9.0631    -0.0126     2.5270     0.2019   104.3861
 2807.0000   -34.9673   -45.7812     6.0937     5.9225     5.9785     9.0624    -0.0143     2.5238     0.2016   104.1076
 2807.5000   -34.9688   -45.6878     5.8747     5.7172     5.7348     9.0772    -0.0004     2.5199     0.2047   103.2263
 2808.0000   -35.1263   -45.6112     5.4985     5.4340     5.5783     9.0920     0.0072     2.5198     0.2171   105.0658
 2808.5000   -35.1280   -45.5346     5.1972     5.0909     5.4262     9.1069     0.0040     2.5213     0.2280   107.8044
 2809.0000   -34.9738   -45.4580     4.9406     4.8040     5.2781     9.0747    -0.0042     2.5158     0.2324   110.2413
 2809.5000   -34.9753   -45.3814     4.6630     4.5661     5.1701     9.0584     0.0177     2.5126     0.2255   112.6782
 2810.0000   -34.8204   -45.3049     4.2450     4.3713     5.0643     9.0420     0.0367     2.5079     0.2178   115.1151
 2810.5000   -34.6660   -45.2282     3.7818     4.0659     4.9262     9.0257     0.0304     2.5141     0.2153   117.2503
 2811.0000   -34.5115   -45.1516     3.3209     3.7010     4.7587     9.0249     0.0094     2.5179     0.2276   119.9889
 2811.5000   -34.5134   -45.0751     2.8333     3.1120     4.6289     9.0242     0.0124     2.5194     0.2434   122.7275
 2812.0000   -34.3585   -44.9985     2.4172     2.4881     4.4713     9.0390     0.0185     2.5123     0.2586   128.4827
 2812.5000   -34.2044   -44.9219     2.2165     2.1807     4.2001     9.0539     0.0058     2.4819     0.2701   142.3283
 2813.0000   -34.0500   -44.8438     2.1223     2.1065     3.7310     9.0529    -0.0177     2.4076     0.2920   153.3704
 2813.5000   -33.7395   -44.7656     2.1220     2.1364     2.9228     9.0366    -0.0210     2.2772     0.3183   180.4449
 2814.0000   -33.4290   -44.6729     2.1680     2.2138     2.4382     9.0358     0.0335     2.2131     0.3231   198.8677
 2814.5000   -33.1185   -44.5963     2.2473     2.3108     2.2429     9.0350     0.1333     2.2006     0.3108   206.1253
 2815.0000   -32.9640   -44.5198     2.3464     2.5006     2.2910     8.9875     0.1534     2.2606     0.2986   180.5138
 2815.5000   -32.9659   -44.4432     2.6906     3.2635     2.8454     8.9243     0.0267     2.3761     0.2617   142.2267
 2816.0000   -33.2795   -44.3666     3.0193     4.0498     3.9283     8.8768    -0.0234     2.4690     0.2315   125.3575
 2816.5000   -33.7490   -44.2900     3.3638     4.6091     5.4669     8.8602    -0.0282     2.5126     0.2212   119.2725
 2817.0000   -34.0625   -44.2134     3.9417     4.9518     5.9766     8.8439    -0.0159     2.5259     0.2224   116.0533
 2817.5000   -34.3761   -44.1368     4.4553     5.2438     6.0558     8.8275     0.0012     2.5266     0.2240   118.7978
 2818.0000   -34.3776   -51.8750     4.9279     5.5132     6.0154     8.8111     0.0166     2.5300     0.2271   122.4413
 2818.5000   -34.5351   -51.7961     5.2199     5.7548     5.9747     8.7948     0.0133     2.5397     0.2377   125.1799
 2819.0000   -34.6927   -51.7187     5.3367     5.7944     5.9348     8.7940     0.0023     2.5303     0.2455   127.3152
 2819.5000   -34.6942   -51.6406     5.4101     5.7502     5.8951     8.7777    -0.0010     2.5217     0.2520   129.1488
 2820.0000   -34.5397   -51.5472     5.4484     5.7482     5.8561     8.7613     0.0090     2.5123     0.2564   129.7757
 2820.5000   -34.5416   -51.4706     5.4871     5.8301     5.8577     8.7448     0.0236     2.5114     0.2564   129.4918
 2821.0000   -34.3868   -51.3940     5.4861     5.8276     5.9004     8.7284     0.0282     2.5137     0.2555   130.1247
 2821.5000   -34.0763   -51.3174     5.4854     5.7837     6.0691     8.7121     0.0342     2.5191     0.2595   131.3549
