~VERSION INFORMATION
 VERS.                2.0:   CWLS LOG ASCII STANDARD - VERSION 2.0
 WRAP.                 NO:   ONE LINE PER DEPTH STEP
~WELL INFORMATION
#MNEM.UNIT      DATA TYPE    INFORMATION
#----------   ------------   ------------------------------
 STRT.F            5.0000:   START DEPTH
 STOP.F         4012.0000:   STOP DEPTH
 STEP.F            0.5000:   STEP LENGTH
 NULL.          -999.2500:   NO VALUE
 COMP.   LAWRENCE ALLISON:   COMPANY
 WELL. LAWRENCE "X" 51 #1-15:   WELL
 FLD .                NPR:   FIELD
 LOC .      S15 T38N R78W:   LOCATION
 CNTY.            NATRONA:   COUNTY
 STAT.            WYOMING:   STATE
 CTRY. UNITED STATES OF AMERICA:   COUNTRY
 SRVC.      DRESSER ATLAS:   SERVICE COMPANY
 DATE.        03-JUN-1985:   LOGDATE
 API .     49025110270000:   API NUMBER
~CURVE INFORMATION
#MNEM.UNIT       API CODE    CURVE DESCRIPTION
#----------   ------------   ------------------------------
 DEPT.F                  :   
 NPHI.DEC    42 890 03 00:   NEUTRON POROSITY SANDSTONE
 RHOB.G/C3   45 350 01 00:   BULK DENSITY
 CORR.G/C3   45 356 01 00:   DENSITY CORRECTION
 TEND.LBS    45 635 01 00:   TENSION FROM DENSITY LOG
 CALD.IN     45 280 60 00:   CALIPER FROM DENSITY LOG
 GRR .GAPI   07 310 01 00:   GAMMA RAY FROM RESISTIVITY
 SPR .MV     07 010 01 00:   SPONTANEOUS POTENTIAL
 RSFL.OHMM   07 220 01 00:   SPHERICALLY FOCUSED LOG RES.
 RILD.OHMM   07 120 46 00:   DEEP INDUCTION RESISTIVITY
 RILM.OHMM   07 120 44 00:   INDUCTION LOG MEDIUM RESISTIVITY
 TENR.LBS    07 635 01 00:   TENSION
~PARAMETER INFORMATION
#MNEM.UNIT          VALUE    DESCRIPTION
#----------   ------------   ------------------------------
 EKB .F         5235.0000:   Kelly bushing
 EGL .F         5222.0000:   Ground level
 EDF .F            0.0000:   Drilling floor
 TD  .F         4010.0000:   Total depth
 DATE.        03-JUN-1985:   Date logged
 CLNT.            A2DTECH:   Client Code
 SL  . 202' FNL & 2478' FEL:   Surface Location
 PD  .                 GL:   Permanent Datum
 EPD .F              5222:   Elevation Permanent Datum
 LMF .                 KB:   Log Measured From
 DMF .                 KB:   Drilling Measured From
 DAPD.F                13:   Feet Above Permanent Datum
 DD  .F              4010:   Depth driller
 DL  .F              4005:   Depth logger
 BLI .F              4003:   Bottom log interval
 CS1 .IN            8.625:   Casing size
 CBD1.      8.625" @ 605':   Casing driller 1
 CBL1.F               608:   Casing logger 1
 BS1 .IN            7.875:   Bit size
 BSD1.F              4010:   Depth drilled with bit1
 DFT .            KCL/GEL:   Type fluid in hole
 DFD .                  9:   Density
 DFV .                 45:   Viscosity
 DFPH.                  8:   pH
 DFL .                9.8:   Fluid loss
 MSS .           FLOWLINE:   Source of sample
 RMS .OHMM            .40:   Rm
 MST .F                65:   Rm Meas. temp.
 RMF .OHMM            .32:   Rmf
 MFST.F                65:   Rmf Meas. temp.
 RMC .OHMM            .50:   Rmc
 MCST.F                65:   Rmc Meas. temp.
 MFSS.               MEAS:   Source Rmf.
 MCSS.               CALC:   Source Rmc.
 RMB .OHMM            .20:   Rm. at BHT
 BHT .F               130:   BHT.
 TCS .HRS               3:   Time Circ. stopped
 MRT .F               130:   Maximum recorded temp.
 LUN .               6274:   Logging unit number
 LUL .               GLTE:   Logging unit location
 ENGI.             RAUTIO:   Recorded By
 WITN.             STRONG:   Witnessed by
 ORIG.     2.5", 5" PRINT:   Origin of data
 UWI .     49025110270000:   Unique Well ID
 DICO. A2D TECHNOLOGIES, INC.:   Digitizing Company
~OTHER INFORMATION
~A    DEPT    NPHI       RHOB       CORR       TEND       CALD        GRR        SPR       RSFL       RILD       RILM       TENR   
# ...
 1286.0000  -999.2500  -999.2500  -999.2500  -999.2500  -999.2500    87.1410   -82.1540     9.7260     9.5920     9.0770   -85.0000
 1286.5000  -999.2500  -999.2500  -999.2500  -999.2500  -999.2500    87.5850   -82.0910     9.6170     9.4630     9.0550   -85.0000
 1287.0000  -999.2500  -999.2500  -999.2500  -999.2500  -999.2500    88.0650   -82.0290     9.5400     9.4410     9.0330   -85.0000
 1287.5000  -999.2500  -999.2500  -999.2500  -999.2500  -999.2500    89.1620   -81.9660     9.5290     9.3930     9.0160   -85.0000
 1288.0000  -999.2500  -999.2500  -999.2500  -999.2500  -999.2500    93.2800   -81.9030     9.6450     9.3460     9.0160   -85.0000
 1288.5000  -999.2500  -999.2500  -999.2500  -999.2500  -999.2500    96.7750   -81.8420     9.7820     9.3000     9.0160   -85.0000
 1289.0000  -999.2500  -999.2500  -999.2500  -999.2500  -999.2500    95.2360   -81.9930     9.9180     9.2530     9.0160   -85.0000
 1289.5000  -999.2500  -999.2500  -999.2500  -999.2500  -999.2500    93.8020   -82.1640    10.0550     9.2060     9.0150   -85.0000
 1290.0000  -999.2500  -999.2500  -999.2500  -999.2500  -999.2500    92.3360   -82.3350    10.0700     9.1600     9.0190   -85.0000
 1290.5000  -999.2500  -999.2500  -999.2500  -999.2500  -999.2500    92.6430   -82.5050    10.0510     9.1130     8.8640   -85.0000
 1291.0000  -999.2500  -999.2500  -999.2500  -999.2500  -999.2500    93.3140   -82.6760    10.0230     9.0670     8.7620   -85.0000
 1291.5000  -999.2500  -999.2500  -999.2500  -999.2500  -999.2500    97.0450   -82.8470     9.9960     9.0200     8.6600   -85.0000
 1292.0000  -999.2500  -999.2500  -999.2500  -999.2500  -999.2500   101.6080   -83.0170     9.9740     8.9730     8.5580   -85.0000
 1292.5000  -999.2500  -999.2500  -999.2500  -999.2500  -999.2500   101.2530   -83.1880     9.9830     8.9260     8.4560   -85.0000
 1293.0000  -999.2500  -999.2500  -999.2500  -999.2500  -999.2500    98.5430   -83.3580     9.7320     8.8770     8.3540   -85.0000
 1293.5000  -999.2500  -999.2500  -999.2500  -999.2500  -999.2500    95.7960   -83.3210     9.5690     8.8270     8.2520   -85.0000
 1294.0000  -999.2500  -999.2500  -999.2500  -999.2500  -999.2500    93.0710   -83.0110     9.4060     8.7780     8.1480   -85.0000
 1294.5000  -999.2500  -999.2500  -999.2500  -999.2500  -999.2500    96.1790   -82.7030     9.2430     8.7290     8.1190   -85.0000
 1295.0000  -999.2500  -999.2500  -999.2500  -999.2500  -999.2500   100.3710   -82.3940     9.0160     8.6790     8.0900   -85.0000
 1295.5000  -999.2500  -999.2500  -999.2500  -999.2500  -999.2500   104.4490   -82.0840     9.0280     8.6300     8.0610   -85.0000
 1296.0000  -999.2500  -999.2500  -999.2500  -999.2500  -999.2500   103.5230   -81.8500     9.0470     8.5800     8.0310   -85.0000
 1296.5000  -999.2500  -999.2500  -999.2500  -999.2500  -999.2500   100.8600   -82.1490     9.0660     8.5310     8.0020   -85.0000
 1297.0000  -999.2500  -999.2500  -999.2500  -999.2500  -999.2500    99.8780   -82.4520     9.0850     8.4820     7.9730   -85.0000
 1297.5000  -999.2500  -999.2500  -999.2500  -999.2500  -999.2500    97.7160   -82.7530     9.1000     8.4320     7.9440   -85.0000
 1298.0000  -999.2500  -999.2500  -999.2500  -999.2500  -999.2500    93.9050   -83.0540     8.9380     8.3830     7.9150   -85.0000
 1298.5000  -999.2500  -999.2500  -999.2500  -999.2500  -999.2500    91.9530   -83.3560     8.7830     8.3530     7.8850   -85.0000
 1299.0000  -999.2500  -999.2500  -999.2500  -999.2500  -999.2500    92.2440   -83.6340     8.6290     8.3270     7.8570   -85.0000
 1299.5000  -999.2500  -999.2500  -999.2500  -999.2500  -999.2500    89.2760   -83.4340     8.6110     8.3010     7.8320   -85.0000
 1300.0000  -999.2500  -999.2500  -999.2500  -999.2500  -999.2500    85.3310   -83.2070     9.0180     8.2750     7.8090   -85.0000
 1300.5000  -999.2500  -999.2500  -999.2500  -999.2500  -999.2500    89.0970   -82.9810     9.1000     8.2490     7.7860   -85.0000
 1301.0000  -999.2500  -999.2500  -999.2500  -999.2500  -999.2500    95.3660   -82.7550     8.8320     8.2220     7.7620   -85.0000
 1301.5000  -999.2500  -999.2500  -999.2500  -999.2500  -999.2500   101.8430   -82.5290     8.5370     8.1960     7.7390   -85.0000
 1302.0000  -999.2500  -999.2500  -999.2500  -999.2500  -999.2500   104.0590   -82.2950     8.2230     8.1700     7.6390   -85.0000
 1302.5000  -999.2500  -999.2500  -999.2500  -999.2500  -999.2500   100.1430   -82.3790     8.2800     8.1480     7.6650   -85.0000
 1303.0000  -999.2500  -999.2500  -999.2500  -999.2500  -999.2500   100.3220   -82.6360     8.3850     8.2100     7.7140   -85.0000
 1303.5000  -999.2500  -999.2500  -999.2500  -999.2500  -999.2500   100.4560   -82.8960     8.4910     8.2650     7.7630   -85.0000
 1304.0000  -999.2500  -999.2500  -999.2500  -999.2500  -999.2500   100.6570   -83.1560     8.5960     8.3200     7.8120   -85.0000
 1304.5000  -999.2500  -999.2500  -999.2500  -999.2500  -999.2500    94.5170   -83.4140     8.7020     8.3760     7.8610   -85.0000
 1305.0000  -999.2500  -999.2500  -999.2500  -999.2500  -999.2500    91.9990   -83.6150     8.8080     8.4040     7.9100   -85.0000
 1305.5000  -999.2500  -999.2500  -999.2500  -999.2500  -999.2500    89.6800   -83.4610     8.8520     8.4330     7.9590   -85.0000
 1306.0000  -999.2500  -999.2500  -999.2500  -999.2500  -999.2500    88.9360   -83.3120     8.7710     8.4620     8.0010   -84.8280
 1306.5000  -999.2500  -999.2500  -999.2500  -999.2500  -999.2500    91.5310   -83.1640     8.7710     8.4910     8.0140   -84.6530
 1307.0000  -999.2500  -999.2500  -999.2500  -999.2500  -999.2500    91.3000   -83.0160     8.6960     8.5200     8.0270   -84.4790
 1307.5000  -999.2500  -999.2500  -999.2500  -999.2500  -999.2500    91.1750   -82.8640     8.6030     8.5310     8.0400   -84.3040
 1308.0000  -999.2500  -999.2500  -999.2500  -999.2500  -999.2500    92.1390   -82.8800     8.5320     8.5230     8.0530   -84.1300
 1308.5000  -999.2500  -999.2500  -999.2500  -999.2500  -999.2500    94.9670   -82.9500     8.5320     8.5170     8.0660   -83.9560
 1309.0000  -999.2500  -999.2500  -999.2500  -999.2500  -999.2500    94.8060   -83.0250     8.6710     8.5120     8.0790   -83.7810
 1309.5000  -999.2500  -999.2500  -999.2500  -999.2500  -999.2500    94.0690   -82.8890     8.8890     8.5060     8.0920   -83.6070
 1310.0000  -999.2500  -999.2500  -999.2500  -999.2500  -999.2500    94.4330   -82.6530     9.1080     8.5000     8.1050   -83.4330
 1310.5000  -999.2500  -999.2500  -999.2500  -999.2500  -999.2500    99.2860   -82.4160     9.3550     8.4950     8.1180   -83.2580
 1311.0000  -999.2500  -999.2500  -999.2500  -999.2500  -999.2500    99.4910   -82.1810     9.2270     8.4890     8.1310   -83.0840
 1311.5000  -999.2500  -999.2500  -999.2500  -999.2500  -999.2500    97.0800   -82.0310     9.0730     8.4840     8.1440   -82.9090
 1312.0000  -999.2500  -999.2500  -999.2500  -999.2500  -999.2500    96.0000   -81.8480     8.9200     8.4780     8.1570   -82.7350
 1312.5000  -999.2500  -999.2500  -999.2500  -999.2500  -999.2500    94.8440   -81.9500     8.6900     8.4730     8.1700   -82.5610
 1313.0000  -999.2500  -999.2500  -999.2500  -999.2500  -999.2500    92.1230   -82.1880     8.7650     8.4670     8.1830   -82.3860
 1313.5000  -999.2500  -999.2500  -999.2500  -999.2500  -999.2500    90.7050   -82.4240     8.9120     8.4620     8.1960   -82.2120
 1314.0000  -999.2500  -999.2500  -999.2500  -999.2500  -999.2500    90.8030   -82.6600     9.1000     8.4530     8.2100   -82.0370
 1314.5000  -999.2500  -999.2500  -999.2500  -999.2500  -999.2500    90.8860   -82.8960     9.0160     8.5280     8.2240   -81.8630
 1315.0000  -999.2500  -999.2500  -999.2500  -999.2500  -999.2500    90.9710   -83.1330     9.0160     8.6710     8.4010   -81.6890
 1315.5000  -999.2500  -999.2500  -999.2500  -999.2500  -999.2500    91.0390   -83.3700     9.1000     8.8130     8.5910   -81.5140
 1316.0000  -999.2500  -999.2500  -999.2500  -999.2500  -999.2500    91.8780   -83.6030     9.3290     8.9550     8.7810   -81.3400
