~VERSION INFORMATION
 VERS.                2.0:   CWLS LOG ASCII STANDARD - VERSION 2.0
 WRAP.                 NO:   ONE LINE PER DEPTH STEP
~WELL INFORMATION
#MNEM.UNIT      DATA TYPE    INFORMATION
#----------   ------------   ------------------------------
 STRT.F          397.0000:   START DEPTH
 STOP.F         5516.0000:   STOP DEPTH
 STEP.F            0.5000:   STEP LENGTH
 NULL.          -999.2500:   NO VALUE
 COMP.  FENIX AND SCISSON:   COMPANY
 WELL.   FENIX TPX #54-10:   WELL
 FLD . NAVAL PETROLEUM RESERVE=3:   FIELD
 LOC .      S10 T38N R78W:   LOCATION
 CNTY.            NATRONA:   COUNTY
 STAT.            WYOMING:   STATE
 CTRY. UNITED STATES OF AMERICA:   COUNTRY
 SRVC.       SCHLUMBERGER:   SERVICE COMPANY
 DATE.        03-APR-1981:   LOGDATE
 API .     49025108690000:   API NUMBER
~CURVE INFORMATION
#MNEM.UNIT       API CODE    CURVE DESCRIPTION
#----------   ------------   ------------------------------
 DEPT.F                  :   
 SPR .MV     11 010 01 00:   SPONTANEOUS POTENTIAL FROM RES.
 TENR.LBS    11 635 01 00:   TENSION FROM RES.
 LLD .OHMM   11 220 10 00:   LATEROLOG DEEP
 LLS .OHMM   11 220 09 00:   LATEROLOG LOG SHALLOW
 TEND.LBS    45 635 01 00:   TENSION FORM DENSITY LOG
 GRD .GAPI   45 310 01 00:   GAMMA RAY FROM DENSITY LOG
 NPHI.DEC    42 890 03 00:   NEUTRON POROSITY SANDSTONE
 CALD.IN     45 280 60 00:   CALIPER FROM DENSITY LOG
 CORR.G/C3   45 356 01 00:   DENSITY CORRECTION
 RHOB.G/C3   45 350 01 00:   BULK DENSITY
~PARAMETER INFORMATION
#MNEM.UNIT          VALUE    DESCRIPTION
#----------   ------------   ------------------------------
 EKB .F         5206.0000:   Kelly bushing
 EGL .F         5196.0000:   Ground level
 EDF .F            0.0000:   Drilling floor
 TD  .F         5498.0000:   Total depth
 CLNT.            A2DTECH:   Client Code
 SL  . 2080' FNL & 2150' FEL:   Surface Location
 PD  .                 GL:   Permanent Datum
 EPD .F              5196:   Elevation Permanent Datum
 LMF .                 KB:   Log Measured From
 DMF .                 KB:   Drilling Measured From
 DAPD.F                10:   Feet Above Permanent Datum
 DATE.         3-APR-1981:   Date Logged [DD-MMM-YYYY]
 DD  .F              5485:   Depth driller
 DL  .F              5498:   Depth logger
 BLI .F              5496:   Bottom log interval
 TLI .F               397:   Top log interval
 CS1 .IN                7:   Casing size
 CBD1.         7" @ 3891':   Casing driller 1
 CBL1.F              3889:   Casing logger 1
 BS1 .IN            6.125:   Bit size
 BSD1.F              5485:   Depth drilled with bit1
 DFT .           CHEM GEL:   Type fluid in hole
 DFD .                9.1:   Density
 DFV .                 42:   Viscosity
 DFPH.                9.0:   pH
 DFL .                5.0:   Fluid loss
 MSS .           MUD TANK:   Source of sample
 RMS .OHMM           0.81:   Rm
 MST .F                62:   Rm Meas. temp.
 RMF .OHMM           0.64:   Rmf
 MFST.F                62:   Rmf Meas. temp.
 MFSS.               MEAS:   Source Rmf.
 RMB .OHMM          0.031:   Rm. at BHT
 BHT .F               174:   BHT.
 TCS .HRS            0830:   Time Circ. stopped
 TLAB.HRS            2130:   Time logger at bottom
 MRT .F               174:   Maximum recorded temp.
 LUN .               8035:   Logging unit number
 LUL .               CSPR:   Logging unit location
 ENGI.             BEATIE:   Recorded By
 WITN.              FIVAS:   Witnessed by
 ORIG.           5" PRINT:   Origin of data
 UWI .     49025108690000:   Unique Well ID
 DICO. A2D TECHNOLOGIES, INC:   Digitizing Company
~OTHER INFORMATION
~A   DEPT      SPR       TENR        LLD        LLS       TEND         GRD        NPHI     CALD       CORR       RHOB   
# ...
 5154.0000   -24.8496  1749.9779    54.8151    53.9850  1812.4316    95.0691     0.1174     7.1850     0.0138     2.6925
 5154.5000   -24.8411  1750.4886    54.4370    52.8506  1827.8030    96.5936     0.1193     7.1848     0.0122     2.6954
 5155.0000   -24.9844  1750.9993    52.4964    51.3792  1828.0690    99.6060     0.1220     7.1847     0.0122     2.7104
 5155.5000   -25.0168  1751.5100    48.3239    49.5992  1843.4363   102.6185     0.1256     7.1995     0.0196     2.7225
 5156.0000   -25.1185  1752.0206    43.1941    46.8514  1843.6521   105.0267     0.1332     7.1994     0.0270     2.7269
 5156.5000   -25.1094  1752.5312    38.6089    42.4835  1843.8636   109.2477     0.1402     7.2143     0.0353     2.7141
 5157.0000   -25.2541  1753.0420    34.4391    38.2293  1844.0909   112.3458     0.1469     7.2442     0.0420     2.7103
 5157.5000   -25.3946  1753.5526    30.4177    33.4478  1829.1481   115.2704     0.1600     7.2440     0.0487     2.7103
 5158.0000   -25.3846  1754.0634    27.3802    30.9562  1829.4180   117.9808     0.1774     7.2589     0.0426     2.7070
 5158.5000   -25.3769  1754.5740    25.1707    29.4657  1814.4823   120.3890     0.1838     7.2737     0.0268     2.6892
 5159.0000   -25.3674  1755.0846    23.2803    28.8474  1814.6969   122.4955     0.1865     7.3036     0.0259     2.6862
 5159.5000   -25.3587  1755.5385    21.5734    28.0443  1814.9680   120.3421     0.1857     7.3034     0.0334     2.6974
 5160.0000   -25.4066  1754.7200    20.9781    27.4557  1815.1516   114.3185     0.1802     7.3033     0.0363     2.7034
 5160.5000   -25.4937  1754.1682    20.8329    27.4520  1815.3998   111.2887     0.1679     7.3032     0.0322     2.7011
 5161.0000   -25.4829  1753.6165    20.8386    28.2298  1815.6156   109.1652     0.1597     7.3030     0.0280     2.6996
 5161.5000   -25.5565  1753.0647    21.5825    29.0305  1815.8334   108.8566     0.1540     7.3028     0.0286     2.7055
 5162.0000   -25.6170  1752.5129    22.3557    29.5990  1816.1013   112.4711     0.1580     7.3027     0.0308     2.7078
 5162.5000   -25.4559  1751.9612    22.5149    30.0604  1816.3171   115.2328     0.1749     7.3026     0.0323     2.7040
 5163.0000   -25.4450  1751.4094    20.8443    29.3673  1816.5330   118.4939     0.1842     7.3024     0.0337     2.7054
 5163.5000   -25.5094  1750.8575    19.9870    29.7657  1831.9003   119.3937     0.1907     7.3173     0.0367     2.7107
 5164.0000   -25.5805  1750.3058    19.7099    30.8156  1832.1212   118.7786     0.1916     7.3322     0.0404     2.7159
 5164.5000   -25.7225  1749.7540    20.2737    32.3540  1832.3484   113.3319     0.1847     7.3320     0.0403     2.7162
 5165.0000   -25.8681  1749.2023    22.2131    35.7152  1832.6018   108.4894     0.1681     7.3318     0.0320     2.6997
 5165.5000   -25.9394  1748.6505    25.5646    41.6214  1832.8177   104.6823     0.1554     7.3317     0.0192     2.6798
 5166.0000   -26.1527  1748.0988    28.0102    43.6992  1833.0336   100.6148     0.1401     7.3315     0.0161     2.6707
 5166.5000   -26.1420  1747.5470    29.2181    44.6145  1818.0979    99.6998     0.1374     7.3314     0.0213     2.6774
 5167.0000   -26.3554  1746.9952    28.8136    44.2378  1818.3678    99.3890     0.1398     7.3312     0.0318     2.6902
 5167.5000   -26.5109  1746.4435    25.5754    38.9945  1818.5836    99.8110     0.1525     7.3311     0.0407     2.7105
 5168.0000   -26.5721  1745.8917    22.2275    33.1610  1818.7994   100.5887     0.1589     7.3309     0.0481     2.7217
 5168.5000   -26.7155  1745.3400    20.5777    31.7775  1819.0153   102.0798     0.1610     7.3158     0.0548     2.7299
 5169.0000   -26.7048  1744.7882    20.2928    31.3193  1819.2849   102.9775     0.1568     7.3006     0.0503     2.7382
 5169.5000   -26.6961  1744.2365    20.4383    30.8648  1819.5007   103.2719     0.1517     7.3004     0.0344     2.7389
 5170.0000   -26.8396  1743.6847    20.2973    30.2072  1834.8683   103.8665     0.1511     7.3003     0.0329     2.7088
 5170.5000   -26.9830  1743.1329    19.3259    28.5430  1835.0842   108.6917     0.1662     7.3001     0.0328     2.6915
 5171.0000   -26.9723  1742.5812    17.6421    25.5763  1835.3031   112.3341     0.1779     7.3000     0.0313     2.6884
 5171.5000   -27.1157  1742.0294    15.7411    22.9332  1850.7212   113.2060     0.1917     7.2848     0.0282     2.6892
 5172.0000   -27.1064  1741.4777    14.7021    21.9764  1850.9370   112.5909     0.1971     7.2847     0.0236     2.6868
 5172.5000   -27.0973  1740.9259    14.2960    21.5082  1851.1528   110.7696     0.1987     7.2845     0.0198     2.6756
 5173.0000   -27.0878  1740.3741    14.2978    21.3263  1851.3689   109.2503     0.1996     7.2994     0.0160     2.6726
 5173.5000   -27.0748  1739.8224    14.4000    21.1875  1851.5909   107.4289     0.1993     7.2992     0.0212     2.6830
 5174.0000   -26.9165  1739.2706    14.6054    21.1771  1836.7029   105.8209     0.1965     7.2991     0.0339     2.7078
 5174.5000   -26.9088  1738.7189    14.8134    21.0183  1836.9187   103.4819     0.1933     7.2989     0.0383     2.7297
 5175.0000   -26.8993  1738.1671    14.9192    20.5680  1837.1346   101.6605     0.1937     7.2838     0.0390     2.7318
 5175.5000   -26.7386  1737.6154    14.7046    19.8489  1837.3505   100.1413     0.1949     7.2836     0.0390     2.7220
 5176.0000   -26.7295  1737.0636    14.0089    19.1549  1837.6204    98.0178     0.1964     7.2835     0.0442     2.7257
 5176.5000   -26.7195  1736.5118    13.4324    18.0997  1837.8362    94.9793     0.1986     7.2984     0.0479     2.7294
 5177.0000   -26.7112  1735.9600    12.9704    16.6267  1822.8467    92.8623     0.2013     7.2832     0.0486     2.7271
 5177.5000   -26.8541  1735.4082    12.6969    16.0454  1823.1163    91.0410     0.2037     7.2830     0.0447     2.7158
 5178.0000   -26.9977  1734.8564    12.5255    15.9275  1823.3333    90.4280     0.2065     7.2679     0.0390     2.7068
 5178.5000   -27.1411  1734.3047    12.5271    16.1437  1823.5607    90.1194     0.2080     7.2527     0.0379     2.7090
 5179.0000   -27.1303  1733.7529    12.6166    16.4779  1808.6125    91.0149     0.2041     7.2375     0.0303     2.7120
 5179.5000   -26.8050  1733.2012    12.7981    17.3005  1808.8822    91.0061     0.2035     7.2374     0.0197     2.7135
 5180.0000   -26.1992  1732.6494    13.2550    18.2923  1809.0980    88.8806     0.2024     7.2372     0.0103     2.7089
 5180.5000   -25.8866  1732.0977    13.9240    19.4772  1824.4697    79.2042     0.1994     7.2353    -0.0052     2.7067
 5181.0000   -25.5741  1731.5459    15.0433    21.7818  1824.7354    67.7152     0.1888     7.2219    -0.0120     2.7119
 5181.5000   -25.1517  1730.9941    16.9518    24.7066  1824.9512    52.2987     0.1565     7.2218    -0.0098     2.7560
 5182.0000   -24.6191  1730.4424    24.7687    89.9246  1825.1670    33.5589     0.0696     7.2216     0.0082     2.8478
 5182.5000   -24.1784  1729.8906    42.8304   407.4754  1825.3828    20.9494     0.0412     7.2215     0.0171     2.9342
 5183.0000   -23.7139  1729.3389   167.2086   845.0524  1825.6060    10.2765     0.0243     7.2213     0.0246     2.9958
 5183.5000   -23.4012  1728.7871   442.3575  1816.5753  1825.8685     8.1530     0.0207     7.2362     0.0343     2.9980
 5184.0000   -23.1726  1728.2354  3190.3867  1708.3481  1826.0844     7.2401     0.0216     7.2360     0.0470     2.9874
 5184.5000   -23.0790  1727.6836  1745.4449  1029.2959  1826.3002    18.1054     0.0322     7.2359     0.0428     2.9438
 5185.0000   -23.1776  1727.1318   325.8964   350.2437  1826.5160    27.2193     0.0597     7.2357     0.0123     2.8379
 5185.5000   -23.3649  1726.5801   147.4383    75.2026  1826.7859    32.5874     0.0627     7.2356    -0.0020     2.7672
 5186.0000   -23.3542  1725.9426    80.6229    72.0735  1827.0018    31.3703     0.0610     7.2354    -0.0088     2.7649
 5186.5000   -23.4268  1727.3402   127.2559   935.3512  1827.2177    27.1320     0.0347     7.2202    -0.0055     2.8498
 5187.0000   -23.4911  1728.9945   796.6619  1983.4869  1827.4335    22.5916     0.0241     7.2201     0.0301     2.8918
