~VERSION INFORMATION
 VERS.                2.0:   CWLS LOG ASCII STANDARD - VERSION 2.0
 WRAP.                 NO:   ONE LINE PER DEPTH STEP
~WELL INFORMATION
#MNEM.UNIT      DATA TYPE    INFORMATION
#----------   ------------   ------------------------------
 STRT.F          700.5000:   START DEPTH
 STOP.F         3060.0000:   STOP DEPTH
 STEP.F            0.5000:   STEP LENGTH
 NULL.          -999.2500:   NO VALUE
 COMP.    FENIX & SCISSON:   COMPANY
 WELL.   FENIX "A" #23-34:   WELL
 FLD .           N P R #3:   FIELD
 LOC .      S34 T39N R78W:   LOCATION
 CNTY.            NATRONA:   COUNTY
 STAT.            WYOMING:   STATE
 CTRY. UNITED STATES OF AMERICA:   COUNTRY
 SRVC.       SCHLUMBERGER:   SERVICE COMPANY
 DATE.        23-APR-1977:   LOGDATE
 API .     49025103590000:   API NUMBER
~CURVE INFORMATION
#MNEM.UNIT       API CODE    CURVE DESCRIPTION
#----------   ------------   ------------------------------
 DEPT.F                  :   
 ILD .OHMM   07 120 46 00:   DEEP INDUCTION RESISTIVITY
 ILM .OHMM   07 120 44 00:   INDUCTION LOG MEDIUM RESISTIVITY
 LL8 .OHMM   07 220 08 00:   LATEROLOG-8 RES.
 SPR .MV     07 010 01 00:   SPONTANEOUS POTENTIAL
 GRD .GAPI   45 310 01 00:   GAMMA RAY FROM DENSITY LOG
 CALD.IN     45 280 60 00:   CALIPER FROM DENSITY LOG
 RHOB.G/C3   45 350 01 00:   BULK DENSITY
 CORR.G/C3   45 356 01 00:   DENSITY CORRECTION
~PARAMETER INFORMATION
#MNEM.UNIT          VALUE    DESCRIPTION
#----------   ------------   ------------------------------
 EKB .F         5094.0000:   Kelly bushing
 EGL .F         5082.0000:   Ground level
 EDF .F            0.0000:   Drilling floor
 EPD .F            0.0000:   Permanent datum
 TD  .F         3051.0000:   Total depth
 DATE.        23-APR-1977:   Date logged
 CLNT.            A2DTECH:   Client Code
 SL  . 990' FWL & 1650' FNL:   Surface Location
 PD  .                 GL:   Permanent Datum
 DD  .F              3050:   Depth driller
 DL  .F              3051:   Depth logger
 BLI .F              3045:   Bottom log interval
 CS1 .IN            8.625:   Casing size
 CBD1.      8.625" @ 718':   Casing driller 1
 CBL1.F               717:   Casing logger 1
 BS1 .IN            7.875:   Bit size
 DFT .                FGM:   Type fluid in hole
 DFD .                8.8:   Density
 DFV .                 34:   Viscosity
 DFPH.                8.5:   pH
 DFL .                8.2:   Fluid loss
 MSS .           FLOWLINE:   Source of sample
 RMS .OHMM           .155:   Rm
 MST .F                66:   Rm Meas. temp.
 RMF .OHMM           .152:   Rmf
 MFST.F                66:   Rmf Meas. temp.
 MFSS.               MEAS:   Source Rmf.
 RMB .OHMM           .085:   Rm. at BHT
 BHT .F               120:   BHT.
 TCS .HRS            0230:   Time Circ. stopped
 MRT .F               120:   Maximum recorded temp.
 LUN .               5642:   Logging unit number
 LUL .               CSPR:   Logging unit location
 ENGI.             TAYLOR:   Recorded By
 WITN.         HARRINGTON:   Witnessed by
 ORIG.           5" PRINT:   Origin of data
 UWI .     49025103590000:   Unique Well ID
 DICO. A2D TECHNOLOGIES, INC.:   Digitizing Company
 DAPD.                 12:   Feet Above Permanent Datum
 BSD1.               3050:   Depth drilled with bit1
 TLI .                717:   Top log interval
 TLAB.               0530:   Time logger at bottom
~OTHER INFORMATION
~A   DEPT      ILD        ILM        LL8        SPR         GRD      CALD       RHOB       CORR   
# ...
 1308.0000     6.9090     5.8480     7.1970   -76.9210   121.0240     9.7840     2.5210     0.0240
 1308.5000     6.8760     5.8050     7.2610   -76.8530   122.3140     9.7850     2.5150     0.0300
 1309.0000     6.8430     5.7780     7.3260   -76.7860   122.2190     9.7870     2.5070     0.0160
 1309.5000     6.8220     5.7780     7.3910   -76.7190   122.4360     9.7880     2.4990     0.0190
 1310.0000     6.8940     5.8160     7.4560   -76.6520   122.5950     9.7900     2.4870     0.0130
 1310.5000     6.9670     5.9160     7.5200   -76.5860   122.6190     9.7910     2.4940     0.0120
 1311.0000     7.0390     6.0160     7.5850   -76.5190   121.6180     9.7930     2.5160     0.0330
 1311.5000     7.1120     6.1160     7.6500   -76.6780   120.6420     9.7940     2.5330     0.0350
 1312.0000     7.1440     6.2210     7.7150   -77.0040   120.4330     9.7960     2.5230     0.0320
 1312.5000     7.0930     6.4200     7.7790   -77.3310   121.4150     9.7970     2.5100     0.0310
 1313.0000     7.0240     6.5140     7.8280   -77.6600   121.7830     9.7950     2.5160     0.0360
 1313.5000     6.9560     6.3830     7.5750   -77.9870   120.4800     9.7930     2.5290     0.0520
 1314.0000     6.8880     6.1410     7.3480   -78.3160   120.4670     9.7900     2.5430     0.0680
 1314.5000     6.8200     5.8320     7.1220   -78.3720   120.8540     9.7870     2.5570     0.0730
 1315.0000     6.7510     5.8520     6.9860   -78.1910   120.3210     9.7850     2.5690     0.0590
 1315.5000     6.6830     5.8920     6.9330   -78.0100   118.9960     9.7820     2.5500     0.0470
 1316.0000     6.6360     5.9310     6.8850   -77.8280   120.0410     9.7790     2.5290     0.0350
 1316.5000     6.7080     5.9710     6.8850   -77.6450   122.8180     9.7770     2.5220     0.0350
 1317.0000     6.7720     6.0100     7.1910   -77.4630   125.5840     9.7740     2.5400     0.0400
 1317.5000     6.8370     6.0500     7.5290   -77.2800   126.8120     9.7710     2.5400     0.0380
 1318.0000     6.9020     6.0890     7.9080   -77.0970   126.3000     9.7690     2.5340     0.0240
 1318.5000     6.9670     6.1290     7.8150   -76.9150   123.6760     9.7660     2.5490     0.0310
 1319.0000     7.0140     6.1680     7.6800   -76.7330   121.0340     9.7630     2.5610     0.0470
 1319.5000     6.9870     6.2210     7.5440   -76.5400   120.3590     9.7610     2.5520     0.0390
 1320.0000     6.9560     6.2000     7.4090   -76.6700   120.2240     9.7580     2.5340     0.0240
 1320.5000     6.9250     6.1550     7.2730   -76.9350   120.1200     9.7550     2.5160     0.0160
 1321.0000     6.8950     6.1100     7.1440   -77.2040   120.3130     9.7530     2.5080     0.0220
 1321.5000     6.8640     6.0650     7.1650   -77.4730   122.0820     9.7500     2.5000     0.0270
 1322.0000     6.8220     6.0200     7.1840   -77.7430   124.0630     9.7470     2.4930     0.0190
 1322.5000     6.8380     5.9750     7.2040   -78.0120   125.1770     9.7450     2.4880     0.0120
 1323.0000     6.8750     5.9300     7.2230   -78.2700   124.5010     9.7420     2.4950     0.0180
 1323.5000     6.9130     5.8850     7.2430   -78.3470   122.6130     9.7390     2.5050     0.0290
 1324.0000     6.9500     5.8400     7.2620   -78.4150   120.3960     9.7360     2.5150     0.0260
 1324.5000     6.9870     5.8320     7.2820   -78.4380   118.1680     9.7340     2.5250     0.0170
 1325.0000     7.0240     5.8830     7.3020   -78.2520   116.9540     9.7310     2.5250     0.0080
 1325.5000     7.0620     5.9470     7.3210   -78.0690   116.7550     9.7280     2.5150     0.0060
 1326.0000     7.0990     6.0110     7.3410   -77.8870   115.9670     9.7260     2.5240     0.0120
 1326.5000     7.1360     6.0510     7.8560   -77.7040   115.4740     9.7230     2.5430     0.0360
 1327.0000     7.1440     5.9820     8.1290   -77.5190   115.9360     9.7200     2.5610     0.0660
 1327.5000     7.0910     5.9110     7.8810   -77.4510   115.5860     9.7180     2.5760     0.0570
 1328.0000     7.0360     5.8410     7.5600   -77.4130   113.9970     9.7160     2.5770     0.0380
 1328.5000     6.9820     5.7700     7.2390   -77.3750   111.3910     9.7380     2.5600     0.0190
 1329.0000     6.9270     5.7000     6.9180   -77.3380   111.5820     9.7520     2.5430     0.0160
 1329.5000     6.8720     5.6290     6.5970   -77.3000   117.5550     9.7730     2.5330     0.0220
 1330.0000     6.8180     5.5690     6.5140   -77.3840   122.7390     9.7940     2.5260     0.0280
 1330.5000     6.7590     5.6120     6.5300   -77.5670   125.4070     9.8140     2.5160     0.0290
 1331.0000     6.7590     5.6930     6.6480   -77.7540   124.7580     9.8350     2.5240     0.0380
 1331.5000     6.7590     5.7740     6.7650   -77.9680   124.4730     9.8560     2.5150     0.0450
 1332.0000     6.7590     5.8550     6.8830   -78.2860   124.3750     9.8770     2.5260     0.0420
 1332.5000     6.7740     5.9370     7.0000   -78.5940   123.0800     9.8970     2.5140     0.0370
 1333.0000     6.8010     6.0180     7.1180   -78.8360   121.4080     9.8970     2.5180     0.0330
 1333.5000     6.8280     6.0990     7.2350   -78.5740   120.5930     9.8910     2.5100     0.0300
 1334.0000     6.8550     6.1070     7.3530   -78.3030   120.3780     9.8760     2.5010     0.0290
 1334.5000     6.8820     6.0330     7.4130   -78.0340   120.0640     9.8620     2.5260     0.0370
 1335.0000     6.8850     5.8810     7.3450   -77.7580   119.7560     9.8470     2.5390     0.0340
 1335.5000     6.8620     5.7300     7.2080   -77.5850   119.8400     9.8330     2.5300     0.0300
 1336.0000     6.8400     5.5780     7.0810   -77.4420   121.5150     9.8180     2.5390     0.0300
 1336.5000     6.8190     5.4670     6.9540   -77.3020   124.1930     9.8040     2.5460     0.0360
 1337.0000     6.7970     5.4670     6.8850   -77.1620   126.1470     9.7890     2.5380     0.0420
 1337.5000     6.7760     5.5950     6.9020   -77.0500   125.6890     9.7780     2.5260     0.0390
 1338.0000     6.7590     5.7150     6.9660   -76.9730   125.9070     9.7850     2.5500     0.0470
 1338.5000     6.7590     5.8320     7.0310   -76.8880   126.1540     9.7910     2.5680     0.0790
 1339.0000     6.7590     5.8320     7.0960   -77.1390   124.8300     9.7970     2.5600     0.0590
 1339.5000     6.7590     5.8320     7.1600   -77.4370   124.1520     9.8030     2.5520     0.0570
 1340.0000     6.7590     5.7650     7.2100   -77.7400   125.9900     9.8090     2.5400     0.0620
 1340.5000     6.7590     5.7000     7.1380   -78.0410   128.2270     9.8150     2.5250     0.0480
 1341.0000     6.7590     5.6350     7.0790   -78.3420   129.0240     9.8210     2.5110     0.0300
 1341.5000     6.7590     5.5700     7.0200   -78.6420   125.6800     9.8270     2.5080     0.0180
 1342.0000     6.7590     5.5180     6.9490   -78.9450   124.5250     9.8330     2.5040     0.0130
 1342.5000     6.7590     5.6420     6.9720   -78.9020   124.0650     9.8390     2.5000     0.0170
 1343.0000     6.7590     5.7460     7.0310   -78.6370   124.8410     9.8450     2.4990     0.0220
 1343.5000     6.7590     5.8320     7.0900   -78.3700   124.6890     9.8510     2.5040     0.0210
 1344.0000     6.7590     5.8320     7.1490   -78.1020   122.9170     9.8570     2.5150     0.0140
 1344.5000     6.7590     5.8140     7.2100   -77.8440   120.9140     9.8620     2.5270     0.0120
 1345.0000     6.7590     5.7840     7.1930   -77.6970   120.1930     9.8680     2.5440     0.0360
 1345.5000     6.7640     5.7530     7.1610   -77.5430   121.2910     9.8740     2.5370     0.0480
 1346.0000     6.7940     5.7230     7.1300   -77.3890   121.0910     9.8670     2.5230     0.0350
 1346.5000     6.8240     5.6930     7.0980   -77.2350   119.7600     9.8480     2.5290     0.0480
 1347.0000     6.8540     5.6720     7.0660   -77.0820   118.4270     9.8290     2.5340     0.0450
 1347.5000     6.8840     5.7360     7.0350   -76.9240   117.2810     9.8110     2.5300     0.0380
 1348.0000     6.9140     5.8030     7.0140   -77.0370   119.3900     9.7970     2.5260     0.0270
