~VERSION INFORMATION
 VERS.                2.0:   CWLS LOG ASCII STANDARD - VERSION 2.0
 WRAP.                 NO:   ONE LINE PER DEPTH STEP
~WELL INFORMATION
#MNEM.UNIT      DATA TYPE    INFORMATION
#----------   ------------   ------------------------------
 STRT.F          218.5000:   START DEPTH
 STOP.F         3291.0000:   STOP DEPTH
 STEP.F            0.5000:   STEP LENGTH
 NULL.          -999.2500:   NO VALUE
 COMP.    FENIX & SCISSON:   COMPANY
 WELL.   FENIX SHX #63-23:   WELL
 FLD .  TEAPOT DOME NPR-3:   FIELD
 LOC .      S23 T38N R78W:   LOCATION
 CNTY.            NATRONA:   COUNTY
 STAT.            WYOMING:   STATE
 CTRY. UNITED STATES OF AMERICA:   COUNTRY
 SRVC.           BIRDWELL:   SERVICE COMPANY
 DATE.        08-JUL-1978:   LOGDATE
 API .     49025106600000:   API NUMBER
~CURVE INFORMATION
#MNEM.UNIT       API CODE    CURVE DESCRIPTION
#----------   ------------   ------------------------------
 DEPT.F                  :   
 GRD .GAPI   45 310 01 00:   GAMMA RAY FROM DENSITY LOG
 CALD.IN     45 280 60 00:   CALIPER FROM DENSITY LOG
 CORR.G/C3   45 356 01 00:   DENSITY CORRECTION
 RHOB.G/C3   45 350 01 00:   BULK DENSITY
 GR  .GAPI   35 310 01 00:   GAMMA RAY
 NEUT.NAPI   35 330 01 00:   NEUTRON
~PARAMETER INFORMATION
#MNEM.UNIT          VALUE    DESCRIPTION
#----------   ------------   ------------------------------
 EKB .F         5368.0000:   Kelly bushing
 EGL .F         5358.0000:   Ground level
 TD  .F         3299.0000:   Total depth
 CLNT.            A2DTECH:   Client Code
 PD  .                 GL:   Permanent Datum
 EPD .F              5358:   Elevation Permanent Datum
 LMF .                 KB:   Log Measured From
 DMF .                 KB:   Drilling Measured From
 DAPD.F                10:   Feet Above Permanent Datum
 DATE.        08-JUL-1978:   Date Logged [DD-MMM-YYYY]
 DD  .F              3299:   Depth driller
 DL  .F              3291:   Depth logger
 BLI .F              3291:   Bottom log interval
 TLI .F              1430:   Top log interval
 CS1 .IN            9.625:   Casing size
 CBD1.     9.625" @ 1450':   Casing driller 1
 CBL1.F              1442:   Casing logger 1
 BS1 .IN            8.750:   Bit size
 BSD1.F              3299:   Depth drilled with bit1
 DFT .          KCL WATER:   Type fluid in hole
 BHT .F               118:   BHT.
 TCS .HRS               2:   Time Circ. stopped
 MRT .F               118:   Maximum recorded temp.
 LUN .               2958:   Logging unit number
 LUL .               CASP:   Logging unit location
 ENGI.             MILLER:   Recorded By
 WITN.           MCGINLEY:   Witnessed by
 ORIG.           5" PRINT:   Origin of data
 UWI .     49025106600000:   Unique Well ID
 DICO. A2D TECHNOLOGIES, INC.:   Digitizing Company
 SL  . 1800' FNL & 1825' FEL:   Surface Location
~OTHER INFORMATION
~A   DEPT      GRD       CALD       CORR       RHOB          GR      NEUT   
# ...
 2402.5000    75.2687     9.3681     0.1109     2.6237  -999.2500  -999.2500
 2403.0000    77.0447     9.4100     0.1264     2.6267  -999.2500  -999.2500
 2403.5000    79.1666     9.4391     0.1397     2.6275  -999.2500  -999.2500
 2404.0000    80.0727     9.4536     0.1320     2.6267  -999.2500  -999.2500
 2404.5000    82.9795     9.4532     0.1168     2.6266  -999.2500  -999.2500
 2405.0000    85.2269     9.4529     0.1107     2.6266  -999.2500  -999.2500
 2405.5000    85.3746     9.4526     0.1106     2.6220  -999.2500  -999.2500
 2406.0000    84.1516     9.4523     0.1106     2.6181  -999.2500  -999.2500
 2406.5000    83.5379     9.4521     0.1105     2.6273  -999.2500  -999.2500
 2407.0000    85.2025     9.4811     0.1105     2.6203  -999.2500  -999.2500
 2407.5000    86.5645     9.4956     0.1104     2.6173  -999.2500  -999.2500
 2408.0000    87.3186     9.5247     0.1104     2.6333  -999.2500  -999.2500
 2408.5000    86.0971     9.5391     0.1104     2.6340  -999.2500  -999.2500
 2409.0000    84.5714     9.5388     0.1103     2.6309  -999.2500  -999.2500
 2409.5000    85.4762     9.4944     0.1103     2.6125  -999.2500  -999.2500
 2410.0000    85.1665     9.4794     0.1110     2.6087  -999.2500  -999.2500
 2410.5000    84.4009     9.4497     0.1132     2.6079  -999.2500  -999.2500
 2411.0000    84.6991     9.4641     0.1162     2.6086  -999.2500  -999.2500
 2411.5000    85.4518     9.4932     0.1207     2.6055  -999.2500  -999.2500
 2412.0000    85.4460     9.5077     0.1252     2.6070  -999.2500  -999.2500
 2412.5000    85.2883     9.5221     0.1267     2.6078  -999.2500  -999.2500
 2413.0000    84.6746     9.5365     0.1267     2.6047  -999.2500  -999.2500
 2413.5000    83.4347     9.5344     0.1251     2.6054  -999.2500  -999.2500
 2414.0000    82.6860     9.5211     0.1235     2.6123  -999.2500  -999.2500
 2414.5000    81.9204     9.4914     0.1189     2.6138  -999.2500  -999.2500
 2415.0000    81.4587     9.4618     0.1143     2.6061  -999.2500  -999.2500
 2415.5000    81.4529     9.4321     0.1067     2.5984  -999.2500  -999.2500
 2416.0000    81.5977     9.3435     0.1021     2.5930  -999.2500  -999.2500
 2416.5000    82.0493     9.3138     0.0990     2.5899  -999.2500  -999.2500
 2417.0000    82.8020     9.3282     0.0974     2.5861  -999.2500  -999.2500
 2417.5000    84.0121     9.3426     0.0962     2.5906  -999.2500  -999.2500
 2418.0000    85.3727     9.3570     0.0943     2.6059  -999.2500  -999.2500
 2418.5000    85.6709     9.3715     0.0943     2.5913  -999.2500  -999.2500
 2419.0000    85.2092     9.3757     0.0942     2.6021  -999.2500  -999.2500
 2419.5000    84.4435     9.4003     0.0942     2.6058  -999.2500  -999.2500
 2420.0000    82.5738     9.4000     0.0956     2.6042  -999.2500  -999.2500
 2420.5000    80.4792     9.3850     0.0971     2.6027  -999.2500  -999.2500
 2421.0000    80.7789     9.3111     0.1001     2.6011  -999.2500  -999.2500
 2421.5000    80.9251     9.3256     0.1001     2.5904  -999.2500  -999.2500
 2422.0000    80.9179     9.3988     0.1015     2.6018  -999.2500  -999.2500
 2422.5000    80.1508     9.5455     0.1015     2.6048  -999.2500  -999.2500
 2423.0000    79.5372     9.6630     0.0999     2.5995  -999.2500  -999.2500
 2423.5000    79.9874     9.2803     0.0756     2.5979  -999.2500  -999.2500
 2424.0000    81.3494     9.2653     0.0649     2.5994  -999.2500  -999.2500
 2424.5000    82.1196     9.2797     0.0648     2.6017  -999.2500  -999.2500
 2425.0000    82.8562     9.2941     0.0663     2.6024  -999.2500  -999.2500
 2425.5000    83.0038     9.3233     0.0663     2.6007  -999.2500  -999.2500
 2426.0000    83.1501     9.3523     0.0660     2.5893  -999.2500  -999.2500
 2426.5000    83.0658     9.3668     0.0647     2.5732  -999.2500  -999.2500
 2427.0000    82.5278     9.3959     0.0646     2.5824  -999.2500  -999.2500
 2427.5000    81.4582     9.4103     0.0646     2.5915  -999.2500  -999.2500
 2428.0000    80.6926     9.4100     0.0645     2.5900  -999.2500  -999.2500
 2428.5000    79.7750     9.4097     0.0645     2.5846  -999.2500  -999.2500
 2429.0000    79.2908     9.3947     0.0644     2.5822  -999.2500  -999.2500
 2429.5000    78.8502     9.3797     0.0644     2.5837  -999.2500  -999.2500
 2430.0000    78.1730     9.3942     0.0644     2.5883  -999.2500  -999.2500
 2430.5000    77.5959     9.5409     0.0658     2.5844  -999.2500  -999.2500
 2431.0000    77.0091     9.5700     0.0688     2.5859  -999.2500  -999.2500
 2431.5000    77.0020     9.3049     0.0688     2.5897  -999.2500  -999.2500
 2432.0000    77.3002     9.3047     0.0718     2.5944  -999.2500  -999.2500
 2432.5000    77.5998     9.3044     0.0778     2.5998  -999.2500  -999.2500
 2433.0000    79.5683     9.3188     0.0884     2.6127  -999.2500  -999.2500
 2433.5000    81.3848     9.3332     0.0959     2.6248  -999.2500  -999.2500
 2434.0000    82.4429     9.3329     0.0944     2.6133  -999.2500  -999.2500
 2434.5000    83.5010     9.3326     0.0837     2.6094  -999.2500  -999.2500
 2435.0000    83.5158     9.3323     0.0760     2.5987  -999.2500  -999.2500
 2435.5000    82.8391     9.3314     0.0745     2.5971  -999.2500  -999.2500
 2436.0000    78.9230     9.3170     0.0729     2.6017  -999.2500  -999.2500
 2436.5000    76.3337     9.3167     0.0713     2.5940  -999.2500  -999.2500
 2437.0000    76.6319     9.3165     0.0713     2.5970  -999.2500  -999.2500
 2437.5000    77.5380     9.3162     0.0713     2.6031  -999.2500  -999.2500
 2438.0000    77.2269     9.2864     0.0727     2.6087  -999.2500  -999.2500
 2438.5000    75.8533     9.2420     0.0744     2.5984  -999.2500  -999.2500
 2439.0000    76.1530     9.2270     0.0787     2.6023  -999.2500  -999.2500
 2439.5000    77.5135     9.2268     0.0832     2.6091  -999.2500  -999.2500
 2440.0000    79.6964     9.2578     0.0908     2.6160  -999.2500  -999.2500
 2440.5000    81.7559     9.2997     0.0970     2.6190  -999.2500  -999.2500
 2441.0000    82.3595     9.3142     0.1044     2.6235  -999.2500  -999.2500
 2441.5000    82.3523     9.3285     0.1058     2.6258  -999.2500  -999.2500
 2442.0000    80.3520     9.3282     0.1043     2.6212  -999.2500  -999.2500
 2442.5000    79.6052     9.3279     0.1026     2.6150  -999.2500  -999.2500
 2443.0000    79.9034     9.3864     0.0981     2.6104  -999.2500  -999.2500
 2443.5000    80.2002     9.6215     0.0950     2.6180  -999.2500  -999.2500
 2444.0000    80.1945     9.4153     0.0919     2.6119  -999.2500  -999.2500
 2444.5000    78.2116     9.4003     0.0919     2.6057  -999.2500  -999.2500
 2445.0000    77.5979     9.4589     0.0918     2.6026  -999.2500  -999.2500
 2445.5000    78.2001     9.3997     0.0933     2.6003  -999.2500  -999.2500
 2446.0000    79.5621     9.3700     0.0978     2.6095  -999.2500  -999.2500
 2446.5000    81.1004     9.3538     0.1008     2.6178  -999.2500  -999.2500
 2447.0000    82.8926     9.3252     0.1023     2.6239  -999.2500  -999.2500
 2447.5000    84.1027     9.3250     0.0977     2.6300  -999.2500  -999.2500
 2448.0000    84.7063     9.3100     0.0916     2.6078  -999.2500  -999.2500
 2448.5000    84.6991     9.2950     0.0855     2.6009  -999.2500  -999.2500
 2449.0000    83.6280     9.2799     0.0778     2.5993  -999.2500  -999.2500
 2449.5000    83.3198     9.2650     0.0763     2.5962  -999.2500  -999.2500
 2450.0000    84.6142     9.2647     0.0799     2.5916  -999.2500  -999.2500
 2450.5000    85.8967     9.2791     0.0844     2.5977  -999.2500  -999.2500
 2451.0000    85.4407     9.2935     0.0824     2.6084  -999.2500  -999.2500
 2451.5000    84.6809     9.3080     0.0779     2.6099  -999.2500  -999.2500
 2452.0000    84.0400     9.2929     0.0749     2.6152  -999.2500  -999.2500
 2452.5000    83.1611     9.2779     0.0765     2.6266  -999.2500  -999.2500
 2453.0000    82.5532     9.2635     0.0766     2.6297  -999.2500  -999.2500
 2453.5000    82.2492     9.2644     0.0751     2.6342  -999.2500  -999.2500
 2454.0000    82.2492     9.2206     0.0736     2.6265  -999.2500  -999.2500
