~VERSION INFORMATION
 VERS.                2.0:   CWLS LOG ASCII STANDARD - VERSION 2.0
 WRAP.                 NO:   ONE LINE PER DEPTH STEP
~WELL INFORMATION
#MNEM.UNIT      DATA TYPE    INFORMATION
#----------   ------------   ------------------------------
 STRT.F           58.0000:   START DEPTH
 STOP.F         5662.0000:   STOP DEPTH
 STEP.F            0.5000:   STEP LENGTH
 NULL.          -999.2500:   NO VALUE
 COMP. DEPARTMENT OF ENERGY:   COMPANY
 WELL. DEPARTMENT NPR 3 67 "X" #1-10:   WELL
 FLD .              NPR 3:   FIELD
 LOC .      S10 T38N R78W:   LOCATION
 CNTY.            NATRONA:   COUNTY
 STAT.            WYOMING:   STATE
 CTRY. UNITED STATES OF AMERICA:   COUNTRY
 SRVC.       SCHLUMBERGER:   SERVICE COMPANY
 DATE.        05-FEB-2002:   LOGDATE
 API .     49025230400000:   API NUMBER
~CURVE INFORMATION
#MNEM.UNIT       API CODE    CURVE DESCRIPTION
#----------   ------------   ------------------------------
 DEPT.F                  :   
 TEND.LBS    45 635 01 00:   TENSION FROM DENSITY LOG
 PEFZ.B/E    45 358 01 00:   HILT PHOTOELECTRIC FACTOR
 HDRA.G/C3   45 356 01 00:   DELTA RHO HIP TOOL
 NPHI.DEC    42 890 03 00:   NEUTRON POROSITY SANDSTONE
 TENS.LBS    60 635 01 00:   TENSION
 DT  .US/F   60 520 00 00:   DELTA TIME
 TENR.LBS    07 635 01 00:   TENSION FROM RESISTIVITY
 CALR.IN     07 280 01 00:   CALIPER FROM RESISTIVITY
 GRR .GAPI   07 310 01 00:   GAMMA RAY FROM RESISTIVITY
 RXOZ.OHMM   11 270 04 00:   STD. RES. INVADED ZONE RESISTIVITY
 HLLD.OHMM   11 220 10 00:   LATEROLOG DEEP RES.
 HLLS.OHMM   11 220 09 00:   LATEROLOG SHALLOW RES.
 HRLD.OHMM   11 120 46 00:   HIGH RESOULATION DEEP RESISTIVITY
 RHOZ.G/C3   45 350 01 00:   HILT BULK DENSITY
~PARAMETER INFORMATION
#MNEM.UNIT          VALUE    DESCRIPTION
#----------   ------------   ------------------------------
 EKB .F         5205.7000:   Kelly bushing
 EGL .F         5195.7000:   Ground level
 EDF .F            0.0000:   Drilling floor
 EPD .F         5195.7000:   Permanent datum
 TD  .F         5654.0000:   Total depth
 DATE.        05-FEB-2002:   Date logged
 CLNT.            A2DTECH:   Client Code
 SL  . 1503' FEL & 721' FSL:   Surface Location
 PD  .                 GL:   Permanent Datum
 DAPD.F                10:   Feet Above Permanent Datum
 DD  .F              5650:   Depth driller
 DL  .F              5654:   Depth logger
 BLI .F              5646:   Bottom log interval
 TLI .F               499:   Top log interval
 CS1 .IN            9.625:   Casing size
 CBD1.      9.625" @ 505':   Casing driller 1
 CBL1.F               499:   Casing logger 1
 BS1 .IN            8.875:   Bit size
 BSD1.F              5650:   Depth drilled with bit1
 DFT .           GEL/CHEM:   Type fluid in hole
 DFD .                9.2:   Density
 DFV .                 52:   Viscosity
 DFPH.                8.5:   pH
 DFL .                6.8:   Fluid loss
 MSS .           FLOWLINE:   Source of sample
 RMS .OHMM           .954:   Rm
 MST .F                57:   Rm Meas. temp.
 RMF .OHMM           .734:   Rmf
 MFST.F                57:   Rmf Meas. temp.
 MFSS.              PRESS:   Source Rmf.
 RMB .OHMM           .403:   Rm. at BHT
 BHT .F               143:   BHT.
 TLAB.HRS            1208:   Time logger at bottom
 MRT .F               143:   Maximum recorded temp.
 LUN .               2211:   Logging unit number
 LUL .             CASPER:   Logging unit location
 ENGI.           R. SROUR:   Recorded By
 WITN.        M. MILLIKEN:   Witnessed by
 ORIG.           5" PRINT:   Origin of data
 UWI .     49025230400000:   Unique Well ID
 DICO. A2D TECHNOLOGIES, INC.:   Digitizing Company
 RMC .               1.24:   Rmc
 MCST.                 57:   Rmc Meas. temp.
 MCSS.              PRESS:   Source Rmc.
 TCS .                200:   Time Circ. stopped
~OTHER INFORMATION
~A   DEPT     TEND       PEFZ       HDRA       NPHI       TENS         DT       TENR       CALR         GRR      RXOZ       HLLD       HLLS       HRLD       RHOZ   
# ...
 1528.0000  1384.5070     3.0950     0.0010     0.2720   845.7710    91.9900  1459.7820    10.8310    92.3710     8.3880     9.4150     9.9250     8.4650     2.5370
 1528.5000  1384.9650     3.1430     0.0030     0.2670   845.7710    91.4430  1459.7820    10.7980    92.1030     8.1640     9.2830     9.7950     8.3930     2.5390
 1529.0000  1385.4240     3.1910     0.0050     0.2750   845.7710    91.0950  1459.7820    10.7660    91.9750     7.7960     8.6220     9.2790     8.3120     2.5430
 1529.5000  1385.8831     3.2340     0.0130     0.2860   845.7710    91.0950  1459.7820    10.7340    92.3270     7.9400     8.7880     8.9430     8.3120     2.5370
 1530.0000  1386.3420     3.3300     0.0250     0.2960   845.7710    91.0950  1459.7820    10.7020    91.8780     6.9110     9.1080     9.1920     9.0250     2.5320
 1530.5000  1386.8000     3.4370     0.0460     0.3030   845.7710    91.0950  1459.7820    10.6770    90.0130     5.8720     8.5820     8.8410     8.5740     2.5290
 1531.0000  1387.2590     3.5140     0.0650     0.3110   846.1060    90.9780  1459.7820    10.6780    90.5430     5.1930     7.8680     8.2360     7.7960     2.5520
 1531.5000  1387.7180     3.4960     0.0640     0.3150   846.4110    90.6470  1459.7820    10.6630    91.4500     6.0320     8.0030     8.2930     7.8480     2.5620
 1532.0000  1388.1770     3.4350     0.0370     0.3020   846.7150    90.1490  1459.7820    10.6300    92.5500     7.8050     8.1880     8.4020     7.9460     2.5680
 1532.5000  1388.6360     3.3740     0.0090     0.2750   847.0200    89.7580  1459.7820    10.5930    92.9900     9.0250     8.4650     8.5430     8.0130     2.5620
 1533.0000  1389.0940     3.3040     0.0030     0.2720   847.3240    89.6020  1459.7820    10.6200    93.5200     8.4670     8.4210     8.5180     7.3740     2.5610
 1533.5000  1389.5530     3.2320     0.0050     0.2850   847.6290    89.6520  1459.7820    10.6690    94.3900     8.0410     8.3330     8.4830     7.3130     2.5690
 1534.0000  1390.0120     3.2140     0.0040     0.2970   847.9330    90.3400  1459.7820    10.7020    95.9580     7.6550     8.2460     8.4650     7.6650     2.5730
 1534.5000  1390.4709     3.2140     0.0010     0.2950   848.2370    91.2520  1459.7820    10.7220    95.5310     8.0480     8.4050     8.4650     8.1720     2.5660
 1535.0000  1390.9290     3.2380     0.0000     0.2700   848.5420    91.8910  1459.7820    10.7410    94.7660     8.4900     9.5910     9.6220     8.9430     2.5580
 1535.5000  1391.3879     3.2660    -0.0010     0.2770   848.8460    92.4880  1459.7820    10.7610    94.3470     8.5430     9.4140     9.5280     8.7970     2.5590
 1536.0000  1391.8470     3.2610    -0.0010     0.2840   849.1510    92.4880  1459.7820    10.7800    94.4000     8.2740     9.1780     9.3320     8.3880     2.5670
 1536.5000  1392.3060     3.2360     0.0040     0.2810   849.4550    91.3930  1459.7820    10.8000    95.6150     8.0130     8.8610     9.1080     8.4250     2.5770
 1537.0000  1392.7640     3.2120     0.0040     0.2780   849.7600    90.2130  1459.4330    10.8180    97.2600     8.1250     8.9080     9.1500     8.4800     2.5770
 1537.5000  1393.2230     3.1970     0.0030     0.2750   850.0640    88.9010  1458.6740    10.7900    99.5590     8.1610     9.0100     9.2150     8.5350     2.5810
 1538.0000  1393.6820     3.2120     0.0030     0.2670   850.3690    88.7060  1457.9150    10.7620   101.8860     8.1610     9.1080     9.2760     8.6220     2.5810
 1538.5000  1394.1410     3.2250     0.0030     0.2660   850.6730    89.1540  1457.1550    10.7400   102.8160     8.0130     8.8250     9.0040     8.5540     2.5830
 1539.0000  1394.5990     3.2390     0.0030     0.2810   850.9780    89.4610  1456.3960    10.7550   102.3050     7.5160     8.5540     8.7440     8.4020     2.5800
 1539.5000  1395.0580     3.2530     0.0030     0.2890   851.2820    89.3230  1455.6370    10.7780   100.4690     7.5660     8.2360     8.5430     8.1610     2.5780
 1540.0000  1395.5170     3.2840     0.0040     0.2870   851.5870    89.1850  1454.8770    10.8030    97.4010     7.6550     8.4980     8.9110     8.2610     2.5830
 1540.5000  1395.9760     3.3170     0.0080     0.2840   851.8910    89.0460  1454.1180    10.8190    94.9220     7.6000     9.1080     9.1920     8.5430     2.5870
 1541.0000  1396.4340     3.3510     0.0060     0.2810   852.1960    89.1790  1453.3590    10.8190    93.2340     7.3800     8.7010     8.7810     8.4910     2.5760
 1541.5000  1396.8929     3.3250     0.0040     0.2740   852.5000    89.4530  1452.5990    10.8190    93.4680     7.7010     8.8580     8.8870     8.3950     2.5640
 1542.0000  1397.3521     3.2940     0.0050     0.2710   852.8050    88.8640  1451.8400    10.8190    93.5690     8.0060     9.1180     9.1490     8.4940     2.5520
 1542.5000  1397.8110     3.2620     0.0060     0.2760   853.1090    88.1760  1451.0811    10.8190    94.0280     8.3120     9.2510     9.3610     8.7600     2.5540
 1543.0000  1398.2690     3.2350     0.0060     0.2930   853.4140    87.7340  1450.3220    10.8190    94.3520     8.6220     9.0250     9.4010     9.0270     2.5570
 1543.5000  1398.7280     3.2590     0.0080     0.2890   853.7180    87.5950  1449.5620    10.8190    94.5590     7.9110     9.3610     9.6220     9.1730     2.5630
 1544.0000  1399.1870     3.2820     0.0100     0.2750   854.0230    87.9600  1448.8030    10.8130    95.1860     7.2560     9.2930     9.5240     8.9900     2.5600
 1544.5000  1399.6460     3.2830     0.0100     0.2590   854.3270    88.7060  1448.0439    10.8010    97.0940     6.9860     9.2050     9.3980     8.7810     2.5670
 1545.0000  1400.1040     3.2620     0.0100     0.2590   854.6320    89.1360  1447.2841    10.8290    99.1610     7.5420     9.1170     9.2730     8.7960     2.5670
 1545.5000  1400.5630     3.2420     0.0100     0.2690   854.9360    89.6140  1446.5250    10.8660    98.4170     7.8460     9.0250     9.1080     8.8230     2.5620
 1546.0000  1401.0220     3.2210     0.0100     0.2890   855.2410    90.0920  1445.7660    10.9990    94.2480     7.9400     8.9430     9.2910     8.8490     2.5500
 1546.5000  1401.4810     3.1990     0.0110     0.2860   855.5450    90.5690  1445.0060    10.8660    89.7960     8.7810     9.3290     9.5330     9.0060     2.5400
 1547.0000  1401.9390     3.2030     0.0110     0.2800   855.8500    91.0950  1444.2469    10.8400    85.6270     8.0870     9.6650     9.8890     9.2710     2.5430
 1547.5000  1402.3979     3.2390     0.0150     0.2750   856.1540    90.8960  1443.4880    10.8080    84.2500     8.3290     9.8890     9.6550     9.4470     2.5480
 1548.0000  1402.8571     3.3360     0.0210     0.2740   856.4590    90.1140  1442.7290    10.7800    86.4220     8.5430     9.0250     9.4470     8.6220     2.5490
 1548.5000  1403.3160     3.4300     0.0310     0.2860   856.7630    89.4030  1441.9690    10.7870    90.4940     8.1610     9.8890     9.8890     9.3610     2.5370
 1549.0000  1403.7740     3.5260     0.0440     0.3010   857.0680    88.9270  1441.2100    10.7950    91.9870     5.5580     9.3480     9.8890     9.0980     2.5230
 1549.5000  1404.2330     3.6030     0.0560     0.3130   857.3720    88.9980  1440.4510    10.8010    92.1340     5.6960     8.5430     8.6220     8.2610     2.4990
 1550.0000  1404.6920     3.6760     0.0690     0.3090   857.6770    89.0690  1439.9210    10.8090    90.3340     5.8910     8.9220     8.9530     8.0130     2.4920
 1550.5000  1405.1510     3.7510     0.1140     0.3000   857.9810    89.1040  1440.5380    10.8160    88.4680     6.1460     9.6220     9.7100     9.3610     2.4890
 1551.0000  1405.6090     3.7670     0.1560     0.3000   858.2860    87.6160  1441.0990    10.8640    87.9130     5.2280     9.2360     9.2530     8.6280     2.5030
 1551.5000  1406.0680     3.7610     0.1890     0.3170   858.5900    86.6760  1441.6600    10.9960    90.1900     4.5450     8.8840     8.8350     8.0130     2.4990
 1552.0000  1406.5270     3.7550     0.1930     0.3130   858.8950    86.3870  1442.2200    11.1190    93.1900     4.5870     8.6740     8.6670     8.1190     2.4940
