~VERSION INFORMATION
 VERS.                2.0:   CWLS LOG ASCII STANDARD - VERSION 2.0
 WRAP.                 NO:   ONE LINE PER DEPTH STEP
~WELL INFORMATION
#MNEM.UNIT      DATA TYPE    INFORMATION
#----------   ------------   ------------------------------
 STRT.F           85.5000:   START DEPTH
 STOP.F         2750.0000:   STOP DEPTH
 STEP.F            0.5000:   STEP LENGTH
 NULL.          -999.2500:   NO VALUE
 COMP.          INTEX OIL:   COMPANY
 WELL. INTEX NPR 3 "AX" #74-20:   WELL
 FLD .             TEAPOT:   FIELD
 LOC .      S20 T39N R78W:   LOCATION
 CNTY.            NATRONA:   COUNTY
 STAT.            WYOMING:   STATE
 CTRY. UNITED STATES OF AMERICA:   COUNTRY
 SRVC.       SCHLUMBERGER:   SERVICE COMPANY
 DATE.        08-MAY-1966:   LOGDATE
 API .     49025095210000:   API NUMBER
~CURVE INFORMATION
#MNEM.UNIT       API CODE    CURVE DESCRIPTION
#----------   ------------   ------------------------------
 DEPT.F                  :   
 CALD.IN     45 280 60 00:   CALIPER FROM DENSITY LOG
 GRD .GAPI   45 310 01 00:   GAMMA RAY FROM DENSITY LOG
 RHOB.G/C3   45 350 01 00:   BULK DENSITY
 CORR.G/C3   45 356 01 00:   DENSITY CORRECTION
 SPR .MV     05 010 01 00:   SPONTANEOUS POTENTIAL FROM RES.
 ILD .OHMM   05 120 46 00:   INDUCTION LOG DEEP
 SN  .OHMM   05 040 00 00:   SHORT NORMAL
~PARAMETER INFORMATION
#MNEM.UNIT          VALUE    DESCRIPTION
#----------   ------------   ------------------------------
 EKB .F         5018.3000:   Kelly bushing
 EGL .F         5008.0000:   Ground level
 EDF .F            0.0000:   Drilling floor
 EPD .F         5008.0000:   Permanent datum
 TD  .F         2750.0000:   Total depth
 DATE.        08-MAY-1966:   Date logged
 CLNT.            A2DTECH:   Client Code
 DAPD.F              10.3:   Feet Above Permanent Datum
 DD  .F              2750:   Depth driller
 DL  .F              2749:   Depth logger
 BLI .F              2748:   Bottom log interval
 TLI .F                87:   Top log interval
 CS1 .IN            10.75:   Casing size
 CBD1.       10.75" @ 30':   Casing driller 1
 BS1 .IN            7.875:   Bit size
 BSD1.F              2750:   Depth drilled with bit1
 DFT .           OIL EMUL:   Type fluid in hole
 DFD .               10.1:   Density
 DFV .                 54:   Viscosity
 MSS .         CIRCULATED:   Source of sample
 RMS .OHMM           1.90:   Rm
 MST .F                72:   Rm Meas. temp.
 RMF .OHMM           1.15:   Rmf
 MFST.F                72:   Rmf Meas. temp.
 MFSS.                 FP:   Source Rmf.
 RMB .OHMM           1.23:   Rm. at BHT
 BHT .F               111:   BHT.
 TCS .HRS             1.5:   Time Circ. stopped
 MRT .F               111:   Maximum recorded temp.
 LUN .               4507:   Logging unit number
 LUL .               CSPR:   Logging unit location
 ENGI.               HAUG:   Recorded By
 WITN.             TUTTLE:   Witnessed by
 ORIG.        2" 5" PRINT:   Origin of data
 UWI .     49025095210000:   Unique Well ID
 DICO. A2D TECHNOLOGIES, INC.:   Digitizing Company
~OTHER INFORMATION
~A   DEPT     CALD        GRD       RHOB       CORR        SPR        ILD         SN   
# ...
 2406.0000     8.3840    92.2700     2.5510     0.0350   -44.6320     7.3890    10.4170
 2406.5000     8.3960    96.2350     2.5700     0.0480   -44.5870     7.2170    10.1310
 2407.0000     8.4080    98.8250     2.5630     0.0540   -44.5410     7.0460     9.8620
 2407.5000     8.4200    97.6570     2.5460     0.0430   -44.4960     6.8750     9.5970
 2408.0000     8.4320    96.0520     2.5460     0.0330   -44.4500     6.7030     9.4970
 2408.5000     8.4430    96.0440     2.5520     0.0270   -44.4040     6.5320     9.4060
 2409.0000     8.4560    97.8700     2.5570     0.0340   -44.3590     6.3610     9.3120
 2409.5000     8.4670    99.5570     2.5420     0.0410   -44.3130     6.1890     9.2390
 2410.0000     8.4790   100.2680     2.5310     0.0310   -44.2680     6.0180     9.0120
 2410.5000     8.4920   102.6370     2.5500     0.0360   -44.2220     5.8460     8.6570
 2411.0000     8.5010   105.7700     2.5630     0.0410   -44.1760     5.6770     8.3350
 2411.5000     8.5000   107.3760     2.5740     0.0500   -44.1310     5.5020     8.0200
 2412.0000     8.5000   106.5570     2.5760     0.0450   -44.0850     5.4160     7.8800
 2412.5000     8.5000   105.0050     2.5560     0.0320   -44.0400     5.3930     7.7600
 2413.0000     8.5000   103.1150     2.5390     0.0190   -43.9940     5.3640     7.6250
 2413.5000     8.5000   104.1920     2.5260     0.0210   -43.9480     5.3370     7.6110
 2414.0000     8.5000   107.3510     2.5150     0.0170   -43.9030     5.3110     7.6100
 2414.5000     8.5000   107.0500     2.5120     0.0040   -43.8570     5.2820     7.6100
 2415.0000     8.5000   103.8650     2.5320     0.0150   -43.8120     5.2550     7.6140
 2415.5000     8.5000   101.0200     2.5540     0.0250   -43.7660     5.2440     7.6000
 2416.0000     8.5000   102.7180     2.5600     0.0350   -43.7210     5.3510     7.7250
 2416.5000     8.5000   106.6880     2.5450     0.0260   -43.6750     5.4580     7.9530
 2417.0000     8.4970   110.6720     2.5430     0.0190   -43.6300     5.5690     8.1630
 2417.5000     8.4870   112.5200     2.5570     0.0280   -43.5840     5.7760     8.3700
 2418.0000     8.4780   111.8180     2.5580     0.0270   -43.5370     6.2000     8.5880
 2418.5000     8.4690   114.3450     2.5470     0.0170   -43.5170     6.5650     8.8170
 2419.0000     8.4590   115.3960     2.5300     0.0210   -43.5610     7.0070     9.3500
 2419.5000     8.4500   113.6090     2.5350     0.0270   -43.6040     7.4320     9.8940
 2420.0000     8.4400   111.8720     2.5590     0.0420   -43.6490     7.8690    10.4540
 2420.5000     8.4310   109.9230     2.5810     0.0570   -43.6930     8.2880    10.9960
 2421.0000     8.4220   109.5740     2.5750     0.0510   -43.7380     8.7550    11.5540
 2421.5000     8.4210   109.4990     2.5660     0.0410   -43.7820     9.0120    12.1080
 2422.0000     8.4210   109.7680     2.5560     0.0300   -43.8240     8.9680    12.5140
 2422.5000     8.4210   103.3190     2.5550     0.0240   -43.8780     9.0150    12.3390
 2423.0000     8.4210    97.5470     2.5580     0.0280   -43.8390     8.7220    12.1770
 2423.5000     8.4220    93.0520     2.5620     0.0330   -43.6800     8.1880    12.0410
 2424.0000     8.4210    88.6490     2.5540     0.0320   -43.5330     7.7080    11.6040
 2424.5000     8.4290    88.9330     2.5370     0.0220   -43.3810     7.2110    10.9210
 2425.0000     8.4430    95.5460     2.5320     0.0190   -43.2310     6.7200    10.2910
 2425.5000     8.4570   101.1950     2.5350     0.0240   -43.0810     6.2340     9.6610
 2426.0000     8.4700   107.2870     2.5570     0.0280   -42.9290     5.8780     9.0060
 2426.5000     8.4840   111.4900     2.5790     0.0400   -42.7810     5.5150     8.3910
 2427.0000     8.4970   114.5340     2.5890     0.0510   -42.6270     5.2180     7.6700
 2427.5000     8.5110   112.6560     2.5850     0.0520   -42.4800     4.8750     7.3600
 2428.0000     8.5250   110.5700     2.5690     0.0370   -42.3380     4.6450     6.9920
 2428.5000     8.5380   110.0420     2.5740     0.0430   -42.3830     4.5120     6.8100
 2429.0000     8.5520   115.6270     2.5490     0.0440   -42.4400     4.4060     6.8250
 2429.5000     8.5660   115.9050     2.5540     0.0350   -42.5020     4.2930     6.8190
 2430.0000     8.5780   115.4960     2.5620     0.0350   -42.5590     4.2350     6.8200
 2430.5000     8.5790   117.4790     2.5550     0.0400   -42.6190     4.2150     6.8180
 2431.0000     8.5790   118.3870     2.5480     0.0370   -42.6780     4.1910     6.8200
 2431.5000     8.5790   117.2580     2.5450     0.0340   -42.7370     4.1690     6.8190
 2432.0000     8.5790   115.3300     2.5630     0.0310   -42.7970     4.1470     6.8020
 2432.5000     8.5780   112.2890     2.5580     0.0280   -42.8560     4.1240     6.6390
 2433.0000     8.5790   109.7340     2.5530     0.0310   -42.9150     4.1050     6.4960
 2433.5000     8.5690   109.4550     2.5680     0.0390   -42.9750     4.0780     6.3480
 2434.0000     8.5340   111.6630     2.5600     0.0470   -43.0330     4.0600     6.2320
 2434.5000     8.4990   117.5020     2.5490     0.0280   -43.0930     4.0740     6.3890
 2435.0000     8.4630   117.1140     2.5540     0.0350   -43.0970     4.4410     6.5500
 2435.5000     8.4290   115.6120     2.5640     0.0540   -43.0760     4.8010     6.7560
 2436.0000     8.3930   114.5240     2.5590     0.0490   -43.0560     5.2140     6.9390
 2436.5000     8.3810   114.1690     2.5470     0.0300   -43.0370     5.7180     8.1160
 2437.0000     8.3860   113.6180     2.5280     0.0320   -43.0170     6.3410     9.1270
 2437.5000     8.3900   112.8880     2.5380     0.0400   -42.9980     6.9450    10.2230
 2438.0000     8.3940   109.1610     2.5510     0.0280   -42.9780     7.5500    11.2410
 2438.5000     8.3990   104.6040     2.5430     0.0350   -42.9590     8.1680    12.3430
 2439.0000     8.4030   104.2800     2.5630     0.0520   -42.9390     8.7690    12.7790
 2439.5000     8.4070   104.8340     2.5760     0.0560   -42.9200     9.3410    12.7630
 2440.0000     8.4120   108.8850     2.5860     0.0630   -42.9000     9.3840    12.8020
 2440.5000     8.4160   109.0480     2.6020     0.0740   -42.8800     9.3120    12.8310
 2441.0000     8.4200   106.0540     2.5970     0.0670   -42.8610     9.0980    12.8510
 2441.5000     8.4240   103.5380     2.5860     0.0670   -42.8410     8.8420    12.8890
 2442.0000     8.4290   100.8330     2.5820     0.0590   -42.8220     8.4750    12.9100
 2442.5000     8.4330   101.5400     2.5650     0.0490   -42.8020     8.1140    12.9140
 2443.0000     8.4370   102.3750     2.5500     0.0340   -42.7820     7.7500    12.5740
 2443.5000     8.4420   101.7660     2.5420     0.0380   -42.7630     7.3870    12.0060
 2444.0000     8.4460   101.4030     2.5680     0.0400   -42.7430     7.0220    11.1380
 2444.5000     8.4500   101.4760     2.5550     0.0330   -42.7240     6.6590    10.2740
 2445.0000     8.4540   104.4460     2.5450     0.0380   -42.7070     6.2920     9.5660
 2445.5000     8.4590   107.5830     2.5550     0.0540   -42.6900     5.9300     9.2030
 2446.0000     8.4590   112.6320     2.5670     0.0490   -42.6730     5.6280     8.8360
 2446.5000     8.4540   111.4250     2.5730     0.0420   -42.6570     5.8220     8.8140
 2447.0000     8.4510   106.2880     2.5670     0.0330   -42.6410     6.2380     8.9910
 2447.5000     8.4470   101.2010     2.5730     0.0320   -42.6240     6.6320     9.4300
 2448.0000     8.4430   103.6310     2.5630     0.0260   -42.6080     7.0300     9.9850
 2448.5000     8.4390   105.9700     2.5610     0.0180   -42.5920     7.4300    10.5290
 2449.0000     8.4350   103.3610     2.5740     0.0270   -42.5750     7.8270    11.0750
 2449.5000     8.4310   100.8950     2.5810     0.0310   -42.5590     8.2270    11.6270
 2450.0000     8.4270   100.9030     2.5850     0.0300   -42.5430     8.6200    12.1590
 2450.5000     8.4240    96.1150     2.5810     0.0300   -42.5260     9.0310    12.7350
 2451.0000     8.4200    92.8080     2.5750     0.0260   -42.5100     9.1950    12.8930
