~VERSION INFORMATION
 VERS.                2.0:   CWLS LOG ASCII STANDARD - VERSION 2.0
 WRAP.                 NO:   ONE LINE PER DEPTH STEP
~WELL INFORMATION
#MNEM.UNIT      DATA TYPE    INFORMATION
#----------   ------------   ------------------------------
 STRT.F          211.5000:   START DEPTH
 STOP.F         3103.0000:   STOP DEPTH
 STEP.F            0.5000:   STEP LENGTH
 NULL.          -999.2500:   NO VALUE
 COMP.    FENIX & SCISSON:   COMPANY
 WELL. FENIX NPR 3 "AX" #38-10:   WELL
 FLD .  TEAPOT DOME - NPR:   FIELD
 LOC .      S10 T38N R78W:   LOCATION
 CNTY.            NATRONA:   COUNTY
 STAT.            WYOMING:   STATE
 CTRY. UNITED STATES OF AMERICA:   COUNTRY
 SRVC.           BIRDWELL:   SERVICE COMPANY
 DATE.        01-JUL-1978:   LOGDATE
 API .     49025106550000:   API NUMBER
~CURVE INFORMATION
#MNEM.UNIT       API CODE    CURVE DESCRIPTION
#----------   ------------   ------------------------------
 DEPT.F                  :   
 CALD.IN     45 280 60 00:   CALIPER FROM DENSITY LOG
 GRD .GAPI   45 310 01 00:   GAMMA RAY FROM DENSITY LOG
 RHOB.G/C3   45 350 01 00:   BULK DENSITY
 CORR.G/C3   45 356 01 00:   DENSITY CORRECTION
 NPOR.DEC    42 890 03 00:   ALPHA PROCESSED NEUTRON POROSITY
 SPR .MV     05 010 01 00:   SPONTANEOUS POTENTIAL
 SN  .OHMM   05 040 00 00:   SHORT NORMAL
 ILD .OHMM   05 120 46 00:   DEEP INDUCTION RESISTIVITY
~PARAMETER INFORMATION
#MNEM.UNIT          VALUE    DESCRIPTION
#----------   ------------   ------------------------------
 EKB .F         5240.0000:   Kelly bushing
 EGL .F         5230.0000:   Ground level
 TD  .F         3103.0000:   Total depth
 DATE.        01-JUL-1978:   Date logged
 CLNT.            A2DTECH:   Client Code
 SL  . 200' FSL & 2100' FWL:   Surface Location
 PD  .                 GL:   Permanent Datum
 EPD .F              5230:   Elevation Permanent Datum
 LMF .                 KB:   Log Measured From
 DMF .                 KB:   Drilling Measured From
 DAPD.F                10:   Feet Above Permanent Datum
 DD  .F              3100:   Depth driller
 DL  .F              3103:   Depth logger
 BLI .F              3096:   Bottom log interval
 TLI .F               228:   Top log interval
 CS1 .IN            8.625:   Casing size
 CBD1.      8.625" @ 224':   Casing driller 1
 CBL1.F               228:   Casing logger 1
 BS1 .IN            7.875:   Bit size
 BSD1.F              3100:   Depth drilled with bit1
 DFT .            MUD/GEL:   Type fluid in hole
 DFD .                8.7:   Density
 DFV .                 31:   Viscosity
 DFPH.               10.5:   pH
 DFL .                  7:   Fluid loss
 MSS .           FLOWLINE:   Source of sample
 BHT .F               109:   BHT.
 TCS .HRS             4.5:   Time Circ. stopped
 MRT .F               109:   Maximum recorded temp.
 LUN .               2958:   Logging unit number
 LUL .               CASP:   Logging unit location
 ENGI.             MILLER:   Recorded By
 ORIG.      2.5" 5" PRINT:   Origin of data
 UWI .     49025106550000:   Unique Well ID
 DICO. A2D TECHNOLOGIES, INC.:   Digitizing Company
~OTHER INFORMATION
~A   DEPT     CALD         GRD      RHOB       CORR       NPOR        SPR         SN        ILD   
# ...
 1912.5000    10.1673    88.6056     2.4536     0.0990  -999.2500   -18.1256     5.7251     5.4180
 1913.0000    10.1279    87.8168     2.4437     0.0652  -999.2500   -17.7300     5.6728     5.2708
 1913.5000    10.1281    88.0173     2.4248     0.0552  -999.2500   -17.7300     5.6210     4.8469
 1914.0000    10.2271    93.7503     2.4079     0.0452  -999.2500   -17.1366     5.3687     4.4268
 1914.5000    10.2470    93.5550     2.3731     0.0452  -999.2500   -17.7300     5.0809     4.4268
 1915.0000    10.2472    89.4069     2.3115     0.0472  -999.2500   -17.9278     4.9884     4.8529
 1915.5000    10.2672    80.3178     2.2728     0.0572  -999.2500   -18.1256     4.9429     4.8529
 1916.0000    10.3267    73.5998     2.1712     0.0750  -999.2500   -18.3234     4.9430     4.8086
 1916.5000    10.4257    70.2410     2.2080     0.0950  -999.2500   -18.3234     4.9430     4.7647
 1917.0000    10.5642    70.4395     2.3412     0.2360  -999.2500   -18.3234     5.0347     4.7648
 1917.5000    10.7423    89.4179     2.4217     0.2420  -999.2500   -18.5212     5.2714     4.8532
 1918.0000    10.7623    87.6408     2.4326     0.1010  -999.2500   -18.9168     6.3286     5.3202
 1918.5000    10.7230    83.2939     2.5022     0.1168  -999.2500   -18.9168     7.2706     6.8807
 1919.0000    10.6243    83.8889     2.4316     0.1188  -999.2500   -19.1146     7.6123     7.2707
 1919.5000    10.4664    84.2858     2.5678     0.0970  -999.2500   -19.1146     7.8973     7.6827
 1920.0000    10.3875    86.0676     2.5221     0.1228  -999.2500   -19.1146     8.1180     7.6827
 1920.5000    10.3679    88.0468     2.4835     0.0692  -999.2500   -18.9168     8.1930     7.4740
 1921.0000    10.3681    93.9629     2.4835     0.0156  -999.2500   -18.1256     8.1182     7.4057
 1921.5000    10.6255    94.9539     2.4835     0.0096  -999.2500   -17.9278     8.0440     7.2710
 1922.0000    10.5860    95.7473     2.4786     0.0096  -999.2500   -17.3344     7.8977     7.2046
 1922.5000    10.3093    97.1340     2.4766     0.0096  -999.2500   -17.9278     7.8977     7.0735
 1923.0000    10.3095    99.1142     2.4517     0.0176  -999.2500   -17.5322     7.7541     7.0736
 1923.5000    10.3295    99.1172     2.4408     0.0234  -999.2500   -17.5322     7.5434     6.8814
 1924.0000    10.3692    99.1197     2.4128     0.0314  -999.2500   -17.5322     7.5435     6.7562
 1924.5000    10.4683    99.5178     2.4309     0.0454  -999.2500   -17.3344     7.4746     6.5727
 1925.0000    10.5873    99.5204     2.4478     0.0692  -999.2500   -17.3344     7.4063     6.4531
 1925.5000    10.5281    98.5338     2.4695     0.0890  -999.2500   -17.3344     7.3387     6.3358
 1926.0000    10.5481    98.5546     2.4486     0.0910  -999.2500   -17.7300     7.4065     6.3358
 1926.5000    10.5878   101.1107     2.3940     0.0890  -999.2500   -17.5322     7.4748     6.2206
 1927.0000    10.5682   108.8292     2.4645     0.0930  -999.2500   -17.7300     7.4749     6.2207
 1927.5000    10.8454   119.5336     2.4625     0.0950  -999.2500   -17.7300     7.5440     6.5131
 1928.0000    10.0344   132.7948     2.4059     0.1010  -999.2500   -17.3344     7.5440     6.6951
 1928.5000    10.0742   133.9844     2.4424     0.0354  -999.2500   -18.5212     7.7549     7.1397
 1929.0000    10.2525   135.1758     2.4789     0.0772  -999.2500   -19.1146     8.3462     7.8265
 1929.5000    10.6881   144.6788     2.4953     0.0930  -999.2500   -19.1146     9.3124     8.5794
 1930.0000     9.6790   148.4425     2.4469     0.1070  -999.2500   -19.3124    10.3905     8.8086
 1930.5000     9.5208   147.4585     2.4300     0.0354  -999.2500   -19.3124    11.5934     9.8232
 1931.0000     9.4814   147.0663     2.4250     0.0076  -999.2500   -19.3124    12.9356    10.9547
 1931.5000     9.4815   149.8429     2.4238     0.0096  -999.2500   -19.3124    13.7047    12.0513
 1932.0000     9.5014   150.8372     2.4338     0.0156  -999.2500   -19.1146    15.3014    12.6176
 1932.5000     9.4818   148.8616     2.4397     0.0236  -999.2500   -18.5212    16.9278    12.7341
 1933.0000     9.4819   132.2407     2.4368     0.0236  -999.2500   -18.5212    17.5612    12.9702
 1933.5000     9.4821   129.2752     2.4318     0.0236  -999.2500   -18.1256    18.0518    13.0899
 1934.0000     9.4823   132.6445     2.4417     0.0216  -999.2500   -18.1256    18.2183    13.5797
 1934.5000     9.4824   139.7749     2.4308     0.0116  -999.2500   -17.7300    18.2183    13.7050
 1935.0000     9.4826   140.3723     2.4268     0.0078  -999.2500   -17.5322    18.3864    13.9591
 1935.5000     9.4827   141.7635     2.4249     0.0078  -999.2500   -16.9388    18.5560    14.0879
 1936.0000     9.4631   146.3211     2.4239     0.0058  -999.2500   -17.1366    18.7272    14.4815
 1936.5000     9.5226   152.2651     2.4318     0.0078  -999.2500   -16.7410    18.7272    14.6151
 1937.0000     9.5624   159.2049     2.4398     0.0058  -999.2500   -16.5432    18.9000    15.4429
 1937.5000     9.5824   158.6138     2.4159     0.0078  -999.2500   -16.5432    19.6071    15.5854
 1938.0000     9.5825   155.6482     2.4060     0.0058  -999.2500   -16.5432    20.3406    16.7734
 1938.5000     9.5827   154.2668     2.3981     0.0058  -999.2500   -16.5432    20.9087    18.0520
 1939.0000     9.5828   160.6097     2.3931     0.0058  -999.2500   -16.5432    21.4926    18.5561
 1939.5000     9.5830   166.3579     2.3832     0.0058  -999.2500   -16.7410    21.6909    18.9001
 1940.0000     9.5831   167.9479     2.3733     0.0058  -999.2500   -17.1366    21.4926    18.9001
 1940.5000     9.6229   153.0690     2.3625     0.0118  -999.2500   -17.3344    21.4926    18.9001
 1941.0000     9.6627   137.6540     2.3556     0.0236  -999.2500   -17.7300    21.4926    18.7274
 1941.5000     9.6826   121.8121     2.3447     0.0376  -999.2500   -18.1256    21.2961    18.0521
 1942.0000     9.7422   118.8426     2.3336     0.0494  -999.2500   -18.1256    20.3406    17.2421
 1942.5000     9.7424   119.8359     2.4726     0.1408  -999.2500   -18.3234    19.7880    17.4012
 1943.0000     9.7426   120.2356     2.3961     0.1290  -999.2500   -18.1256    19.0745    17.0846
 1943.5000     9.7427   119.0515     2.3971     0.0554  -999.2500   -17.7300    18.7274    16.6205
 1944.0000     9.8419   117.8661     2.4160     0.0296  -999.2500   -17.1366    18.2187    16.0212
 1944.5000     9.5845   118.6613     2.4212     0.0276  -999.2500   -17.5322    18.2187    15.5860
 1945.0000     9.5649   122.8086     2.4281     0.0256  -999.2500   -17.5322    18.2187    15.0241
 1945.5000     9.5650   123.0278     2.4311     0.0256  -999.2500   -17.3344    18.0522    14.6160
 1946.0000     9.5256   121.8430     2.4339     0.0256  -999.2500   -17.5322    17.8873    14.3501
 1946.5000     9.5455   109.3432     2.4359     0.0256  -999.2500   -17.1366    17.0848    14.2190
 1947.0000     9.5457   100.4280     2.4409     0.0256  -999.2500   -17.1366    16.6207    13.5811
 1947.5000     9.5260    96.2688     2.4478     0.0238  -999.2500   -17.1366    15.8751    13.3341
 1948.0000     9.5064    95.8940     2.4707     0.0218  -999.2500   -17.1366    15.4439    12.8534
 1948.5000     9.5263    96.4896     2.4747     0.0178  -999.2500   -17.1366    15.3028    12.8534
 1949.0000     9.5265   102.8176     2.4737     0.0098  -999.2500   -17.1366    15.4439    12.5043
 1949.5000     9.5266   105.4156     2.4697     0.0078  -999.2500   -17.1366    15.3029    12.5044
 1950.0000     9.5268   103.0395     2.4699     0.0078  -999.2500   -17.3344    15.3029    12.5045
 1950.5000     9.5861    94.9138     2.4653     0.0060  -999.2500   -17.5322    15.3029    12.3903
 1951.0000     9.6263    90.7522     2.4660     0.0080  -999.2500   -17.5322    15.1632    12.2771
 1951.5000     9.6860    93.1335     2.4509     0.0060  -999.2500   -17.9278    14.7513    11.7264
 1952.0000     9.7655    98.8659     2.4608     0.0100  -999.2500   -17.7300    13.9609    11.7265
 1952.5000     9.7459   104.4187     2.4738     0.0080  -999.2500   -17.9278    13.3346    11.0981
