~VERSION INFORMATION
 VERS.                2.0:   CWLS LOG ASCII STANDARD - VERSION 2.0
 WRAP.                 NO:   ONE LINE PER DEPTH STEP
~WELL INFORMATION
#MNEM.UNIT      DATA TYPE    INFORMATION
#----------   ------------   ------------------------------
 STRT.F           14.0000:   START DEPTH
 STOP.F         3030.0000:   STOP DEPTH
 STEP.F            0.5000:   STEP LENGTH
 NULL.          -999.2500:   NO VALUE
 COMP. LAWRENCE ALLISON & ASSOC. WEST:   COMPANY
 WELL. LAWRENCE "X" #37-28:   WELL
 FLD .          N.P.R. #3:   FIELD
 LOC .      S28 T39N R78W:   LOCATION
 CNTY.            NATRONA:   COUNTY
 STAT.            WYOMING:   STATE
 CTRY. UNITED STATES OF AMERICA:   COUNTRY
 SRVC.      DRESSER ATLAS:   SERVICE COMPANY
 DATE.        22-SEP-1986:   LOGDATE
 API .     49025111090000:   API NUMBER
~CURVE INFORMATION
#MNEM.UNIT       API CODE    CURVE DESCRIPTION
#----------   ------------   ------------------------------
 DEPT.F                  :   
 GRR .GAPI   07 310 01 00:   GAMMA RAY FROM RESISTIVITY
 SPR .MV     07 010 01 00:   SPONTANEOUS POTENTIAL
 TENR.LBS    07 635 01 00:   TENSION FROM RESISTIVITY
 RILD.OHMM   07 120 46 00:   DEEP INDUCTION RESISTIVITY
 RILM.OHMM   07 120 44 00:   INDUCTION LOG MEDIUM RESISTIVITY
 RFOC.OHMM   07 220 04 00:   RESISTIVITY FOCUSED LOG RES.
 CNC .DEC    42 890 03 00:   NEUTRON PORISITY SANDSTONE
 RHOB.G/C3   45 350 01 00:   BULK DENSITY
 CORR.G/C3   45 356 01 00:   DENSITY CORRECTION
 TEND.LBS    45 635 01 00:   TENSION FROM DENSITY LOG
 CALD.IN     45 280 60 00:   CALIPER FROM DENSITY LOG
~PARAMETER INFORMATION
#MNEM.UNIT          VALUE    DESCRIPTION
#----------   ------------   ------------------------------
 EKB .F         5124.0000:   Kelly bushing
 EGL .F         5113.0000:   Ground level
 EDF .F         5123.0000:   Drilling floor
 TD  .F         3026.0000:   Total depth
 DATE.        22-SEP-1986:   Date logged
 CLNT.            A2DTECH:   Client Code
 SL  . 1097' FSL & 1722' FWL:   Surface Location
 PD  .                 GL:   Permanent Datum
 EPD .F              5113:   Elevation Permanent Datum
 LMF .                 KB:   Log Measured From
 DMF .                 KB:   Drilling Measured From
 DAPD.F                11:   Feet Above Permanent Datum
 DD  .F              3026:   Depth driller
 DL  .F              3023:   Depth logger
 BLI .F              3020:   Bottom log interval
 CS1 .IN            8.625:   Casing size
 CBD1.      8.625" @ 517':   Casing driller 1
 CBL1.F               518:   Casing logger 1
 BS1 .IN            7.875:   Bit size
 BSD1.F              3026:   Depth drilled with bit1
 DFT .            KCL-GEL:   Type fluid in hole
 DFD .                8.6:   Density
 DFV .                 41:   Viscosity
 DFPH.                9.5:   pH
 DFL .                6.8:   Fluid loss
 MSS .           FLOWLINE:   Source of sample
 RMS .OHMM           0.37:   Rm
 MST .F                58:   Rm Meas. temp.
 RMF .OHMM           0.33:   Rmf
 MFST.F                63:   Rmf Meas. temp.
 RMC .OHMM           0.59:   Rmc
 MCST.F                58:   Rmc Meas. temp.
 MFSS.               MEAS:   Source Rmf.
 MCSS.               CALC:   Source Rmc.
 RMB .OHMM           0.16:   Rm. at BHT
 BHT .F               131:   BHT.
 TCS .HRS               3:   Time Circ. stopped
 MRT .F               131:   Maximum recorded temp.
 LUN .            HL 6426:   Logging unit number
 LUL .                 RS:   Logging unit location
 ENGI.               RALL:   Recorded By
 WITN.             STRONG:   Witnessed by
 ORIG.           5" PRINT:   Origin of data
 UWI .     49025111090000:   Unique Well ID
 DICO. A2D TECHNOLOGIES, INC.:   Digitizing Company
~OTHER INFORMATION
~A   DEPT      GRR        SPR       TENR       RILD       RILM       RFOC        CNC       RHOB       CORR       TEND       CALD   
# ...
 2820.0000   116.8310   -16.7450     4.0830     5.5150     6.0930     6.2880     0.2390     2.5540     0.0270    -0.0190    10.0260
 2820.5000   117.3170   -16.8500    20.0380     5.6220     6.1900     6.3900     0.2300     2.5430     0.0250     7.8670    10.0260
 2821.0000   113.9660   -16.9840    36.4320     5.7300     6.2870     6.4650     0.2210     2.5390     0.0230    15.7530    10.0270
 2821.5000   110.3680   -17.0590    24.0200     5.8390     6.3530     6.6960     0.2120     2.5430     0.0200     8.6170    10.0280
 2822.0000   106.7920   -16.9280    11.2560     5.8940     6.3710     6.9340     0.2090     2.5560     0.0110    -0.9940    10.0280
 2822.5000   105.4350   -16.7810    -3.7690     5.8940     6.3890     6.9930     0.2110     2.5670    -0.0230   -10.6050    10.0290
 2823.0000   107.4720   -16.6670    -0.7680     5.8940     6.4060     6.9090     0.2210     2.5590    -0.0180   -11.1220    10.0300
 2823.5000   109.3530   -16.5300     2.8790     5.8940     6.4980     6.7860     0.2320     2.5440     0.0060    -8.0150    10.0300
 2824.0000   110.6430   -16.4640     6.5250     6.1210     6.5490     6.6470     0.2350     2.5270     0.0130    -4.9090    10.0290
 2824.5000   112.8060   -16.4460    10.1720     6.2880     6.6010     6.7400     0.2300     2.5290     0.0120    -1.8020    10.0280
 2825.0000   114.9800   -16.4200    13.8190     6.4280     6.6470     6.8460     0.2230     2.5370     0.0100     1.3050    10.0270
 2825.5000   114.8460   -16.4000    15.4490     6.6470     6.6990     7.0550     0.2160     2.5430     0.0160     4.4110    10.0260
 2826.0000   112.4800   -16.3780    12.6130     6.5890     6.7720     7.3640     0.2100     2.5420     0.0200     4.1570    10.0250
 2826.5000   109.5520   -16.3520     9.7770     6.5090     6.7710     7.6500     0.2070     2.5440     0.0200    -7.2340    10.0240
 2827.0000   107.5290   -16.3370     6.2810     6.4290     6.6400     7.8520     0.2100     2.5490     0.0180   -11.1830    10.0220
 2827.5000   107.5490   -16.3060    12.3120     6.3470     6.4640     7.7080     0.2150     2.5540     0.0190    -6.5230    10.0210
 2828.0000   108.1310   -16.2910    20.1660     6.1820     6.2890     7.2560     0.2210     2.5590     0.0200    -1.8630    10.0200
 2828.5000   109.2890   -16.2620    26.3820     5.9520     6.1160     6.7090     0.2270     2.5600     0.0220     2.7970    10.0190
 2829.0000   110.0350   -16.0660    22.4010     5.6800     5.8570     6.2840     0.2340     2.5480     0.0110     5.2440    10.0180
 2829.5000   111.0560   -15.8350    19.1070     5.4730     5.5390     5.7850     0.2410     2.5350    -0.0030    -5.7400    10.0170
 2830.0000   113.9750   -15.5980    15.8130     4.6810     5.2210     5.6450     0.2440     2.5230    -0.0170   -16.7240    10.0160
 2830.5000   117.0780   -15.3460    12.5190     4.0810     4.9890     5.5240     0.2450     2.5180    -0.0150   -23.3100    10.0150
 2831.0000   122.0260   -15.1490     9.2250     3.5240     4.1210     5.4260     0.2500     2.5230     0.0040   -22.7760    10.0140
 2831.5000   127.2030   -14.8430     6.2810     3.0260     3.4180     5.3720     0.2710     2.5300     0.0170   -22.2420    10.0120
 2832.0000   133.6550   -14.7020     5.1520     2.7560     2.7850     5.0820     0.2990     2.5210     0.0250   -21.7080    10.0110
 2832.5000   155.7350   -14.3870     4.1310     2.5120     2.4690     3.9090     0.3610     2.4700     0.0410   -21.1740    10.0100
 2833.0000   183.0080   -13.4770     3.1100     2.3950     2.5150     2.8370     0.3620     2.4240     0.0600   -20.6400     9.9970
 2833.5000   199.5790   -12.8030     2.0880     2.4010     2.7550     2.2930     0.3230     2.3420     0.1190   -20.1060     9.9830
 2834.0000   197.7010   -12.3550     1.0670     2.4370     3.2890     2.2300     0.2780     2.3000     0.1280   -19.5720     9.9680
 2834.5000   170.4480   -12.0150     0.0460     2.4920     3.7450     2.9990     0.2390     2.3470     0.0740   -19.0380     9.9530
 2835.0000   142.0260   -12.1130    -0.9750     2.7120     4.4230     5.0640     0.2080     2.4140     0.0270   -18.5050     9.9390
 2835.5000   112.0660   -12.2050    -1.9960     2.9850     4.7190     7.3330     0.1900     2.4800     0.0010   -17.9710     9.9240
 2836.0000   100.2840   -12.2650    -3.0170     3.8780     4.9890     8.5350     0.1930     2.5220     0.0000   -17.4370     9.9090
 2836.5000    97.1220   -12.3590    -3.7690     4.9540     5.7210     7.8600     0.1980     2.5140    -0.0150   -16.9030     9.9060
 2837.0000    98.3980   -12.4240     2.6830     5.7300     6.0040     7.2920     0.2060     2.5020    -0.0220   -16.3690     9.9020
 2837.5000   100.6860   -12.6480     7.7890     6.0880     6.3210     6.7610     0.2200     2.5040    -0.0160   -15.8350     9.8990
 2838.0000    99.6530   -12.8510    12.8940     6.1730     6.4650     6.2300     0.2300     2.5110    -0.0080   -15.3010     9.8960
 2838.5000    98.7880   -13.0350    14.2460     5.9480     6.4060     6.1280     0.2230     2.5130    -0.0010   -14.7670     9.8930
 2839.0000   100.2990   -13.3440     7.8640     5.6570     6.2220     5.9870     0.2210     2.5130     0.0060   -14.2330     9.8890
 2839.5000   102.3520   -13.6380     1.4820     5.4190     5.9720     5.8460     0.2250     2.5170     0.0210   -13.6990     9.8700
 2840.0000   104.4040   -13.9100    -4.8990     5.1810     5.7220     5.8140     0.2300     2.5240     0.0440   -14.2690     9.8500
 2840.5000   106.0610   -14.1970   -11.2810     4.9430     5.4720     5.8640     0.2320     2.5230     0.0580   -17.0400     9.8290
 2841.0000   107.6770   -14.4810   -17.6630     4.6140     5.3230     5.8940     0.2340     2.5110     0.0260   -19.8100     9.8090
 2841.5000   109.9580   -14.7550   -23.8690     4.3830     4.8980     5.5430     0.2350     2.4990    -0.0080   -22.5810     9.7890
 2842.0000   112.7570   -15.0470   -22.9860     3.7200     4.4200     5.3230     0.2370     2.4940    -0.0150   -25.3520     9.7940
 2842.5000   116.9750   -15.2490   -21.9220     3.1800     3.7790     4.9890     0.2490     2.4880    -0.0100   -28.1230     9.7990
 2843.0000   120.6060   -15.1780   -20.8580     2.7130     3.2470     4.6640     0.2680     2.4800    -0.0190   -30.8930     9.8050
 2843.5000   136.7580   -15.1140   -19.7950     2.4330     2.7590     4.2070     0.2910     2.4730    -0.0100   -33.4840     9.8110
 2844.0000   150.9090   -15.0550   -18.7310     2.3120     2.6340     3.4130     0.3430     2.4630    -0.0040   -34.1750     9.8160
 2844.5000   188.0810   -14.7280   -17.6680     2.2300     2.6340     2.5620     0.3770     2.4300    -0.0080   -34.8230     9.8220
 2845.0000   197.3740   -14.4160   -16.6040     2.2510     2.7330     2.2510     0.3550     2.3900    -0.0010   -35.4720     9.8280
 2845.5000   196.9790   -14.0310   -15.5400     2.3000     3.1120     2.2510     0.3000     2.3470     0.0530   -36.1200     9.8280
 2846.0000   188.1800   -13.6650   -14.4770     2.3900     3.4490     2.5410     0.2700     2.3510     0.1030   -36.7690     9.8270
 2846.5000   154.6990   -13.8260   -13.8190     2.4690     3.9460     3.8990     0.2420     2.4060     0.0800   -37.4170     9.8210
 2847.0000   120.7290   -14.1520   -13.8190     2.9950     4.3420     5.4730     0.2260     2.4790     0.0500   -38.0660     9.8140
 2847.5000   115.1710   -14.3940   -13.8190     3.4390     4.7520     6.7090     0.2230     2.5490     0.0420   -38.7140     9.8070
 2848.0000   110.9310   -14.6920   -13.8190     3.7790     5.2090     6.6100     0.2300     2.5610     0.0480   -39.3620     9.8010
 2848.5000   110.1670   -14.9640   -13.8190     4.6050     5.5930     6.5130     0.2340     2.5550     0.0400   -40.0110     9.7940
 2849.0000   113.6330   -15.2370   -13.8190     5.0350     5.9360     6.4160     0.2370     2.5480     0.0330   -40.6590     9.7880
 2849.5000   113.2170   -15.5230   -13.8190     5.5240     6.1160     6.3470     0.2430     2.5390     0.0230   -41.3080     9.7810
 2850.0000   113.5280   -15.7950   -13.8190     5.5240     6.1040     6.2640     0.2500     2.5250     0.0100   -41.9560     9.7740
