~VERSION INFORMATION
 VERS.                2.0:   CWLS LOG ASCII STANDARD - VERSION 2.0
 WRAP.                 NO:   ONE LINE PER DEPTH STEP
~WELL INFORMATION
#MNEM.UNIT      DATA TYPE    INFORMATION
#----------   ------------   ------------------------------
 STRT.F          417.0000:   START DEPTH
 STOP.F         4133.0000:   STOP DEPTH
 STEP.F            0.5000:   STEP LENGTH
 NULL.          -999.2500:   NO VALUE
 COMP.    FENIX & SCISSON:   COMPANY
 WELL. FENIX  "LX" #18-11:   WELL
 FLD .              NPR 3:   FIELD
 LOC .      S11 T38N R78W:   LOCATION
 CNTY.            NATRONA:   COUNTY
 STAT.            WYOMING:   STATE
 CTRY. UNITED STATES OF AMERICA:   COUNTRY
 SRVC.       SCHLUMBERGER:   SERVICE COMPANY
 DATE.        14-JAN-1978:   LOGDATE
 API .     49025105590000:   API NUMBER
~CURVE INFORMATION
#MNEM.UNIT       API CODE    CURVE DESCRIPTION
#----------   ------------   ------------------------------
 DEPT.F                  :   
 SPR .MV     07 010 01 00:   SPONTANEOUS POTENTIAL
 SFL .OHMM   07 220 01 00:   SHALLOW FOCUSED LOG RESISTIVITY
 ILD .OHMM   07 120 46 00:   DEEP INDUCTION RESISTIVITY
 ILM .OHMM   07 120 44 00:   INDUCTION LOG MEDIUM RESISTIVITY
 CALD.IN     45 280 60 00:   CALIPER FROM DENSITY LOG
 GRD .GAPI   45 310 01 00:   GAMMA RAY FROM DENSITY LOG
 RHOB.G/C3   45 350 01 00:   BULK DENSITY
 CORR.G/C3   45 356 01 00:   DENSITY CORRECTION
 NPHI.DEC    42 890 03 00:   NEUTRON POROSITY SANDSTONE
~PARAMETER INFORMATION
#MNEM.UNIT          VALUE    DESCRIPTION
#----------   ------------   ------------------------------
 EKB .F         5220.0000:   Kelly bushing
 EGL .F         5210.0000:   Ground level
 EDF .F            0.0000:   Drilling floor
 TD  .F         4125.0000:   Total depth
 DATE.        14-JAN-1978:   Date logged
 CLNT.            A2DTECH:   Client Code
 SL  . 330' FSL & 530' FWL:   Surface Location
 PD  .                 GL:   Permanent Datum
 EPD .F              5210:   Elevation Permanent Datum
 LMF .                 KB:   Log Measured From
 DMF .                 KB:   Drilling Measured From
 DAPD.F                10:   Feet Above Permanent Datum
 DD  .F              4125:   Depth driller
 DL  .F              4121:   Depth logger
 BLI .F              4116:   Bottom log interval
 TLI .F               427:   Top log interval
 CS1 .IN            8.625:   Casing size
 CBD1.      8.625" @ 513':   Casing driller 1
 CBL1.F               427:   Casing logger 1
 BS1 .IN            7.875:   Bit size
 BSD1.F              4125:   Depth drilled with bit1
 DFT .                KCL:   Type fluid in hole
 DFD .                8.8:   Density
 DFV .                 40:   Viscosity
 DFPH.                 12:   pH
 DFL .                7.4:   Fluid loss
 MSS .           MUD TANK:   Source of sample
 RMS .OHMM           .418:   Rm
 MST .F                60:   Rm Meas. temp.
 RMF .OHMM           .343:   Rmf
 MFST.F                60:   Rmf Meas. temp.
 MFSS.               MEAS:   Source Rmf.
 RMB .OHMM            .20:   Rm. at BHT
 BHT .F               123:   BHT.
 TCS .HRS            0600:   Time Circ. stopped
 TLAB.HRS            0845:   Time logger at bottom
 MRT .F               123:   Maximum recorded temp.
 LUN .               8035:   Logging unit number
 LUL .               CSPR:   Logging unit location
 ENGI.             MARTIN:   Recorded By
 WITN.         HARRINGTON:   Witnessed by
 ORIG.      2.5" 5" PRINT:   Origin of data
 UWI .     49025105590000:   Unique Well ID
 DICO. A2D TECHNOLOGIES, INC.:   Digitizing Company
~OTHER INFORMATION
~A   DEPT      SPR        SFL        ILD        ILM       CALD         GRD      RHOB       CORR       NPHI   
# ...
  891.5000   -34.6370     8.3380     9.8580     8.1180    11.9720    88.3000     2.4620     0.2150     0.3520
  892.0000   -34.6540     8.5020     9.8590     8.2090    11.9040    90.5420     2.5050     0.2270     0.3350
  892.5000   -34.6700     8.6670     9.8580     8.2960    11.9470    94.1030     2.5270     0.2230     0.3230
  893.0000   -34.6860     8.8230     9.8580     8.3830    11.9950    95.3700     2.5010     0.1920     0.3240
  893.5000   -34.7020     8.8230     9.8580     8.4700    12.0460    95.2930     2.4670     0.1630     0.3280
  894.0000   -34.7180     8.8230     9.8580     8.5810    12.0590    95.3380     2.4340     0.1230     0.3320
  894.5000   -34.7340     8.8230     9.8580     8.5620    12.0520    94.7220     2.4310     0.1360     0.3350
  895.0000   -34.7500     8.8230     9.8580     8.5380    12.0430    93.4930     2.4440     0.1700     0.3390
  895.5000   -34.7650     8.8230     9.8580     8.5150    12.0350    92.3640     2.4320     0.1980     0.3410
  896.0000   -34.7810     8.8230     9.8580     8.4920    12.0290    91.2120     2.4070     0.1610     0.3430
  896.5000   -34.7970     8.8230     9.8580     8.4680    11.9790    90.0690     2.3810     0.0620     0.3460
  897.0000   -34.8120     8.6380     9.8580     8.4450    11.8320    89.0620     2.4040     0.0470     0.3470
  897.5000   -34.8310     8.5810     9.8580     8.4240    11.6680    89.0780     2.4350     0.0320     0.3490
  898.0000   -34.9940     8.7000     9.8580     8.5190    11.3270    90.9750     2.4510     0.0220     0.3480
  898.5000   -35.1730     8.8070     9.8580     8.6040    11.0970    92.0230     2.4650     0.0190     0.3450
  899.0000   -35.3520     8.9140     9.9200     8.6900    11.1220    91.2610     2.4790     0.0160     0.3460
  899.5000   -35.5310     9.0210    10.0720     8.7750    11.1180    90.6640     2.4900     0.0140     0.3490
  900.0000   -35.7070     9.1280    10.2240     8.8610    11.1150    91.5140     2.4890     0.0110     0.3520
  900.5000   -35.7910     9.2360    10.3760     8.9460    11.1170    92.3800     2.4800     0.0090     0.3470
  901.0000   -35.6650     9.3430    10.5280     9.0320    11.1310    93.3010     2.4720     0.0060     0.3370
  901.5000   -35.5450     9.4500    10.6150     9.1180    11.1890    94.2460     2.4830     0.0040     0.3260
  902.0000   -35.4070     9.5570    10.6150     9.2030    11.2460    94.1930     2.4960     0.0010     0.3160
  902.5000   -34.9270     9.5890    10.6150     9.2890    11.3040    92.5940     2.5030    -0.0010     0.3070
  903.0000   -34.4590     9.5890    10.5180     9.3260    11.3610    89.9980     2.4950    -0.0040     0.3070
  903.5000   -33.9870     9.5890    10.5180     9.2190    11.4180    88.9030     2.4870    -0.0060     0.3150
  904.0000   -33.9640     9.4400    10.3890     9.0840    11.4420    89.4830     2.4860    -0.0090     0.3230
  904.5000   -34.1550     9.2970    10.2710     8.9490    11.4540    90.7460     2.4930    -0.0090     0.3300
  905.0000   -34.3540     9.1540    10.1540     8.8150    11.4660    91.9490     2.5000    -0.0060     0.3330
  905.5000   -34.3480     9.0100    10.0360     8.6800    11.4790    93.1850     2.4980    -0.0040     0.3370
  906.0000   -34.2130     8.8670     9.9200     8.5450    11.4910    94.5210     2.4980    -0.0020     0.3330
  906.5000   -34.0760     8.7240     9.8070     8.4110    11.5040    95.4210     2.4980    -0.0010     0.3280
  907.0000   -33.9400     8.5800     9.6950     8.2760    11.5100    94.3520     2.4940    -0.0020     0.3240
  907.5000   -33.8660     8.4370     9.5820     8.1410    11.5050    92.3020     2.4880    -0.0030     0.3240
  908.0000   -34.0710     8.2940     9.4690     8.1180    11.5010    92.7290     2.4820    -0.0050     0.3280
  908.5000   -34.2680     8.1940     9.3570     8.1150    11.4970    93.2410     2.4760    -0.0050     0.3320
  909.0000   -34.4660     8.1940     9.3260     8.0840    11.4930    94.3100     2.4720    -0.0030     0.3200
  909.5000   -34.6630     8.2270     9.3260     8.0520    11.4890    96.5480     2.4730    -0.0010     0.3080
  910.0000   -34.8600     8.3110     9.3660     8.0210    11.4850    99.1880     2.4770     0.0010     0.3000
  910.5000   -35.0580     8.3960     9.4060     7.9900    11.4810    96.5630     2.4840     0.0030     0.3000
  911.0000   -35.2550     8.4800     9.4460     7.9700    11.4770    90.2030     2.4910     0.0050     0.3040
  911.5000   -35.4530     8.5650     9.5000     7.9690    11.4730    89.8510     2.4960     0.0070     0.3070
  912.0000   -35.6520     8.6490     9.4960     7.9700    11.4690    90.9800     2.4900     0.0060     0.3100
  912.5000   -35.8180     8.6610     9.4890     7.9700    11.4650    92.8530     2.4840     0.0010     0.3150
  913.0000   -35.6180     8.6330     9.4820     7.9700    11.4610    93.8870     2.4800     0.0030     0.3190
  913.5000   -35.4210     8.5490     9.4750     7.9700    11.4570    93.9780     2.4860     0.0070     0.3250
  914.0000   -35.2260     8.4640     9.4680     7.9700    11.4530    94.2040     2.5000     0.0110     0.3330
  914.5000   -35.0310     8.3800     9.4610     7.9680    11.4490    94.4160     2.5140     0.0140     0.3300
  915.0000   -34.8370     8.2950     9.4540     7.9770    11.4450    94.6050     2.5050     0.0100     0.3240
  915.5000   -34.6420     8.1940     9.4470     7.8890    11.4410    94.8180     2.4900     0.0060     0.3190
  916.0000   -34.4470     8.3590     9.4400     7.8950    11.4370    95.0300     2.4740     0.0010     0.3230
  916.5000   -34.2530     8.5660     9.4320     7.8960    11.4320    95.1670     2.4690    -0.0020     0.3310
  917.0000   -34.2310     8.7730     9.4250     7.8960    11.4430    95.9550     2.4740    -0.0010     0.3390
  917.5000   -34.2310     8.9050     9.4180     7.8960    11.4660    97.1410     2.4800     0.0010     0.3500
  918.0000   -34.2320     8.8640     9.4130     7.8960    11.4870    98.6690     2.4870     0.0030     0.3430
  918.5000   -34.2320     8.7630     9.4130     7.8960    11.5090    98.3730     2.4930     0.0040     0.3310
  919.0000   -34.2320     8.6620     9.4130     7.9070    11.5300    96.2590     2.4990     0.0060     0.3200
  919.5000   -34.2320     8.5610     9.4120     7.9300    11.5470    94.2440     2.4970     0.0050     0.3050
  920.0000   -34.2320     8.4600     9.4220     7.9530    11.5320    94.5650     2.4900     0.0030     0.3080
  920.5000   -34.2320     8.3590     9.3170     7.9700    11.5190    95.6890     2.4900     0.0010     0.3180
  921.0000   -34.2310     8.3470     9.3240     7.9690    11.5040    96.7630     2.4980     0.0000     0.3270
  921.5000   -34.2280     8.3820     9.3260     7.9430    11.4900    95.9060     2.5010     0.0000     0.3420
  922.0000   -34.2450     8.4300     9.3270     7.9220    11.4750    95.0580     2.5000     0.0000     0.3360
  922.5000   -34.6830     8.4780     9.3190     7.9020    11.4610    94.0780     2.4960     0.0000     0.3230
  923.0000   -35.1290     8.5020     9.4200     7.8810    11.4470    93.2420     2.4910     0.0000     0.3100
  923.5000   -35.4460     8.5020     9.4120     7.8610    11.4320    93.0470     2.4920    -0.0010     0.3060
  924.0000   -35.4800     8.4250     9.3760     7.8400    11.4370    95.7240     2.4930    -0.0020     0.3060
  924.5000   -35.5200     8.3430     9.3370     7.8200    11.4480    98.8040     2.4910    -0.0040     0.3060
  925.0000   -35.5590     8.2700     9.2990     7.7990    11.4600   100.1290     2.4860    -0.0050     0.3120
  925.5000   -35.5980     8.3080     9.2600     7.7790    11.4710    99.9510     2.4810    -0.0060     0.3180
  926.0000   -35.6040     8.3430     9.2220     7.7580    11.4820    99.9470     2.4810    -0.0080     0.3250
  926.5000   -35.4520     8.3780     9.1830     7.7380    11.4930    97.7520     2.4830    -0.0050     0.3280
  927.0000   -35.3020     8.4120     9.1520     7.7170    11.5040    96.5770     2.4940     0.0000     0.3240
  927.5000   -35.1530     8.4470     9.1380     7.6970    11.5150    96.1740     2.5070     0.0050     0.3190
