~VERSION INFORMATION
 VERS.                2.0:   CWLS LOG ASCII STANDARD - VERSION 2.0
 WRAP.                 NO:   ONE LINE PER DEPTH STEP
~WELL INFORMATION
#MNEM.UNIT      DATA TYPE    INFORMATION
#----------   ------------   ------------------------------
 STRT.F            0.0000:   START DEPTH
 STOP.F         3504.0000:   STOP DEPTH
 STEP.F            0.5000:   STEP LENGTH
 NULL.          -999.2500:   NO VALUE
 COMP. LAWRENCE-ALLISON AND ASSOCIATES:   COMPANY
 WELL. LAWRENCE "TX" #16-34:   WELL
 FLD .              NPR 3:   FIELD
 LOC .      S34 T39N R78W:   LOCATION
 CNTY.            NATRONA:   COUNTY
 STAT.            WYOMING:   STATE
 CTRY. UNITED STATES OF AMERICA:   COUNTRY
 SRVC.       SCHLUMBERGER:   SERVICE COMPANY
 DATE.        10-APR-1982:   LOGDATE
 API .     49025108970000:   API NUMBER
~CURVE INFORMATION
#MNEM.UNIT       API CODE    CURVE DESCRIPTION
#----------   ------------   ------------------------------
 DEPT.F                  :   
 SPR .MV     07 010 01 00:   SPONTANEOUS POTENTIAL
 ILD .OHMM   07 120 46 00:   DEEP INDUCTION RESISTIVITY
 SFLU.OHMM   07 220 01 00:   SPHERICALLY FOCUSED LOG UNAVERAGED RESISTIVITY
 TENR.LBS    07 635 01 00:   TENSION FROM RESISTIVITY
 ILM .OHMM   07 120 44 00:   INDUCTION LOG MEDIUM RESISTIVITY
 GRD .GAPI   45 310 01 00:   GAMMA RAY FROM DENSITY LOG
 CALD.IN     45 280 60 00:   CALIPER FROM DENSITY LOG
 RHOB.G/C3   45 350 01 00:   BULK DENSITY
 CORR.G/C3   45 356 01 00:   DENSITY CORRECTION
 TEND.LBS    45 635 01 00:   TENSION FROM DENSITY LOG
 NPHI.DEC    42 890 03 00:   NEUTRON POROSITY SANDSTONE
~PARAMETER INFORMATION
#MNEM.UNIT          VALUE    DESCRIPTION
#----------   ------------   ------------------------------
 EKB .F         5149.0000:   Kelly bushing
 EGL .F         5139.0000:   Ground level
 EDF .F            0.0000:   Drilling floor
 TD  .F         3500.0000:   Total depth
 DATE.        10-APR-1982:   Date logged
 CLNT.            A2DTECH:   Client Code
 SL  . 1406' FSL & 423' FWL:   Surface Location
 PD  .                 GL:   Permanent Datum
 EPD .F              5139:   Elevation Permanent Datum
 LMF .                 KB:   Log Measured From
 DMF .                 KB:   Drilling Measured From
 DAPD.F                10:   Feet Above Permanent Datum
 DD  .F              3500:   Depth driller
 DL  .F              3497:   Depth logger
 BLI .F              3491:   Bottom log interval
 TLI .F               658:   Top log interval
 CS1 .IN            9.625:   Casing size
 CBD1.      9.625" @ 632':   Casing driller 1
 CBL1.F               658:   Casing logger 1
 BS1 .IN             8.75:   Bit size
 BSD1.F              3500:   Depth drilled with bit1
 DFT .           SPUD MUD:   Type fluid in hole
 DFD .                  9:   Density
 DFV .                 44:   Viscosity
 DFPH.                 10:   pH
 DFL .                  7:   Fluid loss
 MSS .           FLOWLINE:   Source of sample
 RMS .OHMM              2:   Rm
 MST .F                53:   Rm Meas. temp.
 RMF .OHMM            1.9:   Rmf
 MFST.F                53:   Rmf Meas. temp.
 RMC .OHMM            1.5:   Rmc
 MCST.F                53:   Rmc Meas. temp.
 MFSS.               MEAS:   Source Rmf.
 MCSS.               CALC:   Source Rmc.
 RMB .OHMM              1:   Rm. at BHT
 BHT .F               106:   BHT.
 TCS .HRS            1100:   Time Circ. stopped
 TLAB.HRS            1330:   Time logger at bottom
 MRT .F               106:   Maximum recorded temp.
 LUN .               8151:   Logging unit number
 LUL .                GLT:   Logging unit location
 ENGI.            NEUFFER:   Recorded By
 WITN.           JENNINGS:   Witnessed by
 ORIG.           5" PRINT:   Origin of data
 UWI .     49025108970000:   Unique Well ID
 DICO. A2D TECHNOLOGIES, INC.:   Digitizing Company
~OTHER INFORMATION
~A    DEPT     SPR        ILD       SFLU       TENR        ILM        GRD       CALD       RHOB       CORR       TEND       NPHI   
# ...
 1006.5000    -9.1520     8.9030     9.3800   918.0240     9.1520    94.0100    10.5860     2.5200     0.0440   864.7890     0.2850
 1007.0000    -9.1450     9.0460     9.5720   918.3220     9.2990    93.4160    10.5730     2.5270     0.0450   865.7280     0.2810
 1007.5000    -9.1380     9.1490     9.7640   918.6190     9.4050    92.3740    10.6320     2.5290     0.0460   866.6670     0.2800
 1008.0000    -9.1320     8.8180     9.9390   918.9170     9.0650    90.8940    10.6940     2.5210     0.0510   867.6060     0.2920
 1008.5000    -9.1250     8.8250     9.8910   919.2150     9.0720    89.9010    10.7250     2.5150     0.0560   868.5450     0.3010
 1009.0000    -9.1180     8.8370     9.8470   919.5120     9.0840    90.2970    10.6890     2.5200     0.0590   869.4840     0.3000
 1009.5000    -9.1110     8.8500     9.8040   919.8100     9.0970    91.3500    10.6240     2.5200     0.0490   870.4230     0.2990
 1010.0000    -9.1040     8.8620     9.7580   920.1070     9.1100    91.3290    10.5560     2.5160     0.0360   871.3620     0.2840
 1010.5000    -9.0980     8.8750     9.6440   920.4050     9.1230    91.3450    10.4890     2.5170     0.0280   872.3000     0.2750
 1011.0000    -9.1260     8.8870     9.5230   920.7020     9.1360    92.9120    10.4270     2.5280     0.0370   873.2390     0.2690
 1011.5000    -9.2220     8.9000     9.4020   921.0000     9.1490    94.6880    10.4130     2.5350     0.0480   874.1780     0.2790
 1012.0000    -9.3170     8.7720     9.2810   921.2980     9.0170    95.4010    10.4000     2.5300     0.0500   875.1170     0.2890
 1012.5000    -9.4120     8.6400     9.1610   921.5950     8.8820    95.6970    10.3900     2.5190     0.0350   876.0560     0.2980
 1013.0000    -9.5070     8.5090     9.0580   921.8930     8.7470    96.4180    10.4070     2.5050     0.0220   876.9950     0.3080
 1013.5000    -9.6020     8.3780     9.0260   922.1900     8.6120    97.3060    10.4250     2.4970     0.0130   877.9340     0.3120
 1014.0000    -9.6970     8.2460     8.9860   922.4880     8.4770    98.1970    10.4420     2.5070     0.0150   878.8730     0.3120
 1014.5000    -9.7930     8.1150     9.0160   922.7850     8.3420    99.0730    10.4590     2.5230     0.0290   879.8120     0.3080
 1015.0000    -9.8780     8.0430     9.0650   923.0830     8.2680   100.8050    10.4770     2.5370     0.0370   880.7510     0.3040
 1015.5000    -9.8180     8.0540     8.9580   923.3810     8.2800   102.8710    10.4940     2.5410     0.0410   881.6900     0.3010
 1016.0000    -9.7550     8.0710     8.8330   923.6780     8.2970   104.9430    10.5110     2.5360     0.0470   882.6290     0.3010
 1016.5000    -9.6940     8.0880     8.7870   923.9760     8.3150   106.4220    10.5270     2.5320     0.0540   883.5680     0.3010
 1017.0000    -9.6320     8.1050     8.7420   924.2730     8.3320   103.1070    10.5330     2.5340     0.0610   884.5070     0.3030
 1017.5000    -9.5710     8.1220     8.6970   924.5710     8.3500    99.7220    10.5380     2.5350     0.0670   885.4460     0.3060
 1018.0000    -9.5100     8.1390     8.6580   924.8680     8.3670    96.3670    10.5440     2.5280     0.0590   886.3850     0.2980
 1018.5000    -9.4480     8.1560     8.7020   925.1660     8.3840    93.9540    10.5490     2.5220     0.0510   887.3240     0.3040
 1019.0000    -9.3870     8.1730     8.7500   925.4630     8.4020    94.2740    10.5550     2.5290     0.0490   888.2630     0.3020
 1019.5000    -9.3250     8.1900     8.8180   925.7610     8.4190    96.7730    10.5600     2.5360     0.0580   889.2020     0.2990
 1020.0000    -9.2640     8.2070     8.8110   926.0590     8.4370   100.7010    10.5660     2.5380     0.0580   890.1410     0.2990
 1020.5000    -9.2020     8.2240     8.7970   926.3560     8.4540   103.1500    10.5710     2.5370     0.0520   891.0800     0.3060
 1021.0000    -9.1410     8.2410     8.7840   926.6540     8.4720   101.1230    10.5760     2.5340     0.0420   892.0190     0.3060
 1021.5000    -9.0950     8.2580     8.7700   926.9510     8.4890    98.1830    10.5820     2.5290     0.0350   892.9580     0.3000
 1022.0000    -9.1160     8.2750     8.7570   927.2490     8.5060    95.8370    10.5860     2.5260     0.0330   893.8970     0.3000
 1022.5000    -9.1360     8.2920     8.7430   927.5460     8.5240    96.1610    10.5870     2.5310     0.0310   894.8360     0.2970
 1023.0000    -9.1560     8.3090     8.7300   927.8440     8.5410    97.5010    10.5890     2.5310     0.0300   895.7750     0.2930
 1023.5000    -9.1760     8.3260     8.7160   928.1420     8.5590    98.1660    10.5910     2.5260     0.0230   896.7140     0.2880
 1024.0000    -9.1950     8.3430     8.7030   928.4390     8.5760    97.9120    10.5930     2.5190     0.0160   897.6530     0.2890
 1024.5000    -9.2150     8.3170     8.6890   928.7370     8.5500    97.6270    10.5950     2.5140     0.0110   898.5920     0.2920
 1025.0000    -9.2350     8.2850     8.6760   929.0340     8.5180    97.3400    10.5970     2.5160     0.0130   899.5310     0.2920
 1025.5000    -9.2540     8.2530     8.6620   929.3320     8.4860    97.0550    10.5990     2.5210     0.0220   900.0000     0.2900
 1026.0000    -9.2740     8.2210     8.6490   929.6290     8.4540    96.7790    10.6000     2.5250     0.0300   900.0000     0.2910
 1026.5000    -9.2940     8.1900     8.6350   929.9270     8.4220    95.9250    10.6020     2.5220     0.0390   900.0000     0.2960
 1027.0000    -9.3130     8.1580     8.6220   930.2250     8.3900    94.8490    10.6040     2.5100     0.0280   900.0000     0.3000
 1027.5000    -9.3330     8.1260     8.6080   930.5220     8.3580    94.0600    10.6070     2.4970     0.0150   900.0000     0.3050
 1028.0000    -9.3530     8.0940     8.5950   930.8200     8.3260    93.5810    10.6140     2.4870     0.0090   900.0000     0.3100
 1028.5000    -9.3720     8.0470     8.5780   931.1170     8.2940    92.0740    10.6200     2.4950     0.0120   900.0000     0.3120
 1029.0000    -9.3920     8.1540     9.0630   931.4150     8.2680    90.4980    10.6100     2.5060     0.0210   900.0000     0.3000
 1029.5000    -9.4120     8.4360     9.6800   931.7120     8.6250    90.0260    10.5540     2.5160     0.0250   900.0000     0.2990
 1030.0000    -9.4310     8.7180    10.4070   932.0100     8.9240    91.6260    10.5270     2.5200     0.0260   900.0000     0.2940
 1030.5000    -9.4510     9.0000    10.2760   932.3070     9.2230    93.2450    10.5270     2.5230     0.0270   900.0000     0.2900
 1031.0000    -9.4710     9.2820    10.1230   932.6050     9.5210    92.8510    10.5270     2.5330     0.0340   900.0000     0.2890
 1031.5000    -9.4900     9.5640    10.2260   932.9030     9.8200    91.6200    10.5190     2.5450     0.0400   900.0000     0.2870
 1032.0000    -9.5100     9.8460    10.3240   933.2000    10.1190    92.4860    10.4930     2.5420     0.0360   900.0000     0.2830
 1032.5000    -9.5300     9.9910    10.4220   933.4980    10.2710    95.5180    10.4670     2.5340     0.0310   900.0000     0.2800
 1033.0000    -9.5490    10.0700    10.5210   933.7950    10.3510    97.2680    10.4410     2.5300     0.0280   900.0000     0.2820
 1033.5000    -9.5690    10.1480    10.6190   934.0930    10.4320    98.1900    10.4150     2.5290     0.0250   900.0000     0.2840
 1034.0000    -9.5890    10.2200    10.7170   934.3900    10.5060    98.1770    10.3890     2.5220     0.0180   900.0000     0.2860
 1034.5000    -9.6080    10.2420    10.8160   934.6880    10.5290    98.1610    10.3630     2.5150     0.0170   900.0000     0.2880
 1035.0000    -9.6280    10.2650    10.9140   934.9860    10.5520    96.7250    10.3370     2.5090     0.0180   900.0000     0.2870
 1035.5000    -9.6480    10.2880    11.0270   935.2830    10.5760    95.1090    10.3340     2.5140     0.0320   900.0000     0.2830
 1036.0000    -9.6670    10.3110    11.2220   935.5810    10.6000    94.0660    10.3410     2.5270     0.0490   900.0000     0.2770
 1036.5000    -9.6870    10.2860    11.4160   935.8780    10.5740    94.4370    10.3480     2.5410     0.0650   900.0000     0.2710
