~VERSION INFORMATION
 VERS.                2.0:   CWLS LOG ASCII STANDARD - VERSION 2.0
 WRAP.                 NO:   ONE LINE PER DEPTH STEP
~WELL INFORMATION
#MNEM.UNIT      DATA TYPE    INFORMATION
#----------   ------------   ------------------------------
 STRT.F            4.5000:   START DEPTH
 STOP.F         3216.0000:   STOP DEPTH
 STEP.F            0.5000:   STEP LENGTH
 NULL.          -999.2500:   NO VALUE
 COMP. LAWRENCE ALLISON & ASSCOCIATES:   COMPANY
 WELL. LAWRENCE ALLISON #38-34:   WELL
 FLD . NAVAL PET. RES. NO. 3:   FIELD
 LOC .      S34 T39N R78W:   LOCATION
 CNTY.            NATRONA:   COUNTY
 STAT.            WYOMING:   STATE
 CTRY. UNITED STATES OF AMERICA:   COUNTRY
 SRVC.      DRESSER ATLAS:   SERVICE COMPANY
 DATE.        12-OCT-1986:   LOGDATE
 API .     49025111120000:   API NUMBER
~CURVE INFORMATION
#MNEM.UNIT       API CODE    CURVE DESCRIPTION
#----------   ------------   ------------------------------
 DEPT.F                  :   
 CALD.IN     45 280 60 00:   CALIPER FROM DENSITY LOG
 RHOB.G/C3   45 350 01 00:   BULK DENSITY
 CORR.G/C3   45 356 01 00:   DENSITY CORRECTION
 CNC .DEC    42 890 01 00:   NEUTRON POROSITY
 SPR .MV     07 010 01 00:   SPONTANEOUS POTENTIAL
 TENR.LBS    06 635 01 00:   TENSION FROM RESISTIVITY
 GRR .GAPI   07 310 01 00:   GAMMA RAY FROM RESISTIVITY
 ILD .OHMM   07 120 46 00:   DEEP INDUCTION RESISTIVITY
 ILM .OHMM   07 120 44 00:   INDUCTION LOG MEDIUM RESISTIVITY
 SFL .OHMM   07 220 01 00:   SHALLOW FOCUSED LOG RESISITIVITY
~PARAMETER INFORMATION
#MNEM.UNIT          VALUE    DESCRIPTION
#----------   ------------   ------------------------------
 EKB .F         5229.5000:   Kelly bushing
 EGL .F         5217.7000:   Ground level
 TD  .F         3200.0000:   Total depth
 CLNT.            A2DTECH:   Client Code
 SL  . 1338' FWL & 132' FSL:   Surface Location
 PD  .                 GL:   Permanent Datum
 EPD .F            5217.7:   Elevation Permanent Datum
 LMF .                 KB:   Log Measured From
 DMF .                 KB:   Drilling Measured From
 DAPD.F              11.8:   Feet Above Permanent Datum
 DATE.        12-OCT-1986:   Date Logged [DD-MMM-YYYY]
 DD  .F              3200:   Depth driller
 DL  .F              3200:   Depth logger
 BLI .F              3194:   Bottom log interval
 TLI .F                 0:   Top log interval
 CS1 .IN            8.625:   Casing size
 CBD1.      8.625" @ 668':   Casing driller 1
 CBL1.F               668:   Casing logger 1
 BS1 .IN            7.875:   Bit size
 BSD1.F              3200:   Depth drilled with bit1
 DFT .        KCL POLYMER:   Type fluid in hole
 DFD .                  9:   Density
 DFV .                 36:   Viscosity
 DFPH.                9.5:   pH
 MSS .           FLOWLINE:   Source of sample
 RMS .OHMM           0.25:   Rm
 MST .F                70:   Rm Meas. temp.
 RMF .OHMM          0.191:   Rmf
 MFST.F                70:   Rmf Meas. temp.
 MFSS.               MEAS:   Source Rmf.
 RMB .OHMM          0.132:   Rm. at BHT
 BHT .F               132:   BHT.
 TCS .HRS               3:   Time Circ. stopped
 MRT .F               132:   Maximum recorded temp.
 LUN .               6274:   Logging unit number
 ENGI.             RAUTIO:   Recorded By
 ORIG.   1" 2.5" 5" PRINT:   Origin of data
 UWI .     49025111120000:   Unique Well ID
 DICO. A2D TECHNOLOGIES, INC.:   Digitizing Company
 LUL .               CLIT:   Logging unit location
 RMC .OHMM           0.31:   Rmc
 MCST.F                70:   Rmc Meas. temp.
 MCSS.               CALC:   Source Rmc.
~OTHER INFORMATION
~A    DEPT    CALD       RHOB       CORR        CNC        SPR       TENR        GRR        ILD        ILM        SFL   
# ...
 2316.0000  -999.2500  -999.2500  -999.2500  -999.2500   -86.7423   -35.5000   119.5903     5.8529     5.8154     8.2480
 2316.5000  -999.2500  -999.2500  -999.2500  -999.2500   -86.8811   -45.2845   120.3325     5.7711     6.0440     8.8832
 2317.0000  -999.2500  -999.2500  -999.2500  -999.2500   -87.0199   -65.1110   123.7012     5.6120     6.0164     8.4012
 2317.5000  -999.2500  -999.2500  -999.2500  -999.2500   -87.1597   -45.7188   129.0981     5.4572     5.8646     7.8356
 2318.0000  -999.2500  -999.2500  -999.2500  -999.2500   -87.2984   -45.6905   123.4297     5.0195     5.6163     7.6195
 2318.5000  -999.2500  -999.2500  -999.2500  -999.2500   -87.4383   -45.4577   124.5976     4.6815     5.3784     7.5132
 2319.0000  -999.2500  -999.2500  -999.2500  -999.2500   -87.5782   -84.0646   127.1807     4.4896     5.1911     7.4084
 2319.5000  -999.2500  -999.2500  -999.2500  -999.2500   -87.7138   -63.9544   129.9274     4.4269     4.8797     6.8142
 2320.0000  -999.2500  -999.2500  -999.2500  -999.2500   -87.8607   -49.6345   134.2171     4.4263     5.0167     5.6860
 2320.5000  -999.2500  -999.2500  -999.2500  -999.2500   -87.9932   -60.8500   136.0000     4.4257     5.0864     5.3774
 2321.0000  -999.2500  -999.2500  -999.2500  -999.2500   -88.0804   -84.2500   136.2410     4.4251     4.9460     5.5011
 2321.5000  -999.2500  -999.2500  -999.2500  -999.2500   -87.7808   -84.2500   134.4198     4.3634     4.6776     5.8954
 2322.0000  -999.2500  -999.2500  -999.2500  -999.2500   -87.5332   -45.2500   124.7694     4.2949     4.5487     6.4409
 2322.5000  -999.2500  -999.2500  -999.2500  -999.2500   -87.2622   -25.7500   118.7336     4.1737     4.3621     6.3510
 2323.0000  -999.2500  -999.2500  -999.2500  -999.2500   -86.9997   -55.0000   118.7218     4.0559     4.3013     6.6724
 2323.5000  -999.2500  -999.2500  -999.2500  -999.2500   -86.7372   -64.7500   123.5293     3.9414     4.1827     6.8066
 2324.0000  -999.2500  -999.2500  -999.2500  -999.2500   -86.4757   -45.2500   124.7224     3.9010     4.1243     6.6188
 2324.5000  -999.2500  -999.2500  -999.2500  -999.2500   -86.2043   -45.2500   123.5057     3.9005     4.1171     6.0038
 2325.0000  -999.2500  -999.2500  -999.2500  -999.2500   -85.9524   -64.7500   121.6867     3.9546     4.0662     5.3706
 2325.5000  -999.2500  -999.2500  -999.2500  -999.2500   -85.7103   -64.7500   123.5651     4.0094     4.1351     5.0090
 2326.0000  -999.2500  -999.2500  -999.2500  -999.2500   -85.9314   -16.0000   127.1963     4.0943     4.2112     4.8036
 2326.5000  -999.2500  -999.2500  -999.2500  -999.2500   -86.1620   -25.7500   129.4828     4.1539     4.3161     4.8703
 2327.0000  -999.2500  -999.2500  -999.2500  -999.2500   -86.4128   -45.2500   130.0734     4.2964     4.3791     5.0772
 2327.5000  -999.2500  -999.2500  -999.2500  -999.2500   -86.6518   -25.7500   128.0952     4.4170     4.5051     6.6125
 2328.0000  -999.2500  -999.2500  -999.2500  -999.2500   -86.8945   -16.0000   122.2185     4.6046     4.6349     7.3941
 2328.5000  -999.2500  -999.2500  -999.2500  -999.2500   -87.1376    -6.2500   125.6105     4.6685     4.7024     7.1519
 2329.0000  -999.2500  -999.2500  -999.2500  -999.2500   -87.3780   -35.5000   127.2367     4.7996     4.8378     6.1944
 2329.5000  -999.2500  -999.2500  -999.2500  -999.2500   -87.6245   -45.2500   126.2410     4.8662     4.9344     5.5926
 2330.0000  -999.2500  -999.2500  -999.2500  -999.2500   -87.8610    -3.8125   121.6066     4.9337     5.0728     5.7459
 2330.5000  -999.2500  -999.2500  -999.2500  -999.2500   -88.0930    32.7500   121.5705     5.0021     5.1433     6.4653
 2331.0000  -999.2500  -999.2500  -999.2500  -999.2500   -88.1032     3.5000   124.9639     5.0715     5.3617     7.3155
 2331.5000  -999.2500  -999.2500  -999.2500  -999.2500   -88.1082   -25.7500   128.1543     5.1451     5.5894     7.4219
 2332.0000  -999.2500  -999.2500  -999.2500  -999.2500   -88.1051    -6.2500   129.3474     5.3001     5.7464     7.4852
 2332.5000  -999.2500  -999.2500  -999.2500  -999.2500   -88.1058    13.2500   130.5422     5.5991     5.7456     7.5890
 2333.0000  -999.2500  -999.2500  -999.2500  -999.2500   -88.1043   -16.0000   131.7334     5.6655     5.5100     7.3230
 2333.5000  -999.2500  -999.2500  -999.2500  -999.2500   -88.1113   -25.7500   132.3253     5.3802     5.1379     7.0351
 2334.0000  -999.2500  -999.2500  -999.2500  -999.2500   -88.0413   -25.7500   132.9157     5.1383     4.9283     7.3775
 2334.5000  -999.2500  -999.2500  -999.2500  -999.2500   -87.9137    -6.2500   132.3005     5.1376     5.0048     7.5846
 2335.0000  -999.2500  -999.2500  -999.2500  -999.2500   -87.7959    -6.2500   122.0478     5.2090     5.1610     7.7976
 2335.5000  -999.2500  -999.2500  -999.2500  -999.2500   -87.6792    -6.2500   114.2047     5.3454     5.4801     6.3280
 2336.0000  -999.2500  -999.2500  -999.2500  -999.2500   -87.5552   -25.7500   116.6651     5.5425     5.8422     5.5825
 2336.5000  -999.2500  -999.2500  -999.2500  -999.2500   -87.4455   -45.2500   120.2927     5.7392     5.9013     5.8196
 2337.0000  -999.2500  -999.2500  -999.2500  -999.2500   -87.3104   -45.2500   122.1444     5.7384     5.7384     6.2380
 2337.5000  -999.2500  -999.2500  -999.2500  -999.2500   -87.4062   -45.2500   123.2933     5.5801     5.6584     7.3705
 2338.0000  -999.2500  -999.2500  -999.2500  -999.2500   -87.5376   -35.5000   125.5012     5.4262     5.5435     8.2379
 2338.5000  -999.2500  -999.2500  -999.2500  -999.2500   -87.6753   -25.7500   129.5057     5.2766     5.4256     7.9919
 2339.0000  -999.2500  -999.2500  -999.2500  -999.2500   -87.8130   -16.0000   129.7849     5.1311     5.3080     7.4495
 2339.5000  -999.2500  -999.2500  -999.2500  -999.2500   -87.9379    -6.2500   125.0934     5.0595     5.1303     7.0505
 2340.0000  -999.2500  -999.2500  -999.2500  -999.2500   -88.0904   -33.0625   120.7229     4.3409     4.8519     6.7567
 2340.5000  -999.2500  -999.2500  -999.2500  -999.2500   -87.9261   -45.2500   121.2489     4.2212     4.5253     6.4753
 2341.0000  -999.2500  -999.2500  -999.2500  -999.2500   -87.7086   -45.2500   123.4057     3.8290     4.2797     6.1555
 2341.5000  -999.2500  -999.2500  -999.2500  -999.2500   -87.4716   -45.2500   123.6988     3.9392     4.2094     5.5210
 2342.0000  -999.2500  -999.2500  -999.2500  -999.2500   -87.2832   -45.2500   122.3771     4.4030     4.5234     4.9060
 2342.5000  -999.2500  -999.2500  -999.2500  -999.2500   -87.0353   -45.2500   118.8533     4.5862     4.7816     4.6725
 2343.0000  -999.2500  -999.2500  -999.2500  -999.2500   -86.8247   -45.2500   115.8294     4.6499     4.9159     5.1602
 2343.5000  -999.2500  -999.2500  -999.2500  -999.2500   -86.6053   -45.2500   112.2032     4.5591     4.9841     5.6199
 2344.0000  -999.2500  -999.2500  -999.2500  -999.2500   -86.3932   -45.2540   109.1794     4.2912     4.6968     7.7331
 2344.5000  -999.2500  -999.2500  -999.2500  -999.2500   -86.1658   -45.2500   108.5652     3.9553     4.2552     8.5724
 2345.0000  -999.2500  -999.2500  -999.2500  -999.2500   -86.1208   -45.2500   109.1558     3.7018     3.9695     8.8524
 2345.5000  -999.2500  -999.2500  -999.2500  -999.2500   -86.2077   -45.2500   114.5658     3.4795     3.6972     6.1372
 2346.0000  -999.2500  -999.2500  -999.2500  -999.2500   -86.2807   -45.2500   122.4096     3.2662     3.4188     4.5184
 2346.5000  -999.2500  -999.2500  -999.2500  -999.2500   -86.3528   -45.2500   121.1651     3.0609     3.1628     3.6668
 2347.0000  -999.2500  -999.2500  -999.2500  -999.2500   -86.4286   -45.2500   117.2232     2.9534     3.0022     3.4678
 2347.5000  -999.2500  -999.2500  -999.2500  -999.2500   -86.5018   -45.2500   109.0362     2.8936     2.9342     3.6152
 2348.0000  -999.2500  -999.2500  -999.2500  -999.2500   -86.5760   -45.2500   109.9521     2.8532     2.9041     4.5159
 2348.5000  -999.2500  -999.2500  -999.2500  -999.2500   -86.6501   -45.2500   114.0078     2.8134     2.8929     4.9084
 2349.0000  -999.2500  -999.2500  -999.2500  -999.2500   -86.7239   -45.2500   115.8312     2.8131     2.8925     4.5103
