~VERSION INFORMATION
 VERS.                2.0:   CWLS LOG ASCII STANDARD - VERSION 2.0
 WRAP.                 NO:   ONE LINE PER DEPTH STEP
~WELL INFORMATION
#MNEM.UNIT      DATA TYPE    INFORMATION
#----------   ------------   ------------------------------
 STRT.F         2144.5000:   START DEPTH
 STOP.F         2870.0000:   STOP DEPTH
 STEP.F            0.5000:   STEP LENGTH
 NULL.          -999.2500:   NO VALUE
 COMP. LAWRENCE ALLISON & ASSOCIATES:   COMPANY
 WELL. LAWRENCE "X" #13-21:   WELL
 FLD .        TEAPOT DOME:   FIELD
 LOC .      S21 T39N R78W:   LOCATION
 CNTY.            NATRONA:   COUNTY
 STAT.            WYOMING:   STATE
 CTRY. UNITED STATES OF AMERICA:   COUNTRY
 SRVC.      DRESSER ATLAS:   SERVICE COMPANY
 DATE.        09-FEB-1987:   LOGDATE
 API .     49025111200000:   API NUMBER
~CURVE INFORMATION
#MNEM.UNIT       API CODE    CURVE DESCRIPTION
#----------   ------------   ------------------------------
 DEPT.F                  :   
 MCAL.IN     15 280 01 00:   CALIPER FROM MICRO LOG
 MTEN.LBS    15 635 01 00:   TENSION FROM MICRO LOG
 GRR .GAPI   05 310 01 00:   GAMMA RAY FROM RES.
 R2SL.OHMM   05 120 00 00:   RESISTIVITY
~PARAMETER INFORMATION
#MNEM.UNIT          VALUE    DESCRIPTION
#----------   ------------   ------------------------------
 EKB .F         4986.0000:   Kelly bushing
 EGL .F         4974.0000:   Ground level
 EDF .F            0.0000:   Drilling floor
 EPD .F         4974.0000:   Permanent datum
 TD  .F         2852.0000:   Total depth
 DATE.        09-FEB-1987:   Date logged
 CLNT.            A2DTECH:   Client Code
 SL  . 1962' FNL & 352' FWL:   Surface Location
 DAPD.F                12:   Feet Above Permanent Datum
 DD  .F              2850:   Depth driller
 DL  .F              2852:   Depth logger
 BLI .F              2846:   Bottom log interval
 TLI .F              2150:   Top log interval
 CS1 .IN            8.625:   Casing size
 CBD1.      8.625" @ 282':   Casing driller 1
 BS1 .IN            7.875:   Bit size
 BSD1.F              2850:   Depth drilled with bit1
 DFT .        KCL POLYMER:   Type fluid in hole
 DFD .                8.9:   Density
 DFV .                 40:   Viscosity
 DFPH.                9.7:   pH
 DFL .                8.6:   Fluid loss
 MSS .           FLOWLINE:   Source of sample
 RMS .OHMM          0.287:   Rm
 MST .F                60:   Rm Meas. temp.
 RMF .OHMM          0.203:   Rmf
 MFST.F                60:   Rmf Meas. temp.
 RMC .OHMM          0.358:   Rmc
 MCST.F                60:   Rmc Meas. temp.
 MFSS.               MEAS:   Source Rmf.
 MCSS.               CALC:   Source Rmc.
 RMB .OHMM          0.154:   Rm. at BHT
 BHT .F               112:   BHT.
 TCS .HRS               7:   Time Circ. stopped
 MRT .F               112:   Maximum recorded temp.
 LUN .            HL-6274:   Logging unit number
 LUL .           GILLETTE:   Logging unit location
 ENGI.             RAUTIO:   Recorded By
 WITN.             STRONG:   Witnessed by
 ORIG.           5" PRINT:   Origin of data
 UWI .     49025111200000:   Unique Well ID
 DICO. A2D TECHNOLOGIES, INC.:   Digitizing Company
~OTHER INFORMATION
~A  DEPT      MCAL       MTEN        GRR       R2SL   
# ...
 2728.5000     7.7390   -42.7140    69.0980     3.6400
 2729.0000     7.7400   -42.7140    70.1980     3.7400
 2729.5000     7.7420   -42.7140    71.9130     3.8410
 2730.0000     7.7430   -46.6330    75.5000     3.9210
 2730.5000     7.7440   -61.9500    78.7290     3.8570
 2731.0000     7.7460   -77.2660    79.3050     3.6400
 2731.5000     7.7470   -92.5830    79.9520     3.5540
 2732.0000     7.7490   -98.9450    80.6570     3.4710
 2732.5000     7.7500   -86.1810    84.2780     3.3890
 2733.0000     7.7520   -73.4170    88.0460     3.3060
 2733.5000     7.7530   -60.6530    91.4200     3.2240
 2734.0000     7.7550   -47.8890    93.1090     3.1670
 2734.5000     7.7560   -35.1260    94.8480     3.1670
 2735.0000     7.7570   -37.9800    95.7160     3.1670
 2735.5000     7.7590   -44.5680    94.5310     3.1610
 2736.0000     7.7600   -51.1560    93.3880     3.1450
 2736.5000     7.7620   -57.7440    92.9140     3.1280
 2737.0000     7.7630   -64.3310    95.0430     3.1120
 2737.5000     7.7650   -70.9190    97.2730     3.0660
 2738.0000     7.7660   -69.4380    99.4840     3.0120
 2738.5000     7.7680   -64.5750   101.6260     2.9560
 2739.0000     7.7690   -59.7130   106.3730     2.8760
 2739.5000     7.7700   -54.8500   108.7800     2.7450
 2740.0000     7.7720   -52.5730   107.5350     2.7240
 2740.5000     7.7730   -52.0630   104.5270     2.7100
 2741.0000     7.7750   -51.5530   102.0110     2.6970
 2741.5000     7.7760   -51.0430   101.5070     2.6830
 2742.0000     7.7780   -50.5340   104.4550     2.6550
 2742.5000     7.7790   -50.0240   107.9360     2.6070
 2743.0000     7.7810   -49.5140   111.4260     2.5540
 2743.5000     7.7820   -49.0040   114.3210     2.5010
 2744.0000     7.7830   -48.4940   114.4440     2.4420
 2744.5000     7.7850   -47.9840   113.2860     2.4480
 2745.0000     7.7860   -47.4740   113.1240     2.4570
 2745.5000     7.7880   -46.9640   115.9710     2.4660
 2746.0000     7.7890   -46.4540   117.7930     2.4740
 2746.5000     7.7910   -45.9440   114.5360     2.4880
 2747.0000     7.7920   -45.4350   111.1150     2.4660
 2747.5000     7.7940   -44.9250   110.7770     2.4160
 2748.0000     7.7980   -44.4150   112.9370     2.3660
 2748.5000     7.8030   -43.9050   115.0870     2.3160
 2749.0000     7.8080   -43.3950   116.0830     2.2690
 2749.5000     7.8120   -42.8850   115.4840     2.2220
 2750.0000     7.8170   -42.3750   114.0500     2.1750
 2750.5000     7.8220   -41.8650   112.6100     2.1240
 2751.0000     7.8260   -41.3550   112.0330     2.1640
 2751.5000     7.8310   -40.8460   111.7030     2.2250
 2752.0000     7.8360   -40.3360   111.1390     2.2880
 2752.5000     7.8410   -39.8260   109.3140     2.4190
 2753.0000     7.8450   -39.3160   107.2070     2.5580
 2753.5000     7.8500   -38.8060   104.0870     2.6190
 2754.0000     7.8540   -38.2960   101.0350     2.6790
 2754.5000     7.8530   -37.7860   102.3330     2.6580
 2755.0000     7.8520   -37.2760   106.2700     2.5260
 2755.5000     7.8510   -36.7660   110.1930     2.2910
 2756.0000     7.8500   -36.2570   112.5300     2.1640
 2756.5000     7.8490   -35.7470   112.5930     2.5580
 2757.0000     7.8480   -35.2370   110.9590     2.5250
 2757.5000     7.8470   -34.7270   108.2270     2.4650
 2758.0000     7.8460   -34.2170   104.5000     2.6280
 2758.5000     7.8450   -33.7070   100.7570     2.8570
 2759.0000     7.8440   -33.1970    97.0870     3.0510
 2759.5000     7.8430   -32.6870    98.2210     2.8270
 2760.0000     7.8420   -32.1770    99.7660     2.6790
 2760.5000     7.8410   -31.6670   101.3190     2.6790
 2761.0000     7.8400   -31.1580   102.8650     2.6050
 2761.5000     7.8390   -30.6480   104.3400     2.4210
 2762.0000     7.8380   -30.1380   104.8070     2.3100
 2762.5000     7.8370   -29.6280   102.1280     2.5640
 2763.0000     7.8360   -29.1180   100.1830     2.9680
 2763.5000     7.8350   -28.6080   102.8980     2.7060
 2764.0000     7.8340   -28.0980   108.8670     2.3910
 2764.5000     7.8310   -27.5880   110.1370     2.0850
 2765.0000     7.8290   -27.0780   108.4540     2.0660
 2765.5000     7.8270   -26.5690   107.8080     2.1560
 2766.0000     7.8240   -26.0590   106.3400     2.2520
 2766.5000     7.8220   -25.5490   103.6130     2.4330
 2767.0000     7.8200   -25.0390   100.9130     2.7710
 2767.5000     7.8170   -24.5290    97.1440     3.2300
 2768.0000     7.8150   -24.0190    93.4160     3.6890
 2768.5000     7.8130   -23.5090    89.6180     3.9570
 2769.0000     7.8100   -22.9990    89.4340     3.8330
 2769.5000     7.8080   -22.6130    92.4830     3.4410
 2770.0000     7.8060   -21.8290    98.6140     3.1530
 2770.5000     7.8030   -21.0800   102.5230     2.9940
 2771.0000     7.8010   -20.3300   103.8650     2.8360
 2771.5000     7.7990   -19.5810   105.1930     2.6770
 2772.0000     7.7960   -18.8310   104.7650     2.5820
 2772.5000     7.7940   -18.0810   102.0700     2.6760
 2773.0000     7.7950   -17.3320    99.4270     2.8070
 2773.5000     7.7960   -16.5820    97.3180     2.9950
 2774.0000     7.7970   -15.8330    98.8330     2.9280
 2774.5000     7.7980   -15.0830   101.0030     2.8070
 2775.0000     7.7990   -14.3330   103.2420     2.5800
 2775.5000     7.8010   -13.5840   103.5160     2.4880
 2776.0000     7.8020   -12.8340   102.3700     2.5640
 2776.5000     7.8030   -12.0850   101.6410     2.6550
 2777.0000     7.8040   -11.3350   103.3680     2.5680
 2777.5000     7.8050   -10.5850   105.1120     2.4840
 2778.0000     7.8070    -9.8360   104.9190     2.3750
 2778.5000     7.8080    -9.0860   103.4450     2.4380
 2779.0000     7.8090    -8.3370   101.9520     2.5670
 2779.5000     7.8100    -7.5870   102.3090     2.6550
 2780.0000     7.8120    -6.8370   104.3480     2.5120
 2780.5000     7.8130    -6.0880   106.1970     2.3970
 2781.0000     7.8140    -5.3380   106.2520     2.3750
 2781.5000     7.8150    -4.5890   106.2790     2.4930
 2782.0000     7.8160    -3.8390   107.2410     2.5580
 2782.5000     7.8180    -3.0890   109.9390     2.3700
 2783.0000     7.8190    -2.3400   112.3330     2.1840
 2783.5000     7.8200    -1.5900   112.2630     2.1900
 2784.0000     7.8210    -0.8410   112.2490     2.1960
 2784.5000     7.8220    -0.0910   113.0990     2.2050
 2785.0000     7.8240     0.6590   114.4850     2.1580
 2785.5000     7.8250     1.4080   115.8710     2.0590
 2786.0000     7.8260     2.1580   116.4660     2.0090
 2786.5000     7.8270     2.9070   116.0310     2.0090
 2787.0000     7.8280     3.6570   115.6100     2.0090
 2787.5000     7.8300     4.4070   115.2110     2.0090
 2788.0000     7.8310     5.1560   113.1850     2.0090
 2788.5000     7.8320     5.9060   110.5680     2.1020
 2789.0000     7.8330     6.6550   107.9530     2.2650
 2789.5000     7.8350     7.4050   106.7930     2.3400
 2790.0000     7.8370     8.1550   108.5190     2.3530
 2790.5000     7.8400     8.9040   110.2010     2.1750
 2791.0000     7.8420     9.6540   111.8260     2.0090
 2791.5000     7.8440    10.4030   112.3800  -999.2500
 2792.0000     7.8460    11.1530   113.9510  -999.2500
 2792.5000     7.8480    11.9030   116.9430  -999.2500
 2793.0000     7.8510    12.6520   119.9260  -999.2500
 2793.5000     7.8530    13.4020   121.5980  -999.2500
 2794.0000     7.8550    14.1510   121.8630  -999.2500
 2794.5000     7.8570    14.9010   122.1540  -999.2500
 2795.0000     7.8600    15.6500   122.0700  -999.2500
 2795.5000     7.8620    16.4000   119.1620  -999.2500
 2796.0000     7.8640    17.1500   115.6370  -999.2500
 2796.5000     7.8660    17.8990   117.7100  -999.2500
 2797.0000     7.8680    18.6490   123.8640  -999.2500
 2797.5000     7.8710    19.3980   127.8440  -999.2500
 2798.0000     7.8730    20.1480   128.0830  -999.2500
 2798.5000     7.8750    20.8980   123.3580  -999.2500
 2799.0000     7.8770    21.6470   118.5780  -999.2500
 2799.5000     7.8790    22.3970   114.8720  -999.2500
 2800.0000     7.8820    23.1460   116.2920  -999.2500
 2800.5000     7.8840    23.8960   118.5740  -999.2500
 2801.0000     7.8860    24.6460   120.9030  -999.2500
