~VERSION INFORMATION
 VERS.                2.0:   CWLS LOG ASCII STANDARD - VERSION 2.0
 WRAP.                 NO:   ONE LINE PER DEPTH STEP
~WELL INFORMATION
#MNEM.UNIT      DATA TYPE    INFORMATION
#----------   ------------   ------------------------------
 STRT.F            0.0000:   START DEPTH
 STOP.F         2775.5000:   STOP DEPTH
 STEP.F            0.5000:   STEP LENGTH
 NULL.          -999.2500:   NO VALUE
 COMP.          U.S. NAVY:   COMPANY
 WELL.   U.S. "A" #107-29:   WELL
 FLD .        TEAPOT DOME:   FIELD
 LOC .      S29 T39N R78W:   LOCATION
 CNTY.            NATRONA:   COUNTY
 STAT.            WYOMING:   STATE
 CTRY. UNITED STATES OF AMERICA:   COUNTRY
 SRVC.         MCCULLOUGH:   SERVICE COMPANY
 DATE.        07-SEP-1966:   LOGDATE
 API .     49025095920000:   API NUMBER
~CURVE INFORMATION
#MNEM.UNIT       API CODE    CURVE DESCRIPTION
#----------   ------------   ------------------------------
 DEPT.F                  :   
 GR  .GAPI   30 310 01 00:   GAMMA RAY
 CALI.IN     70 280 01 00:   CALIPER
~PARAMETER INFORMATION
#MNEM.UNIT          VALUE    DESCRIPTION
#----------   ------------   ------------------------------
 EKB .F            0.0000:   Kelly bushing
 EGL .F            0.0000:   Ground level
 EDF .F            0.0000:   Drilling floor
 EPD .F            0.0000:   Permanent datum
 TD  .F         2777.5000:   Total depth
 DATE.        07-SEP-1966:   Date logged
 CLNT.            A2DTECH:   Client Code
 PD  .                 GL:   Permanent Datum
 LMF .                 GL:   Log Measured From
 DMF .                 GL:   Drilling Measured From
 DL  .F            2777.5:   Depth logger
 BLI .F              2776:   Bottom log interval
 TLI .F              2200:   Top log interval
 CS1 .IN                5:   Casing size
 CBD1.         5" @ 2722':   Casing driller 1
 DFT .              WATER:   Type fluid in hole
 RMB .OHMM           .053:   Rm. at BHT
 TCS .HRS             1.5:   Time Circ. stopped
 LUN .               1460:   Logging unit number
 ENGI.        FITZSIMMONS:   Recorded By
 WITN.             TUTTLE:   Witnessed by
 ORIG.           5" PRINT:   Origin of data
 UWI .     49025095920000:   Unique Well ID
 DICO. A2D TECHNOLOGIES, INC.:   Digitizing Company
~OTHER INFORMATION
~A    DEPT      GR         CALI 
# ...
  850.5000  -999.2500     6.9050
  851.0000  -999.2500     6.9080
  851.5000  -999.2500     6.9120
  852.0000  -999.2500     6.9160
  852.5000  -999.2500     6.9200
  853.0000  -999.2500     6.9240
  853.5000  -999.2500     6.9230
  854.0000  -999.2500     6.9230
  854.5000  -999.2500     6.9220
  855.0000  -999.2500     6.9220
  855.5000  -999.2500     6.9210
  856.0000  -999.2500     6.9200
  856.5000  -999.2500     6.9200
  857.0000  -999.2500     6.9190
  857.5000  -999.2500     6.9190
  858.0000  -999.2500     6.9180
  858.5000  -999.2500     6.9170
  859.0000  -999.2500     6.9170
  859.5000  -999.2500     6.9160
  860.0000  -999.2500     6.9160
  860.5000  -999.2500     6.9150
  861.0000  -999.2500     6.9140
  861.5000  -999.2500     6.9150
  862.0000  -999.2500     6.9190
  862.5000  -999.2500     6.9230
  863.0000  -999.2500     6.9270
  863.5000  -999.2500     6.9310
  864.0000  -999.2500     6.9340
  864.5000  -999.2500     6.9380
  865.0000  -999.2500     6.9420
  865.5000  -999.2500     6.9430
  866.0000  -999.2500     6.9420
  866.5000  -999.2500     6.9420
  867.0000  -999.2500     6.9410
  867.5000  -999.2500     6.9400
  868.0000  -999.2500     6.9390
  868.5000  -999.2500     6.9380
  869.0000  -999.2500     6.9370
  869.5000  -999.2500     6.9360
  870.0000  -999.2500     6.9350
  870.5000  -999.2500     6.9350
  871.0000  -999.2500     6.9340
  871.5000  -999.2500     6.9450
  872.0000  -999.2500     6.9560
  872.5000  -999.2500     6.9670
  873.0000  -999.2500     6.9790
  873.5000  -999.2500     7.0020
  874.0000  -999.2500     7.0010
  874.5000  -999.2500     6.9980
  875.0000  -999.2500     6.9960
  875.5000  -999.2500     6.9930
  876.0000  -999.2500     7.0070
  876.5000  -999.2500     7.0240
  877.0000  -999.2500     7.0410
  877.5000  -999.2500     7.0500
  878.0000  -999.2500     7.0370
  878.5000  -999.2500     7.0040
  879.0000  -999.2500     6.9720
  879.5000  -999.2500     6.9390
  880.0000  -999.2500     6.9060
  880.5000  -999.2500     6.8830
  881.0000  -999.2500     6.8810
  881.5000  -999.2500     6.8780
  882.0000  -999.2500     6.8750
  882.5000  -999.2500     6.8730
  883.0000  -999.2500     6.8700
  883.5000  -999.2500     6.8670
  884.0000  -999.2500     6.8650
  884.5000  -999.2500     6.8670
  885.0000  -999.2500     6.8690
  885.5000  -999.2500     6.8710
  886.0000  -999.2500     6.8730
  886.5000  -999.2500     6.8750
  887.0000  -999.2500     6.8770
  887.5000  -999.2500     6.8790
  888.0000  -999.2500     6.8810
  888.5000  -999.2500     6.8830
  889.0000  -999.2500     6.8870
  889.5000  -999.2500     6.8970
  890.0000  -999.2500     6.9080
  890.5000  -999.2500     6.9140
  891.0000  -999.2500     6.9120
  891.5000  -999.2500     6.9110
  892.0000  -999.2500     6.9100
  892.5000  -999.2500     6.9090
  893.0000  -999.2500     6.9080
  893.5000  -999.2500     6.9070
  894.0000  -999.2500     6.9060
  894.5000  -999.2500     6.9050
  895.0000  -999.2500     6.9080
  895.5000  -999.2500     6.9200
  896.0000  -999.2500     6.9320
  896.5000  -999.2500     6.9430
  897.0000  -999.2500     6.9550
  897.5000  -999.2500     6.9660
  898.0000  -999.2500     6.9780
  898.5000  -999.2500     6.9910
  899.0000  -999.2500     6.9750
  899.5000  -999.2500     6.9630
  900.0000  -999.2500     6.9620
  900.5000  -999.2500     6.9600
  901.0000  -999.2500     6.9590
  901.5000  -999.2500     6.9570
  902.0000  -999.2500     6.9560
  902.5000  -999.2500     6.9550
  903.0000  -999.2500     6.9530
  903.5000  -999.2500     6.9490
  904.0000  -999.2500     6.9440
  904.5000  -999.2500     6.9390
  905.0000  -999.2500     6.9350
  905.5000  -999.2500     6.9300
  906.0000  -999.2500     6.9260
  906.5000  -999.2500     6.9210
  907.0000  -999.2500     6.9160
  907.5000  -999.2500     6.9150
  908.0000  -999.2500     6.9170
  908.5000  -999.2500     6.9190
  909.0000  -999.2500     6.9210
  909.5000  -999.2500     6.9230
  910.0000  -999.2500     6.9300
  910.5000  -999.2500     6.9420
  911.0000  -999.2500     6.9550
  911.5000  -999.2500     6.9670
  912.0000  -999.2500     6.9800
  912.5000  -999.2500     6.9830
  913.0000  -999.2500     6.9830
  913.5000  -999.2500     6.9830
  914.0000  -999.2500     6.9830
  914.5000  -999.2500     6.9830
  915.0000  -999.2500     6.9830
  915.5000  -999.2500     6.9830
  916.0000  -999.2500     6.9830
  916.5000  -999.2500     6.9930
  917.0000  -999.2500     7.0060
  917.5000  -999.2500     7.0200
  918.0000  -999.2500     7.0340
  918.5000  -999.2500     7.0600
  919.0000  -999.2500     7.0840
  919.5000  -999.2500     7.1090
  920.0000  -999.2500     7.1220
  920.5000  -999.2500     7.1040
  921.0000  -999.2500     7.0790
  921.5000  -999.2500     7.0540
  922.0000  -999.2500     7.0470
  922.5000  -999.2500     7.0410
  923.0000  -999.2500     7.0350
  923.5000  -999.2500     7.0020
  924.0000  -999.2500     6.9640
  924.5000  -999.2500     6.9630
  925.0000  -999.2500     6.9630
  925.5000  -999.2500     6.9630
  926.0000  -999.2500     6.9630
  926.5000  -999.2500     6.9630
  927.0000  -999.2500     6.9660
  927.5000  -999.2500     6.9690
  928.0000  -999.2500     6.9730
  928.5000  -999.2500     6.9900
  929.0000  -999.2500     7.0080
  929.5000  -999.2500     7.0260
  930.0000  -999.2500     7.0420
  930.5000  -999.2500     7.0430
  931.0000  -999.2500     7.0420
  931.5000  -999.2500     7.0420
  932.0000  -999.2500     7.0420
  932.5000  -999.2500     7.0420
  933.0000  -999.2500     7.0420
  933.5000  -999.2500     7.0420
  934.0000  -999.2500     7.0420
  934.5000  -999.2500     7.0420
  935.0000  -999.2500     7.0420
  935.5000  -999.2500     7.0420
  936.0000  -999.2500     7.0420
  936.5000  -999.2500     7.0430
  937.0000  -999.2500     7.0420
  937.5000  -999.2500     7.0420
  938.0000  -999.2500     7.0440
  938.5000  -999.2500     7.0820
  939.0000  -999.2500     7.0940
  939.5000  -999.2500     7.0970
  940.0000  -999.2500     7.0990
  940.5000  -999.2500     7.1020
  941.0000  -999.2500     7.1050
  941.5000  -999.2500     7.1080
  942.0000  -999.2500     7.1100
  942.5000  -999.2500     7.1130
  943.0000  -999.2500     7.1160
  943.5000  -999.2500     7.1180
  944.0000  -999.2500     7.1220
  944.5000  -999.2500     7.1530
  945.0000  -999.2500     7.1670
  945.5000  -999.2500     7.1590
  946.0000  -999.2500     7.1140
  946.5000  -999.2500     7.0700
  947.0000  -999.2500     7.0250
  947.5000  -999.2500     7.0150
  948.0000  -999.2500     7.0160
  948.5000  -999.2500     7.0180
  949.0000  -999.2500     7.0200
  949.5000  -999.2500     7.0220
  950.0000  -999.2500     7.0070
  950.5000  -999.2500     6.9750
  951.0000  -999.2500     6.9770
  951.5000  -999.2500     6.9800
  952.0000  -999.2500     6.9810
  952.5000  -999.2500     6.9710
  953.0000  -999.2500     6.9610
  953.5000  -999.2500     6.9520
  954.0000  -999.2500     6.9430
  954.5000  -999.2500     6.9330
  955.0000  -999.2500     6.9240
  955.5000  -999.2500     6.9150
  956.0000  -999.2500     6.9200
  956.5000  -999.2500     6.9270
  957.0000  -999.2500     6.9330
  957.5000  -999.2500     6.9390
  958.0000  -999.2500     6.9420
  958.5000  -999.2500     6.9370
  959.0000  -999.2500     6.9320
  959.5000  -999.2500     6.9270
  960.0000  -999.2500     6.9220
  960.5000  -999.2500     6.9170
  961.0000  -999.2500     6.9210
  961.5000  -999.2500     6.9400
  962.0000  -999.2500     6.9580
  962.5000  -999.2500     6.9730
  963.0000  -999.2500     6.9710
  963.5000  -999.2500     6.9680
  964.0000  -999.2500     6.9660
  964.5000  -999.2500     6.9640
  965.0000  -999.2500     6.9860
  965.5000  -999.2500     7.0090
  966.0000  -999.2500     7.0250
  966.5000  -999.2500     7.0320
  967.0000  -999.2500     7.0380
  967.5000  -999.2500     7.0370
  968.0000  -999.2500     7.0110
  968.5000  -999.2500     6.9490
  969.0000  -999.2500     6.8880
  969.5000  -999.2500     6.8240
  970.0000  -999.2500     6.8010
  970.5000  -999.2500     6.7930
  971.0000  -999.2500     6.7860
  971.5000  -999.2500     6.7790
