~VERSION INFORMATION
 VERS.                2.0:   CWLS LOG ASCII STANDARD - VERSION 2.0
 WRAP.                 NO:   ONE LINE PER DEPTH STEP
~WELL INFORMATION
#MNEM.UNIT      DATA TYPE    INFORMATION
#----------   ------------   ------------------------------
 STRT.F          240.0000:   START DEPTH
 STOP.F         2876.0000:   STOP DEPTH
 STEP.F            0.5000:   STEP LENGTH
 NULL.          -999.2500:   NO VALUE
 COMP.    FENIX & SCISSON:   COMPANY
 WELL. FENIX & SCISSON "A" #23-21:   WELL
 FLD .               NPR3:   FIELD
 LOC .      S21 T39N R78W:   LOCATION
 CNTY.            NATRONA:   COUNTY
 STAT.            WYOMING:   STATE
 CTRY. UNITED STATES OF AMERICA:   COUNTRY
 SRVC.              WELEX:   SERVICE COMPANY
 DATE.        05-MAR-1977:   LOGDATE
 API .     49025103030000:   API NUMBER
~CURVE INFORMATION
#MNEM.UNIT       API CODE    CURVE DESCRIPTION
#----------   ------------   ------------------------------
 DEPT.F                  :   
 GRD .GAPI   45 310 01 00:   GAMMA RAY FROM DENSITY LOG
 CALD.IN     45 280 60 00:   CALIPER FROM DENSITY LOG
 CORR.G/C3   45 356 01 00:   DENSITY CORRECTION
 RHOB.G/C3   45 350 01 00:   BULK DENSITY
 SPR .MV     07 010 01 00:   SPONTANEOUS POTENTIAL
 ILD .OHMM   07 120 46 00:   DEEP INDUCTION RESISTIVITY
 ILM .OHMM   07 120 44 00:   INDUCTION LOG MEDIUM RESISTIVITY
 SGRD.OHMM   07 220 05 00:   SHALLOW SHORT GUARD RESISTIVITY
~PARAMETER INFORMATION
#MNEM.UNIT          VALUE    DESCRIPTION
#----------   ------------   ------------------------------
 EKB .F         4986.0000:   Kelly bushing
 EGL .F         4976.0000:   Ground level
 TD  .F         2885.0000:   Total depth
 CLNT.            A2DTECH:   Client Code
 SL  . 990' FWL & 1650' FNL:   Surface Location
 DATE.        05-MAR-1977:   Date Logged [DD-MMM-YYYY]
 DD  .F              2885:   Depth driller
 DL  .F              2882:   Depth logger
 BLI .F              2876:   Bottom log interval
 TLI .F               238:   Top log interval
 CS1 .IN            8.625:   Casing size
 CBD1.      8.625" @ 251':   Casing driller 1
 CBL1.IN              251:   Casing logger 1
 BS1 .IN            7.875:   Bit size
 BSD1.F              2885:   Depth drilled with bit1
 DFT .                KCL:   Type fluid in hole
 DFD .                9.5:   Density
 TCS .HRS               3:   Time Circ. stopped
 MRT .F                78:   Maximum recorded temp.
 ENGI.          D. LAWSON:   Recorded By
 WITN.            K. JAPP:   Witnessed by
 ORIG.         2.5" PRINT:   Origin of data
 UWI .     49025103030000:   Unique Well ID
 DICO. A2D TECHNOLOGIES,INC.:   Digitizing Company
 PD  .                 GL:   Permanent Datum
 EPD .               4976:   Elevation Permanent Datum
 LMF .                 KB:   Log Measured From
 DMF .                 KB:   Drilling Measured From
 DAPD.                 10:   Feet Above Permanent Datum
 DFL .                8.8:   Fluid loss
 MSS .           FLOWLINE:   Source of sample
 RMS .OHMM            .40:   Rm
 MST .F                58:   Rm Meas. temp.
 RMF .OHMM            .37:   Rmf
 MFST.F                58:   Rmf Meas. temp.
 MFSS.OHMM            .67:   Source Rmf.
 MCST.F                58:   Rmc Meas. temp.
 MCSS.               MEAS:   Source Rmc.
 RMB .OHMM            .30:   Rm. at BHT
 BHT .F                78:   BHT.
~OTHER INFORMATION
~A   DEPT       GRD        CALD      CORR        RHOB      SPR        ILD        ILM       SGRD   
# ...
 1455.0000   139.8682     8.3559     0.0066     2.5165   -49.3177     5.6434     7.8205     9.9409
 1455.5000   141.9718     8.3562     0.0037     2.5060   -49.3194     5.5992     7.7124    10.0786
 1456.0000   142.7979     8.3565    -0.0053     2.4926   -49.3210     5.6003     7.3989     9.8030
 1456.5000   142.7962     8.3568    -0.0113     2.4777   -49.3227     5.5715     7.3978     9.1474
 1457.0000   143.0882     8.3571    -0.0129     2.4733   -49.3243     5.5257     7.3968     8.8972
 1457.5000   142.9865     8.3574    -0.0098     2.4837   -49.3260     5.5271     7.4985     8.6539
 1458.0000   139.5137     8.3577    -0.0068     2.4928   -49.3276     5.5282     7.6017     8.5345
 1458.5000   136.4179     8.3580    -0.0052     2.5017   -49.3293     5.5294     7.7062     8.7732
 1459.0000   135.4577     8.3583    -0.0022     2.5077   -49.3309     5.5305     7.8121     9.2716
 1459.5000   137.5393     8.3586     0.0024     2.5152   -49.3326     5.5317     7.8108     9.6636
 1460.0000   143.8411     8.3589     0.0054     2.5211   -49.3342     5.5328     7.8099     9.9340
 1460.5000   148.6925     8.3592     0.0100     2.5240   -49.3359     5.5340     7.7019    10.0716
 1461.0000   150.3344     8.3594     0.0145     2.5241   -49.3375     5.5351     7.7009     9.6616
 1461.5000   152.1655     8.3597     0.0175     2.5273   -49.3392     5.5363     7.6998     9.1410
 1462.0000   150.1506     8.3600     0.0176     2.5335   -49.3408     5.5374     7.6987     9.1404
 1462.5000   147.4705     8.3603     0.0176     2.5423   -49.3424     5.5385     7.6977     9.1398
 1463.0000   144.8298     8.3606     0.0176     2.5481   -49.3441     5.5397     7.6966     9.2664
 1463.5000   142.7755     8.3609     0.0177     2.5509   -49.3457     5.5620     7.6955     9.3949
 1464.0000   142.4808     8.3612     0.0177     2.5492   -49.3474     5.6189     7.6945     9.5250
 1464.5000   142.4794     8.3615     0.0178     2.5446   -49.3490     5.6201     7.6935     9.3935
 1465.0000   142.4779     8.3618     0.0148     2.5405   -49.3507     5.6213     7.6924     9.1367
 1465.5000   142.4764     8.3621     0.0119     2.5387   -49.3523     5.6224     7.6913     8.8665
 1466.0000   142.4750     8.3624     0.0119     2.5372   -49.3540     5.7016     7.6903     8.6438
 1466.5000   142.1803     8.3627     0.0090     2.5353   -49.3556     5.7207     7.6892     8.8319
 1467.0000   140.7125     8.3630     0.0060     2.5308   -49.3573     5.7832     7.6881     9.2037
 1467.5000   141.0043     8.3632     0.0061     2.5237   -49.3589     5.7844     7.6871     9.4594
 1468.0000   143.0556     8.3635     0.0061     2.5174   -49.3606     5.7856     7.6860     9.6523
 1468.5000   144.8137     8.3638     0.0032     2.5091   -49.3622     5.7868     7.7917     9.6517
 1469.0000   145.3988     8.3641    -0.0028     2.4971   -49.3639     5.7880     7.7906     9.6511
 1469.5000   145.3973     8.3644    -0.0057     2.4807   -49.3655     5.7892     7.7895     9.5867
 1470.0000   145.6891     8.3647    -0.0087     2.4746   -49.3672     5.7904     7.7884     9.6497
 1470.5000   148.0337     8.3650    -0.0086     2.4730   -49.3688     5.7916     7.7873     9.5889
 1471.0000   147.1525     8.3653    -0.0086     2.4695   -49.3705     5.7928     7.7863     9.5159
 1471.5000   145.3885     8.3656    -0.0085     2.4660   -49.3721     5.7940     7.7852     9.4594
 1472.0000   139.2317     8.3659    -0.0055     2.4715   -49.3737     5.7952     7.7841     9.2025
 1472.5000   141.3270     8.3662    -0.0055     2.4791   -49.3754     5.8064     7.7830     9.1272
 1473.0000   145.4830     8.3665    -0.0054     2.4856   -49.3770     5.8781     7.7820     9.1266
 1473.5000   149.2829     8.3668    -0.0054     2.4925   -49.3787     5.8793     7.7809     9.1734
 1474.0000   151.7108     8.3671    -0.0053     2.4995   -49.3803     5.8805     7.7798     9.2988
 1474.5000   153.1818     8.3673    -0.0053     2.5039   -49.3820     5.8817     7.8869     9.3807
 1475.0000   151.2254     8.3676    -0.0052     2.5076   -49.3836     5.8830     7.7777     9.5107
 1475.5000   149.1086     8.3679    -0.0052     2.5108   -49.3853     5.8841     7.7766     9.5523
 1476.0000   147.3372     8.3682    -0.0051     2.5158   -49.3869     5.8853     7.7756     9.6418
 1476.5000   144.9793     8.3685    -0.0021     2.5234   -49.3886     5.8865     7.7745     9.6410
 1477.0000   143.6158     8.3688    -0.0021     2.5257   -49.3902     5.8878     7.7953     9.6033
 1477.5000   144.3255     8.3691     0.0010     2.5257   -49.3919     5.9707     7.9012     9.5073
 1478.0000   145.8006     8.3694     0.0010     2.5228   -49.3935     5.9720     8.0995     9.5066
 1478.5000   146.9834     8.3649     0.0041     2.5161   -49.3952     5.9732     8.1172     9.5378
 1479.0000   146.5307     8.3406     0.0041     2.5063   -49.3968     5.9745     8.2097     9.6378
 1479.5000   144.7689     8.3409     0.0041     2.4959   -49.3985     5.9757     8.2085     9.6370
 1480.0000   143.7439     8.3411     0.0072     2.5028   -49.4001     5.9769     8.2073     9.6632
 1480.5000   144.0587     8.3414     0.0132     2.5104   -49.4018     5.9782     8.1926     9.7699
 1481.0000   145.2667     8.3417     0.0163     2.5178   -49.4034     5.9794     8.0805     9.7692
 1481.5000   146.2820     8.3420     0.0163     2.5269   -49.4051     5.9807     7.9701     9.7903
 1482.0000   147.4605     8.3424     0.0163     2.5335   -49.4067     5.9819     7.7627     9.9039
 1482.5000   147.5975     8.3502     0.0164     2.5380   -49.4083     5.9832     7.7537     9.9032
 1483.0000   143.3047     8.3724     0.0134     2.5407   -49.4100     5.9844     7.6543     9.9025
 1483.5000   140.9572     8.3432     0.0135     2.5363   -49.4116     5.9856     7.6533     9.9018
 1484.0000   139.4895     8.3435     0.0135     2.5303   -49.4133     5.9869     7.6564     9.9012
 1484.5000   140.3678     8.3438     0.0105     2.5214   -49.4149     5.9881     7.7574    10.0383
 1485.0000   142.7124     8.3441     0.0075     2.5124   -49.4166     5.9894     7.7563    10.0469
 1485.5000   144.4704     8.3444     0.0046     2.5050   -49.4182     5.9906     7.9726    10.1767
 1486.0000   144.1757     8.3447     0.0015     2.4990   -49.4199     5.9919     8.0816    10.1760
 1486.5000   144.7608     8.3450    -0.0042     2.4931   -49.4215     5.9931     8.1927    10.1753
 1487.0000   147.6919     8.3560    -0.0072     2.4871   -49.4232     5.9943     8.1915    10.1728
 1487.5000   149.0347     8.3750    -0.0071     2.4797   -49.4248     5.9956     8.1904    10.0341
 1488.0000   145.6362     8.3753    -0.0068     2.4782   -49.4265     5.9968     8.1892    10.0334
 1488.5000   142.9954     8.3756    -0.0037     2.4827   -49.4281     5.9981     8.1881    10.0328
 1489.0000   139.1816     8.3759     0.0023     2.4916   -49.4298     5.9993     8.1870    10.0321
 1489.5000   138.5937     8.3762     0.0054     2.4991   -49.4314     6.0006     8.1858    10.0314
 1490.0000   138.2990     8.3765     0.0081     2.5051   -49.4331     6.0018     8.0726    10.0307
 1490.5000   138.2975     8.3767     0.0111     2.5110   -49.4347     6.0031     8.0715    10.0300
 1491.0000   140.0556     8.3770     0.0112     2.5200   -49.4397     6.0043     7.9599    10.0293
 1491.5000   142.9866     8.3773     0.0112     2.5289   -49.4488     5.9232     7.8498     9.8908
 1492.0000   144.7447     8.3776     0.0113     2.5364   -49.4579     5.9246     7.8487     9.7543
 1492.5000   143.2770     8.3779     0.0113     2.5379   -49.4670     5.8446     7.8476     9.6197
 1493.0000   140.9295     8.3783     0.0107     2.5319   -49.4761     5.8459     7.8465     9.3566
 1493.5000   138.8753     8.3786     0.0084     2.5230   -49.4851     5.8471     7.8454     9.2274
 1494.0000   137.1143     8.3788     0.0084     2.5156   -49.4942     5.7681     7.8444     9.2268
 1494.5000   136.2330     8.3791     0.0055     2.5096   -49.5033     5.7694     7.8433     9.2262
 1495.0000   136.5248     8.3794     0.0018     2.5037   -49.5124     5.7706     7.8422     9.2255
