~VERSION INFORMATION
 VERS.                2.0:   CWLS LOG ASCII STANDARD - VERSION 2.0
 WRAP.                 NO:   ONE LINE PER DEPTH STEP
~WELL INFORMATION
#MNEM.UNIT      DATA TYPE    INFORMATION
#----------   ------------   ------------------------------
 STRT.F          200.0000:   START DEPTH
 STOP.F         3000.0000:   STOP DEPTH
 STEP.F            0.5000:   STEP LENGTH
 NULL.          -999.2500:   NO VALUE
 COMP.    FENIX & SCISSON:   COMPANY
 WELL.   FENIX "A" #65-28:   WELL
 FLD .              NPR 3:   FIELD
 LOC .      S28 T39N R78W:   LOCATION
 CNTY.            NATRONA:   COUNTY
 STAT.            WYOMING:   STATE
 CTRY. UNITED STATES OF AMERICA:   COUNTRY
 SRVC.              WELEX:   SERVICE COMPANY
 DATE.        25-JUL-1977:   LOGDATE
 API .     49025104010000:   API NUMBER
~CURVE INFORMATION
#MNEM.UNIT       API CODE    CURVE DESCRIPTION
#----------   ------------   ------------------------------
 DEPT.F                  :   
 GRD .GAPI   45 310 01 00:   GAMMA RAY FROM DENSITY LOG
 CALD.IN     45 280 60 00:   CALIPER FROM DENSITY LOG
 RHOB.G/C3   45 350 01 00:   BULK DENSITY
 DCOR.G/C3   45 356 01 00:   DENSITY CORRECTION
 SPR .MV     07 010 01 00:   SPONTANEOUS POTENTIAL
 RILM.OHMM   07 120 44 00:   INDUCTION LOG MEDIUM RESISTIVITY
 RILD.OHMM   07 120 46 00:   DEEP INDUCTION RESISTIVITY
 SGRD.OHMM   07 220 05 00:   SHALLOW GUARD
~PARAMETER INFORMATION
#MNEM.UNIT          VALUE    DESCRIPTION
#----------   ------------   ------------------------------
 EKB .F         5069.0000:   Kelly bushing
 EGL .F         5059.0000:   Ground level
 EDF .F            0.0000:   Drilling floor
 TD  .F         3006.0000:   Total depth
 DATE.        25-JUL-1977:   Date logged
 CLNT.            A2DTECH:   Client Code
 SL  . 2310' FSL & 1650' FEL:   Surface Location
 PD  .                 GL:   Permanent Datum
 EPD .F              5059:   Elevation Permanent Datum
 LMF .                 KB:   Log Measured From
 DMF .                 KB:   Drilling Measured From
 DAPD.F                10:   Feet Above Permanent Datum
 DD  .F              3006:   Depth driller
 DL  .F              3006:   Depth logger
 BLI .F              3004:   Bottom log interval
 TLI .F               200:   Top log interval
 CS1 .IN            8.625:   Casing size
 CBD1.      8.625" @ 205':   Casing driller 1
 CBL1.F               220:   Casing logger 1
 BS1 .IN            7.875:   Bit size
 BSD1.F              3006:   Depth drilled with bit1
 DFT .            KCL MUD:   Type fluid in hole
 DFD .                8.9:   Density
 DFV .                 39:   Viscosity
 DFPH.                7.5:   pH
 DFL .                7.2:   Fluid loss
 MSS .           FLOWLINE:   Source of sample
 RMS .OHMM           0.29:   Rm
 MST .F                78:   Rm Meas. temp.
 RMF .OHMM           0.19:   Rmf
 MFST.F                78:   Rmf Meas. temp.
 RMC .OHMM           0.80:   Rmc
 MCST.F                78:   Rmc Meas. temp.
 MFSS.               FANN:   Source Rmf.
 MCSS.                KIT:   Source Rmc.
 RMB .OHMM           0.20:   Rm. at BHT
 BHT .F               113:   BHT.
 TCS .HRS               3:   Time Circ. stopped
 MRT .F               113:   Maximum recorded temp.
 LUN .               8766:   Logging unit number
 LUL .             CASPER:   Logging unit location
 ENGI.         G. BENTSEN:   Recorded By
 WITN.      B. HARRINGTON:   Witnessed by
 ORIG.           5" PRINT:   Origin of data
 UWI .     49025104010000:   Unique Well ID
 DICO. A2D TECHNOLOGIES, INC.:   Digitizing Company
~OTHER INFORMATION
~A   DEPT       GRD        CALD       RHOB      DCOR       SPR       RILM         RILD       SGRD 
# ...
 2022.5000    68.1930     8.5750     2.4680     0.0240   -41.3400     8.8840     8.0670    13.8040
 2023.0000    66.5350     8.5780     2.4720     0.0250   -41.3860     8.4190     8.0210    13.6780
 2023.5000    63.7400     8.5810     2.4760     0.0270   -41.3350     8.4850     7.9760    13.5640
 2024.0000    66.8070     8.5830     2.4740     0.0290   -41.2210     8.5450     7.9310    13.4490
 2024.5000    69.6470     8.5860     2.4720     0.0310   -41.1070     8.6540     7.8850    13.3350
 2025.0000    67.6790     8.5890     2.4720     0.0310   -40.9930     8.5250     7.8400    13.1860
 2025.5000    65.7920     8.5920     2.4700     0.0280   -40.8790     8.4190     7.7940    13.3440
 2026.0000    63.9630     8.5950     2.4600     0.0240   -40.7960     8.5760     7.7540    13.5700
 2026.5000    62.2650     8.5930     2.4570     0.0210   -40.7640     8.7500     7.8710    13.7960
 2027.0000    63.1500     8.5900     2.4610     0.0180   -40.7310     8.9240     7.9780    14.0210
 2027.5000    64.1160     8.5880     2.4670     0.0230   -40.6980     9.2740     8.0850    14.2470
 2028.0000    63.4250     8.5860     2.4790     0.0290   -40.6650     9.5710     8.3200    14.4500
 2028.5000    61.9140     8.5830     2.4890     0.0340   -40.6330     9.3920     8.6110    14.5670
 2029.0000    65.3310     8.5810     2.4980     0.0350   -40.6550     9.2290     8.8140    14.6730
 2029.5000    63.2840     8.5780     2.5020     0.0350   -40.7600     9.0660     8.5120    14.7790
 2030.0000    62.1090     8.5760     2.5030     0.0280   -40.8640     8.9040     8.2790    14.8530
 2030.5000    63.9050     8.5750     2.5070     0.0300   -40.9690     8.7410     8.1030    14.4210
 2031.0000    65.7340     8.5740     2.5120     0.0280   -41.0730     8.5780     8.0570    14.1880
 2031.5000    65.1710     8.5720     2.5160     0.0310   -41.1770     8.4970     8.0110    13.7650
 2032.0000    64.2980     8.5710     2.5200     0.0280   -41.2820     8.5820     7.9690    13.3800
 2032.5000    63.4190     8.5700     2.5210     0.0230   -41.3900     8.6480     8.0370    12.9950
 2033.0000    62.5450     8.5690     2.5220     0.0220   -41.2660     8.7340     8.1170    12.6100
 2033.5000    61.6520     8.5680     2.5230     0.0240   -41.1020     8.5660     7.9350    12.2250
 2034.0000    62.1990     8.5670     2.5210     0.0260   -40.9360     8.3270     7.6760    11.9230
 2034.5000    63.2630     8.5660     2.5190     0.0250   -40.7690     8.0880     7.4170    12.1240
 2035.0000    64.4290     8.5650     2.5170     0.0240   -40.6260     7.8250     7.2860    12.4110
 2035.5000    63.7820     8.5640     2.5150     0.0280   -40.8670     7.9690     7.2090    12.6980
 2036.0000    62.8620     8.5630     2.5150     0.0310   -41.1180     9.3670     7.1400    12.9850
 2036.5000    61.9850     8.5620     2.5170     0.0350   -41.3690     9.7480     7.2630    13.1860
 2037.0000    63.0690     8.5610     2.5200     0.0380   -41.3330     8.9810     7.3740    12.8960
 2037.5000    64.2860     8.5600     2.5240     0.0380   -41.2490     8.4190     7.4750    12.7660
 2038.0000    65.4510     8.5580     2.5280     0.0420   -41.1640     8.7780     7.4990    12.6770
 2038.5000    63.1490     8.5570     2.5280     0.0450   -41.0800     8.9770     7.5220    12.5960
 2039.0000    62.5230     8.5560     2.5220     0.0410   -40.9970     8.0470     7.5440    12.1640
 2039.5000    64.0150     8.5550     2.5160     0.0380   -40.9130     7.6130     7.5660    11.7720
 2040.0000    61.7390     8.5570     2.5110     0.0370   -40.8290     7.9970     7.5880    11.3790
 2040.5000    64.0140     8.5580     2.5080     0.0410   -40.7450     8.0350     7.6130    11.0810
 2041.0000    66.2790     8.5600     2.5070     0.0410   -40.6610     8.0740     7.5680    12.0190
 2041.5000    68.1430     8.5610     2.5080     0.0400   -40.5770     8.1170     7.5030    12.7400
 2042.0000    64.3810     8.5630     2.5100     0.0420   -40.4920     8.0430     7.4390    13.6780
 2042.5000    63.6160     8.5650     2.5140     0.0460   -40.4200     8.3390     7.4070    13.5690
 2043.0000    65.7470     8.5660     2.5180     0.0500   -40.4950     8.7620     7.6310    13.3070
 2043.5000    61.6110     8.5680     2.5220     0.0480   -40.5730     9.2270     7.7800    13.6260
 2044.0000    58.7960     8.5700     2.5250     0.0470   -40.6490    10.0190     8.1470    14.0800
 2044.5000    59.2730     8.5710     2.5290     0.0500   -40.7260    10.1110     8.6540    14.5350
 2045.0000    60.7620     8.5730     2.5290     0.0540   -40.8040     9.7600     8.7740    15.1270
 2045.5000    63.1400     8.5740     2.5270     0.0480   -40.6970     9.4900     8.8950    14.9890
 2046.0000    64.7750     8.5740     2.5200     0.0420   -40.5680     9.2200     8.6440    14.5760
 2046.5000    62.1850     8.5730     2.5140     0.0360   -40.4380     8.9770     8.4160    14.1180
 2047.0000    61.4230     8.5710     2.5080     0.0330   -40.3080     8.8450     8.1870    13.6590
 2047.5000    64.3060     8.5700     2.5040     0.0300   -40.2270     8.6540     7.9590    13.4300
 2048.0000    63.9780     8.5680     2.5000     0.0310   -40.4500     8.8140     7.7540    13.7280
 2048.5000    63.0180     8.5670     2.4960     0.0320   -40.6670     9.0780     8.0070    13.9270
 2049.0000    62.6060     8.5650     2.4950     0.0310   -40.8820     9.3710     8.2380    14.1260
 2049.5000    63.5690     8.5640     2.5010     0.0300   -41.0990     9.6640     8.4680    14.3250
 2050.0000    64.5160     8.5620     2.5060     0.0400   -41.2950     9.9280     8.8140    14.5830
 2050.5000    65.4750     8.5600     2.5090     0.0380   -41.4760     9.7390     8.7330    14.4090
 2051.0000    64.6320     8.5590     2.5030     0.0360   -41.6560     9.4700     8.5730    14.1500
 2051.5000    63.6150     8.5570     2.4970     0.0380   -41.8360     9.2010     8.4130    13.7940
 2052.0000    62.5650     8.5560     2.5010     0.0410   -41.9810     8.9320     8.2530    13.4380
 2052.5000    62.5000     8.5520     2.5060     0.0440   -41.7960     8.6630     8.0930    13.0820
 2053.0000    63.9320     8.5460     2.5090     0.0470   -41.6120     8.3940     7.9330    12.7260
 2053.5000    65.3610     8.5400     2.5110     0.0500   -41.7790     8.2670     7.7730    12.3700
 2054.0000    66.0430     8.5330     2.5120     0.0460   -41.9790     8.2670     7.6130    12.0140
 2054.5000    63.9140     8.5270     2.5110     0.0420   -42.1800     8.4180     7.4750    11.7060
 2055.0000    61.8740     8.5210     2.5090     0.0430   -42.3800     8.5800     7.5160    11.9930
 2055.5000    62.0710     8.5150     2.5090     0.0480   -42.2920     8.6810     7.5520    12.2450
 2056.0000    64.0520     8.5090     2.5150     0.0470   -42.1800     8.7340     7.5880    12.4980
 2056.5000    65.6270     8.5030     2.5210     0.0560   -42.0720     8.6000     7.6240    12.7220
 2057.0000    63.4080     8.4960     2.5200     0.0520   -42.0530     8.4590     7.6600    12.7870
 2057.5000    64.6280     8.4950     2.5130     0.0460   -42.2430     8.3190     7.6830    12.8290
 2058.0000    63.1340     8.4950     2.5010     0.0350   -42.4290     8.1780     7.6050    12.6520
 2058.5000    62.0870     8.4950     2.4890     0.0320   -42.5850     8.1080     7.5480    12.4600
 2059.0000    63.3610     8.4950     2.4820     0.0280   -42.5170     8.0850     7.4910    12.2190
 2059.5000    64.5980     8.4950     2.4840     0.0290   -42.4530     8.0620     7.4340    11.9790
 2060.0000    64.2570     8.4950     2.4890     0.0380   -42.3890     8.0430     7.3760    11.7380
 2060.5000    62.0090     8.4950     2.4940     0.0320   -42.3250     8.0430     7.3190    11.4940
 2061.0000    61.8700     8.4950     2.4940     0.0340   -42.2590     8.0430     7.2620    11.6120
 2061.5000    60.4380     8.4950     2.4880     0.0360   -42.2000     8.0190     7.2050    11.7310
 2062.0000    58.9190     8.4950     2.4800     0.0290   -42.4170     7.8950     7.1480    11.8510
 2062.5000    57.3640     8.4950     2.4720     0.0310   -42.6560     7.7710     7.0900    11.9230
